3UCubedIntegratedSim/Reports & Plots/NorthCusp LTAN CSV/LTANNoon.csv

Number,Coverage Start (UTCG),Coverage End (UTCG),Duration (sec),Percent,
1,2025-01-01 16:15:51,2025-01-01 16:17:13,82.301,0.026%,
2,2025-01-01 16:17:16,2025-01-01 16:20:19,183.104,0.058%,
3,2025-01-01 16:20:54,2025-01-01 16:21:03,8.538,0.003%,
4,2025-01-01 17:50:35,2025-01-01 17:55:42,307.412,0.098%,
5,2025-01-01 19:25:21,2025-01-01 19:26:02,40.721,0.013%,
6,2025-01-01 19:26:07,2025-01-01 19:30:05,237.872,0.075%,
7,2025-01-01 19:30:08,2025-01-01 19:30:19,10.699,0.003%,
8,2025-01-01 21:00:10,2025-01-01 21:04:47,276.445,0.088%,
9,2025-01-01 22:34:58,2025-01-01 22:39:28,270.813,0.086%,
10,2025-01-02 00:09:37,2025-01-02 00:14:09,272.184,0.086%,
11,2025-01-02 01:44:18,2025-01-02 01:48:50,271.144,0.086%,
12,2025-01-02 03:19:01,2025-01-02 03:20:25,83.502,0.027%,
13,2025-01-02 03:20:26,2025-01-02 03:23:29,182.921,0.058%,
14,2025-01-02 03:23:59,2025-01-02 03:24:13,14.449,0.005%,
15,2025-01-02 04:53:46,2025-01-02 04:58:52,306.762,0.097%,
16,2025-01-02 06:28:32,2025-01-02 06:29:12,39.791,0.013%,
17,2025-01-02 06:29:17,2025-01-02 06:33:15,238.143,0.076%,
18,2025-01-02 06:33:20,2025-01-02 06:33:28,8.303,0.003%,
19,2025-01-02 08:03:22,2025-01-02 08:07:57,275.351,0.087%,
20,2025-01-02 09:38:08,2025-01-02 09:42:39,271.062,0.086%,
21,2025-01-02 11:12:47,2025-01-02 11:17:20,272.184,0.086%,
22,2025-01-02 12:47:29,2025-01-02 12:52:00,270.913,0.086%,
23,2025-01-02 14:22:12,2025-01-02 14:26:39,266.934,0.085%,
24,2025-01-02 14:27:03,2025-01-02 14:27:23,20.415,0.007%,
25,2025-01-02 15:56:56,2025-01-02 16:02:03,306.072,0.097%,
26,2025-01-02 17:31:43,2025-01-02 17:32:23,40.261,0.013%,
27,2025-01-02 17:32:28,2025-01-02 17:36:26,238.398,0.076%,
28,2025-01-02 17:36:32,2025-01-02 17:36:37,4.786,0.002%,
29,2025-01-02 19:06:34,2025-01-02 19:11:08,274.137,0.087%,
30,2025-01-02 20:41:18,2025-01-02 20:43:13,114.745,0.036%,
31,2025-01-02 20:43:13,2025-01-02 20:45:49,156.299,0.050%,
32,2025-01-02 22:15:58,2025-01-02 22:20:30,272.167,0.086%,
33,2025-01-02 23:50:39,2025-01-02 23:55:10,270.657,0.086%,
34,2025-01-03 01:25:23,2025-01-03 01:29:49,266.362,0.085%,
35,2025-01-03 01:30:07,2025-01-03 01:30:34,26.457,0.008%,
36,2025-01-03 03:00:07,2025-01-03 03:05:13,305.331,0.097%,
37,2025-01-03 04:34:54,2025-01-03 04:35:35,41.302,0.013%,
38,2025-01-03 04:35:38,2025-01-03 04:39:36,238.627,0.076%,
39,2025-01-03 06:09:45,2025-01-03 06:14:18,272.77,0.087%,
40,2025-01-03 07:44:28,2025-01-03 07:46:23,114.854,0.036%,
41,2025-01-03 07:46:24,2025-01-03 07:49:00,155.787,0.049%,
42,2025-01-03 09:19:08,2025-01-03 09:23:40,272.124,0.086%,
43,2025-01-03 10:53:50,2025-01-03 10:58:20,270.381,0.086%,
44,2025-01-03 12:28:33,2025-01-03 12:32:59,265.744,0.084%,
45,2025-01-03 12:33:11,2025-01-03 12:33:44,32.566,0.010%,
46,2025-01-03 14:03:18,2025-01-03 14:08:23,304.547,0.097%,
47,2025-01-03 15:38:05,2025-01-03 15:38:47,42.034,0.013%,
48,2025-01-03 15:38:48,2025-01-03 15:42:47,238.839,0.076%,
49,2025-01-03 17:12:57,2025-01-03 17:17:29,271.185,0.086%,
50,2025-01-03 18:47:38,2025-01-03 18:52:10,271.641,0.086%,
51,2025-01-03 20:22:19,2025-01-03 20:26:51,272.06,0.086%,
52,2025-01-03 21:57:00,2025-01-03 22:01:31,270.07,0.086%,
53,2025-01-03 23:31:44,2025-01-03 23:36:09,265.078,0.084%,
54,2025-01-03 23:36:15,2025-01-03 23:36:54,38.761,0.012%,
55,2025-01-04 01:06:29,2025-01-04 01:07:14,44.825,0.014%,
56,2025-01-04 01:07:15,2025-01-04 01:11:33,257.97,0.082%,
57,2025-01-04 02:41:16,2025-01-04 02:45:57,280.97,0.089%,
58,2025-01-04 04:16:10,2025-01-04 04:20:39,269.25,0.085%,
59,2025-01-04 05:50:48,2025-01-04 05:55:20,271.787,0.086%,
60,2025-01-04 07:25:29,2025-01-04 07:30:01,271.976,0.086%,
61,2025-01-04 09:00:11,2025-01-04 09:01:34,83.293,0.026%,
62,2025-01-04 09:01:35,2025-01-04 09:04:41,185.556,0.059%,
63,2025-01-04 10:34:55,2025-01-04 10:39:19,264.359,0.084%,
64,2025-01-04 10:39:19,2025-01-04 10:40:04,45.031,0.014%,
65,2025-01-04 12:09:40,2025-01-04 12:10:24,44.146,0.014%,
66,2025-01-04 12:10:26,2025-01-04 12:14:43,256.321,0.081%,
67,2025-01-04 13:44:28,2025-01-04 13:49:08,280.246,0.089%,
68,2025-01-04 15:19:20,2025-01-04 15:23:49,269.435,0.085%,
69,2025-01-04 16:53:59,2025-01-04 16:58:31,271.914,0.086%,
70,2025-01-04 18:28:39,2025-01-04 18:33:11,271.869,0.086%,
71,2025-01-04 20:03:22,2025-01-04 20:04:45,82.992,0.026%,
72,2025-01-04 20:04:47,2025-01-04 20:07:51,184.203,0.058%,
73,2025-01-04 21:38:05,2025-01-04 21:43:15,309.304,0.098%,
74,2025-01-04 23:12:51,2025-01-04 23:13:34,43.432,0.014%,
75,2025-01-04 23:13:38,2025-01-04 23:17:36,238.18,0.076%,
76,2025-01-04 23:17:36,2025-01-04 23:17:53,16.17,0.005%,
77,2025-01-05 00:47:39,2025-01-05 00:52:18,279.468,0.089%,
78,2025-01-05 02:22:30,2025-01-05 02:27:00,269.807,0.086%,
79,2025-01-05 03:57:09,2025-01-05 04:01:41,272.011,0.086%,
80,2025-01-05 05:31:50,2025-01-05 05:36:22,271.738,0.086%,
81,2025-01-05 07:06:32,2025-01-05 07:07:55,82.658,0.026%,
82,2025-01-05 07:07:58,2025-01-05 07:11:01,183.397,0.058%,
83,2025-01-05 08:41:16,2025-01-05 08:45:20,243.668,0.077%,
84,2025-01-05 08:45:20,2025-01-05 08:46:25,64.414,0.020%,
85,2025-01-05 10:16:02,2025-01-05 10:16:44,42.665,0.014%,
86,2025-01-05 10:16:50,2025-01-05 10:20:47,237.162,0.075%,
87,2025-01-05 10:20:48,2025-01-05 10:21:02,14.743,0.005%,
88,2025-01-05 11:50:50,2025-01-05 11:55:29,278.633,0.088%,
89,2025-01-05 13:25:40,2025-01-05 13:30:10,270.142,0.086%,
90,2025-01-05 15:00:19,2025-01-05 15:04:51,272.089,0.086%,
91,2025-01-05 16:35:00,2025-01-05 16:39:32,271.584,0.086%,
92,2025-01-05 18:09:43,2025-01-05 18:11:05,82.29,0.026%,
93,2025-01-05 18:11:08,2025-01-05 18:14:11,183.289,0.058%,
94,2025-01-05 19:44:27,2025-01-05 19:48:30,243.367,0.077%,
95,2025-01-05 19:48:31,2025-01-05 19:49:35,64.32,0.020%,
96,2025-01-05 21:19:13,2025-01-05 21:19:54,41.857,0.013%,
97,2025-01-05 21:20:00,2025-01-05 21:23:57,237.482,0.075%,
98,2025-01-05 21:23:59,2025-01-05 21:24:12,13.155,0.004%,
99,2025-01-05 22:54:01,2025-01-05 22:58:39,277.735,0.088%,
100,2025-01-06 00:28:50,2025-01-06 00:33:21,270.453,0.086%,
101,2025-01-06 02:03:30,2025-01-06 02:08:02,272.142,0.086%,
102,2025-01-06 03:38:11,2025-01-06 03:42:42,271.412,0.086%,
103,2025-01-06 05:12:53,2025-01-06 05:14:15,81.893,0.026%,
104,2025-01-06 05:14:18,2025-01-06 05:17:21,183.152,0.058%,
105,2025-01-06 06:47:37,2025-01-06 06:52:45,307.601,0.098%,
106,2025-01-06 08:22:24,2025-01-06 08:23:05,40.994,0.013%,
107,2025-01-06 08:23:10,2025-01-06 08:27:08,237.782,0.075%,
108,2025-01-06 08:27:11,2025-01-06 08:27:22,11.32,0.004%,
109,2025-01-06 09:57:13,2025-01-06 10:01:50,276.762,0.088%,
110,2025-01-06 11:32:00,2025-01-06 11:36:31,270.735,0.086%,
111,2025-01-06 13:06:40,2025-01-06 13:11:12,272.176,0.086%,
112,2025-01-06 14:41:21,2025-01-06 14:45:52,271.208,0.086%,
113,2025-01-06 16:16:04,2025-01-06 16:17:27,83.159,0.026%,
114,2025-01-06 16:17:29,2025-01-06 16:20:32,182.98,0.058%,
115,2025-01-06 17:50:48,2025-01-06 17:55:55,306.963,0.097%,
116,2025-01-06 19:25:35,2025-01-06 19:26:15,40.085,0.013%,
117,2025-01-06 19:26:20,2025-01-06 19:30:18,238.061,0.076%,
118,2025-01-06 19:30:22,2025-01-06 19:30:31,9.102,0.003%,
119,2025-01-06 21:00:24,2025-01-06 21:05:00,275.697,0.087%,
120,2025-01-06 22:35:10,2025-01-06 22:39:41,270.986,0.086%,
121,2025-01-07 00:09:50,2025-01-07 00:14:22,272.189,0.086%,
122,2025-01-07 01:44:32,2025-01-07 01:49:03,270.986,0.086%,
123,2025-01-07 03:19:15,2025-01-07 03:20:39,84.221,0.027%,
124,2025-01-07 03:20:39,2025-01-07 03:23:42,182.774,0.058%,
125,2025-01-07 04:53:59,2025-01-07 04:59:05,306.287,0.097%,
126,2025-01-07 06:28:46,2025-01-07 06:29:25,39.853,0.013%,
127,2025-01-07 06:29:30,2025-01-07 06:33:29,238.318,0.076%,
128,2025-01-07 06:33:34,2025-01-07 06:33:40,6.081,0.002%,
129,2025-01-07 08:03:36,2025-01-07 08:08:10,274.523,0.087%,
130,2025-01-07 09:38:21,2025-01-07 09:42:52,271.21,0.086%,
131,2025-01-07 11:13:01,2025-01-07 11:17:33,272.173,0.086%,
132,2025-01-07 12:47:42,2025-01-07 12:52:13,270.738,0.086%,
133,2025-01-07 14:22:25,2025-01-07 14:26:52,266.542,0.085%,
134,2025-01-07 15:57:10,2025-01-07 16:02:15,305.562,0.097%,
135,2025-01-07 17:31:57,2025-01-07 17:32:38,41.02,0.013%,
136,2025-01-07 17:32:41,2025-01-07 17:36:39,238.559,0.076%,
137,2025-01-07 19:06:48,2025-01-07 19:11:21,273.208,0.087%,
138,2025-01-07 20:41:31,2025-01-07 20:43:26,114.826,0.036%,
139,2025-01-07 20:43:26,2025-01-07 20:46:02,155.777,0.049%,
140,2025-01-07 22:16:11,2025-01-07 22:20:43,272.14,0.086%,
141,2025-01-07 23:50:53,2025-01-07 23:55:23,270.465,0.086%,
142,2025-01-08 01:25:36,2025-01-08 01:30:02,265.938,0.084%,
143,2025-01-08 03:00:21,2025-01-08 03:05:25,304.791,0.097%,
144,2025-01-08 04:35:08,2025-01-08 04:35:50,41.834,0.013%,
145,2025-01-08 04:35:51,2025-01-08 04:39:50,238.779,0.076%,
146,2025-01-08 06:10:00,2025-01-08 06:14:31,271.7,0.086%,
147,2025-01-08 07:44:41,2025-01-08 07:46:36,115.425,0.037%,
148,2025-01-08 07:46:37,2025-01-08 07:49:13,155.806,0.049%,
149,2025-01-08 09:19:21,2025-01-08 09:23:53,272.083,0.086%,
150,2025-01-08 10:54:03,2025-01-08 10:58:33,270.171,0.086%,
151,2025-01-08 12:28:47,2025-01-08 12:33:12,265.284,0.084%,
152,2025-01-08 14:03:32,2025-01-08 14:04:17,45.022,0.014%,
153,2025-01-08 14:04:17,2025-01-08 14:08:35,258.443,0.082%,
154,2025-01-08 15:38:19,2025-01-08 15:43:00,281.184,0.089%,
155,2025-01-08 17:13:12,2025-01-08 17:17:42,269.898,0.086%,
156,2025-01-08 18:47:51,2025-01-08 18:52:23,271.744,0.086%,
157,2025-01-08 20:22:32,2025-01-08 20:27:04,272.004,0.086%,
158,2025-01-08 21:57:14,2025-01-08 21:58:37,83.38,0.026%,
159,2025-01-08 21:58:38,2025-01-08 22:01:44,185.947,0.059%,
160,2025-01-08 23:31:57,2025-01-08 23:36:22,264.587,0.084%,
161,2025-01-09 01:06:42,2025-01-09 01:07:27,44.363,0.014%,
162,2025-01-09 01:07:29,2025-01-09 01:11:45,256.841,0.081%,
163,2025-01-09 02:41:30,2025-01-09 02:46:10,280.473,0.089%,
164,2025-01-09 04:16:23,2025-01-09 04:20:52,269.316,0.085%,
165,2025-01-09 05:51:01,2025-01-09 05:55:33,271.874,0.086%,
166,2025-01-09 07:25:42,2025-01-09 07:30:14,271.904,0.086%,
167,2025-01-09 09:00:24,2025-01-09 09:01:47,83.086,0.026%,
168,2025-01-09 09:01:49,2025-01-09 09:04:54,184.631,0.059%,
169,2025-01-09 10:35:08,2025-01-09 10:39:32,263.824,0.084%,
170,2025-01-09 12:09:53,2025-01-09 12:10:37,43.657,0.014%,
171,2025-01-09 12:10:40,2025-01-09 12:14:55,255.062,0.081%,
172,2025-01-09 13:44:41,2025-01-09 13:49:21,279.715,0.089%,
173,2025-01-09 15:19:33,2025-01-09 15:24:03,269.695,0.086%,
174,2025-01-09 16:54:12,2025-01-09 16:58:44,271.983,0.086%,
175,2025-01-09 18:28:53,2025-01-09 18:33:24,271.78,0.086%,
176,2025-01-09 20:03:35,2025-01-09 20:04:58,82.764,0.026%,
177,2025-01-09 20:05:00,2025-01-09 20:08:04,183.419,0.058%,
178,2025-01-09 21:38:19,2025-01-09 21:42:22,243.757,0.077%,
179,2025-01-09 21:42:23,2025-01-09 21:42:42,18.81,0.006%,
180,2025-01-09 23:13:04,2025-01-09 23:13:47,42.906,0.014%,
181,2025-01-09 23:13:52,2025-01-09 23:17:49,237.173,0.075%,
182,2025-01-09 23:17:50,2025-01-09 23:18:05,15.199,0.005%,
183,2025-01-10 00:47:53,2025-01-10 00:52:31,278.893,0.088%,
184,2025-01-10 02:22:43,2025-01-10 02:27:13,270.044,0.086%,
185,2025-01-10 03:57:22,2025-01-10 04:01:54,272.065,0.086%,
186,2025-01-10 05:32:03,2025-01-10 05:36:35,271.634,0.086%,
187,2025-01-10 07:06:45,2025-01-10 07:08:08,82.407,0.026%,
188,2025-01-10 07:08:11,2025-01-10 07:11:14,183.325,0.058%,
189,2025-01-10 08:41:29,2025-01-10 08:45:33,243.463,0.077%,
190,2025-01-10 08:45:34,2025-01-10 08:45:51,17.333,0.006%,
191,2025-01-10 10:16:15,2025-01-10 10:16:57,42.11,0.013%,
192,2025-01-10 10:17:03,2025-01-10 10:21:00,237.389,0.075%,
193,2025-01-10 10:21:01,2025-01-10 10:21:15,13.66,0.004%,
194,2025-01-10 11:51:04,2025-01-10 11:55:42,278.019,0.088%,
195,2025-01-10 13:25:53,2025-01-10 13:30:23,270.36,0.086%,
196,2025-01-10 15:00:32,2025-01-10 15:05:04,272.127,0.086%,
197,2025-01-10 16:35:13,2025-01-10 16:39:45,271.464,0.086%,
198,2025-01-10 18:09:56,2025-01-10 18:11:18,82.018,0.026%,
199,2025-01-10 18:11:21,2025-01-10 18:14:24,183.197,0.058%,
200,2025-01-10 19:44:40,2025-01-10 19:48:43,243.148,0.077%,
201,2025-01-10 19:48:45,2025-01-10 19:49:01,15.702,0.005%,
202,2025-01-10 21:19:26,2025-01-10 21:20:07,41.268,0.013%,
203,2025-01-10 21:20:13,2025-01-10 21:24:10,237.694,0.075%,
204,2025-01-10 21:24:13,2025-01-10 21:24:25,11.913,0.004%,
205,2025-01-10 22:54:15,2025-01-10 22:58:52,277.07,0.088%,
206,2025-01-11 00:29:03,2025-01-11 00:33:34,270.65,0.086%,
207,2025-01-11 02:03:43,2025-01-11 02:08:15,272.167,0.086%,
208,2025-01-11 03:38:24,2025-01-11 03:42:55,271.276,0.086%,
209,2025-01-11 05:13:07,2025-01-11 05:14:29,82.794,0.026%,
210,2025-01-11 05:14:31,2025-01-11 05:17:34,183.035,0.058%,
211,2025-01-11 06:47:51,2025-01-11 06:51:54,242.813,0.077%,
212,2025-01-11 06:51:57,2025-01-11 06:52:11,13.853,0.004%,
213,2025-01-11 08:22:37,2025-01-11 08:23:17,40.371,0.013%,
214,2025-01-11 08:23:23,2025-01-11 08:27:21,237.978,0.076%,
215,2025-01-11 08:27:24,2025-01-11 08:27:34,9.829,0.003%,
216,2025-01-11 09:57:27,2025-01-11 10:02:03,276.035,0.088%,
217,2025-01-11 11:32:13,2025-01-11 11:36:44,270.914,0.086%,
218,2025-01-11 13:06:53,2025-01-11 13:11:25,272.184,0.086%,
219,2025-01-11 14:41:34,2025-01-11 14:46:05,271.055,0.086%,
220,2025-01-11 16:16:17,2025-01-11 16:17:41,83.917,0.027%,
221,2025-01-11 16:17:42,2025-01-11 16:20:44,182.84,0.058%,
222,2025-01-11 17:51:02,2025-01-11 17:55:04,242.458,0.077%,
223,2025-01-11 17:55:09,2025-01-11 17:55:20,11.682,0.004%,
224,2025-01-11 19:25:48,2025-01-11 19:26:28,39.414,0.013%,
225,2025-01-11 19:26:33,2025-01-11 19:30:31,238.243,0.076%,
226,2025-01-11 19:30:36,2025-01-11 19:30:44,7.136,0.002%,
227,2025-01-11 21:00:38,2025-01-11 21:05:13,274.892,0.087%,
228,2025-01-11 22:35:23,2025-01-11 22:39:55,271.143,0.086%,
229,2025-01-12 00:10:03,2025-01-12 00:14:35,272.182,0.086%,
230,2025-01-12 01:44:45,2025-01-12 01:49:16,270.815,0.086%,
231,2025-01-12 03:19:28,2025-01-12 03:23:55,266.717,0.085%,
232,2025-01-12 04:54:12,2025-01-12 04:58:15,242.074,0.077%,
233,2025-01-12 04:58:21,2025-01-12 04:58:29,8.96,0.003%,
234,2025-01-12 06:28:59,2025-01-12 06:29:40,40.707,0.013%,
235,2025-01-12 06:29:43,2025-01-12 06:33:42,238.486,0.076%,
236,2025-01-12 06:33:49,2025-01-12 06:33:52,2.162,0.001%,
237,2025-01-12 08:03:50,2025-01-12 08:08:24,273.63,0.087%,
238,2025-01-12 09:38:34,2025-01-12 09:40:28,114.793,0.036%,
239,2025-01-12 09:40:29,2025-01-12 09:43:05,155.904,0.049%,
240,2025-01-12 11:13:14,2025-01-12 11:17:46,272.151,0.086%,
241,2025-01-12 12:47:55,2025-01-12 12:52:26,270.55,0.086%,
242,2025-01-12 14:22:38,2025-01-12 14:27:05,266.123,0.084%,
243,2025-01-12 15:57:23,2025-01-12 16:01:25,241.666,0.077%,
244,2025-01-12 16:01:33,2025-01-12 16:01:38,4.831,0.002%,
245,2025-01-12 17:32:10,2025-01-12 17:32:52,41.614,0.013%,
246,2025-01-12 17:32:54,2025-01-12 17:36:52,238.713,0.076%,
247,2025-01-12 19:07:02,2025-01-12 19:11:34,272.187,0.086%,
248,2025-01-12 20:41:44,2025-01-12 20:43:39,114.994,0.037%,
249,2025-01-12 20:43:40,2025-01-12 20:46:15,155.798,0.049%,
250,2025-01-12 22:16:24,2025-01-12 22:20:56,272.101,0.086%,
251,2025-01-12 23:51:06,2025-01-12 23:55:36,270.259,0.086%,
252,2025-01-13 01:25:49,2025-01-13 01:30:15,265.488,0.084%,
253,2025-01-13 03:00:34,2025-01-13 03:01:19,45.218,0.014%,
254,2025-01-13 03:01:19,2025-01-13 03:04:35,195.906,0.062%,
255,2025-01-13 04:35:21,2025-01-13 04:36:04,42.261,0.013%,
256,2025-01-13 04:36:04,2025-01-13 04:40:03,238.919,0.076%,
257,2025-01-13 06:10:14,2025-01-13 06:14:44,270.49,0.086%,
258,2025-01-13 07:44:54,2025-01-13 07:49:26,271.701,0.086%,
259,2025-01-13 09:19:34,2025-01-13 09:24:06,272.03,0.086%,
260,2025-01-13 10:54:16,2025-01-13 10:55:40,83.464,0.027%,
261,2025-01-13 10:55:40,2025-01-13 10:58:46,186.33,0.059%,
262,2025-01-13 12:29:00,2025-01-13 12:33:25,264.802,0.084%,
263,2025-01-13 14:03:45,2025-01-13 14:04:30,44.57,0.014%,
264,2025-01-13 14:04:31,2025-01-13 14:07:46,194.765,0.062%,
265,2025-01-13 14:08:48,2025-01-13 14:08:48,0.218,0.000%,
266,2025-01-13 15:38:32,2025-01-13 15:43:13,280.696,0.089%,
267,2025-01-13 17:13:26,2025-01-13 17:17:55,269.191,0.085%,
268,2025-01-13 18:48:04,2025-01-13 18:52:36,271.841,0.086%,
269,2025-01-13 20:22:45,2025-01-13 20:27:17,271.937,0.086%,
270,2025-01-13 21:57:27,2025-01-13 21:58:50,83.179,0.026%,
271,2025-01-13 21:58:51,2025-01-13 22:01:56,185.043,0.059%,
272,2025-01-13 23:32:11,2025-01-13 23:36:35,264.063,0.084%,
273,2025-01-14 01:06:56,2025-01-14 01:07:40,43.876,0.014%,
274,2025-01-14 01:07:43,2025-01-14 01:10:56,193.488,0.061%,
275,2025-01-14 01:11:50,2025-01-14 01:11:58,8.674,0.003%,
276,2025-01-14 02:41:44,2025-01-14 02:46:24,279.948,0.089%,
277,2025-01-14 04:16:36,2025-01-14 04:21:05,269.581,0.086%,
278,2025-01-14 05:51:15,2025-01-14 05:55:46,271.95,0.086%,
279,2025-01-14 07:25:55,2025-01-14 07:30:27,271.819,0.086%,
280,2025-01-14 09:00:37,2025-01-14 09:02:00,82.866,0.026%,
281,2025-01-14 09:02:03,2025-01-14 09:05:07,183.641,0.058%,
282,2025-01-14 10:35:21,2025-01-14 10:39:25,243.842,0.077%,
283,2025-01-14 10:39:25,2025-01-14 10:39:44,19.23,0.006%,
284,2025-01-14 12:10:07,2025-01-14 12:10:50,43.138,0.014%,
285,2025-01-14 12:10:54,2025-01-14 12:14:07,192.041,0.061%,
286,2025-01-14 12:14:51,2025-01-14 12:14:52,1.161,0.000%,
287,2025-01-14 12:14:53,2025-01-14 12:15:08,15.626,0.005%,
288,2025-01-14 13:44:55,2025-01-14 13:49:34,279.152,0.089%,
289,2025-01-14 15:19:46,2025-01-14 15:24:16,269.941,0.086%,
290,2025-01-14 16:54:25,2025-01-14 16:58:57,272.043,0.086%,
291,2025-01-14 18:29:06,2025-01-14 18:33:37,271.681,0.086%,
292,2025-01-14 20:03:48,2025-01-14 20:05:11,82.519,0.026%,
293,2025-01-14 20:05:13,2025-01-14 20:08:17,183.354,0.058%,
294,2025-01-14 21:38:32,2025-01-14 21:42:35,243.554,0.077%,
295,2025-01-14 21:42:37,2025-01-14 21:42:54,17.794,0.006%,
296,2025-01-14 23:13:18,2025-01-14 23:14:00,42.357,0.013%,
297,2025-01-14 23:14:05,2025-01-14 23:17:17,191.604,0.061%,
298,2025-01-14 23:17:52,2025-01-14 23:18:03,10.429,0.003%,
299,2025-01-14 23:18:04,2025-01-14 23:18:18,14.142,0.005%,
300,2025-01-15 00:48:06,2025-01-15 00:52:45,278.293,0.088%,
301,2025-01-15 02:22:56,2025-01-15 02:27:26,270.264,0.086%,
302,2025-01-15 03:57:35,2025-01-15 04:02:07,272.109,0.086%,
303,2025-01-15 05:32:16,2025-01-15 05:36:48,271.516,0.086%,
304,2025-01-15 07:06:59,2025-01-15 07:08:21,82.14,0.026%,
305,2025-01-15 07:08:24,2025-01-15 07:11:27,183.234,0.058%,
306,2025-01-15 08:41:43,2025-01-15 08:45:46,243.245,0.077%,
307,2025-01-15 08:45:48,2025-01-15 08:46:04,16.213,0.005%,
308,2025-01-15 10:16:29,2025-01-15 10:17:10,41.528,0.013%,
309,2025-01-15 10:17:15,2025-01-15 10:20:27,191.818,0.061%,
310,2025-01-15 10:20:53,2025-01-15 10:21:13,19.838,0.006%,
311,2025-01-15 10:21:15,2025-01-15 10:21:28,12.462,0.004%,
312,2025-01-15 11:51:18,2025-01-15 11:55:55,277.366,0.088%,
313,2025-01-15 13:26:06,2025-01-15 13:30:36,270.564,0.086%,
314,2025-01-15 15:00:45,2025-01-15 15:05:18,272.155,0.086%,
315,2025-01-15 16:35:27,2025-01-15 16:39:58,271.331,0.086%,
316,2025-01-15 18:10:09,2025-01-15 18:11:32,82.408,0.026%,
317,2025-01-15 18:11:34,2025-01-15 18:14:37,183.086,0.058%,
318,2025-01-15 19:44:53,2025-01-15 19:48:56,242.917,0.077%,
319,2025-01-15 19:48:59,2025-01-15 19:49:14,14.438,0.005%,
320,2025-01-15 21:19:40,2025-01-15 21:20:20,40.647,0.013%,
321,2025-01-15 21:20:26,2025-01-15 21:23:38,192.012,0.061%,
322,2025-01-15 21:23:54,2025-01-15 21:24:24,29.38,0.009%,
323,2025-01-15 21:24:27,2025-01-15 21:24:37,10.497,0.003%,
324,2025-01-15 22:54:29,2025-01-15 22:59:05,276.361,0.088%,
325,2025-01-16 00:29:16,2025-01-16 00:33:47,270.836,0.086%,
326,2025-01-16 02:03:56,2025-01-16 02:08:28,272.184,0.086%,
327,2025-01-16 03:38:37,2025-01-16 03:43:08,271.127,0.086%,
328,2025-01-16 05:13:20,2025-01-16 05:14:43,83.592,0.027%,
329,2025-01-16 05:14:44,2025-01-16 05:17:47,182.901,0.058%,
330,2025-01-16 06:48:04,2025-01-16 06:52:07,242.566,0.077%,
331,2025-01-16 06:52:11,2025-01-16 06:52:23,12.378,0.004%,
332,2025-01-16 08:22:51,2025-01-16 08:23:30,39.713,0.013%,
333,2025-01-16 08:23:36,2025-01-16 08:26:48,192.173,0.061%,
334,2025-01-16 08:26:55,2025-01-16 08:27:34,39.064,0.012%,
335,2025-01-16 08:27:39,2025-01-16 08:27:47,8.041,0.003%,
336,2025-01-16 09:57:41,2025-01-16 10:02:16,275.257,0.087%,
337,2025-01-16 11:32:26,2025-01-16 11:36:57,271.077,0.086%,
338,2025-01-16 13:07:06,2025-01-16 13:11:38,272.185,0.086%,
339,2025-01-16 14:41:47,2025-01-16 14:46:18,270.889,0.086%,
340,2025-01-16 16:16:30,2025-01-16 16:20:57,266.887,0.085%,
341,2025-01-16 17:51:15,2025-01-16 17:55:17,242.196,0.077%,
342,2025-01-16 17:55:23,2025-01-16 17:55:33,9.863,0.003%,
343,2025-01-16 19:26:02,2025-01-16 19:26:42,40.36,0.013%,
344,2025-01-16 19:26:46,2025-01-16 19:30:44,238.415,0.076%,
345,2025-01-16 19:30:51,2025-01-16 19:30:55,4.307,0.001%,
346,2025-01-16 21:00:52,2025-01-16 21:05:26,274.031,0.087%,
347,2025-01-16 22:35:36,2025-01-16 22:37:31,114.75,0.036%,
348,2025-01-16 22:37:31,2025-01-16 22:40:08,156.212,0.050%,
349,2025-01-17 00:10:16,2025-01-17 00:14:49,272.164,0.086%,
350,2025-01-17 01:44:58,2025-01-17 01:49:29,270.633,0.086%,
351,2025-01-17 03:19:41,2025-01-17 03:24:07,266.309,0.084%,
352,2025-01-17 04:54:26,2025-01-17 04:58:28,241.792,0.077%,
353,2025-01-17 04:58:35,2025-01-17 04:58:41,6.371,0.002%,
354,2025-01-17 06:29:13,2025-01-17 06:29:54,41.369,0.013%,
355,2025-01-17 06:29:56,2025-01-17 06:33:55,238.644,0.076%,
356,2025-01-17 08:04:04,2025-01-17 08:08:37,272.648,0.087%,
357,2025-01-17 09:38:47,2025-01-17 09:40:41,114.866,0.036%,
358,2025-01-17 09:40:42,2025-01-17 09:43:18,155.787,0.049%,
359,2025-01-17 11:13:27,2025-01-17 11:17:59,272.118,0.086%,
360,2025-01-17 12:48:08,2025-01-17 12:52:39,270.35,0.086%,
361,2025-01-17 14:22:52,2025-01-17 14:27:17,265.687,0.084%,
362,2025-01-17 15:57:37,2025-01-17 16:01:38,241.37,0.077%,
363,2025-01-17 17:32:24,2025-01-17 17:33:06,42.083,0.013%,
364,2025-01-17 17:33:07,2025-01-17 17:37:05,238.856,0.076%,
365,2025-01-17 19:07:16,2025-01-17 19:11:47,271.043,0.086%,
366,2025-01-17 20:41:57,2025-01-17 20:46:28,271.652,0.086%,
367,2025-01-17 22:16:37,2025-01-17 22:21:09,272.052,0.086%,
368,2025-01-17 23:51:19,2025-01-17 23:55:49,270.041,0.086%,
369,2025-01-18 01:26:02,2025-01-18 01:30:27,265.017,0.084%,
370,2025-01-18 03:00:48,2025-01-18 03:01:32,44.771,0.014%,
371,2025-01-18 03:01:33,2025-01-18 03:04:48,195.125,0.062%,
372,2025-01-18 04:35:35,2025-01-18 04:40:16,280.912,0.089%,
373,2025-01-18 06:10:28,2025-01-18 06:14:58,269.073,0.085%,
374,2025-01-18 07:45:07,2025-01-18 07:49:39,271.797,0.086%,
375,2025-01-18 09:19:48,2025-01-18 09:24:19,271.967,0.086%,
376,2025-01-18 10:54:30,2025-01-18 10:55:53,83.269,0.026%,
377,2025-01-18 10:55:54,2025-01-18 10:58:59,185.454,0.059%,
378,2025-01-18 12:29:13,2025-01-18 12:33:37,264.294,0.084%,
379,2025-01-18 14:03:58,2025-01-18 14:04:42,44.089,0.014%,
380,2025-01-18 14:04:45,2025-01-18 14:07:59,193.897,0.062%,
381,2025-01-18 15:38:46,2025-01-18 15:43:26,280.182,0.089%,
382,2025-01-18 17:13:39,2025-01-18 17:18:08,269.465,0.085%,
383,2025-01-18 18:48:17,2025-01-18 18:52:49,271.917,0.086%,
384,2025-01-18 20:22:58,2025-01-18 20:27:30,271.857,0.086%,
385,2025-01-18 21:57:40,2025-01-18 21:59:03,82.966,0.026%,
386,2025-01-18 21:59:05,2025-01-18 22:02:09,184.083,0.058%,
387,2025-01-18 23:32:24,2025-01-18 23:36:47,263.511,0.084%,
388,2025-01-19 01:07:09,2025-01-19 01:07:53,43.369,0.014%,
389,2025-01-19 01:07:57,2025-01-19 01:11:09,192.507,0.061%,
390,2025-01-19 02:41:57,2025-01-19 02:46:37,279.404,0.089%,
391,2025-01-19 04:16:49,2025-01-19 04:21:18,269.831,0.086%,
392,2025-01-19 05:51:28,2025-01-19 05:56:00,272.017,0.086%,
393,2025-01-19 07:26:08,2025-01-19 07:30:40,271.725,0.086%,
394,2025-01-19 09:00:51,2025-01-19 09:02:13,82.629,0.026%,
395,2025-01-19 09:02:16,2025-01-19 09:05:20,183.382,0.058%,
396,2025-01-19 10:35:35,2025-01-19 10:39:38,243.647,0.077%,
397,2025-01-19 10:39:39,2025-01-19 10:39:57,18.248,0.006%,
398,2025-01-19 12:10:20,2025-01-19 12:11:03,42.605,0.014%,
399,2025-01-19 12:11:08,2025-01-19 12:14:20,191.532,0.061%,
400,2025-01-19 13:45:09,2025-01-19 13:49:47,278.565,0.088%,
401,2025-01-19 15:19:59,2025-01-19 15:24:29,270.166,0.086%,
402,2025-01-19 16:54:38,2025-01-19 16:59:10,272.092,0.086%,
403,2025-01-19 18:29:19,2025-01-19 18:33:50,271.568,0.086%,
404,2025-01-19 20:04:01,2025-01-19 20:05:24,82.26,0.026%,
405,2025-01-19 20:05:27,2025-01-19 20:08:30,183.278,0.058%,
406,2025-01-19 21:38:45,2025-01-19 21:42:49,243.344,0.077%,
407,2025-01-19 21:42:50,2025-01-19 21:43:07,16.712,0.005%,
408,2025-01-19 23:13:31,2025-01-19 23:14:13,41.789,0.013%,
409,2025-01-19 23:14:18,2025-01-19 23:17:30,191.754,0.061%,
410,2025-01-20 00:48:20,2025-01-20 00:52:58,277.657,0.088%,
411,2025-01-20 02:23:09,2025-01-20 02:27:39,270.475,0.086%,
412,2025-01-20 03:57:48,2025-01-20 04:02:20,272.143,0.086%,
413,2025-01-20 05:32:29,2025-01-20 05:37:01,271.39,0.086%,
414,2025-01-20 07:07:12,2025-01-20 07:08:34,81.993,0.026%,
415,2025-01-20 07:08:37,2025-01-20 07:11:40,183.135,0.058%,
416,2025-01-20 08:41:56,2025-01-20 08:45:59,243.02,0.077%,
417,2025-01-20 08:46:02,2025-01-20 08:46:17,15.002,0.005%,
418,2025-01-20 10:16:42,2025-01-20 10:17:23,40.923,0.013%,
419,2025-01-20 10:17:28,2025-01-20 10:20:40,191.953,0.061%,
420,2025-01-20 11:51:31,2025-01-20 11:56:08,276.68,0.088%,
421,2025-01-20 13:26:19,2025-01-20 13:30:50,270.752,0.086%,
422,2025-01-20 15:00:58,2025-01-20 15:05:31,272.174,0.086%,
423,2025-01-20 16:35:40,2025-01-20 16:40:11,271.189,0.086%,
424,2025-01-20 18:10:22,2025-01-20 18:11:46,83.254,0.026%,
425,2025-01-20 18:11:47,2025-01-20 18:14:50,182.961,0.058%,
426,2025-01-20 19:45:07,2025-01-20 19:49:09,242.677,0.077%,
427,2025-01-20 19:49:13,2025-01-20 19:49:26,13.044,0.004%,
428,2025-01-20 21:19:53,2025-01-20 21:20:33,40.007,0.013%,
429,2025-01-20 21:20:39,2025-01-20 21:23:51,192.129,0.061%,
430,2025-01-20 22:54:43,2025-01-20 22:59:19,275.608,0.087%,
431,2025-01-21 00:29:29,2025-01-21 00:34:00,271.007,0.086%,
432,2025-01-21 02:04:09,2025-01-21 02:08:41,272.184,0.086%,
433,2025-01-21 03:38:50,2025-01-21 03:43:21,270.968,0.086%,
434,2025-01-21 05:13:33,2025-01-21 05:14:57,84.302,0.027%,
435,2025-01-21 05:14:57,2025-01-21 05:18:00,182.752,0.058%,
436,2025-01-21 06:48:18,2025-01-21 06:52:20,242.31,0.077%,
437,2025-01-21 06:52:25,2025-01-21 06:52:36,10.702,0.003%,
438,2025-01-21 08:23:04,2025-01-21 08:23:44,39.966,0.013%,
439,2025-01-21 08:23:49,2025-01-21 08:27:01,192.274,0.061%,
440,2025-01-21 09:57:55,2025-01-21 10:02:29,274.423,0.087%,
441,2025-01-21 11:32:39,2025-01-21 11:34:34,114.708,0.036%,
442,2025-01-21 11:34:34,2025-01-21 11:37:10,156.516,0.050%,
443,2025-01-21 13:07:19,2025-01-21 13:11:51,272.171,0.086%,
444,2025-01-21 14:42:01,2025-01-21 14:46:31,270.713,0.086%,
445,2025-01-21 16:16:44,2025-01-21 16:21:10,266.491,0.085%,
446,2025-01-21 17:51:28,2025-01-21 17:55:30,241.923,0.077%,
447,2025-01-21 17:55:37,2025-01-21 17:55:45,7.617,0.002%,
448,2025-01-21 19:26:15,2025-01-21 19:26:56,41.095,0.013%,
449,2025-01-21 19:26:59,2025-01-21 19:30:11,192.4,0.061%,
450,2025-01-21 21:01:06,2025-01-21 21:05:39,273.093,0.087%,
451,2025-01-21 22:35:49,2025-01-21 22:37:44,114.834,0.036%,
452,2025-01-21 22:37:45,2025-01-21 22:40:21,155.777,0.049%,
453,2025-01-22 00:10:29,2025-01-22 00:15:02,272.136,0.086%,
454,2025-01-22 01:45:11,2025-01-22 01:49:42,270.439,0.086%,
455,2025-01-22 03:19:54,2025-01-22 03:24:20,265.884,0.084%,
456,2025-01-22 04:54:39,2025-01-22 04:58:41,241.503,0.077%,
457,2025-01-22 04:58:51,2025-01-22 04:58:52,0.949,0.000%,
458,2025-01-22 06:29:26,2025-01-22 06:30:08,41.888,0.013%,
459,2025-01-22 06:30:09,2025-01-22 06:33:22,192.502,0.061%,
460,2025-01-22 08:04:18,2025-01-22 08:08:50,271.568,0.086%,
461,2025-01-22 09:39:00,2025-01-22 09:40:55,115.536,0.037%,
462,2025-01-22 09:40:55,2025-01-22 09:43:31,155.805,0.049%,
463,2025-01-22 11:13:40,2025-01-22 11:18:12,272.075,0.086%,
464,2025-01-22 12:48:22,2025-01-22 12:52:52,270.139,0.086%,
465,2025-01-22 14:23:05,2025-01-22 14:27:30,265.228,0.084%,
466,2025-01-22 15:57:50,2025-01-22 15:58:35,44.971,0.014%,
467,2025-01-22 15:58:36,2025-01-22 16:01:51,195.478,0.062%,
468,2025-01-22 17:32:37,2025-01-22 17:36:32,234.72,0.074%,
469,2025-01-22 19:07:31,2025-01-22 19:12:00,269.734,0.086%,
470,2025-01-22 20:42:10,2025-01-22 20:46:42,271.753,0.086%,
471,2025-01-22 22:16:50,2025-01-22 22:21:22,271.993,0.086%,
472,2025-01-22 23:51:32,2025-01-22 23:52:56,83.36,0.026%,
473,2025-01-22 23:52:56,2025-01-22 23:56:02,185.842,0.059%,
474,2025-01-23 01:26:16,2025-01-23 01:30:40,264.523,0.084%,
475,2025-01-23 03:01:01,2025-01-23 03:01:45,44.304,0.014%,
476,2025-01-23 03:01:47,2025-01-23 03:05:02,194.288,0.062%,
477,2025-01-23 04:35:49,2025-01-23 04:39:42,233.88,0.074%,
478,2025-01-23 04:40:22,2025-01-23 04:40:29,7.018,0.002%,
479,2025-01-23 06:10:41,2025-01-23 06:15:11,269.35,0.085%,
480,2025-01-23 07:45:20,2025-01-23 07:49:52,271.883,0.086%,
481,2025-01-23 09:20:01,2025-01-23 09:24:33,271.893,0.086%,
482,2025-01-23 10:54:43,2025-01-23 10:56:06,83.061,0.026%,
483,2025-01-23 10:56:08,2025-01-23 10:59:12,184.52,0.059%,
484,2025-01-23 12:29:26,2025-01-23 12:33:50,263.758,0.084%,
485,2025-01-23 14:04:12,2025-01-23 14:04:55,43.599,0.014%,
486,2025-01-23 14:04:59,2025-01-23 14:08:12,192.957,0.061%,
487,2025-01-23 15:39:00,2025-01-23 15:42:53,232.989,0.074%,
488,2025-01-23 15:43:20,2025-01-23 15:43:39,19.119,0.006%,
489,2025-01-23 17:13:51,2025-01-23 17:18:21,269.723,0.086%,
490,2025-01-23 18:48:30,2025-01-23 18:53:02,271.989,0.086%,
491,2025-01-23 20:23:11,2025-01-23 20:27:43,271.767,0.086%,
492,2025-01-23 21:57:53,2025-01-23 21:59:16,82.736,0.026%,
493,2025-01-23 21:59:19,2025-01-23 22:02:22,183.41,0.058%,
494,2025-01-23 23:32:37,2025-01-23 23:36:41,243.732,0.077%,
495,2025-01-23 23:36:41,2025-01-23 23:37:00,18.686,0.006%,
496,2025-01-24 01:07:23,2025-01-24 01:08:06,42.844,0.014%,
497,2025-01-24 01:08:11,2025-01-24 01:11:22,191.458,0.061%,
498,2025-01-24 02:42:11,2025-01-24 02:46:03,232.034,0.074%,
499,2025-01-24 02:46:19,2025-01-24 02:46:50,31.389,0.010%,
500,2025-01-24 04:17:01,2025-01-24 04:21:32,270.07,0.086%,
501,2025-01-24 05:51:41,2025-01-24 05:56:13,272.071,0.086%,
502,2025-01-24 07:26:21,2025-01-24 07:30:53,271.62,0.086%,
503,2025-01-24 09:01:04,2025-01-24 09:02:26,82.377,0.026%,
504,2025-01-24 09:02:29,2025-01-24 09:05:33,183.315,0.058%,
505,2025-01-24 10:35:48,2025-01-24 10:39:51,243.439,0.077%,
506,2025-01-24 10:39:53,2025-01-24 10:40:10,17.199,0.006%,
507,2025-01-24 12:10:34,2025-01-24 12:11:16,42.044,0.013%,
508,2025-01-24 12:11:21,2025-01-24 12:14:33,191.69,0.061%,
509,2025-01-24 13:45:22,2025-01-24 13:49:13,231.017,0.073%,
510,2025-01-24 13:49:17,2025-01-24 13:50:00,43.816,0.014%,
511,2025-01-24 15:20:12,2025-01-24 15:24:42,270.385,0.086%,
512,2025-01-24 16:54:51,2025-01-24 16:59:23,272.129,0.086%,
513,2025-01-24 18:29:32,2025-01-24 18:34:03,271.447,0.086%,
514,2025-01-24 20:04:15,2025-01-24 20:05:36,81.986,0.026%,
515,2025-01-24 20:05:40,2025-01-24 20:08:43,183.182,0.058%,
516,2025-01-24 21:38:59,2025-01-24 21:43:02,243.125,0.077%,
517,2025-01-24 21:43:04,2025-01-24 21:43:20,15.552,0.005%,
518,2025-01-24 23:13:45,2025-01-24 23:14:26,41.198,0.013%,
519,2025-01-24 23:14:31,2025-01-24 23:17:43,191.893,0.061%,
520,2025-01-25 00:48:34,2025-01-25 00:53:11,276.989,0.088%,
521,2025-01-25 02:23:22,2025-01-25 02:27:52,270.67,0.086%,
522,2025-01-25 03:58:01,2025-01-25 04:02:33,272.169,0.086%,
523,2025-01-25 05:32:42,2025-01-25 05:37:14,271.253,0.086%,
524,2025-01-25 07:07:25,2025-01-25 07:08:48,82.891,0.026%,
525,2025-01-25 07:08:50,2025-01-25 07:11:53,183.015,0.058%,
526,2025-01-25 08:42:09,2025-01-25 08:46:12,242.785,0.077%,
527,2025-01-25 08:46:16,2025-01-25 08:46:29,13.677,0.004%,
528,2025-01-25 10:16:56,2025-01-25 10:17:36,40.298,0.013%,
529,2025-01-25 10:17:41,2025-01-25 10:20:53,192.074,0.061%,
530,2025-01-25 11:51:45,2025-01-25 11:56:21,275.949,0.088%,
531,2025-01-25 13:26:32,2025-01-25 13:31:03,270.932,0.086%,
532,2025-01-25 15:01:11,2025-01-25 15:05:44,272.183,0.086%,
533,2025-01-25 16:35:53,2025-01-25 16:40:24,271.035,0.086%,
534,2025-01-25 18:10:36,2025-01-25 18:12:00,83.999,0.027%,
535,2025-01-25 18:12:00,2025-01-25 18:15:03,182.82,0.058%,
536,2025-01-25 19:45:20,2025-01-25 19:49:23,242.425,0.077%,
537,2025-01-25 19:49:27,2025-01-25 19:49:39,11.474,0.004%,
538,2025-01-25 21:20:07,2025-01-25 21:20:46,39.512,0.013%,
539,2025-01-25 21:20:52,2025-01-25 21:24:04,192.233,0.061%,
540,2025-01-25 22:54:57,2025-01-25 22:59:32,274.798,0.087%,
541,2025-01-26 00:29:42,2025-01-26 00:34:13,271.165,0.086%,
542,2025-01-26 02:04:22,2025-01-26 02:08:54,272.179,0.086%,
543,2025-01-26 03:39:03,2025-01-26 03:43:34,270.797,0.086%,
544,2025-01-26 05:13:46,2025-01-26 05:18:13,266.668,0.085%,
545,2025-01-26 06:48:31,2025-01-26 06:52:33,242.042,0.077%,
546,2025-01-26 06:52:39,2025-01-26 06:52:48,8.682,0.003%,
547,2025-01-26 08:23:18,2025-01-26 08:23:59,40.795,0.013%,
548,2025-01-26 08:24:02,2025-01-26 08:27:14,192.363,0.061%,
549,2025-01-26 09:58:09,2025-01-26 10:02:42,273.52,0.087%,
550,2025-01-26 11:32:52,2025-01-26 11:34:47,114.799,0.036%,
551,2025-01-26 11:34:48,2025-01-26 11:37:23,155.819,0.049%,
552,2025-01-26 13:07:32,2025-01-26 13:12:04,272.147,0.086%,
553,2025-01-26 14:42:14,2025-01-26 14:46:44,270.524,0.086%,
554,2025-01-26 16:16:57,2025-01-26 16:21:23,266.074,0.084%,
555,2025-01-26 17:51:42,2025-01-26 17:55:43,241.636,0.077%,
556,2025-01-26 17:55:52,2025-01-26 17:55:56,4.292,0.001%,
557,2025-01-26 19:26:29,2025-01-26 19:27:10,41.673,0.013%,
558,2025-01-26 19:27:12,2025-01-26 19:30:25,192.473,0.061%,
559,2025-01-26 21:01:20,2025-01-26 21:05:53,272.062,0.086%,
560,2025-01-26 22:36:02,2025-01-26 22:37:57,115.109,0.037%,
561,2025-01-26 22:37:58,2025-01-26 22:40:34,155.798,0.049%,
562,2025-01-27 00:10:43,2025-01-27 00:15:15,272.098,0.086%,
563,2025-01-27 01:45:24,2025-01-27 01:49:55,270.233,0.086%,
564,2025-01-27 03:20:08,2025-01-27 03:24:33,265.431,0.084%,
565,2025-01-27 04:54:53,2025-01-27 04:55:38,45.169,0.014%,
566,2025-01-27 04:55:38,2025-01-27 04:58:54,195.819,0.062%,
567,2025-01-27 06:29:40,2025-01-27 06:30:22,42.302,0.013%,
568,2025-01-27 06:30:22,2025-01-27 06:33:35,192.559,0.061%,
569,2025-01-27 08:04:33,2025-01-27 08:09:03,270.34,0.086%,
570,2025-01-27 09:39:13,2025-01-27 09:43:44,271.71,0.086%,
571,2025-01-27 11:13:53,2025-01-27 11:18:25,272.021,0.086%,
572,2025-01-27 12:48:35,2025-01-27 12:49:58,83.443,0.027%,
573,2025-01-27 12:49:59,2025-01-27 12:53:05,186.225,0.059%,
574,2025-01-27 14:23:18,2025-01-27 14:27:43,264.742,0.084%,
575,2025-01-27 15:58:04,2025-01-27 15:58:48,44.516,0.014%,
576,2025-01-27 15:58:50,2025-01-27 16:02:04,194.666,0.062%,
577,2025-01-27 17:32:51,2025-01-27 17:36:45,234.145,0.074%,
578,2025-01-27 19:07:44,2025-01-27 19:12:13,269.225,0.085%,
579,2025-01-27 20:42:23,2025-01-27 20:46:55,271.845,0.086%,
580,2025-01-27 22:17:03,2025-01-27 22:21:35,271.927,0.086%,
581,2025-01-27 23:51:45,2025-01-27 23:53:09,83.158,0.026%,
582,2025-01-27 23:53:10,2025-01-27 23:56:15,184.935,0.059%,
583,2025-01-28 01:26:29,2025-01-28 01:30:53,263.996,0.084%,
584,2025-01-28 03:01:14,2025-01-28 03:01:58,43.821,0.014%,
585,2025-01-28 03:02:01,2025-01-28 03:05:15,193.38,0.061%,
586,2025-01-28 04:36:02,2025-01-28 04:39:56,233.265,0.074%,
587,2025-01-28 06:10:54,2025-01-28 06:15:24,269.611,0.086%,
588,2025-01-28 07:45:33,2025-01-28 07:50:05,271.96,0.086%,
589,2025-01-28 09:20:14,2025-01-28 09:24:46,271.807,0.086%,
590,2025-01-28 10:54:56,2025-01-28 10:56:19,82.84,0.026%,
591,2025-01-28 10:56:22,2025-01-28 10:59:25,183.525,0.058%,
592,2025-01-28 12:29:40,2025-01-28 12:33:44,243.817,0.077%,
593,2025-01-28 12:33:44,2025-01-28 12:34:03,19.108,0.006%,
594,2025-01-28 14:04:25,2025-01-28 14:05:08,43.082,0.014%,
595,2025-01-28 14:05:13,2025-01-28 14:08:25,191.919,0.061%,
596,2025-01-28 15:39:14,2025-01-28 15:43:06,232.334,0.074%,
597,2025-01-28 17:14:04,2025-01-28 17:18:34,269.967,0.086%,
598,2025-01-28 18:48:43,2025-01-28 18:53:15,272.047,0.086%,
599,2025-01-28 20:23:24,2025-01-28 20:27:56,271.667,0.086%,
600,2025-01-28 21:58:07,2025-01-28 21:59:29,82.49,0.026%,
601,2025-01-28 21:59:32,2025-01-28 22:02:35,183.342,0.058%,
602,2025-01-28 23:32:50,2025-01-28 23:36:54,243.531,0.077%,
603,2025-01-28 23:36:55,2025-01-28 23:37:13,17.669,0.006%,
604,2025-01-29 01:07:36,2025-01-29 01:08:19,42.295,0.013%,
605,2025-01-29 01:08:24,2025-01-29 01:11:35,191.621,0.061%,
606,2025-01-29 02:42:25,2025-01-29 02:46:16,231.336,0.073%,
607,2025-01-29 04:17:14,2025-01-29 04:21:45,270.289,0.086%,
608,2025-01-29 05:51:54,2025-01-29 05:56:26,272.112,0.086%,
609,2025-01-29 07:26:35,2025-01-29 07:31:06,271.503,0.086%,
610,2025-01-29 09:01:17,2025-01-29 09:02:39,82.109,0.026%,
611,2025-01-29 09:02:42,2025-01-29 09:05:46,183.225,0.058%,
612,2025-01-29 10:36:01,2025-01-29 10:40:04,243.222,0.077%,
613,2025-01-29 10:40:06,2025-01-29 10:40:23,16.071,0.005%,
614,2025-01-29 12:10:47,2025-01-29 12:11:29,41.461,0.013%,
615,2025-01-29 12:11:34,2025-01-29 12:14:46,191.834,0.061%,
616,2025-01-29 13:45:36,2025-01-29 13:49:26,230.265,0.073%,
617,2025-01-29 15:20:24,2025-01-29 15:24:55,270.585,0.086%,
618,2025-01-29 16:55:04,2025-01-29 16:59:36,272.157,0.086%,
619,2025-01-29 18:29:45,2025-01-29 18:34:16,271.314,0.086%,
620,2025-01-29 20:04:28,2025-01-29 20:05:50,82.511,0.026%,
621,2025-01-29 20:05:53,2025-01-29 20:08:56,183.07,0.058%,
622,2025-01-29 21:39:12,2025-01-29 21:43:15,242.89,0.077%,
623,2025-01-29 21:43:18,2025-01-29 21:43:32,14.274,0.005%,
624,2025-01-29 23:13:58,2025-01-29 23:14:39,40.579,0.013%,
625,2025-01-29 23:14:44,2025-01-29 23:17:56,192.024,0.061%,
626,2025-01-30 00:48:48,2025-01-30 00:52:37,229.11,0.073%,
627,2025-01-30 00:53:13,2025-01-30 00:53:24,10.547,0.003%,
628,2025-01-30 02:23:35,2025-01-30 02:28:05,270.855,0.086%,
629,2025-01-30 03:58:14,2025-01-30 04:02:46,272.18,0.086%,
630,2025-01-30 05:32:56,2025-01-30 05:37:27,271.103,0.086%,
631,2025-01-30 07:07:38,2025-01-30 07:09:02,83.682,0.027%,
632,2025-01-30 07:09:03,2025-01-30 07:12:06,182.882,0.058%,
633,2025-01-30 08:42:23,2025-01-30 08:46:25,242.537,0.077%,
634,2025-01-30 08:46:30,2025-01-30 08:46:42,12.185,0.004%,
635,2025-01-30 10:17:09,2025-01-30 10:17:49,39.633,0.013%,
636,2025-01-30 10:17:54,2025-01-30 10:21:07,192.184,0.061%,
637,2025-01-30 11:51:59,2025-01-30 11:55:47,227.845,0.072%,
638,2025-01-30 11:56:09,2025-01-30 11:56:34,25.137,0.008%,
639,2025-01-30 13:26:45,2025-01-30 13:31:16,271.09,0.086%,
640,2025-01-30 15:01:25,2025-01-30 15:05:57,272.183,0.086%,
641,2025-01-30 16:36:06,2025-01-30 16:40:37,270.869,0.086%,
642,2025-01-30 18:10:49,2025-01-30 18:15:16,266.84,0.085%,
643,2025-01-30 19:45:34,2025-01-30 19:49:36,242.162,0.077%,
644,2025-01-30 19:49:41,2025-01-30 19:49:51,9.617,0.003%,
645,2025-01-30 21:20:20,2025-01-30 21:21:01,40.453,0.013%,
646,2025-01-30 21:21:05,2025-01-30 21:24:17,192.329,0.061%,
647,2025-01-30 22:55:11,2025-01-30 22:58:57,226.454,0.072%,
648,2025-01-30 22:59:05,2025-01-30 22:59:45,39.901,0.013%,
649,2025-01-31 00:29:55,2025-01-31 00:31:50,114.759,0.036%,
650,2025-01-31 00:31:50,2025-01-31 00:34:26,156.132,0.050%,
651,2025-01-31 02:04:35,2025-01-31 02:09:07,272.159,0.086%,
652,2025-01-31 03:39:17,2025-01-31 03:43:47,270.613,0.086%,
653,2025-01-31 05:14:00,2025-01-31 05:18:26,266.259,0.084%,
654,2025-01-31 06:48:44,2025-01-31 06:52:46,241.76,0.077%,
655,2025-01-31 06:52:54,2025-01-31 06:53:00,5.975,0.002%,
656,2025-01-31 08:23:31,2025-01-31 08:24:13,41.436,0.013%,
657,2025-01-31 08:24:15,2025-01-31 08:27:27,192.44,0.061%,
658,2025-01-31 09:58:23,2025-01-31 10:02:55,272.531,0.086%,
659,2025-01-31 11:33:05,2025-01-31 11:35:00,114.873,0.036%,
660,2025-01-31 11:35:01,2025-01-31 11:37:37,155.789,0.049%,
661,2025-01-31 13:07:45,2025-01-31 13:12:17,272.112,0.086%,
662,2025-01-31 14:42:27,2025-01-31 14:46:57,270.323,0.086%,
663,2025-01-31 16:17:10,2025-01-31 16:21:36,265.632,0.084%,
664,2025-01-31 17:51:55,2025-01-31 17:55:57,241.338,0.077%,
665,2025-01-31 19:26:42,2025-01-31 19:27:25,42.132,0.013%,
666,2025-01-31 19:27:25,2025-01-31 19:30:38,192.534,0.061%,
667,2025-01-31 21:01:35,2025-01-31 21:06:06,270.9,0.086%,
668,2025-01-31 22:36:15,2025-01-31 22:40:47,271.663,0.086%,
669,2025-02-01 00:10:56,2025-02-01 00:15:28,272.048,0.086%,
670,2025-02-01 01:45:38,2025-02-01 01:50:08,270.013,0.086%,
671,2025-02-01 03:20:21,2025-02-01 03:24:46,264.958,0.084%,
672,2025-02-01 04:55:06,2025-02-01 04:55:51,44.718,0.014%,
673,2025-02-01 04:55:52,2025-02-01 04:59:07,195.031,0.062%,
674,2025-02-01 06:29:54,2025-02-01 06:33:48,234.398,0.074%,
675,2025-02-01 08:04:47,2025-02-01 08:09:16,269.099,0.085%,
676,2025-02-01 09:39:26,2025-02-01 09:43:57,271.807,0.086%,
677,2025-02-01 11:14:06,2025-02-01 11:18:38,271.956,0.086%,
678,2025-02-01 12:48:48,2025-02-01 12:50:11,83.249,0.026%,
679,2025-02-01 12:50:12,2025-02-01 12:53:18,185.341,0.059%,
680,2025-02-01 14:23:32,2025-02-01 14:27:56,264.228,0.084%,
681,2025-02-01 15:58:17,2025-02-01 15:59:01,44.034,0.014%,
682,2025-02-01 15:59:04,2025-02-01 16:02:17,193.79,0.062%,
683,2025-02-01 17:33:05,2025-02-01 17:36:58,233.542,0.074%,
684,2025-02-01 19:07:57,2025-02-01 19:12:27,269.493,0.086%,
685,2025-02-01 20:42:36,2025-02-01 20:47:08,271.928,0.086%,
686,2025-02-01 22:17:16,2025-02-01 22:21:48,271.845,0.086%,
687,2025-02-01 23:51:59,2025-02-01 23:53:22,82.938,0.026%,
688,2025-02-01 23:53:24,2025-02-01 23:56:28,183.966,0.058%,
689,2025-02-02 01:26:42,2025-02-02 01:30:46,243.9,0.077%,
690,2025-02-02 01:30:46,2025-02-02 01:31:06,19.528,0.006%,
691,2025-02-02 03:01:28,2025-02-02 03:02:11,43.309,0.014%,
692,2025-02-02 03:02:15,2025-02-02 03:05:28,192.388,0.061%,
693,2025-02-02 04:36:16,2025-02-02 04:40:09,232.629,0.074%,
694,2025-02-02 06:11:07,2025-02-02 06:15:37,269.859,0.086%,
695,2025-02-02 07:45:46,2025-02-02 07:50:18,272.024,0.086%,
696,2025-02-02 09:20:27,2025-02-02 09:24:59,271.714,0.086%,
697,2025-02-02 10:55:09,2025-02-02 10:56:32,82.601,0.026%,
698,2025-02-02 10:56:35,2025-02-02 10:59:38,183.377,0.058%,
699,2025-02-02 12:29:53,2025-02-02 12:33:57,243.621,0.077%,
700,2025-02-02 12:33:58,2025-02-02 12:34:16,18.125,0.006%,
701,2025-02-02 14:04:39,2025-02-02 14:05:21,42.54,0.014%,
702,2025-02-02 14:05:27,2025-02-02 14:08:38,191.553,0.061%,
703,2025-02-02 15:39:27,2025-02-02 15:43:19,231.648,0.074%,
704,2025-02-02 17:14:17,2025-02-02 17:18:47,270.191,0.086%,
705,2025-02-02 18:48:56,2025-02-02 18:53:28,272.095,0.086%,
706,2025-02-02 20:23:37,2025-02-02 20:28:09,271.553,0.086%,
707,2025-02-02 21:58:20,2025-02-02 21:59:42,82.229,0.026%,
708,2025-02-02 21:59:45,2025-02-02 22:02:48,183.265,0.058%,
709,2025-02-02 23:33:04,2025-02-02 23:37:07,243.317,0.077%,
710,2025-02-02 23:37:09,2025-02-02 23:37:25,16.575,0.005%,
711,2025-02-03 01:07:50,2025-02-03 01:08:31,41.723,0.013%,
712,2025-02-03 01:08:37,2025-02-03 01:11:49,191.77,0.061%,
713,2025-02-03 02:42:39,2025-02-03 02:46:29,230.602,0.073%,
714,2025-02-03 04:17:27,2025-02-03 04:21:58,270.496,0.086%,
715,2025-02-03 05:52:07,2025-02-03 05:56:39,272.146,0.086%,
716,2025-02-03 07:26:48,2025-02-03 07:31:19,271.376,0.086%,
717,2025-02-03 09:01:30,2025-02-03 09:02:53,82.102,0.026%,
718,2025-02-03 09:02:55,2025-02-03 09:05:58,183.121,0.058%,
719,2025-02-03 10:36:15,2025-02-03 10:40:18,242.996,0.077%,
720,2025-02-03 10:40:20,2025-02-03 10:40:35,14.851,0.005%,
721,2025-02-03 12:11:01,2025-02-03 12:11:42,40.853,0.013%,
722,2025-02-03 12:11:47,2025-02-03 12:14:59,191.967,0.061%,
723,2025-02-03 13:45:50,2025-02-03 13:49:40,229.474,0.073%,
724,2025-02-03 15:20:37,2025-02-03 15:25:08,270.771,0.086%,
725,2025-02-03 16:55:17,2025-02-03 16:59:49,272.177,0.086%,
726,2025-02-03 18:29:58,2025-02-03 18:34:29,271.17,0.086%,
727,2025-02-03 20:04:41,2025-02-03 20:06:04,83.342,0.026%,
728,2025-02-03 20:06:06,2025-02-03 20:09:09,182.943,0.058%,
729,2025-02-03 21:39:25,2025-02-03 21:43:28,242.648,0.077%,
730,2025-02-03 21:43:32,2025-02-03 21:43:45,12.868,0.004%,
731,2025-02-03 23:14:12,2025-02-03 23:14:52,39.934,0.013%,
732,2025-02-03 23:14:57,2025-02-03 23:18:09,192.137,0.061%,
733,2025-02-04 00:49:02,2025-02-04 00:52:50,228.248,0.072%,
734,2025-02-04 02:23:48,2025-02-04 02:28:19,271.021,0.086%,
735,2025-02-04 03:58:27,2025-02-04 04:02:59,272.183,0.086%,
736,2025-02-04 05:33:09,2025-02-04 05:37:40,270.943,0.086%,
737,2025-02-04 07:07:52,2025-02-04 07:12:19,267.009,0.085%,
738,2025-02-04 08:42:36,2025-02-04 08:46:38,242.28,0.077%,
739,2025-02-04 08:46:44,2025-02-04 08:46:54,10.482,0.003%,
740,2025-02-04 10:17:23,2025-02-04 10:18:03,40.071,0.013%,
741,2025-02-04 10:18:07,2025-02-04 10:21:20,192.284,0.061%,
742,2025-02-04 11:52:13,2025-02-04 11:56:00,226.899,0.072%,
743,2025-02-04 11:56:46,2025-02-04 11:56:48,1.642,0.001%,
744,2025-02-04 13:26:58,2025-02-04 13:28:52,114.719,0.036%,
745,2025-02-04 13:28:52,2025-02-04 13:31:29,156.437,0.050%,
746,2025-02-04 15:01:38,2025-02-04 15:06:10,272.167,0.086%,
747,2025-02-04 16:36:19,2025-02-04 16:40:50,270.692,0.086%,
748,2025-02-04 18:11:02,2025-02-04 18:15:29,266.442,0.085%,
749,2025-02-04 19:45:47,2025-02-04 19:49:49,241.885,0.077%,
750,2025-02-04 19:49:56,2025-02-04 19:50:03,7.3,0.002%,
751,2025-02-04 21:20:34,2025-02-04 21:21:15,41.171,0.013%,
752,2025-02-04 21:21:18,2025-02-04 21:24:30,192.412,0.061%,
753,2025-02-04 22:55:25,2025-02-04 22:59:10,225.399,0.072%,
754,2025-02-04 22:59:40,2025-02-04 22:59:58,18.31,0.006%,
755,2025-02-05 00:30:08,2025-02-05 00:32:03,114.842,0.036%,
756,2025-02-05 00:32:04,2025-02-05 00:34:39,155.781,0.049%,
757,2025-02-05 02:04:48,2025-02-05 02:09:20,272.127,0.086%,
758,2025-02-05 03:39:30,2025-02-05 03:44:00,270.419,0.086%,
759,2025-02-05 05:14:13,2025-02-05 05:18:39,265.831,0.084%,
760,2025-02-05 06:48:58,2025-02-05 06:52:59,241.469,0.077%,
761,2025-02-05 08:23:45,2025-02-05 08:24:27,41.941,0.013%,
762,2025-02-05 08:24:28,2025-02-05 08:27:40,192.508,0.061%,
763,2025-02-05 09:58:37,2025-02-05 10:02:21,223.684,0.071%,
764,2025-02-05 10:02:33,2025-02-05 10:03:08,35.16,0.011%,
765,2025-02-05 11:33:18,2025-02-05 11:35:14,115.639,0.037%,
766,2025-02-05 11:35:14,2025-02-05 11:37:50,155.806,0.049%,
767,2025-02-05 13:07:58,2025-02-05 13:12:30,272.067,0.086%,
768,2025-02-05 14:42:40,2025-02-05 14:47:10,270.111,0.086%,
769,2025-02-05 16:17:24,2025-02-05 16:21:49,265.173,0.084%,
770,2025-02-05 17:52:09,2025-02-05 17:52:54,44.922,0.014%,
771,2025-02-05 17:52:54,2025-02-05 17:56:10,195.392,0.062%,
772,2025-02-05 19:26:56,2025-02-05 19:30:51,234.653,0.074%,
773,2025-02-05 21:01:49,2025-02-05 21:06:19,269.569,0.086%,
774,2025-02-05 22:36:28,2025-02-05 22:41:00,271.766,0.086%,
775,2025-02-06 00:11:09,2025-02-06 00:15:41,271.989,0.086%,
776,2025-02-06 01:45:51,2025-02-06 01:47:14,83.335,0.026%,
777,2025-02-06 01:47:15,2025-02-06 01:50:21,185.743,0.059%,
778,2025-02-06 03:20:34,2025-02-06 03:24:59,264.463,0.084%,
779,2025-02-06 04:55:20,2025-02-06 04:56:04,44.25,0.014%,
780,2025-02-06 04:56:06,2025-02-06 04:59:20,194.189,0.062%,
781,2025-02-06 06:30:07,2025-02-06 06:34:01,233.811,0.074%,
782,2025-02-06 08:05:00,2025-02-06 08:09:29,269.378,0.085%,
783,2025-02-06 09:39:39,2025-02-06 09:44:10,271.89,0.086%,
784,2025-02-06 11:14:19,2025-02-06 11:18:51,271.882,0.086%,
785,2025-02-06 12:49:01,2025-02-06 12:50:24,83.039,0.026%,
786,2025-02-06 12:50:26,2025-02-06 12:53:31,184.406,0.059%,
787,2025-02-06 14:23:45,2025-02-06 14:28:09,263.694,0.084%,
788,2025-02-06 15:58:30,2025-02-06 15:59:14,43.546,0.014%,
789,2025-02-06 15:59:18,2025-02-06 16:02:30,192.842,0.061%,
790,2025-02-06 17:33:18,2025-02-06 17:37:11,232.919,0.074%,
791,2025-02-06 19:08:10,2025-02-06 19:12:40,269.749,0.086%,
792,2025-02-06 20:42:49,2025-02-06 20:47:21,271.997,0.086%,
793,2025-02-06 22:17:30,2025-02-06 22:22:01,271.754,0.086%,
794,2025-02-06 23:52:12,2025-02-06 23:53:35,82.709,0.026%,
795,2025-02-06 23:53:38,2025-02-06 23:56:41,183.401,0.058%,
796,2025-02-07 01:26:56,2025-02-07 01:30:59,243.71,0.077%,
797,2025-02-07 01:31:00,2025-02-07 01:31:19,18.57,0.006%,
798,2025-02-07 03:01:41,2025-02-07 03:02:24,42.784,0.014%,
799,2025-02-07 03:02:29,2025-02-07 03:05:41,191.476,0.061%,
800,2025-02-07 04:36:30,2025-02-07 04:40:22,231.958,0.074%,
801,2025-02-07 06:11:20,2025-02-07 06:15:50,270.094,0.086%,
802,2025-02-07 07:45:59,2025-02-07 07:50:31,272.077,0.086%,
803,2025-02-07 09:20:40,2025-02-07 09:25:12,271.604,0.086%,
804,2025-02-07 10:55:22,2025-02-07 10:56:45,82.347,0.026%,
805,2025-02-07 10:56:48,2025-02-07 10:59:51,183.302,0.058%,
806,2025-02-07 12:30:06,2025-02-07 12:34:10,243.411,0.077%,
807,2025-02-07 12:34:11,2025-02-07 12:34:28,17.069,0.005%,
808,2025-02-07 14:04:52,2025-02-07 14:05:34,41.98,0.013%,
809,2025-02-07 14:05:40,2025-02-07 14:08:51,191.709,0.061%,
810,2025-02-07 15:39:41,2025-02-07 15:43:32,230.935,0.073%,
811,2025-02-07 17:14:30,2025-02-07 17:19:00,270.406,0.086%,
812,2025-02-07 18:49:09,2025-02-07 18:53:42,272.132,0.086%,
813,2025-02-07 20:23:50,2025-02-07 20:28:22,271.431,0.086%,
814,2025-02-07 21:58:33,2025-02-07 21:59:55,81.954,0.026%,
815,2025-02-07 21:59:58,2025-02-07 22:03:01,183.169,0.058%,
816,2025-02-07 23:33:17,2025-02-07 23:37:20,243.096,0.077%,
817,2025-02-07 23:37:23,2025-02-07 23:37:38,15.407,0.005%,
818,2025-02-08 01:08:03,2025-02-08 01:08:44,41.13,0.013%,
819,2025-02-08 01:08:50,2025-02-08 01:12:02,191.908,0.061%,
820,2025-02-08 02:42:52,2025-02-08 02:46:42,229.832,0.073%,
821,2025-02-08 04:17:40,2025-02-08 04:22:11,270.693,0.086%,
822,2025-02-08 05:52:20,2025-02-08 05:56:52,272.168,0.086%,
823,2025-02-08 07:27:01,2025-02-08 07:31:32,271.238,0.086%,
824,2025-02-08 09:01:44,2025-02-08 09:03:07,82.985,0.026%,
825,2025-02-08 09:03:08,2025-02-08 09:06:11,183.001,0.058%,
826,2025-02-08 10:36:28,2025-02-08 10:40:31,242.76,0.077%,
827,2025-02-08 10:40:34,2025-02-08 10:40:48,13.509,0.004%,
828,2025-02-08 12:11:14,2025-02-08 12:11:54,40.226,0.013%,
829,2025-02-08 12:12:00,2025-02-08 12:15:12,192.086,0.061%,
830,2025-02-08 13:46:04,2025-02-08 13:49:53,228.636,0.073%,
831,2025-02-08 15:20:50,2025-02-08 15:25:21,270.95,0.086%,
832,2025-02-08 16:55:30,2025-02-08 17:00:02,272.182,0.086%,
833,2025-02-08 18:30:11,2025-02-08 18:34:42,271.016,0.086%,
834,2025-02-08 20:04:54,2025-02-08 20:06:18,84.074,0.027%,
835,2025-02-08 20:06:19,2025-02-08 20:09:21,182.8,0.058%,
836,2025-02-08 21:39:39,2025-02-08 21:43:41,242.395,0.077%,
837,2025-02-08 21:43:46,2025-02-08 21:43:57,11.269,0.004%,
838,2025-02-08 23:14:25,2025-02-08 23:15:05,39.635,0.013%,
839,2025-02-08 23:15:10,2025-02-08 23:18:22,192.241,0.061%,
840,2025-02-09 00:49:16,2025-02-09 00:53:03,227.327,0.072%,
841,2025-02-09 02:24:00,2025-02-09 02:28:32,271.179,0.086%,
842,2025-02-09 03:58:40,2025-02-09 04:03:13,272.174,0.086%,
843,2025-02-09 05:33:22,2025-02-09 05:37:53,270.771,0.086%,
844,2025-02-09 07:08:05,2025-02-09 07:12:32,266.618,0.085%,
845,2025-02-09 08:42:50,2025-02-09 08:46:52,242.011,0.077%,
846,2025-02-09 08:46:58,2025-02-09 08:47:06,8.41,0.003%,
847,2025-02-09 10:17:36,2025-02-09 10:18:17,40.873,0.013%,
848,2025-02-09 10:18:20,2025-02-09 10:21:33,192.37,0.061%,
849,2025-02-09 11:52:27,2025-02-09 11:56:13,225.874,0.072%,
850,2025-02-09 13:27:11,2025-02-09 13:29:05,114.808,0.036%,
851,2025-02-09 13:29:06,2025-02-09 13:31:42,155.767,0.049%,
852,2025-02-09 15:01:51,2025-02-09 15:06:23,272.143,0.086%,
853,2025-02-09 16:36:32,2025-02-09 16:41:03,270.502,0.086%,
854,2025-02-09 18:11:16,2025-02-09 18:15:42,266.022,0.084%,
855,2025-02-09 19:46:00,2025-02-09 19:50:02,241.6,0.077%,
856,2025-02-09 19:50:11,2025-02-09 19:50:15,3.699,0.001%,
857,2025-02-09 21:20:47,2025-02-09 21:21:29,41.731,0.013%,
858,2025-02-09 21:21:31,2025-02-09 21:24:43,192.485,0.061%,
859,2025-02-09 22:55:39,2025-02-09 22:59:23,224.239,0.071%,
860,2025-02-09 22:59:54,2025-02-09 23:00:11,17.311,0.006%,
861,2025-02-10 00:30:21,2025-02-10 00:32:16,115.221,0.037%,
862,2025-02-10 00:32:17,2025-02-10 00:34:52,155.801,0.049%,
863,2025-02-10 02:05:01,2025-02-10 02:09:33,272.089,0.086%,
864,2025-02-10 03:39:43,2025-02-10 03:44:13,270.212,0.086%,
865,2025-02-10 05:14:26,2025-02-10 05:18:52,265.377,0.084%,
866,2025-02-10 06:49:11,2025-02-10 06:49:56,45.12,0.014%,
867,2025-02-10 06:49:57,2025-02-10 06:53:12,195.733,0.062%,
868,2025-02-10 08:23:59,2025-02-10 08:27:53,234.903,0.075%,
869,2025-02-10 09:58:51,2025-02-10 10:02:34,222.32,0.071%,
870,2025-02-10 10:02:46,2025-02-10 10:03:22,36.005,0.011%,
871,2025-02-10 11:33:31,2025-02-10 11:38:03,271.72,0.086%,
872,2025-02-10 13:08:11,2025-02-10 13:12:43,272.013,0.086%,
873,2025-02-10 14:42:53,2025-02-10 14:44:17,83.42,0.027%,
874,2025-02-10 14:44:17,2025-02-10 14:47:23,186.129,0.059%,
875,2025-02-10 16:17:37,2025-02-10 16:22:02,264.686,0.084%,
876,2025-02-10 17:52:22,2025-02-10 17:53:07,44.463,0.014%,
877,2025-02-10 17:53:08,2025-02-10 17:56:23,194.574,0.062%,
878,2025-02-10 19:27:10,2025-02-10 19:31:04,234.076,0.074%,
879,2025-02-10 21:02:03,2025-02-10 21:06:32,269.254,0.085%,
880,2025-02-10 22:36:41,2025-02-10 22:41:13,271.858,0.086%,
881,2025-02-11 00:11:22,2025-02-11 00:15:54,271.918,0.086%,
882,2025-02-11 01:46:04,2025-02-11 01:47:27,83.131,0.026%,
883,2025-02-11 01:47:29,2025-02-11 01:50:34,184.827,0.059%,
884,2025-02-11 03:20:48,2025-02-11 03:25:12,263.934,0.084%,
885,2025-02-11 04:55:33,2025-02-11 04:56:17,43.765,0.014%,
886,2025-02-11 04:56:20,2025-02-11 04:59:33,193.273,0.061%,
887,2025-02-11 06:30:21,2025-02-11 06:34:14,233.197,0.074%,
888,2025-02-11 08:05:13,2025-02-11 08:09:42,269.638,0.086%,
889,2025-02-11 09:39:52,2025-02-11 09:44:24,271.963,0.086%,
890,2025-02-11 11:14:32,2025-02-11 11:19:04,271.796,0.086%,
891,2025-02-11 12:49:15,2025-02-11 12:50:37,82.814,0.026%,
892,2025-02-11 12:50:40,2025-02-11 12:53:44,183.426,0.058%,
893,2025-02-11 14:23:58,2025-02-11 14:28:02,243.798,0.077%,
894,2025-02-11 14:28:02,2025-02-11 14:28:21,18.998,0.006%,
895,2025-02-11 15:58:44,2025-02-11 15:59:27,43.02,0.014%,
896,2025-02-11 15:59:32,2025-02-11 16:02:44,191.793,0.061%,
897,2025-02-11 17:33:32,2025-02-11 17:37:24,232.261,0.074%,
898,2025-02-11 19:08:23,2025-02-11 19:12:53,269.992,0.086%,
899,2025-02-11 20:43:02,2025-02-11 20:47:34,272.054,0.086%,
900,2025-02-11 22:17:43,2025-02-11 22:22:14,271.653,0.086%,
901,2025-02-11 23:52:25,2025-02-11 23:53:48,82.462,0.026%,
902,2025-02-11 23:53:51,2025-02-11 23:56:54,183.334,0.058%,
903,2025-02-12 01:27:09,2025-02-12 01:31:13,243.505,0.077%,
904,2025-02-12 01:31:14,2025-02-12 01:31:31,17.545,0.006%,
905,2025-02-12 03:01:55,2025-02-12 03:02:37,42.232,0.013%,
906,2025-02-12 03:02:42,2025-02-12 03:05:54,191.638,0.061%,
907,2025-02-12 04:36:43,2025-02-12 04:40:35,231.258,0.073%,
908,2025-02-12 06:11:33,2025-02-12 06:16:03,270.314,0.086%,
909,2025-02-12 07:46:12,2025-02-12 07:50:44,272.118,0.086%,
910,2025-02-12 09:20:53,2025-02-12 09:25:25,271.486,0.086%,
911,2025-02-12 10:55:36,2025-02-12 10:56:58,82.078,0.026%,
912,2025-02-12 10:57:01,2025-02-12 11:00:04,183.211,0.058%,
913,2025-02-12 12:30:20,2025-02-12 12:34:23,243.195,0.077%,
914,2025-02-12 12:34:25,2025-02-12 12:34:41,15.934,0.005%,
915,2025-02-12 14:05:06,2025-02-12 14:05:47,41.395,0.013%,
916,2025-02-12 14:05:52,2025-02-12 14:09:04,191.851,0.061%,
917,2025-02-12 15:39:55,2025-02-12 15:43:45,230.179,0.073%,
918,2025-02-12 17:14:43,2025-02-12 17:19:14,270.607,0.086%,
919,2025-02-12 18:49:22,2025-02-12 18:53:55,272.158,0.086%,
920,2025-02-12 20:24:04,2025-02-12 20:28:35,271.297,0.086%,
921,2025-02-12 21:58:46,2025-02-12 22:00:09,82.608,0.026%,
922,2025-02-12 22:00:11,2025-02-12 22:03:14,183.055,0.058%,
923,2025-02-12 23:33:31,2025-02-12 23:37:33,242.863,0.077%,
924,2025-02-12 23:37:37,2025-02-12 23:37:51,14.12,0.005%,
925,2025-02-13 01:08:17,2025-02-13 01:08:57,40.506,0.013%,
926,2025-02-13 01:09:03,2025-02-13 01:12:15,192.034,0.061%,
927,2025-02-13 02:43:06,2025-02-13 02:46:55,229.014,0.073%,
928,2025-02-13 04:17:53,2025-02-13 04:22:24,270.868,0.086%,
929,2025-02-13 05:52:33,2025-02-13 05:57:05,272.18,0.086%,
930,2025-02-13 07:27:14,2025-02-13 07:31:45,271.087,0.086%,
931,2025-02-13 09:01:57,2025-02-13 09:03:21,83.763,0.027%,
932,2025-02-13 09:03:21,2025-02-13 09:06:24,182.865,0.058%,
933,2025-02-13 10:36:41,2025-02-13 10:40:44,242.512,0.077%,
934,2025-02-13 10:40:48,2025-02-13 10:41:00,12.002,0.004%,
935,2025-02-13 12:11:28,2025-02-13 12:12:07,39.56,0.013%,
936,2025-02-13 12:12:13,2025-02-13 12:15:25,192.195,0.061%,
937,2025-02-13 13:46:18,2025-02-13 13:50:06,227.743,0.072%,
938,2025-02-13 15:21:03,2025-02-13 15:25:34,271.107,0.086%,
939,2025-02-13 16:55:43,2025-02-13 17:00:15,272.181,0.086%,
940,2025-02-13 18:30:25,2025-02-13 18:34:55,270.848,0.086%,
941,2025-02-13 20:05:08,2025-02-13 20:09:34,266.795,0.085%,
942,2025-02-13 21:39:52,2025-02-13 21:43:54,242.131,0.077%,
943,2025-02-13 21:44:00,2025-02-13 21:44:09,9.381,0.003%,
944,2025-02-13 23:14:39,2025-02-13 23:15:19,40.542,0.013%,
945,2025-02-13 23:15:23,2025-02-13 23:18:35,192.335,0.061%,
946,2025-02-14 00:49:30,2025-02-14 00:53:16,226.343,0.072%,
947,2025-02-14 02:24:13,2025-02-14 02:26:08,114.771,0.036%,
948,2025-02-14 02:26:09,2025-02-14 02:28:45,156.052,0.050%,
949,2025-02-14 03:58:53,2025-02-14 04:03:26,272.154,0.086%,
950,2025-02-14 05:33:35,2025-02-14 05:38:06,270.587,0.086%,
951,2025-02-14 07:08:18,2025-02-14 07:12:44,266.209,0.084%,
952,2025-02-14 08:43:03,2025-02-14 08:47:05,241.728,0.077%,
953,2025-02-14 08:47:13,2025-02-14 08:47:18,5.585,0.002%,
954,2025-02-14 10:17:50,2025-02-14 10:18:31,41.496,0.013%,
955,2025-02-14 10:18:33,2025-02-14 10:21:46,192.447,0.061%,
956,2025-02-14 11:52:41,2025-02-14 11:56:26,224.768,0.071%,
957,2025-02-14 11:56:58,2025-02-14 11:57:14,15.573,0.005%,
958,2025-02-14 13:27:24,2025-02-14 13:29:18,114.879,0.036%,
959,2025-02-14 13:29:19,2025-02-14 13:31:55,155.791,0.049%,
960,2025-02-14 15:02:04,2025-02-14 15:06:36,272.107,0.086%,
961,2025-02-14 16:36:46,2025-02-14 16:41:16,270.3,0.086%,
962,2025-02-14 18:11:29,2025-02-14 18:15:54,265.577,0.084%,
963,2025-02-14 19:46:14,2025-02-14 19:50:15,241.302,0.077%,
964,2025-02-14 21:21:01,2025-02-14 21:21:43,42.176,0.013%,
965,2025-02-14 21:21:44,2025-02-14 21:24:56,192.546,0.061%,
966,2025-02-14 22:55:53,2025-02-14 22:59:36,222.948,0.071%,
967,2025-02-14 22:59:48,2025-02-14 23:00:24,35.841,0.011%,
968,2025-02-15 00:30:34,2025-02-15 00:35:05,271.674,0.086%,
969,2025-02-15 02:05:14,2025-02-15 02:09:46,272.038,0.086%,
970,2025-02-15 03:39:56,2025-02-15 03:44:26,269.992,0.086%,
971,2025-02-15 05:14:40,2025-02-15 05:19:04,264.903,0.084%,
972,2025-02-15 06:49:25,2025-02-15 06:50:09,44.669,0.014%,
973,2025-02-15 06:50:11,2025-02-15 06:53:26,194.941,0.062%,
974,2025-02-15 08:24:12,2025-02-15 08:28:06,234.334,0.074%,
975,2025-02-15 09:59:06,2025-02-15 10:03:35,269.132,0.085%,
976,2025-02-15 11:33:44,2025-02-15 11:38:16,271.819,0.086%,
977,2025-02-15 13:08:25,2025-02-15 13:12:57,271.949,0.086%,
978,2025-02-15 14:43:07,2025-02-15 14:44:30,83.225,0.026%,
979,2025-02-15 14:44:31,2025-02-15 14:47:36,185.24,0.059%,
980,2025-02-15 16:17:50,2025-02-15 16:22:14,264.171,0.084%,
981,2025-02-15 17:52:36,2025-02-15 17:53:20,43.985,0.014%,
982,2025-02-15 17:53:22,2025-02-15 17:56:36,193.692,0.061%,
983,2025-02-15 19:27:23,2025-02-15 19:31:17,233.472,0.074%,
984,2025-02-15 21:02:16,2025-02-15 21:06:45,269.523,0.086%,
985,2025-02-15 22:36:54,2025-02-15 22:41:26,271.932,0.086%,
986,2025-02-16 00:11:35,2025-02-16 00:16:07,271.838,0.086%,
987,2025-02-16 01:46:17,2025-02-16 01:47:40,82.916,0.026%,
988,2025-02-16 01:47:43,2025-02-16 01:50:46,183.855,0.058%,
989,2025-02-16 03:21:01,2025-02-16 03:25:05,243.88,0.077%,
990,2025-02-16 03:25:05,2025-02-16 03:25:24,19.422,0.006%,
991,2025-02-16 04:55:46,2025-02-16 04:56:30,43.253,0.014%,
992,2025-02-16 04:56:34,2025-02-16 04:59:46,192.273,0.061%,
993,2025-02-16 06:30:35,2025-02-16 06:34:27,232.557,0.074%,
994,2025-02-16 08:05:26,2025-02-16 08:09:55,269.886,0.086%,
995,2025-02-16 09:40:05,2025-02-16 09:44:37,272.028,0.086%,
996,2025-02-16 11:14:45,2025-02-16 11:19:17,271.7,0.086%,
997,2025-02-16 12:49:28,2025-02-16 12:50:50,82.574,0.026%,
998,2025-02-16 12:50:53,2025-02-16 12:53:57,183.367,0.058%,
999,2025-02-16 14:24:12,2025-02-16 14:28:15,243.602,0.077%,
1000,2025-02-16 14:28:16,2025-02-16 14:28:34,18.005,0.006%,
1001,2025-02-16 15:58:57,2025-02-16 15:59:40,42.481,0.014%,
1002,2025-02-16 15:59:45,2025-02-16 16:02:57,191.567,0.061%,
1003,2025-02-16 17:33:46,2025-02-16 17:37:37,231.575,0.073%,
1004,2025-02-16 19:08:36,2025-02-16 19:13:06,270.214,0.086%,
1005,2025-02-16 20:43:15,2025-02-16 20:47:47,272.1,0.086%,
1006,2025-02-16 22:17:56,2025-02-16 22:22:27,271.54,0.086%,
1007,2025-02-16 23:52:38,2025-02-16 23:54:01,82.2,0.026%,
