3UCubedIntegratedSim/Reports & Plots/Comms/UNH/Sat 5 Comms.csv

"Access","Start Time (UTCG)","Stop Time (UTCG)","Duration (sec)"
1,1 Jan 2025 19:20:09.267,1 Jan 2025 19:25:58.642,349.375
2,1 Jan 2025 20:50:13.743,1 Jan 2025 21:01:37.929,684.187
3,1 Jan 2025 22:25:20.295,1 Jan 2025 22:34:42.629,562.334
4,2 Jan 2025 08:20:50.314,2 Jan 2025 08:26:25.105,334.791
5,2 Jan 2025 09:52:23.941,2 Jan 2025 10:03:55.737,691.796
6,2 Jan 2025 11:26:58.040,2 Jan 2025 11:35:59.336,541.296
7,2 Jan 2025 19:03:57.375,2 Jan 2025 19:05:26.284,88.909
8,2 Jan 2025 20:31:48.528,2 Jan 2025 20:42:47.437,658.909
9,2 Jan 2025 22:05:55.555,2 Jan 2025 22:16:22.753,627.199
10,3 Jan 2025 09:33:46.958,3 Jan 2025 09:45:01.093,674.135
11,3 Jan 2025 11:07:54.557,3 Jan 2025 11:18:00.443,605.885
12,3 Jan 2025 20:13:34.266,3 Jan 2025 20:23:51.882,617.616
13,3 Jan 2025 21:46:45.941,3 Jan 2025 21:57:53.687,667.746
14,4 Jan 2025 09:15:16.235,4 Jan 2025 09:25:54.442,638.207
15,4 Jan 2025 10:48:57.736,4 Jan 2025 10:59:48.796,651.060
16,4 Jan 2025 19:55:32.291,4 Jan 2025 20:04:50.091,557.800
17,4 Jan 2025 21:27:48.725,4 Jan 2025 21:39:17.996,689.271
18,4 Jan 2025 23:05:47.629,4 Jan 2025 23:10:30.276,282.647
19,5 Jan 2025 08:56:53.955,5 Jan 2025 09:06:33.471,579.516
20,5 Jan 2025 10:30:06.158,5 Jan 2025 10:41:25.981,679.823
21,5 Jan 2025 12:05:58.420,5 Jan 2025 12:11:10.472,312.052
22,5 Jan 2025 19:37:45.489,5 Jan 2025 19:45:39.384,473.895
23,5 Jan 2025 21:09:02.536,5 Jan 2025 21:20:36.955,694.419
24,5 Jan 2025 22:45:20.270,5 Jan 2025 22:53:00.157,459.887
25,6 Jan 2025 08:38:44.826,6 Jan 2025 08:46:53.224,488.399
26,6 Jan 2025 10:11:19.285,6 Jan 2025 10:22:52.677,693.392
27,6 Jan 2025 11:46:25.084,6 Jan 2025 11:53:54.344,449.261
28,6 Jan 2025 19:20:21.322,6 Jan 2025 19:26:12.510,351.188
29,6 Jan 2025 20:50:26.783,6 Jan 2025 21:01:51.176,684.393
30,6 Jan 2025 22:25:34.078,6 Jan 2025 22:34:55.471,561.393
31,7 Jan 2025 08:21:02.479,7 Jan 2025 08:26:39.704,337.225
32,7 Jan 2025 09:52:37.089,7 Jan 2025 10:04:08.994,691.905
33,7 Jan 2025 11:27:11.517,7 Jan 2025 11:36:11.918,540.401
34,7 Jan 2025 19:04:06.498,7 Jan 2025 19:05:43.004,96.506
35,7 Jan 2025 20:32:01.444,7 Jan 2025 20:43:00.741,659.297
36,7 Jan 2025 22:06:09.137,7 Jan 2025 22:16:35.729,626.593
37,8 Jan 2025 09:34:00.042,8 Jan 2025 09:45:14.483,674.441
38,8 Jan 2025 11:08:07.942,8 Jan 2025 11:18:13.190,605.248
39,8 Jan 2025 20:13:47.048,8 Jan 2025 20:24:05.249,618.202
40,8 Jan 2025 21:46:59.365,8 Jan 2025 21:58:06.752,667.388
41,9 Jan 2025 09:15:29.235,9 Jan 2025 09:26:07.985,638.750
42,9 Jan 2025 10:49:11.053,9 Jan 2025 11:00:01.681,650.629
43,9 Jan 2025 19:55:44.916,9 Jan 2025 20:05:03.542,558.626
44,9 Jan 2025 21:28:02.013,9 Jan 2025 21:39:31.130,689.117
45,9 Jan 2025 23:06:02.549,9 Jan 2025 23:10:42.141,279.592
46,10 Jan 2025 08:57:06.835,10 Jan 2025 09:06:47.197,580.362
47,10 Jan 2025 10:30:19.417,10 Jan 2025 10:41:38.992,679.575
48,10 Jan 2025 12:06:12.421,10 Jan 2025 12:11:22.374,309.953
49,10 Jan 2025 19:37:57.903,10 Jan 2025 19:45:52.966,475.063
50,10 Jan 2025 21:09:15.699,10 Jan 2025 21:20:50.146,694.447
51,10 Jan 2025 22:45:34.372,10 Jan 2025 22:53:12.758,458.386
52,11 Jan 2025 08:38:57.502,11 Jan 2025 08:47:07.230,489.728
53,11 Jan 2025 10:11:32.490,11 Jan 2025 10:23:05.811,693.322
54,11 Jan 2025 11:46:38.715,11 Jan 2025 11:54:06.695,447.981
55,11 Jan 2025 19:20:33.385,11 Jan 2025 19:26:26.370,352.985
56,11 Jan 2025 20:50:39.824,11 Jan 2025 21:02:04.421,684.597
57,11 Jan 2025 22:25:47.866,11 Jan 2025 22:35:08.312,560.447
58,12 Jan 2025 08:21:14.653,12 Jan 2025 08:26:54.292,339.639
59,12 Jan 2025 09:52:50.237,12 Jan 2025 10:04:22.250,692.013
60,12 Jan 2025 11:27:24.995,12 Jan 2025 11:36:24.497,539.502
61,12 Jan 2025 19:04:15.914,12 Jan 2025 19:05:59.431,103.517
62,12 Jan 2025 20:32:14.361,12 Jan 2025 20:43:14.043,659.682
63,12 Jan 2025 22:06:22.719,12 Jan 2025 22:16:48.704,625.985
64,13 Jan 2025 09:34:13.125,13 Jan 2025 09:45:27.870,674.745
65,13 Jan 2025 11:08:21.327,13 Jan 2025 11:18:25.934,604.607
66,13 Jan 2025 20:13:59.830,13 Jan 2025 20:24:18.614,618.784
67,13 Jan 2025 21:47:12.793,13 Jan 2025 21:58:19.815,667.022
68,14 Jan 2025 09:15:42.234,14 Jan 2025 09:26:21.525,639.291
69,14 Jan 2025 10:49:24.365,14 Jan 2025 11:00:14.564,650.199
70,14 Jan 2025 19:55:57.537,14 Jan 2025 20:05:16.986,559.449
71,14 Jan 2025 21:28:15.301,14 Jan 2025 21:39:44.261,688.960
72,14 Jan 2025 23:06:17.484,14 Jan 2025 23:10:53.980,276.497
73,15 Jan 2025 08:57:19.716,15 Jan 2025 09:07:00.927,581.212
74,15 Jan 2025 10:30:32.676,15 Jan 2025 10:41:52.000,679.324
75,15 Jan 2025 12:06:26.428,15 Jan 2025 12:11:34.273,307.845
76,15 Jan 2025 19:38:10.326,15 Jan 2025 19:46:06.545,476.219
77,15 Jan 2025 21:09:28.861,15 Jan 2025 21:21:03.336,694.475
78,15 Jan 2025 22:45:48.479,15 Jan 2025 22:53:25.353,456.874
79,16 Jan 2025 08:39:10.183,16 Jan 2025 08:47:21.231,491.048
80,16 Jan 2025 10:11:45.695,16 Jan 2025 10:23:18.943,693.248
81,16 Jan 2025 11:46:52.346,16 Jan 2025 11:54:19.044,446.697
82,16 Jan 2025 19:20:45.452,16 Jan 2025 19:26:40.228,354.775
83,16 Jan 2025 20:50:52.866,16 Jan 2025 21:02:17.665,684.800
84,16 Jan 2025 22:26:01.656,16 Jan 2025 22:35:21.150,559.494
85,17 Jan 2025 08:21:26.839,17 Jan 2025 08:27:08.865,342.026
86,17 Jan 2025 09:53:03.385,17 Jan 2025 10:04:35.503,692.118
87,17 Jan 2025 11:27:38.474,17 Jan 2025 11:36:37.077,538.603
88,17 Jan 2025 19:04:25.549,17 Jan 2025 19:06:15.640,110.091
89,17 Jan 2025 20:32:27.279,17 Jan 2025 20:43:27.344,660.065
90,17 Jan 2025 22:06:36.304,17 Jan 2025 22:17:01.677,625.373
91,18 Jan 2025 09:34:26.208,18 Jan 2025 09:45:41.256,675.048
92,18 Jan 2025 11:08:34.712,18 Jan 2025 11:18:38.678,603.965
93,18 Jan 2025 20:14:12.614,18 Jan 2025 20:24:31.979,619.365
94,18 Jan 2025 21:47:26.215,18 Jan 2025 21:58:32.878,666.663
95,19 Jan 2025 09:15:55.237,19 Jan 2025 09:26:35.063,639.826
96,19 Jan 2025 10:49:37.683,19 Jan 2025 11:00:27.446,649.764
97,19 Jan 2025 19:56:10.166,19 Jan 2025 20:05:30.435,560.269
98,19 Jan 2025 21:28:28.591,19 Jan 2025 21:39:57.393,688.802
99,19 Jan 2025 23:06:32.448,19 Jan 2025 23:11:05.803,273.355
100,20 Jan 2025 08:57:32.600,20 Jan 2025 09:07:14.653,582.054
101,20 Jan 2025 10:30:45.941,20 Jan 2025 10:42:05.005,679.064
102,20 Jan 2025 12:06:40.449,20 Jan 2025 12:11:46.156,305.707
103,20 Jan 2025 19:38:22.752,20 Jan 2025 19:46:20.125,477.373
104,20 Jan 2025 21:09:42.027,20 Jan 2025 21:21:16.527,694.500
105,20 Jan 2025 22:46:02.591,20 Jan 2025 22:53:37.945,455.354
106,21 Jan 2025 08:39:22.867,21 Jan 2025 08:47:35.226,492.360
107,21 Jan 2025 10:11:58.899,21 Jan 2025 10:23:32.069,693.170
108,21 Jan 2025 11:47:05.983,21 Jan 2025 11:54:31.392,445.409
109,21 Jan 2025 19:20:57.531,21 Jan 2025 19:26:54.081,356.550
110,21 Jan 2025 20:51:05.910,21 Jan 2025 21:02:30.907,684.997
111,21 Jan 2025 22:26:15.451,21 Jan 2025 22:35:33.988,558.537
112,22 Jan 2025 08:21:39.036,22 Jan 2025 08:27:23.430,344.394
113,22 Jan 2025 09:53:16.535,22 Jan 2025 10:04:48.757,692.221
114,22 Jan 2025 11:27:51.957,22 Jan 2025 11:36:49.653,537.696
115,22 Jan 2025 19:04:35.379,22 Jan 2025 19:06:31.657,116.279
116,22 Jan 2025 20:32:40.200,22 Jan 2025 20:43:40.645,660.446
117,22 Jan 2025 22:06:49.892,22 Jan 2025 22:17:14.650,624.758
118,23 Jan 2025 09:34:39.294,23 Jan 2025 09:45:54.641,675.348
119,23 Jan 2025 11:08:48.100,23 Jan 2025 11:18:51.420,603.319
120,23 Jan 2025 20:14:25.401,23 Jan 2025 20:24:45.343,619.942
121,23 Jan 2025 21:47:39.645,23 Jan 2025 21:58:45.941,666.296
122,24 Jan 2025 09:16:08.239,24 Jan 2025 09:26:48.598,640.359
123,24 Jan 2025 10:49:51.002,24 Jan 2025 11:00:40.328,649.326
124,24 Jan 2025 19:56:22.797,24 Jan 2025 20:05:43.883,561.085
125,24 Jan 2025 21:28:41.884,24 Jan 2025 21:40:10.525,688.641
126,24 Jan 2025 23:06:47.433,24 Jan 2025 23:11:17.607,270.174
127,25 Jan 2025 08:57:45.488,25 Jan 2025 09:07:28.373,582.885
128,25 Jan 2025 10:30:59.199,25 Jan 2025 10:42:18.016,678.816
129,25 Jan 2025 12:06:54.471,25 Jan 2025 12:11:58.029,303.557
130,25 Jan 2025 19:38:35.178,25 Jan 2025 19:46:33.698,478.519
131,25 Jan 2025 21:09:55.192,25 Jan 2025 21:21:29.721,694.529
132,25 Jan 2025 22:46:16.713,25 Jan 2025 22:53:50.533,453.819
133,26 Jan 2025 08:39:35.552,26 Jan 2025 08:47:49.219,493.667
134,26 Jan 2025 10:12:12.106,26 Jan 2025 10:23:45.201,693.096
135,26 Jan 2025 11:47:19.622,26 Jan 2025 11:54:43.732,444.110
136,26 Jan 2025 19:21:09.612,26 Jan 2025 19:27:07.925,358.313
137,26 Jan 2025 20:51:18.955,26 Jan 2025 21:02:44.150,685.195
138,26 Jan 2025 22:26:29.247,26 Jan 2025 22:35:46.823,557.577
139,27 Jan 2025 08:21:51.241,27 Jan 2025 08:27:37.983,346.742
140,27 Jan 2025 09:53:29.685,27 Jan 2025 10:05:02.007,692.322
141,27 Jan 2025 11:28:05.441,27 Jan 2025 11:37:02.225,536.784
142,27 Jan 2025 19:04:45.371,27 Jan 2025 19:06:47.510,122.138
143,27 Jan 2025 20:32:53.118,27 Jan 2025 20:43:53.943,660.825
144,27 Jan 2025 22:07:03.481,27 Jan 2025 22:17:27.620,624.139
145,28 Jan 2025 09:34:52.378,28 Jan 2025 09:46:08.024,675.646
146,28 Jan 2025 11:09:01.488,28 Jan 2025 11:19:04.159,602.670
147,28 Jan 2025 20:14:38.189,28 Jan 2025 20:24:58.705,620.517
148,28 Jan 2025 21:47:53.075,28 Jan 2025 21:58:59.001,665.926
149,29 Jan 2025 09:16:21.241,29 Jan 2025 09:27:02.131,640.890
150,29 Jan 2025 10:50:04.321,29 Jan 2025 11:00:53.204,648.884
151,29 Jan 2025 19:56:35.430,29 Jan 2025 20:05:57.328,561.898
152,29 Jan 2025 21:28:55.176,29 Jan 2025 21:40:23.654,688.478
153,29 Jan 2025 23:07:02.440,29 Jan 2025 23:11:29.387,266.947
154,30 Jan 2025 08:57:58.375,30 Jan 2025 09:07:42.093,583.718
155,30 Jan 2025 10:31:12.460,30 Jan 2025 10:42:31.020,678.560
156,30 Jan 2025 12:07:08.505,30 Jan 2025 12:12:09.894,301.389
157,30 Jan 2025 19:38:47.608,30 Jan 2025 19:46:47.272,479.663
158,30 Jan 2025 21:10:08.360,30 Jan 2025 21:21:42.909,694.549
159,30 Jan 2025 22:46:30.835,30 Jan 2025 22:54:03.116,452.281
160,31 Jan 2025 08:39:48.246,31 Jan 2025 08:48:03.208,494.962
161,31 Jan 2025 10:12:25.313,31 Jan 2025 10:23:58.327,693.015
162,31 Jan 2025 11:47:33.262,31 Jan 2025 11:54:56.069,442.807
163,31 Jan 2025 19:21:21.698,31 Jan 2025 19:27:21.765,360.066
164,31 Jan 2025 20:51:32.001,31 Jan 2025 21:02:57.393,685.391
165,31 Jan 2025 22:26:43.045,31 Jan 2025 22:35:59.656,556.610
166,1 Feb 2025 08:22:03.458,1 Feb 2025 08:27:52.524,349.065
167,1 Feb 2025 09:53:42.836,1 Feb 2025 10:05:15.257,692.420
168,1 Feb 2025 11:28:18.922,1 Feb 2025 11:37:14.795,535.873
169,1 Feb 2025 19:04:55.496,1 Feb 2025 19:07:03.233,127.737
170,1 Feb 2025 20:33:06.041,1 Feb 2025 20:44:07.243,661.202
171,1 Feb 2025 22:07:17.073,1 Feb 2025 22:17:40.589,623.516
172,2 Feb 2025 09:35:05.465,2 Feb 2025 09:46:21.405,675.941
173,2 Feb 2025 11:09:14.877,2 Feb 2025 11:19:16.895,602.018
174,2 Feb 2025 20:14:50.979,2 Feb 2025 20:25:12.068,621.090
175,2 Feb 2025 21:48:06.510,2 Feb 2025 21:59:12.062,665.552
176,3 Feb 2025 09:16:34.246,3 Feb 2025 09:27:15.663,641.417
177,3 Feb 2025 10:50:17.642,3 Feb 2025 11:01:06.083,648.442
178,3 Feb 2025 19:56:48.065,3 Feb 2025 20:06:10.774,562.708
179,3 Feb 2025 21:29:08.472,3 Feb 2025 21:40:36.785,688.312
180,3 Feb 2025 23:07:17.474,3 Feb 2025 23:11:41.143,263.669
181,4 Feb 2025 08:58:11.259,4 Feb 2025 09:07:55.810,584.551
182,4 Feb 2025 10:31:25.723,4 Feb 2025 10:42:44.024,678.301
183,4 Feb 2025 12:07:22.550,4 Feb 2025 12:12:21.751,299.201
184,4 Feb 2025 19:39:00.041,4 Feb 2025 19:47:00.846,480.805
185,4 Feb 2025 21:10:21.533,4 Feb 2025 21:21:56.094,694.561
186,4 Feb 2025 22:46:44.962,4 Feb 2025 22:54:15.698,450.737
187,5 Feb 2025 08:40:00.936,5 Feb 2025 08:48:17.195,496.260
188,5 Feb 2025 10:12:38.522,5 Feb 2025 10:24:11.454,692.932
189,5 Feb 2025 11:47:46.908,5 Feb 2025 11:55:08.403,441.496
190,5 Feb 2025 19:21:33.795,5 Feb 2025 19:27:35.600,361.804
191,5 Feb 2025 20:51:45.051,5 Feb 2025 21:03:10.636,685.585
192,5 Feb 2025 22:26:56.846,5 Feb 2025 22:36:12.488,555.643
193,6 Feb 2025 08:22:15.685,6 Feb 2025 08:28:07.056,351.372
194,6 Feb 2025 09:53:55.989,6 Feb 2025 10:05:28.506,692.517
195,6 Feb 2025 11:28:32.410,6 Feb 2025 11:37:27.359,534.949
196,6 Feb 2025 19:05:05.749,6 Feb 2025 19:07:18.829,133.081
197,6 Feb 2025 20:33:18.966,6 Feb 2025 20:44:20.542,661.575
198,6 Feb 2025 22:07:30.667,6 Feb 2025 22:17:53.558,622.891
199,7 Feb 2025 09:35:18.552,7 Feb 2025 09:46:34.786,676.234
200,7 Feb 2025 11:09:28.269,7 Feb 2025 11:19:29.632,601.363
201,7 Feb 2025 20:15:03.771,7 Feb 2025 20:25:25.430,621.659
202,7 Feb 2025 21:48:19.943,7 Feb 2025 21:59:25.123,665.180
203,8 Feb 2025 09:16:47.247,8 Feb 2025 09:27:29.193,641.946
204,8 Feb 2025 10:50:30.965,8 Feb 2025 11:01:18.960,647.995
205,8 Feb 2025 19:57:00.703,8 Feb 2025 20:06:24.217,563.514
206,8 Feb 2025 21:29:21.769,8 Feb 2025 21:40:49.914,688.145
207,8 Feb 2025 23:07:32.530,8 Feb 2025 23:11:52.879,260.349
208,9 Feb 2025 08:58:24.148,9 Feb 2025 09:08:09.529,585.381
209,9 Feb 2025 10:31:38.986,9 Feb 2025 10:42:57.026,678.040
210,9 Feb 2025 12:07:36.605,9 Feb 2025 12:12:33.595,296.990
211,9 Feb 2025 19:39:12.477,9 Feb 2025 19:47:14.415,481.938
212,9 Feb 2025 21:10:34.705,9 Feb 2025 21:22:09.282,694.577
213,9 Feb 2025 22:46:59.095,9 Feb 2025 22:54:28.276,449.181
214,10 Feb 2025 08:40:13.631,10 Feb 2025 08:48:31.178,497.546
215,10 Feb 2025 10:12:51.730,10 Feb 2025 10:24:24.577,692.847
216,10 Feb 2025 11:48:00.555,10 Feb 2025 11:55:20.733,440.177
217,10 Feb 2025 19:21:45.892,10 Feb 2025 19:27:49.427,363.535
218,10 Feb 2025 20:51:58.101,10 Feb 2025 21:03:23.878,685.777
219,10 Feb 2025 22:27:10.650,10 Feb 2025 22:36:25.318,554.668
220,11 Feb 2025 08:22:27.919,11 Feb 2025 08:28:21.576,353.657
221,11 Feb 2025 09:54:09.141,11 Feb 2025 10:05:41.753,692.611
222,11 Feb 2025 11:28:45.897,11 Feb 2025 11:37:39.925,534.027
223,11 Feb 2025 19:05:16.106,11 Feb 2025 19:07:34.319,138.213
224,11 Feb 2025 20:33:31.892,11 Feb 2025 20:44:33.838,661.946
225,11 Feb 2025 22:07:44.262,11 Feb 2025 22:18:06.525,622.263
226,12 Feb 2025 09:35:31.636,12 Feb 2025 09:46:48.164,676.529
227,12 Feb 2025 11:09:41.660,12 Feb 2025 11:19:42.370,600.710
228,12 Feb 2025 20:15:16.559,12 Feb 2025 20:25:38.790,622.231
229,12 Feb 2025 21:48:33.374,12 Feb 2025 21:59:38.184,664.810
230,13 Feb 2025 09:17:00.253,13 Feb 2025 09:27:42.720,642.467
231,13 Feb 2025 10:50:44.286,13 Feb 2025 11:01:31.835,647.549
232,13 Feb 2025 19:57:13.342,13 Feb 2025 20:06:37.660,564.317
233,13 Feb 2025 21:29:35.067,13 Feb 2025 21:41:03.043,687.975
234,13 Feb 2025 23:07:47.613,13 Feb 2025 23:12:04.586,256.973
235,14 Feb 2025 08:58:37.039,14 Feb 2025 09:08:23.243,586.203
236,14 Feb 2025 10:31:52.250,14 Feb 2025 10:43:10.027,677.777
237,14 Feb 2025 12:07:50.667,14 Feb 2025 12:12:45.436,294.769
238,14 Feb 2025 19:39:24.916,14 Feb 2025 19:47:27.984,483.068
239,14 Feb 2025 21:10:47.878,14 Feb 2025 21:22:22.469,694.590
240,14 Feb 2025 22:47:13.234,14 Feb 2025 22:54:40.847,447.612
241,15 Feb 2025 08:40:26.332,15 Feb 2025 08:48:45.156,498.824
242,15 Feb 2025 10:13:04.940,15 Feb 2025 10:24:37.700,692.760
243,15 Feb 2025 11:48:14.206,15 Feb 2025 11:55:33.060,438.854
244,15 Feb 2025 19:21:57.997,15 Feb 2025 19:28:03.253,365.256
245,15 Feb 2025 20:52:11.153,15 Feb 2025 21:03:37.120,685.967
246,15 Feb 2025 22:27:24.458,15 Feb 2025 22:36:38.146,553.688
247,16 Feb 2025 08:22:40.166,16 Feb 2025 08:28:36.083,355.917
248,16 Feb 2025 09:54:22.291,16 Feb 2025 10:05:55.003,692.712
249,16 Feb 2025 11:28:59.381,16 Feb 2025 11:37:52.494,533.113
250,16 Feb 2025 19:05:26.561,16 Feb 2025 19:07:49.722,143.161
251,16 Feb 2025 20:33:44.825,16 Feb 2025 20:44:47.133,662.308
252,16 Feb 2025 22:07:57.861,16 Feb 2025 22:18:19.489,621.627
253,17 Feb 2025 09:35:44.725,17 Feb 2025 09:47:01.542,676.817
254,17 Feb 2025 11:09:55.053,17 Feb 2025 11:19:55.103,600.050
255,17 Feb 2025 20:15:29.355,17 Feb 2025 20:25:52.151,622.796
256,17 Feb 2025 21:48:46.813,17 Feb 2025 21:59:51.243,664.431
257,18 Feb 2025 09:17:13.262,18 Feb 2025 09:27:56.245,642.983
258,18 Feb 2025 10:50:57.614,18 Feb 2025 11:01:44.710,647.096
259,18 Feb 2025 19:57:25.989,18 Feb 2025 20:06:51.106,565.117
260,18 Feb 2025 21:29:48.367,18 Feb 2025 21:41:16.168,687.801
261,18 Feb 2025 23:08:02.725,18 Feb 2025 23:12:16.265,253.540
262,19 Feb 2025 08:58:49.934,19 Feb 2025 09:08:36.955,587.021
263,19 Feb 2025 10:32:05.521,19 Feb 2025 10:43:23.024,677.503
264,19 Feb 2025 12:08:04.745,19 Feb 2025 12:12:57.262,292.517
265,19 Feb 2025 19:39:37.359,19 Feb 2025 19:47:41.551,484.192
266,19 Feb 2025 21:11:01.054,19 Feb 2025 21:22:35.657,694.603
267,19 Feb 2025 22:47:27.381,19 Feb 2025 22:54:53.420,446.038
268,20 Feb 2025 08:40:39.037,20 Feb 2025 08:48:59.133,500.096
269,20 Feb 2025 10:13:18.152,20 Feb 2025 10:24:50.823,692.670
270,20 Feb 2025 11:48:27.860,20 Feb 2025 11:55:45.384,437.524
271,20 Feb 2025 19:22:10.114,20 Feb 2025 19:28:17.073,366.959
272,20 Feb 2025 20:52:24.207,20 Feb 2025 21:03:50.362,686.155
273,20 Feb 2025 22:27:38.270,20 Feb 2025 22:36:50.973,552.703
274,21 Feb 2025 08:22:52.421,21 Feb 2025 08:28:50.585,358.163
275,21 Feb 2025 09:54:35.447,21 Feb 2025 10:06:08.249,692.802
276,21 Feb 2025 11:29:12.873,21 Feb 2025 11:38:05.056,532.183
277,21 Feb 2025 19:05:37.102,21 Feb 2025 19:08:05.032,147.930
278,21 Feb 2025 20:33:57.756,21 Feb 2025 20:45:00.431,662.675
279,21 Feb 2025 22:08:11.463,21 Feb 2025 22:18:32.455,620.992
280,22 Feb 2025 09:35:57.816,22 Feb 2025 09:47:14.919,677.103
281,22 Feb 2025 11:10:08.448,22 Feb 2025 11:20:07.832,599.383
282,22 Feb 2025 20:15:42.158,22 Feb 2025 20:26:05.511,623.353
283,22 Feb 2025 21:49:00.257,22 Feb 2025 22:00:04.299,664.042
284,23 Feb 2025 09:17:26.271,23 Feb 2025 09:28:09.769,643.497
285,23 Feb 2025 10:51:10.939,23 Feb 2025 11:01:57.581,646.643
286,23 Feb 2025 19:57:38.634,23 Feb 2025 20:07:04.546,565.913
287,23 Feb 2025 21:30:01.670,23 Feb 2025 21:41:29.296,687.626
288,23 Feb 2025 23:08:17.862,23 Feb 2025 23:12:27.924,250.061
289,24 Feb 2025 08:59:02.831,24 Feb 2025 09:08:50.661,587.830
290,24 Feb 2025 10:32:18.784,24 Feb 2025 10:43:36.027,677.243
291,24 Feb 2025 12:08:18.826,24 Feb 2025 12:13:09.070,290.244
292,24 Feb 2025 19:39:49.809,24 Feb 2025 19:47:55.115,485.306
293,24 Feb 2025 21:11:14.227,24 Feb 2025 21:22:48.848,694.621
294,24 Feb 2025 22:47:41.531,24 Feb 2025 22:55:05.980,444.449
295,25 Feb 2025 08:40:51.744,25 Feb 2025 08:49:13.107,501.363
296,25 Feb 2025 10:13:31.365,25 Feb 2025 10:25:03.939,692.574
297,25 Feb 2025 11:48:41.521,25 Feb 2025 11:55:57.698,436.177
298,25 Feb 2025 19:22:22.232,25 Feb 2025 19:28:30.887,368.655
299,25 Feb 2025 20:52:37.262,25 Feb 2025 21:04:03.602,686.340
300,25 Feb 2025 22:27:52.081,25 Feb 2025 22:37:03.798,551.717
301,26 Feb 2025 08:23:04.685,26 Feb 2025 08:29:05.075,360.390
302,26 Feb 2025 09:54:48.602,26 Feb 2025 10:06:21.492,692.890
303,26 Feb 2025 11:29:26.365,26 Feb 2025 11:38:17.615,531.250
304,26 Feb 2025 19:05:47.719,26 Feb 2025 19:08:20.267,152.547
305,26 Feb 2025 20:34:10.687,26 Feb 2025 20:45:13.727,663.040
306,26 Feb 2025 22:08:25.065,26 Feb 2025 22:18:45.420,620.355
307,27 Feb 2025 09:36:10.907,27 Feb 2025 09:47:28.293,677.386
308,27 Feb 2025 11:10:21.843,27 Feb 2025 11:20:20.561,598.718
309,27 Feb 2025 20:15:54.954,27 Feb 2025 20:26:18.869,623.914
310,27 Feb 2025 21:49:13.693,27 Feb 2025 22:00:17.355,663.662
311,28 Feb 2025 09:17:39.281,28 Feb 2025 09:28:23.291,644.010
312,28 Feb 2025 10:51:24.263,28 Feb 2025 11:02:10.451,646.188
313,28 Feb 2025 19:57:51.279,28 Feb 2025 20:07:17.986,566.707
314,28 Feb 2025 21:30:14.974,28 Feb 2025 21:41:42.422,687.449
315,28 Feb 2025 23:08:33.030,28 Feb 2025 23:12:39.551,246.520
316,1 Mar 2025 08:59:15.729,1 Mar 2025 09:09:04.365,588.636
317,1 Mar 2025 10:32:32.050,1 Mar 2025 10:43:49.024,676.973
318,1 Mar 2025 12:08:32.918,1 Mar 2025 12:13:20.874,287.956
319,1 Mar 2025 19:40:02.257,1 Mar 2025 19:48:08.678,486.421
320,1 Mar 2025 21:11:27.405,1 Mar 2025 21:23:02.034,694.629
321,1 Mar 2025 22:47:55.687,1 Mar 2025 22:55:18.538,442.851
322,2 Mar 2025 08:41:04.450,2 Mar 2025 08:49:27.074,502.624
323,2 Mar 2025 10:13:44.579,2 Mar 2025 10:25:17.058,692.479
324,2 Mar 2025 11:48:55.179,2 Mar 2025 11:56:10.015,434.835
325,2 Mar 2025 19:22:34.355,2 Mar 2025 19:28:44.699,370.344
326,2 Mar 2025 20:52:50.319,2 Mar 2025 21:04:16.843,686.524
327,2 Mar 2025 22:28:05.899,2 Mar 2025 22:37:16.620,550.721
328,3 Mar 2025 08:23:16.960,3 Mar 2025 08:29:19.560,362.600
329,3 Mar 2025 09:55:01.759,3 Mar 2025 10:06:34.735,692.976
330,3 Mar 2025 11:29:39.859,3 Mar 2025 11:38:30.173,530.314
331,3 Mar 2025 19:05:58.406,3 Mar 2025 19:08:35.436,157.030
332,3 Mar 2025 20:34:23.621,3 Mar 2025 20:45:27.024,663.404
333,3 Mar 2025 22:08:38.671,3 Mar 2025 22:18:58.383,619.712
334,4 Mar 2025 09:36:24.000,4 Mar 2025 09:47:41.667,677.667
335,4 Mar 2025 11:10:35.240,4 Mar 2025 11:20:33.290,598.049
336,4 Mar 2025 20:16:07.756,4 Mar 2025 20:26:32.228,624.472
337,4 Mar 2025 21:49:27.138,4 Mar 2025 22:00:30.413,663.275
338,5 Mar 2025 09:17:52.294,5 Mar 2025 09:28:36.815,644.521
339,5 Mar 2025 10:51:37.591,5 Mar 2025 11:02:23.321,645.730
340,5 Mar 2025 19:58:03.929,5 Mar 2025 20:07:31.426,567.497
341,5 Mar 2025 21:30:28.281,5 Mar 2025 21:41:55.550,687.269
342,5 Mar 2025 23:08:48.231,5 Mar 2025 23:12:51.152,242.921
343,6 Mar 2025 08:59:28.627,6 Mar 2025 09:09:18.072,589.445
344,6 Mar 2025 10:32:45.319,6 Mar 2025 10:44:02.021,676.701
345,6 Mar 2025 12:08:47.025,6 Mar 2025 12:13:32.667,285.642
346,6 Mar 2025 19:40:14.711,6 Mar 2025 19:48:22.235,487.525
347,6 Mar 2025 21:11:40.586,6 Mar 2025 21:23:15.221,694.635
348,6 Mar 2025 22:48:09.849,6 Mar 2025 22:55:31.096,441.246
349,7 Mar 2025 08:41:17.163,7 Mar 2025 08:49:41.040,503.876
350,7 Mar 2025 10:13:57.794,7 Mar 2025 10:25:30.177,692.383
351,7 Mar 2025 11:49:08.839,7 Mar 2025 11:56:22.327,433.488
352,7 Mar 2025 19:22:46.487,7 Mar 2025 19:28:58.505,372.019
353,7 Mar 2025 20:53:03.378,7 Mar 2025 21:04:30.084,686.706
354,7 Mar 2025 22:28:19.720,7 Mar 2025 22:37:29.442,549.722
355,8 Mar 2025 08:23:29.242,8 Mar 2025 08:29:34.030,364.788
356,8 Mar 2025 09:55:14.917,8 Mar 2025 10:06:47.976,693.060
357,8 Mar 2025 11:29:53.356,8 Mar 2025 11:38:42.728,529.372
358,8 Mar 2025 19:06:09.162,8 Mar 2025 19:08:50.536,161.374
359,8 Mar 2025 20:34:36.557,8 Mar 2025 20:45:40.320,663.763
360,8 Mar 2025 22:08:52.279,8 Mar 2025 22:19:11.346,619.067
361,9 Mar 2025 09:36:37.093,9 Mar 2025 09:47:55.039,677.946
362,9 Mar 2025 11:10:48.639,9 Mar 2025 11:20:46.016,597.377
363,9 Mar 2025 20:16:20.560,9 Mar 2025 20:26:45.586,625.026
364,9 Mar 2025 21:49:40.583,9 Mar 2025 22:00:43.468,662.886
365,10 Mar 2025 09:18:05.308,10 Mar 2025 09:28:50.335,645.028
366,10 Mar 2025 10:51:50.919,10 Mar 2025 11:02:36.188,645.270
367,10 Mar 2025 19:58:16.580,10 Mar 2025 20:07:44.863,568.283
368,10 Mar 2025 21:30:41.588,10 Mar 2025 21:42:08.676,687.088
369,10 Mar 2025 23:09:03.460,10 Mar 2025 23:13:02.722,239.262
370,11 Mar 2025 08:59:41.528,11 Mar 2025 09:09:31.775,590.248
371,11 Mar 2025 10:32:58.588,11 Mar 2025 10:44:15.015,676.427
372,11 Mar 2025 12:09:01.141,11 Mar 2025 12:13:44.447,283.306
373,11 Mar 2025 19:40:27.161,11 Mar 2025 19:48:35.794,488.633
374,11 Mar 2025 21:11:53.767,11 Mar 2025 21:23:28.406,694.639
375,11 Mar 2025 22:48:24.016,11 Mar 2025 22:55:43.646,439.630
376,12 Mar 2025 08:41:29.879,12 Mar 2025 08:49:55.000,505.121
377,12 Mar 2025 10:14:11.009,12 Mar 2025 10:25:43.293,692.284
378,12 Mar 2025 11:49:22.505,12 Mar 2025 11:56:34.636,432.131
379,12 Mar 2025 19:22:58.621,12 Mar 2025 19:29:12.307,373.685
380,12 Mar 2025 20:53:16.438,12 Mar 2025 21:04:43.323,686.885
381,12 Mar 2025 22:28:33.543,12 Mar 2025 22:37:42.261,548.718
382,13 Mar 2025 08:23:41.534,13 Mar 2025 08:29:48.494,366.960
383,13 Mar 2025 09:55:28.079,13 Mar 2025 10:07:01.211,693.133
384,13 Mar 2025 11:30:06.857,13 Mar 2025 11:38:55.281,528.424
385,13 Mar 2025 19:06:19.974,13 Mar 2025 19:09:05.581,165.607
386,13 Mar 2025 20:34:49.493,13 Mar 2025 20:45:53.615,664.122
387,13 Mar 2025 22:09:05.889,13 Mar 2025 22:19:24.307,618.418
388,14 Mar 2025 09:36:50.191,14 Mar 2025 09:48:08.409,678.218
389,14 Mar 2025 11:11:02.037,14 Mar 2025 11:20:58.741,596.703
390,14 Mar 2025 20:16:33.365,14 Mar 2025 20:26:58.943,625.578
391,14 Mar 2025 21:49:54.031,14 Mar 2025 22:00:56.523,662.493
392,15 Mar 2025 09:18:18.324,15 Mar 2025 09:29:03.853,645.529
393,15 Mar 2025 10:52:04.247,15 Mar 2025 11:02:49.055,644.808
394,15 Mar 2025 19:58:29.233,15 Mar 2025 20:07:58.301,569.068
395,15 Mar 2025 21:30:54.898,15 Mar 2025 21:42:21.805,686.907
396,15 Mar 2025 23:09:18.727,15 Mar 2025 23:13:14.258,235.531
397,16 Mar 2025 08:59:54.431,16 Mar 2025 09:09:45.477,591.045
398,16 Mar 2025 10:33:11.858,16 Mar 2025 10:44:28.009,676.151
399,16 Mar 2025 12:09:15.266,16 Mar 2025 12:13:56.218,280.952
400,16 Mar 2025 19:40:39.619,16 Mar 2025 19:48:49.353,489.734
401,16 Mar 2025 21:12:06.950,16 Mar 2025 21:23:41.591,694.641
402,16 Mar 2025 22:48:38.191,16 Mar 2025 22:55:56.193,438.002
403,17 Mar 2025 08:41:42.599,17 Mar 2025 08:50:08.957,506.359
404,17 Mar 2025 10:14:24.225,17 Mar 2025 10:25:56.409,692.184
405,17 Mar 2025 11:49:36.174,17 Mar 2025 11:56:46.943,430.769
406,17 Mar 2025 19:23:10.762,17 Mar 2025 19:29:26.106,375.344
407,17 Mar 2025 20:53:29.500,17 Mar 2025 21:04:56.563,687.062
408,17 Mar 2025 22:28:47.372,17 Mar 2025 22:37:55.078,547.706
409,18 Mar 2025 08:23:53.837,18 Mar 2025 08:30:02.947,369.111
410,18 Mar 2025 09:55:41.237,18 Mar 2025 10:07:14.451,693.214
411,18 Mar 2025 11:30:20.357,18 Mar 2025 11:39:07.834,527.477
412,18 Mar 2025 19:06:30.842,18 Mar 2025 19:09:20.574,169.732
413,18 Mar 2025 20:35:02.433,18 Mar 2025 20:46:06.911,664.478
414,18 Mar 2025 22:09:19.503,18 Mar 2025 22:19:37.268,617.765
415,19 Mar 2025 09:37:03.285,19 Mar 2025 09:48:21.779,678.494
416,19 Mar 2025 11:11:15.439,19 Mar 2025 11:21:11.465,596.026
417,19 Mar 2025 20:16:46.173,19 Mar 2025 20:27:12.301,626.128
418,19 Mar 2025 21:50:07.482,19 Mar 2025 22:01:09.579,662.097
419,20 Mar 2025 09:18:31.343,20 Mar 2025 09:29:17.372,646.029
420,20 Mar 2025 10:52:17.577,20 Mar 2025 11:03:01.921,644.344
421,20 Mar 2025 19:58:41.887,20 Mar 2025 20:08:11.738,569.851
422,20 Mar 2025 21:31:08.210,20 Mar 2025 21:42:34.931,686.721
423,20 Mar 2025 23:09:34.028,20 Mar 2025 23:13:25.762,231.734
424,21 Mar 2025 09:00:07.337,21 Mar 2025 09:09:59.177,591.840
425,21 Mar 2025 10:33:25.130,21 Mar 2025 10:44:41.003,675.873
426,21 Mar 2025 12:09:29.406,21 Mar 2025 12:14:07.976,278.571
427,21 Mar 2025 19:40:52.081,21 Mar 2025 19:49:02.911,490.829
428,21 Mar 2025 21:12:20.136,21 Mar 2025 21:23:54.777,694.641
429,21 Mar 2025 22:48:52.367,21 Mar 2025 22:56:08.736,436.369
430,22 Mar 2025 08:41:55.321,22 Mar 2025 08:50:22.912,507.592
431,22 Mar 2025 10:14:37.443,22 Mar 2025 10:26:09.525,692.082
432,22 Mar 2025 11:49:49.847,22 Mar 2025 11:56:59.250,429.403
433,22 Mar 2025 19:23:22.909,22 Mar 2025 19:29:39.901,376.991
434,22 Mar 2025 20:53:42.565,22 Mar 2025 21:05:09.803,687.238
435,22 Mar 2025 22:29:01.203,22 Mar 2025 22:38:07.894,546.692
436,23 Mar 2025 08:24:06.146,23 Mar 2025 08:30:17.392,371.246
437,23 Mar 2025 09:55:54.399,23 Mar 2025 10:07:27.689,693.290
438,23 Mar 2025 11:30:33.859,23 Mar 2025 11:39:20.383,526.524
439,23 Mar 2025 19:06:41.764,23 Mar 2025 19:09:35.517,173.753
440,23 Mar 2025 20:35:15.374,23 Mar 2025 20:46:20.205,664.832
441,23 Mar 2025 22:09:33.118,23 Mar 2025 22:19:50.228,617.110
442,24 Mar 2025 09:37:16.385,24 Mar 2025 09:48:35.147,678.762
443,24 Mar 2025 11:11:28.841,24 Mar 2025 11:21:24.187,595.346
444,24 Mar 2025 20:16:58.982,24 Mar 2025 20:27:25.657,626.675
445,24 Mar 2025 21:50:20.935,24 Mar 2025 22:01:22.633,661.698
446,25 Mar 2025 09:18:44.359,25 Mar 2025 09:29:30.889,646.530
447,25 Mar 2025 10:52:30.904,25 Mar 2025 11:03:14.782,643.878
448,25 Mar 2025 19:58:54.546,25 Mar 2025 20:08:25.169,570.623
449,25 Mar 2025 21:31:21.522,25 Mar 2025 21:42:48.059,686.537
450,25 Mar 2025 23:09:49.367,25 Mar 2025 23:13:37.233,227.866
451,26 Mar 2025 09:00:20.243,26 Mar 2025 09:10:12.873,592.630
452,26 Mar 2025 10:33:38.401,26 Mar 2025 10:44:53.994,675.593
453,26 Mar 2025 12:09:43.555,26 Mar 2025 12:14:19.721,276.166
454,26 Mar 2025 19:41:04.545,26 Mar 2025 19:49:16.465,491.920
455,26 Mar 2025 21:12:33.322,26 Mar 2025 21:24:07.961,694.638
456,26 Mar 2025 22:49:06.552,26 Mar 2025 22:56:21.273,434.722
457,27 Mar 2025 08:42:08.045,27 Mar 2025 08:50:36.862,508.817
458,27 Mar 2025 10:14:50.659,27 Mar 2025 10:26:22.638,691.978
459,27 Mar 2025 11:50:03.522,27 Mar 2025 11:57:11.548,428.026
460,27 Mar 2025 19:23:35.060,27 Mar 2025 19:29:53.690,378.630
461,27 Mar 2025 20:53:55.629,27 Mar 2025 21:05:23.042,687.412
462,27 Mar 2025 22:29:15.036,27 Mar 2025 22:38:20.707,545.671
463,28 Mar 2025 08:24:18.464,28 Mar 2025 08:30:31.826,373.362
464,28 Mar 2025 09:56:07.560,28 Mar 2025 10:07:40.925,693.365
465,28 Mar 2025 11:30:47.361,28 Mar 2025 11:39:32.930,525.568
466,28 Mar 2025 19:06:52.731,28 Mar 2025 19:09:50.411,177.680
467,28 Mar 2025 20:35:28.315,28 Mar 2025 20:46:33.498,665.183
468,28 Mar 2025 22:09:46.735,28 Mar 2025 22:20:03.185,616.450
469,29 Mar 2025 09:37:29.483,29 Mar 2025 09:48:48.513,679.030
470,29 Mar 2025 11:11:42.243,29 Mar 2025 11:21:36.907,594.664
471,29 Mar 2025 20:17:11.793,29 Mar 2025 20:27:39.013,627.220
472,29 Mar 2025 21:50:34.390,29 Mar 2025 22:01:35.685,661.295
473,30 Mar 2025 09:18:57.379,30 Mar 2025 09:29:44.403,647.024
474,30 Mar 2025 10:52:44.235,30 Mar 2025 11:03:27.644,643.409
475,30 Mar 2025 19:59:07.206,30 Mar 2025 20:08:38.605,571.399
476,30 Mar 2025 21:31:34.837,30 Mar 2025 21:43:01.183,686.346
477,30 Mar 2025 23:10:04.746,30 Mar 2025 23:13:48.661,223.915
478,31 Mar 2025 09:00:33.152,31 Mar 2025 09:10:26.562,593.410
479,31 Mar 2025 10:33:51.675,31 Mar 2025 10:45:06.985,675.310
480,31 Mar 2025 12:09:57.716,31 Mar 2025 12:14:31.457,273.741
481,31 Mar 2025 19:41:17.012,31 Mar 2025 19:49:30.020,493.008
482,31 Mar 2025 21:12:46.512,31 Mar 2025 21:24:21.145,694.634
483,31 Mar 2025 22:49:20.745,31 Mar 2025 22:56:33.805,433.061
484,1 Apr 2025 08:42:20.774,1 Apr 2025 08:50:50.809,510.035
485,1 Apr 2025 10:15:03.878,1 Apr 2025 10:26:35.751,691.872
486,1 Apr 2025 11:50:17.201,1 Apr 2025 11:57:23.844,426.644
487,1 Apr 2025 19:23:47.216,1 Apr 2025 19:30:07.478,380.261
488,1 Apr 2025 20:54:08.698,1 Apr 2025 21:05:36.282,687.584
489,1 Apr 2025 22:29:28.875,1 Apr 2025 22:38:33.519,544.644
490,2 Apr 2025 08:24:30.792,2 Apr 2025 08:30:46.253,375.461
491,2 Apr 2025 09:56:20.724,2 Apr 2025 10:07:54.161,693.437
492,2 Apr 2025 11:31:00.862,2 Apr 2025 11:39:45.476,524.613
493,2 Apr 2025 19:07:03.744,2 Apr 2025 19:10:05.263,181.519
494,2 Apr 2025 20:35:41.260,2 Apr 2025 20:46:46.793,665.533
495,2 Apr 2025 22:10:00.357,2 Apr 2025 22:20:16.143,615.786
496,3 Apr 2025 09:37:42.582,3 Apr 2025 09:49:01.880,679.298
497,3 Apr 2025 11:11:55.649,3 Apr 2025 11:21:49.627,593.978
498,3 Apr 2025 20:17:24.605,3 Apr 2025 20:27:52.366,627.761
499,3 Apr 2025 21:50:47.846,3 Apr 2025 22:01:48.739,660.893
500,4 Apr 2025 09:19:10.398,4 Apr 2025 09:29:57.916,647.518
501,4 Apr 2025 10:52:57.569,4 Apr 2025 11:03:40.506,642.937
502,4 Apr 2025 19:59:19.869,4 Apr 2025 20:08:52.040,572.171
503,4 Apr 2025 21:31:48.154,4 Apr 2025 21:43:14.308,686.154
504,4 Apr 2025 23:10:20.164,4 Apr 2025 23:14:00.053,219.889
505,5 Apr 2025 09:00:46.063,5 Apr 2025 09:10:40.257,594.194
506,5 Apr 2025 10:34:04.949,5 Apr 2025 10:45:19.975,675.025
507,5 Apr 2025 12:10:11.891,5 Apr 2025 12:14:43.177,271.286
508,5 Apr 2025 19:41:29.483,5 Apr 2025 19:49:43.572,494.089
509,5 Apr 2025 21:12:59.702,5 Apr 2025 21:24:34.329,694.627
510,5 Apr 2025 22:49:34.943,5 Apr 2025 22:56:46.335,431.391
511,6 Apr 2025 08:42:33.505,6 Apr 2025 08:51:04.753,511.249
512,6 Apr 2025 10:15:17.098,6 Apr 2025 10:26:48.862,691.764
513,6 Apr 2025 11:50:30.883,6 Apr 2025 11:57:36.136,425.252
514,6 Apr 2025 19:23:59.380,6 Apr 2025 19:30:21.259,381.880
515,6 Apr 2025 20:54:21.766,6 Apr 2025 21:05:49.520,687.754
516,6 Apr 2025 22:29:42.716,6 Apr 2025 22:38:46.329,543.613
517,7 Apr 2025 08:24:43.127,7 Apr 2025 08:31:00.671,377.544
518,7 Apr 2025 09:56:33.887,7 Apr 2025 10:08:07.395,693.507
519,7 Apr 2025 11:31:14.369,7 Apr 2025 11:39:58.018,523.649
520,7 Apr 2025 19:07:14.800,7 Apr 2025 19:10:20.069,185.269
521,7 Apr 2025 20:35:54.206,7 Apr 2025 20:47:00.086,665.880
522,7 Apr 2025 22:10:13.979,7 Apr 2025 22:20:29.099,615.120
523,8 Apr 2025 09:37:55.682,8 Apr 2025 09:49:15.243,679.561
524,8 Apr 2025 11:12:09.054,8 Apr 2025 11:22:02.343,593.289
525,8 Apr 2025 20:17:37.419,8 Apr 2025 20:28:05.720,628.302
526,8 Apr 2025 21:51:01.302,8 Apr 2025 22:02:01.791,660.489
527,9 Apr 2025 09:19:23.419,9 Apr 2025 09:30:11.426,648.006
528,9 Apr 2025 10:53:10.902,9 Apr 2025 11:03:53.366,642.464
529,9 Apr 2025 19:59:32.532,9 Apr 2025 20:09:05.473,572.941
530,9 Apr 2025 21:32:01.472,9 Apr 2025 21:43:27.431,685.959
531,9 Apr 2025 23:10:35.626,9 Apr 2025 23:14:11.400,215.774
532,10 Apr 2025 09:00:58.969,10 Apr 2025 09:10:53.948,594.979
533,10 Apr 2025 10:34:18.223,10 Apr 2025 10:45:32.962,674.739
534,10 Apr 2025 12:10:26.076,10 Apr 2025 12:14:54.886,268.810
535,10 Apr 2025 19:41:41.955,10 Apr 2025 19:49:57.123,495.168
536,10 Apr 2025 21:13:12.894,10 Apr 2025 21:24:47.512,694.618
537,10 Apr 2025 22:49:49.148,10 Apr 2025 22:56:58.856,429.709
538,11 Apr 2025 08:42:46.239,11 Apr 2025 08:51:18.693,512.454
539,11 Apr 2025 10:15:30.317,11 Apr 2025 10:27:01.972,691.654
540,11 Apr 2025 11:50:44.567,11 Apr 2025 11:57:48.419,423.852
541,11 Apr 2025 19:24:11.546,11 Apr 2025 19:30:35.039,383.493
542,11 Apr 2025 20:54:34.836,11 Apr 2025 21:06:02.756,687.919
543,11 Apr 2025 22:29:56.560,11 Apr 2025 22:38:59.135,542.575
544,12 Apr 2025 08:24:55.471,12 Apr 2025 08:31:15.078,379.607
545,12 Apr 2025 09:56:47.052,12 Apr 2025 10:08:20.627,693.576
546,12 Apr 2025 11:31:27.877,12 Apr 2025 11:40:10.559,522.682
547,12 Apr 2025 19:07:25.892,12 Apr 2025 19:10:34.847,188.955
548,12 Apr 2025 20:36:07.153,12 Apr 2025 20:47:13.379,666.226
549,12 Apr 2025 22:10:27.605,12 Apr 2025 22:20:42.053,614.449
550,13 Apr 2025 09:38:08.784,13 Apr 2025 09:49:28.606,679.822
551,13 Apr 2025 11:12:22.460,13 Apr 2025 11:22:15.057,592.597
552,13 Apr 2025 20:17:50.236,13 Apr 2025 20:28:19.075,628.840
553,13 Apr 2025 21:51:14.763,13 Apr 2025 22:02:14.842,660.079
554,14 Apr 2025 09:19:36.440,14 Apr 2025 09:30:24.934,648.493
555,14 Apr 2025 10:53:24.241,14 Apr 2025 11:04:06.228,641.987
556,14 Apr 2025 19:59:45.198,14 Apr 2025 20:09:18.910,573.713
557,14 Apr 2025 21:32:14.793,14 Apr 2025 21:43:40.551,685.758
558,14 Apr 2025 23:10:51.132,14 Apr 2025 23:14:22.701,211.568
559,15 Apr 2025 09:01:11.885,15 Apr 2025 09:11:07.636,595.752
560,15 Apr 2025 10:34:31.499,15 Apr 2025 10:45:45.949,674.450
561,15 Apr 2025 12:10:40.273,15 Apr 2025 12:15:06.584,266.311
562,15 Apr 2025 19:41:54.430,15 Apr 2025 19:50:10.674,496.244
563,15 Apr 2025 21:13:26.088,15 Apr 2025 21:25:00.696,694.608
564,15 Apr 2025 22:50:03.361,15 Apr 2025 22:57:11.374,428.013
565,16 Apr 2025 08:42:58.983,16 Apr 2025 08:51:32.630,513.647
566,16 Apr 2025 10:15:43.539,16 Apr 2025 10:27:15.081,691.542
567,16 Apr 2025 11:50:58.255,16 Apr 2025 11:58:00.705,422.450
568,16 Apr 2025 19:24:23.721,16 Apr 2025 19:30:48.816,385.096
569,16 Apr 2025 20:54:47.909,16 Apr 2025 21:06:15.996,688.087
570,16 Apr 2025 22:30:10.409,16 Apr 2025 22:39:11.941,541.531
571,17 Apr 2025 08:25:07.827,17 Apr 2025 08:31:29.479,381.652
572,17 Apr 2025 09:57:00.218,17 Apr 2025 10:08:33.860,693.642
573,17 Apr 2025 11:31:41.388,17 Apr 2025 11:40:23.099,521.711
574,17 Apr 2025 19:07:37.022,17 Apr 2025 19:10:49.585,192.564
575,17 Apr 2025 20:36:20.099,17 Apr 2025 20:47:26.672,666.573
576,17 Apr 2025 22:10:41.233,17 Apr 2025 22:20:55.005,613.771
577,18 Apr 2025 09:38:21.888,18 Apr 2025 09:49:41.964,680.077
578,18 Apr 2025 11:12:35.873,18 Apr 2025 11:22:27.773,591.900
579,18 Apr 2025 20:18:03.051,18 Apr 2025 20:28:32.433,629.382
580,18 Apr 2025 21:51:28.222,18 Apr 2025 22:02:27.895,659.673
581,19 Apr 2025 09:19:49.467,19 Apr 2025 09:30:38.443,648.976
582,19 Apr 2025 10:53:37.573,19 Apr 2025 11:04:19.086,641.512
583,19 Apr 2025 19:59:57.867,19 Apr 2025 20:09:32.343,574.476
584,19 Apr 2025 21:32:28.116,19 Apr 2025 21:43:53.675,685.558
585,19 Apr 2025 23:11:06.690,19 Apr 2025 23:14:33.957,207.268
586,20 Apr 2025 09:01:24.801,20 Apr 2025 09:11:21.322,596.522
587,20 Apr 2025 10:34:44.776,20 Apr 2025 10:45:58.935,674.159
588,20 Apr 2025 12:10:54.485,20 Apr 2025 12:15:18.265,263.780
589,20 Apr 2025 19:42:06.909,20 Apr 2025 19:50:24.222,497.314
590,20 Apr 2025 21:13:39.284,20 Apr 2025 21:25:13.879,694.595
591,20 Apr 2025 22:50:17.579,20 Apr 2025 22:57:23.887,426.309
592,21 Apr 2025 08:43:11.724,21 Apr 2025 08:51:46.563,514.839
593,21 Apr 2025 10:15:56.761,21 Apr 2025 10:27:28.189,691.428
594,21 Apr 2025 11:51:11.946,21 Apr 2025 11:58:12.986,421.039
595,21 Apr 2025 19:24:35.898,21 Apr 2025 19:31:02.587,386.690
596,21 Apr 2025 20:55:00.983,21 Apr 2025 21:06:29.232,688.249
597,21 Apr 2025 22:30:24.260,21 Apr 2025 22:39:24.744,540.483
598,22 Apr 2025 08:25:20.188,22 Apr 2025 08:31:43.871,383.683
599,22 Apr 2025 09:57:13.384,22 Apr 2025 10:08:47.090,693.706
600,22 Apr 2025 11:31:54.901,22 Apr 2025 11:40:35.636,520.735
601,22 Apr 2025 19:07:48.190,22 Apr 2025 19:11:04.286,196.096
602,22 Apr 2025 20:36:33.050,22 Apr 2025 20:47:39.964,666.914
603,22 Apr 2025 22:10:54.863,22 Apr 2025 22:21:07.957,613.094
604,23 Apr 2025 08:09:20.941,23 Apr 2025 08:09:42.033,21.093
605,23 Apr 2025 09:38:34.990,23 Apr 2025 09:49:55.324,680.334
606,23 Apr 2025 11:12:49.278,23 Apr 2025 11:22:40.485,591.207
607,23 Apr 2025 20:18:15.871,23 Apr 2025 20:28:45.786,629.915
608,23 Apr 2025 21:51:41.690,23 Apr 2025 22:02:40.941,659.252
609,24 Apr 2025 09:20:02.492,24 Apr 2025 09:30:51.948,649.456
610,24 Apr 2025 10:53:50.909,24 Apr 2025 11:04:31.938,641.029
611,24 Apr 2025 20:00:10.536,24 Apr 2025 20:09:45.771,575.235
612,24 Apr 2025 21:32:41.439,24 Apr 2025 21:44:06.796,685.357
613,24 Apr 2025 23:11:22.299,24 Apr 2025 23:14:45.161,202.862
614,25 Apr 2025 09:01:37.718,25 Apr 2025 09:11:35.005,597.286
615,25 Apr 2025 10:34:58.053,25 Apr 2025 10:46:11.919,673.866
616,25 Apr 2025 12:11:08.708,25 Apr 2025 12:15:29.934,261.226
617,25 Apr 2025 19:42:19.388,25 Apr 2025 19:50:37.769,498.380
618,25 Apr 2025 21:13:52.480,25 Apr 2025 21:25:27.060,694.580
619,25 Apr 2025 22:50:31.802,25 Apr 2025 22:57:36.393,424.591
620,26 Apr 2025 08:43:24.468,26 Apr 2025 08:52:00.492,516.024
621,26 Apr 2025 10:16:09.984,26 Apr 2025 10:27:41.295,691.311
622,26 Apr 2025 11:51:25.639,26 Apr 2025 11:58:25.263,419.624
623,26 Apr 2025 19:24:48.078,26 Apr 2025 19:31:16.356,388.279
624,26 Apr 2025 20:55:14.058,26 Apr 2025 21:06:42.470,688.411
625,26 Apr 2025 22:30:38.115,26 Apr 2025 22:39:37.543,539.428
626,27 Apr 2025 08:25:32.553,27 Apr 2025 08:31:58.253,385.701
627,27 Apr 2025 09:57:26.550,27 Apr 2025 10:09:00.318,693.768
628,27 Apr 2025 11:32:08.413,27 Apr 2025 11:40:48.168,519.755
629,27 Apr 2025 19:07:59.388,27 Apr 2025 19:11:18.960,199.572
630,27 Apr 2025 20:36:46.002,27 Apr 2025 20:47:53.256,667.253
631,27 Apr 2025 22:11:08.496,27 Apr 2025 22:21:20.907,612.411
632,28 Apr 2025 08:09:20.691,28 Apr 2025 08:10:09.119,48.428
633,28 Apr 2025 09:38:48.095,28 Apr 2025 09:50:08.683,680.587
634,28 Apr 2025 11:13:02.691,28 Apr 2025 11:22:53.197,590.507
635,28 Apr 2025 20:18:28.692,28 Apr 2025 20:28:59.140,630.447
636,28 Apr 2025 21:51:55.155,28 Apr 2025 22:02:53.990,658.835
637,29 Apr 2025 09:20:15.521,29 Apr 2025 09:31:05.453,649.931
638,29 Apr 2025 10:54:04.247,29 Apr 2025 11:04:44.794,640.547
639,29 Apr 2025 20:00:23.209,29 Apr 2025 20:09:59.203,575.995
640,29 Apr 2025 21:32:54.766,29 Apr 2025 21:44:19.918,685.152
641,29 Apr 2025 23:11:37.966,29 Apr 2025 23:14:56.310,198.344
642,30 Apr 2025 09:01:50.639,30 Apr 2025 09:11:48.687,598.047
643,30 Apr 2025 10:35:11.335,30 Apr 2025 10:46:24.903,673.568
644,30 Apr 2025 12:11:22.946,30 Apr 2025 12:15:41.590,258.644
645,30 Apr 2025 19:42:31.872,30 Apr 2025 19:50:51.316,499.444
646,30 Apr 2025 21:14:05.680,30 Apr 2025 21:25:40.243,694.562
647,30 Apr 2025 22:50:46.035,30 Apr 2025 22:57:48.895,422.860
648,1 May 2025 08:43:37.216,1 May 2025 08:52:14.419,517.203
649,1 May 2025 10:16:23.206,1 May 2025 10:27:54.402,691.195
650,1 May 2025 11:51:39.337,1 May 2025 11:58:37.538,418.201
651,1 May 2025 19:25:00.266,1 May 2025 19:31:30.123,389.857
652,1 May 2025 20:55:27.136,1 May 2025 21:06:55.706,688.570
653,1 May 2025 22:30:51.975,1 May 2025 22:39:50.343,538.368
654,2 May 2025 08:25:44.932,2 May 2025 08:32:12.630,387.699
655,2 May 2025 09:57:39.720,2 May 2025 10:09:13.548,693.828
656,2 May 2025 11:32:21.927,2 May 2025 11:41:00.700,518.772
657,2 May 2025 19:08:10.621,2 May 2025 19:11:33.601,202.980
658,2 May 2025 20:36:58.957,2 May 2025 20:48:06.548,667.590
659,2 May 2025 22:11:22.132,2 May 2025 22:21:33.858,611.726
660,3 May 2025 08:09:25.754,3 May 2025 08:10:30.899,65.146
661,3 May 2025 09:39:01.202,3 May 2025 09:50:22.041,680.839
662,3 May 2025 11:13:16.103,3 May 2025 11:23:05.908,589.805
663,3 May 2025 20:18:41.517,3 May 2025 20:29:12.490,630.972
664,3 May 2025 21:52:08.623,3 May 2025 22:03:07.038,658.415
665,4 May 2025 09:20:28.548,4 May 2025 09:31:18.955,650.407
666,4 May 2025 10:54:17.586,4 May 2025 11:04:57.647,640.062
667,4 May 2025 20:00:35.883,4 May 2025 20:10:12.630,576.747
668,4 May 2025 21:33:08.093,4 May 2025 21:44:33.039,684.946
669,4 May 2025 23:11:53.688,4 May 2025 23:15:07.401,193.713
670,5 May 2025 09:02:03.560,5 May 2025 09:12:02.360,598.800
671,5 May 2025 10:35:24.615,5 May 2025 10:46:37.885,673.270
672,5 May 2025 12:11:37.201,5 May 2025 12:15:53.229,256.028
673,5 May 2025 19:42:44.358,5 May 2025 19:51:04.863,500.505
674,5 May 2025 21:14:18.884,5 May 2025 21:25:53.419,694.535
675,5 May 2025 22:51:00.277,5 May 2025 22:58:01.394,421.117
676,6 May 2025 08:43:49.966,6 May 2025 08:52:28.341,518.375
677,6 May 2025 10:16:36.430,6 May 2025 10:28:07.506,691.076
678,6 May 2025 11:51:53.037,6 May 2025 11:58:49.807,416.771
679,6 May 2025 19:25:12.458,6 May 2025 19:31:43.879,391.421
680,6 May 2025 20:55:40.214,6 May 2025 21:07:08.943,688.729
681,6 May 2025 22:31:05.836,6 May 2025 22:40:03.138,537.302
682,7 May 2025 08:25:57.315,7 May 2025 08:32:26.992,389.677
683,7 May 2025 09:57:52.888,7 May 2025 10:09:26.775,693.887
684,7 May 2025 11:32:35.443,7 May 2025 11:41:13.230,517.787
685,7 May 2025 19:08:21.886,7 May 2025 19:11:48.213,206.327
686,7 May 2025 20:37:11.916,7 May 2025 20:48:19.838,667.921
687,7 May 2025 22:11:35.769,7 May 2025 22:21:46.808,611.039
688,8 May 2025 08:09:32.573,8 May 2025 08:10:50.907,78.333
689,8 May 2025 09:39:14.303,8 May 2025 09:50:35.400,681.097
690,8 May 2025 11:13:29.510,8 May 2025 11:23:18.618,589.108
691,8 May 2025 20:18:54.342,8 May 2025 20:29:25.841,631.499
692,8 May 2025 21:52:22.093,8 May 2025 22:03:20.084,657.991
693,9 May 2025 09:20:41.578,9 May 2025 09:31:32.455,650.877
694,9 May 2025 10:54:30.924,9 May 2025 11:05:10.499,639.575
695,9 May 2025 20:00:48.559,9 May 2025 20:10:26.059,577.501
696,9 May 2025 21:33:21.422,9 May 2025 21:44:46.158,684.736
697,9 May 2025 23:12:09.476,9 May 2025 23:15:18.427,188.951
698,10 May 2025 09:02:16.484,10 May 2025 09:12:16.036,599.553
699,10 May 2025 10:35:37.894,10 May 2025 10:46:50.865,672.971
700,10 May 2025 12:11:51.465,10 May 2025 12:16:04.855,253.390
701,10 May 2025 19:42:56.845,10 May 2025 19:51:18.406,501.561
702,10 May 2025 21:14:32.086,10 May 2025 21:26:06.599,694.513
703,10 May 2025 22:51:14.520,10 May 2025 22:58:13.882,419.362
704,11 May 2025 08:44:02.719,11 May 2025 08:52:42.259,519.540
705,11 May 2025 10:16:49.654,11 May 2025 10:28:20.609,690.955
706,11 May 2025 11:52:06.738,11 May 2025 11:59:02.075,415.337
707,11 May 2025 19:25:24.652,11 May 2025 19:31:57.639,392.986
708,11 May 2025 20:55:53.294,11 May 2025 21:07:22.179,688.885
709,11 May 2025 22:31:19.701,11 May 2025 22:40:15.930,536.229
710,12 May 2025 08:26:09.709,12 May 2025 08:32:41.350,391.641
711,12 May 2025 09:58:06.058,12 May 2025 10:09:39.999,693.942
712,12 May 2025 11:32:48.957,12 May 2025 11:41:25.759,516.802
713,12 May 2025 19:08:33.173,12 May 2025 19:12:02.802,209.628
714,12 May 2025 20:37:24.870,12 May 2025 20:48:33.128,668.258
715,12 May 2025 22:11:49.409,12 May 2025 22:21:59.754,610.344
716,13 May 2025 08:09:40.374,13 May 2025 08:11:09.939,89.564
717,13 May 2025 09:39:27.411,13 May 2025 09:50:48.754,681.343
718,13 May 2025 11:13:42.923,13 May 2025 11:23:31.325,588.402
719,13 May 2025 20:19:07.169,13 May 2025 20:29:39.193,632.024
720,13 May 2025 21:52:35.564,13 May 2025 22:03:33.130,657.565
721,14 May 2025 09:20:54.611,14 May 2025 09:31:45.954,651.344
722,14 May 2025 10:54:44.264,14 May 2025 11:05:23.350,639.086
723,14 May 2025 20:01:01.237,14 May 2025 20:10:39.489,578.252
724,14 May 2025 21:33:34.753,14 May 2025 21:44:59.278,684.525
725,14 May 2025 23:12:25.335,14 May 2025 23:15:29.389,184.054
726,15 May 2025 09:02:29.413,15 May 2025 09:12:29.714,600.301
727,15 May 2025 10:35:51.171,15 May 2025 10:47:03.840,672.669
728,15 May 2025 12:12:05.741,15 May 2025 12:16:16.470,250.729
729,15 May 2025 19:43:09.336,15 May 2025 19:51:31.949,502.612
730,15 May 2025 21:14:45.290,15 May 2025 21:26:19.781,694.491
731,15 May 2025 22:51:28.775,15 May 2025 22:58:26.365,417.590
732,16 May 2025 08:44:15.477,16 May 2025 08:52:56.175,520.699
733,16 May 2025 10:17:02.881,16 May 2025 10:28:33.710,690.829
734,16 May 2025 11:52:20.444,16 May 2025 11:59:14.338,413.894
735,16 May 2025 19:25:36.854,16 May 2025 19:32:11.395,394.541
736,16 May 2025 20:56:06.376,16 May 2025 21:07:35.416,689.039
737,16 May 2025 22:31:33.571,16 May 2025 22:40:28.722,535.151
738,17 May 2025 08:26:22.108,17 May 2025 08:32:55.702,393.594
739,17 May 2025 09:58:19.229,17 May 2025 10:09:53.224,693.995
740,17 May 2025 11:33:02.476,17 May 2025 11:41:38.285,515.810
741,17 May 2025 19:08:44.491,17 May 2025 19:12:17.361,212.871
742,17 May 2025 20:37:37.829,17 May 2025 20:48:46.419,668.589
743,17 May 2025 22:12:03.052,17 May 2025 22:22:12.699,609.647
744,18 May 2025 08:09:48.810,18 May 2025 08:11:28.339,99.529
745,18 May 2025 09:39:40.520,18 May 2025 09:51:02.107,681.587
746,18 May 2025 11:13:56.337,18 May 2025 11:23:44.030,587.693
747,18 May 2025 20:19:19.998,18 May 2025 20:29:52.544,632.546
748,18 May 2025 21:52:49.039,18 May 2025 22:03:46.175,657.136
749,19 May 2025 09:21:07.643,19 May 2025 09:31:59.451,651.808
750,19 May 2025 10:54:57.608,19 May 2025 11:05:36.200,638.592
751,19 May 2025 20:01:13.918,19 May 2025 20:10:52.917,578.999
752,19 May 2025 21:33:48.085,19 May 2025 21:45:12.399,684.314
753,19 May 2025 23:12:41.268,19 May 2025 23:15:40.282,179.014
754,20 May 2025 09:02:42.341,20 May 2025 09:12:43.386,601.045
755,20 May 2025 10:36:04.452,20 May 2025 10:47:16.819,672.367
756,20 May 2025 12:12:20.036,20 May 2025 12:16:28.063,248.026
757,20 May 2025 19:43:21.830,20 May 2025 19:51:45.488,503.658
758,20 May 2025 21:14:58.494,20 May 2025 21:26:32.960,694.466
759,20 May 2025 22:51:43.032,20 May 2025 22:58:38.845,415.813
760,21 May 2025 08:44:28.236,21 May 2025 08:53:10.087,521.851
761,21 May 2025 10:17:16.107,21 May 2025 10:28:46.811,690.704
762,21 May 2025 11:52:34.152,21 May 2025 11:59:26.596,412.444
763,21 May 2025 19:25:49.061,21 May 2025 19:32:25.145,396.084
764,21 May 2025 20:56:19.459,21 May 2025 21:07:48.645,689.186
765,21 May 2025 22:31:47.442,21 May 2025 22:40:41.509,534.067
766,22 May 2025 08:26:34.513,22 May 2025 08:33:10.044,395.530
767,22 May 2025 09:58:32.399,22 May 2025 10:10:06.448,694.048
768,22 May 2025 11:33:15.995,22 May 2025 11:41:50.808,514.814
769,22 May 2025 19:08:55.833,22 May 2025 19:12:31.895,216.062
770,22 May 2025 20:37:50.789,22 May 2025 20:48:59.707,668.918
771,22 May 2025 22:12:16.696,22 May 2025 22:22:25.642,608.946
772,23 May 2025 08:09:57.714,23 May 2025 08:11:46.264,108.550
773,23 May 2025 09:39:53.629,23 May 2025 09:51:15.457,681.829
774,23 May 2025 11:14:09.750,23 May 2025 11:23:56.732,586.981
775,23 May 2025 20:19:32.827,23 May 2025 20:30:05.894,633.066
776,23 May 2025 21:53:02.514,23 May 2025 22:03:59.217,656.704
777,24 May 2025 09:21:20.675,24 May 2025 09:32:12.942,652.267
778,24 May 2025 10:55:10.949,24 May 2025 11:05:49.045,638.096
779,24 May 2025 20:01:26.594,24 May 2025 20:11:06.344,579.750
780,24 May 2025 21:34:01.419,24 May 2025 21:45:25.516,684.097
781,24 May 2025 23:12:57.280,24 May 2025 23:15:51.084,173.804
782,25 May 2025 09:02:55.268,25 May 2025 09:12:57.055,601.787
783,25 May 2025 10:36:17.733,25 May 2025 10:47:29.796,672.063
784,25 May 2025 12:12:34.344,25 May 2025 12:16:39.642,245.298
785,25 May 2025 19:43:34.325,25 May 2025 19:51:59.028,504.703
786,25 May 2025 21:15:11.700,25 May 2025 21:26:46.138,694.437
787,25 May 2025 22:51:57.298,25 May 2025 22:58:51.314,414.016
788,26 May 2025 08:44:40.999,26 May 2025 08:53:23.995,522.995
789,26 May 2025 10:17:29.334,26 May 2025 10:28:59.909,690.576
790,26 May 2025 11:52:47.862,26 May 2025 11:59:38.852,410.990
791,26 May 2025 19:26:01.267,26 May 2025 19:32:38.895,397.628
792,26 May 2025 20:56:32.543,26 May 2025 21:08:01.882,689.339
793,26 May 2025 22:32:01.319,26 May 2025 22:40:54.294,532.974
794,27 May 2025 08:26:46.928,27 May 2025 08:33:24.378,397.450
795,27 May 2025 09:58:45.572,27 May 2025 10:10:19.670,694.098
796,27 May 2025 11:33:29.515,27 May 2025 11:42:03.331,513.816
797,27 May 2025 19:09:07.199,27 May 2025 19:12:46.409,219.211
798,27 May 2025 20:38:03.751,27 May 2025 20:49:12.996,669.245
799,27 May 2025 22:12:30.344,27 May 2025 22:22:38.584,608.240
800,28 May 2025 08:10:06.979,28 May 2025 08:12:03.836,116.858
801,28 May 2025 09:40:06.740,28 May 2025 09:51:28.808,682.067
802,28 May 2025 11:14:23.166,28 May 2025 11:24:09.434,586.267
803,28 May 2025 20:19:45.660,28 May 2025 20:30:19.245,633.585
804,28 May 2025 21:53:15.993,28 May 2025 22:04:12.260,656.268
805,29 May 2025 09:21:33.711,29 May 2025 09:32:26.437,652.726
806,29 May 2025 10:55:24.291,29 May 2025 11:06:01.896,637.606
807,29 May 2025 20:01:39.279,29 May 2025 20:11:19.774,580.495
808,29 May 2025 21:34:14.752,29 May 2025 21:45:38.634,683.882
809,29 May 2025 23:13:13.381,29 May 2025 23:16:01.810,168.428
810,30 May 2025 09:03:08.201,30 May 2025 09:13:10.719,602.518
811,30 May 2025 10:36:31.016,30 May 2025 10:47:42.772,671.757
812,30 May 2025 12:12:48.671,30 May 2025 12:16:51.203,242.532
813,30 May 2025 19:43:46.824,30 May 2025 19:52:12.566,505.742
814,30 May 2025 21:15:24.909,30 May 2025 21:26:59.317,694.408
815,30 May 2025 22:52:11.571,30 May 2025 22:59:03.781,412.210
816,31 May 2025 08:44:53.762,31 May 2025 08:53:37.899,524.138
817,31 May 2025 10:17:42.562,31 May 2025 10:29:13.006,690.444
818,31 May 2025 11:53:01.578,31 May 2025 11:59:51.104,409.526
819,31 May 2025 19:26:13.481,31 May 2025 19:32:52.640,399.159
820,31 May 2025 20:56:45.634,31 May 2025 21:08:15.117,689.482
821,31 May 2025 22:32:15.200,31 May 2025 22:41:07.077,531.877
822,1 Jun 2025 08:26:59.348,1 Jun 2025 08:33:38.706,399.358
823,1 Jun 2025 09:58:58.742,1 Jun 2025 10:10:32.890,694.147
824,1 Jun 2025 11:33:43.038,1 Jun 2025 11:42:15.850,512.812
825,1 Jun 2025 19:09:18.591,1 Jun 2025 19:13:00.896,222.304
826,1 Jun 2025 20:38:16.714,1 Jun 2025 20:49:26.284,669.570
827,1 Jun 2025 22:12:43.993,1 Jun 2025 22:22:51.525,607.531
828,2 Jun 2025 08:10:16.522,2 Jun 2025 08:12:21.122,124.600
829,2 Jun 2025 09:40:19.851,2 Jun 2025 09:51:42.155,682.304
830,2 Jun 2025 11:14:36.583,2 Jun 2025 11:24:22.133,585.550
831,2 Jun 2025 20:19:58.491,2 Jun 2025 20:30:32.593,634.102
832,2 Jun 2025 21:53:29.472,2 Jun 2025 22:04:25.301,655.830
833,3 Jun 2025 09:21:46.746,3 Jun 2025 09:32:39.928,653.182
834,3 Jun 2025 10:55:37.634,3 Jun 2025 11:06:14.740,637.107
835,3 Jun 2025 20:01:51.963,3 Jun 2025 20:11:33.198,581.235
836,3 Jun 2025 21:34:28.088,3 Jun 2025 21:45:51.749,683.661
837,3 Jun 2025 23:13:29.574,3 Jun 2025 23:16:12.436,162.862
838,4 Jun 2025 09:03:21.130,4 Jun 2025 09:13:24.386,603.256
839,4 Jun 2025 10:36:44.298,4 Jun 2025 10:47:55.746,671.448
840,4 Jun 2025 12:13:03.012,4 Jun 2025 12:17:02.745,239.734
841,4 Jun 2025 19:43:59.324,4 Jun 2025 19:52:26.101,506.777
842,4 Jun 2025 21:15:38.117,4 Jun 2025 21:27:12.493,694.376
843,4 Jun 2025 22:52:25.849,4 Jun 2025 22:59:16.239,410.390
844,5 Jun 2025 08:45:06.530,5 Jun 2025 08:53:51.799,525.269
845,5 Jun 2025 10:17:55.789,5 Jun 2025 10:29:26.102,690.313
846,5 Jun 2025 11:53:15.294,5 Jun 2025 12:00:03.350,408.057
847,5 Jun 2025 19:26:25.698,5 Jun 2025 19:33:06.382,400.684
848,5 Jun 2025 20:56:58.719,5 Jun 2025 21:08:28.348,689.629
849,5 Jun 2025 22:32:29.082,5 Jun 2025 22:41:19.855,530.773
850,6 Jun 2025 08:27:11.775,6 Jun 2025 08:33:53.023,401.249
851,6 Jun 2025 09:59:11.915,6 Jun 2025 10:10:46.107,694.192
852,6 Jun 2025 11:33:56.560,6 Jun 2025 11:42:28.367,511.807
853,6 Jun 2025 19:09:30.004,6 Jun 2025 19:13:15.363,225.359
854,6 Jun 2025 20:38:29.677,6 Jun 2025 20:49:39.571,669.893
855,6 Jun 2025 22:12:57.647,6 Jun 2025 22:23:04.462,606.815
856,7 Jun 2025 08:10:26.308,7 Jun 2025 08:12:38.164,131.857
857,7 Jun 2025 09:40:32.967,7 Jun 2025 09:51:55.501,682.534
858,7 Jun 2025 11:14:49.998,7 Jun 2025 11:24:34.830,584.832
859,7 Jun 2025 20:20:11.325,7 Jun 2025 20:30:45.941,634.616
860,7 Jun 2025 21:53:42.952,7 Jun 2025 22:04:38.340,655.388
861,8 Jun 2025 09:21:59.778,8 Jun 2025 09:32:53.417,653.640
862,8 Jun 2025 10:55:50.976,8 Jun 2025 11:06:27.583,636.607
863,8 Jun 2025 20:02:04.649,8 Jun 2025 20:11:46.619,581.970
864,8 Jun 2025 21:34:41.426,8 Jun 2025 21:46:04.863,683.437
865,8 Jun 2025 23:13:45.877,8 Jun 2025 23:16:22.952,157.075
866,9 Jun 2025 09:03:34.061,9 Jun 2025 09:13:38.044,603.983
867,9 Jun 2025 10:36:57.585,9 Jun 2025 10:48:08.719,671.135
868,9 Jun 2025 12:13:17.371,9 Jun 2025 12:17:14.273,236.902
869,9 Jun 2025 19:44:11.825,9 Jun 2025 19:52:39.633,507.807
870,9 Jun 2025 21:15:51.328,9 Jun 2025 21:27:25.667,694.339
871,9 Jun 2025 22:52:40.137,9 Jun 2025 22:59:28.691,408.554
872,10 Jun 2025 08:45:19.304,10 Jun 2025 08:54:05.693,526.390
873,10 Jun 2025 10:18:09.021,10 Jun 2025 10:29:39.199,690.178
874,10 Jun 2025 11:53:29.017,10 Jun 2025 12:00:15.599,406.582
875,10 Jun 2025 19:26:37.917,10 Jun 2025 19:33:20.126,402.209
876,10 Jun 2025 20:57:11.804,10 Jun 2025 21:08:41.578,689.773
877,10 Jun 2025 22:32:42.967,10 Jun 2025 22:41:32.631,529.664
878,11 Jun 2025 08:27:24.210,11 Jun 2025 08:34:07.339,403.129
879,11 Jun 2025 09:59:25.088,11 Jun 2025 10:10:59.323,694.235
880,11 Jun 2025 11:34:10.088,11 Jun 2025 11:42:40.882,510.795
881,11 Jun 2025 19:09:41.437,11 Jun 2025 19:13:29.811,228.374
882,11 Jun 2025 20:38:42.643,11 Jun 2025 20:49:52.858,670.215
883,11 Jun 2025 22:13:11.299,11 Jun 2025 22:23:17.399,606.100
884,12 Jun 2025 08:10:36.296,12 Jun 2025 08:12:55.012,138.717
885,12 Jun 2025 09:40:46.077,12 Jun 2025 09:52:08.842,682.764
886,12 Jun 2025 11:15:03.420,12 Jun 2025 11:24:47.523,584.104
887,12 Jun 2025 20:20:24.162,12 Jun 2025 20:30:59.289,635.127
888,12 Jun 2025 21:53:56.436,12 Jun 2025 22:04:51.379,654.944
889,13 Jun 2025 09:22:12.816,13 Jun 2025 09:33:06.906,654.090
890,13 Jun 2025 10:56:04.315,13 Jun 2025 11:06:40.425,636.110
891,13 Jun 2025 20:02:17.338,13 Jun 2025 20:12:00.045,582.707
892,13 Jun 2025 21:34:54.768,13 Jun 2025 21:46:17.978,683.210
893,13 Jun 2025 23:14:02.302,13 Jun 2025 23:16:33.348,151.046
894,14 Jun 2025 09:03:46.997,14 Jun 2025 09:13:51.705,604.708
895,14 Jun 2025 10:37:10.869,14 Jun 2025 10:48:21.690,670.822
896,14 Jun 2025 12:13:31.747,14 Jun 2025 12:17:25.780,234.033
897,14 Jun 2025 19:44:24.331,14 Jun 2025 19:52:53.166,508.835
898,14 Jun 2025 21:16:04.540,14 Jun 2025 21:27:38.843,694.303
899,14 Jun 2025 22:52:54.430,14 Jun 2025 22:59:41.137,406.707
900,15 Jun 2025 08:45:32.078,15 Jun 2025 08:54:19.587,527.509
901,15 Jun 2025 10:18:22.252,15 Jun 2025 10:29:52.292,690.040
902,15 Jun 2025 11:53:42.736,15 Jun 2025 12:00:27.838,405.102
903,15 Jun 2025 19:26:50.144,15 Jun 2025 19:33:33.861,403.717
904,15 Jun 2025 20:57:24.894,15 Jun 2025 21:08:54.810,689.916
905,15 Jun 2025 22:32:56.856,15 Jun 2025 22:41:45.405,528.549
906,16 Jun 2025 08:27:36.650,16 Jun 2025 08:34:21.643,404.993
907,16 Jun 2025 09:59:38.262,16 Jun 2025 10:11:12.538,694.275
908,16 Jun 2025 11:34:23.614,16 Jun 2025 11:42:53.394,509.780
909,16 Jun 2025 19:09:52.895,16 Jun 2025 19:13:44.235,231.339
910,16 Jun 2025 20:38:55.610,16 Jun 2025 20:50:06.141,670.531
911,16 Jun 2025 22:13:24.959,16 Jun 2025 22:23:30.334,605.375
912,17 Jun 2025 08:10:46.441,17 Jun 2025 08:13:11.691,145.250
913,17 Jun 2025 09:40:59.192,17 Jun 2025 09:52:22.184,682.992
914,17 Jun 2025 11:15:16.834,17 Jun 2025 11:25:00.217,583.382
915,17 Jun 2025 20:20:37.000,17 Jun 2025 20:31:12.633,635.633
916,17 Jun 2025 21:54:09.919,17 Jun 2025 22:05:04.417,654.497
917,18 Jun 2025 09:22:25.854,18 Jun 2025 09:33:20.392,654.538
918,18 Jun 2025 10:56:17.659,18 Jun 2025 11:06:53.264,635.605
919,18 Jun 2025 20:02:30.028,18 Jun 2025 20:12:13.467,583.439
920,18 Jun 2025 21:35:08.108,18 Jun 2025 21:46:31.090,682.982
921,18 Jun 2025 23:14:18.854,18 Jun 2025 23:16:43.621,144.768
922,19 Jun 2025 09:03:59.935,19 Jun 2025 09:14:05.364,605.429
923,19 Jun 2025 10:37:24.148,19 Jun 2025 10:48:34.654,670.507
924,19 Jun 2025 12:13:46.138,19 Jun 2025 12:17:37.266,231.128
925,19 Jun 2025 19:44:36.837,19 Jun 2025 19:53:06.701,509.864
926,19 Jun 2025 21:16:17.752,19 Jun 2025 21:27:52.017,694.265
927,19 Jun 2025 22:53:08.730,19 Jun 2025 22:59:53.576,404.846
928,20 Jun 2025 08:45:44.853,20 Jun 2025 08:54:33.476,528.623
929,20 Jun 2025 10:18:35.481,20 Jun 2025 10:30:05.382,689.901
930,20 Jun 2025 11:53:56.460,20 Jun 2025 12:00:40.072,403.612
931,20 Jun 2025 19:27:02.373,20 Jun 2025 19:33:47.593,405.220
932,20 Jun 2025 20:57:37.984,20 Jun 2025 21:09:08.039,690.055
933,20 Jun 2025 22:33:10.748,20 Jun 2025 22:41:58.175,527.427
934,21 Jun 2025 08:27:49.097,21 Jun 2025 08:34:35.938,406.841
935,21 Jun 2025 09:59:51.436,21 Jun 2025 10:11:25.746,694.310
936,21 Jun 2025 11:34:37.139,21 Jun 2025 11:43:05.904,508.765
937,21 Jun 2025 19:10:04.370,21 Jun 2025 19:13:58.641,234.271
938,21 Jun 2025 20:39:08.581,21 Jun 2025 20:50:19.428,670.847
939,21 Jun 2025 22:13:38.612,21 Jun 2025 22:23:43.263,604.652
940,22 Jun 2025 08:10:56.741,22 Jun 2025 08:13:28.213,151.472
941,22 Jun 2025 09:41:12.305,22 Jun 2025 09:52:35.524,683.219
942,22 Jun 2025 11:15:30.253,22 Jun 2025 11:25:12.908,582.655
943,22 Jun 2025 20:20:49.835,22 Jun 2025 20:31:25.979,636.143
944,22 Jun 2025 21:54:23.405,22 Jun 2025 22:05:17.452,654.047
945,23 Jun 2025 09:22:38.893,23 Jun 2025 09:33:33.874,654.981
946,23 Jun 2025 10:56:31.002,23 Jun 2025 11:07:06.102,635.100
947,23 Jun 2025 20:02:42.719,23 Jun 2025 20:12:26.889,584.169
948,23 Jun 2025 21:35:21.451,23 Jun 2025 21:46:44.201,682.750
949,23 Jun 2025 23:14:35.564,23 Jun 2025 23:16:53.733,138.169
950,24 Jun 2025 09:04:12.876,24 Jun 2025 09:14:19.016,606.140
951,24 Jun 2025 10:37:37.432,24 Jun 2025 10:48:47.623,670.191
952,24 Jun 2025 12:14:00.548,24 Jun 2025 12:17:48.736,228.188
953,24 Jun 2025 19:44:49.346,24 Jun 2025 19:53:20.227,510.881
954,24 Jun 2025 21:16:30.967,24 Jun 2025 21:28:05.190,694.223
955,24 Jun 2025 22:53:23.039,24 Jun 2025 23:00:06.008,402.969
956,25 Jun 2025 08:45:57.632,25 Jun 2025 08:54:47.363,529.731
957,25 Jun 2025 10:18:48.711,25 Jun 2025 10:30:18.472,689.761
958,25 Jun 2025 11:54:10.187,25 Jun 2025 12:00:52.304,402.117
959,25 Jun 2025 19:27:14.607,25 Jun 2025 19:34:01.323,406.716
960,25 Jun 2025 20:57:51.077,25 Jun 2025 21:09:21.270,690.193
961,25 Jun 2025 22:33:24.645,25 Jun 2025 22:42:10.942,526.297
962,26 Jun 2025 08:28:01.552,26 Jun 2025 08:34:50.227,408.675
963,26 Jun 2025 10:00:04.615,26 Jun 2025 10:11:38.958,694.343
964,26 Jun 2025 11:34:50.667,26 Jun 2025 11:43:18.412,507.745
965,26 Jun 2025 19:10:15.866,26 Jun 2025 19:14:13.030,237.164
966,26 Jun 2025 20:39:21.551,26 Jun 2025 20:50:32.713,671.161
967,26 Jun 2025 22:13:52.273,26 Jun 2025 22:23:56.195,603.922
968,27 Jun 2025 08:11:07.170,27 Jun 2025 08:13:44.608,157.438
969,27 Jun 2025 09:41:25.422,27 Jun 2025 09:52:48.864,683.442
970,27 Jun 2025 11:15:43.674,27 Jun 2025 11:25:25.599,581.924
971,27 Jun 2025 20:21:02.676,27 Jun 2025 20:31:39.325,636.649
972,27 Jun 2025 21:54:36.893,27 Jun 2025 22:05:30.487,653.594
973,28 Jun 2025 09:22:51.934,28 Jun 2025 09:33:47.356,655.422
974,28 Jun 2025 10:56:44.348,28 Jun 2025 11:07:18.938,634.591
975,28 Jun 2025 20:02:55.413,28 Jun 2025 20:12:40.309,584.896
976,28 Jun 2025 21:35:34.795,28 Jun 2025 21:46:57.312,682.517
977,28 Jun 2025 23:14:52.446,28 Jun 2025 23:17:03.677,131.231
