3UCubedIntegratedSim/Reports & Plots/Comms/UNH/Sat 23 Comms.csv

"Access","Start Time (UTCG)","Stop Time (UTCG)","Duration (sec)"
1,1 Jan 2025 16:05:52.164,1 Jan 2025 16:16:19.509,627.345
2,2 Jan 2025 14:13:31.071,2 Jan 2025 14:23:16.825,585.754
3,2 Jan 2025 15:46:42.586,2 Jan 2025 15:57:50.422,667.836
4,3 Jan 2025 13:55:29.136,3 Jan 2025 14:04:22.606,533.470
5,3 Jan 2025 15:27:45.405,3 Jan 2025 15:39:06.992,681.587
6,3 Jan 2025 17:05:43.904,3 Jan 2025 17:10:27.309,283.405
7,4 Jan 2025 13:37:42.386,4 Jan 2025 13:45:28.393,466.007
8,4 Jan 2025 15:08:59.247,4 Jan 2025 15:20:12.778,673.532
9,4 Jan 2025 16:45:16.746,4 Jan 2025 16:52:57.008,460.261
10,5 Jan 2025 13:20:18.313,5 Jan 2025 13:26:09.051,350.738
11,5 Jan 2025 14:50:23.524,5 Jan 2025 15:01:18.565,655.041
12,5 Jan 2025 16:25:30.637,5 Jan 2025 16:34:52.262,561.626
13,6 Jan 2025 13:04:04.188,6 Jan 2025 13:05:38.860,94.672
14,6 Jan 2025 14:31:58.217,6 Jan 2025 14:42:24.351,626.134
15,6 Jan 2025 16:06:05.748,6 Jan 2025 16:16:32.488,626.740
16,7 Jan 2025 14:13:43.854,7 Jan 2025 14:23:30.137,586.283
17,7 Jan 2025 15:46:56.011,7 Jan 2025 15:58:03.488,667.477
18,8 Jan 2025 13:55:41.760,8 Jan 2025 14:04:35.923,534.163
19,8 Jan 2025 15:27:58.694,8 Jan 2025 15:39:20.308,681.614
20,8 Jan 2025 17:05:58.822,8 Jan 2025 17:10:39.175,280.353
21,9 Jan 2025 13:37:54.802,9 Jan 2025 13:45:41.708,466.906
22,9 Jan 2025 15:09:12.408,9 Jan 2025 15:20:26.094,673.686
23,9 Jan 2025 16:45:30.854,9 Jan 2025 16:53:09.607,458.754
24,10 Jan 2025 13:20:30.372,10 Jan 2025 13:26:22.917,352.544
25,10 Jan 2025 14:50:36.565,10 Jan 2025 15:01:31.879,655.314
26,10 Jan 2025 16:25:44.424,10 Jan 2025 16:35:05.103,560.679
27,11 Jan 2025 13:04:13.525,11 Jan 2025 13:05:55.368,101.843
28,11 Jan 2025 14:32:11.134,11 Jan 2025 14:42:37.664,626.530
29,11 Jan 2025 16:06:19.331,11 Jan 2025 16:16:45.462,626.130
30,12 Jan 2025 14:13:56.636,12 Jan 2025 14:23:43.449,586.813
31,12 Jan 2025 15:47:09.436,12 Jan 2025 15:58:16.551,667.115
32,13 Jan 2025 13:55:54.385,13 Jan 2025 14:04:49.234,534.848
33,13 Jan 2025 15:28:11.981,13 Jan 2025 15:39:33.619,681.638
34,13 Jan 2025 17:06:13.763,13 Jan 2025 17:10:51.018,277.256
35,14 Jan 2025 13:38:07.222,14 Jan 2025 13:45:55.019,467.797
36,14 Jan 2025 15:09:25.572,14 Jan 2025 15:20:39.405,673.832
37,14 Jan 2025 16:45:44.963,14 Jan 2025 16:53:22.202,457.239
38,15 Jan 2025 13:20:42.437,15 Jan 2025 13:26:36.779,354.342
39,15 Jan 2025 14:50:49.608,15 Jan 2025 15:01:45.190,655.582
40,15 Jan 2025 16:25:58.217,15 Jan 2025 16:35:17.942,559.725
41,16 Jan 2025 13:04:23.100,16 Jan 2025 13:06:11.643,108.544
42,16 Jan 2025 14:32:24.054,16 Jan 2025 14:42:50.976,626.922
43,16 Jan 2025 16:06:32.919,16 Jan 2025 16:16:58.435,625.516
44,17 Jan 2025 14:14:09.418,17 Jan 2025 14:23:56.762,587.345
45,17 Jan 2025 15:47:22.869,17 Jan 2025 15:58:29.617,666.747
46,18 Jan 2025 13:56:07.014,18 Jan 2025 14:05:02.548,535.534
47,18 Jan 2025 15:28:25.276,18 Jan 2025 15:39:46.934,681.658
48,18 Jan 2025 17:06:28.725,18 Jan 2025 17:11:02.844,274.119
49,19 Jan 2025 13:38:19.646,19 Jan 2025 13:46:08.334,468.689
50,19 Jan 2025 15:09:38.739,19 Jan 2025 15:20:52.720,673.981
51,19 Jan 2025 16:45:59.077,19 Jan 2025 16:53:34.795,455.718
52,20 Jan 2025 13:20:54.510,20 Jan 2025 13:26:50.635,356.124
53,20 Jan 2025 14:51:02.654,20 Jan 2025 15:01:58.507,655.853
54,20 Jan 2025 16:26:12.011,20 Jan 2025 16:35:30.780,558.768
55,21 Jan 2025 13:04:32.880,21 Jan 2025 13:06:27.706,114.826
56,21 Jan 2025 14:32:36.974,21 Jan 2025 14:43:04.293,627.318
57,21 Jan 2025 16:06:46.507,21 Jan 2025 16:17:11.407,624.900
58,22 Jan 2025 14:14:22.204,22 Jan 2025 14:24:10.079,587.875
59,22 Jan 2025 15:47:36.298,22 Jan 2025 15:58:42.679,666.381
60,23 Jan 2025 13:56:19.644,23 Jan 2025 14:05:15.869,536.224
61,23 Jan 2025 15:28:38.566,23 Jan 2025 15:40:00.250,681.684
62,23 Jan 2025 17:06:43.708,23 Jan 2025 17:11:14.649,270.941
63,24 Jan 2025 13:38:32.072,24 Jan 2025 13:46:21.650,469.578
64,24 Jan 2025 15:09:51.906,24 Jan 2025 15:21:06.035,674.129
65,24 Jan 2025 16:46:13.195,24 Jan 2025 16:53:47.383,454.188
66,25 Jan 2025 13:21:06.586,25 Jan 2025 13:27:04.483,357.897
67,25 Jan 2025 14:51:15.699,25 Jan 2025 15:02:11.821,656.122
68,25 Jan 2025 16:26:25.807,25 Jan 2025 16:35:43.614,557.807
69,26 Jan 2025 13:04:42.824,26 Jan 2025 13:06:43.611,120.786
70,26 Jan 2025 14:32:49.895,26 Jan 2025 14:43:17.606,627.710
71,26 Jan 2025 16:07:00.096,26 Jan 2025 16:17:24.377,624.280
72,27 Jan 2025 14:14:34.990,27 Jan 2025 14:24:23.391,588.401
73,27 Jan 2025 15:47:49.724,27 Jan 2025 15:58:55.743,666.019
74,28 Jan 2025 13:56:32.273,28 Jan 2025 14:05:29.176,536.903
75,28 Jan 2025 15:28:51.860,28 Jan 2025 15:40:13.562,681.701
76,28 Jan 2025 17:06:58.710,28 Jan 2025 17:11:26.427,267.717
77,29 Jan 2025 13:38:44.499,29 Jan 2025 13:46:34.961,470.462
78,29 Jan 2025 15:10:05.075,29 Jan 2025 15:21:19.347,674.272
79,29 Jan 2025 16:46:27.319,29 Jan 2025 16:53:59.965,452.646
80,30 Jan 2025 13:21:18.670,30 Jan 2025 13:27:18.330,359.659
81,30 Jan 2025 14:51:28.746,30 Jan 2025 15:02:25.133,656.387
82,30 Jan 2025 16:26:39.607,30 Jan 2025 16:35:56.446,556.839
83,31 Jan 2025 13:04:52.912,31 Jan 2025 13:06:59.377,126.465
84,31 Jan 2025 14:33:02.819,31 Jan 2025 14:43:30.919,628.100
85,31 Jan 2025 16:07:13.685,31 Jan 2025 16:17:37.348,623.663
86,1 Feb 2025 14:14:47.785,1 Feb 2025 14:24:36.705,588.920
87,1 Feb 2025 15:48:03.158,1 Feb 2025 15:59:08.800,665.642
88,2 Feb 2025 13:56:44.911,2 Feb 2025 14:05:42.491,537.580
89,2 Feb 2025 15:29:05.157,2 Feb 2025 15:40:26.877,681.720
90,2 Feb 2025 17:07:13.741,2 Feb 2025 17:11:38.187,264.446
91,3 Feb 2025 13:38:56.932,3 Feb 2025 13:46:48.277,471.345
92,3 Feb 2025 15:10:18.245,3 Feb 2025 15:21:32.663,674.418
93,3 Feb 2025 16:46:41.448,3 Feb 2025 16:54:12.545,451.097
94,4 Feb 2025 13:21:30.758,4 Feb 2025 13:27:32.168,361.409
95,4 Feb 2025 14:51:41.795,4 Feb 2025 15:02:38.450,656.655
96,4 Feb 2025 16:26:53.409,4 Feb 2025 16:36:09.278,555.868
97,5 Feb 2025 13:05:03.130,5 Feb 2025 13:07:15.008,131.879
98,5 Feb 2025 14:33:15.743,5 Feb 2025 14:43:44.236,628.492
99,5 Feb 2025 16:07:27.278,5 Feb 2025 16:17:50.316,623.037
100,6 Feb 2025 14:15:00.572,6 Feb 2025 14:24:50.022,589.451
101,6 Feb 2025 15:48:16.594,6 Feb 2025 15:59:21.860,665.266
102,7 Feb 2025 13:56:57.548,7 Feb 2025 14:05:55.807,538.258
103,7 Feb 2025 15:29:18.453,7 Feb 2025 15:40:40.192,681.740
104,7 Feb 2025 17:07:28.794,7 Feb 2025 17:11:49.918,261.124
105,8 Feb 2025 13:39:09.366,8 Feb 2025 13:47:01.592,472.226
106,8 Feb 2025 15:10:31.415,8 Feb 2025 15:21:45.977,674.562
107,8 Feb 2025 16:46:55.580,8 Feb 2025 16:54:25.119,449.539
108,9 Feb 2025 13:21:42.858,9 Feb 2025 13:27:46.001,363.143
109,9 Feb 2025 14:51:54.843,9 Feb 2025 15:02:51.763,656.919
110,9 Feb 2025 16:27:07.213,9 Feb 2025 16:36:22.105,554.892
111,10 Feb 2025 13:05:13.452,10 Feb 2025 13:07:30.535,137.082
112,10 Feb 2025 14:33:28.668,10 Feb 2025 14:43:57.548,628.880
113,10 Feb 2025 16:07:40.874,10 Feb 2025 16:18:03.281,622.407
114,11 Feb 2025 14:15:13.363,11 Feb 2025 14:25:03.335,589.971
115,11 Feb 2025 15:48:30.029,11 Feb 2025 15:59:34.917,664.889
116,12 Feb 2025 13:57:10.186,12 Feb 2025 14:06:09.119,538.934
117,12 Feb 2025 15:29:31.751,12 Feb 2025 15:40:53.505,681.754
118,12 Feb 2025 17:07:43.875,12 Feb 2025 17:12:01.629,257.754
119,13 Feb 2025 13:39:21.803,13 Feb 2025 13:47:14.905,473.102
120,13 Feb 2025 15:10:44.588,13 Feb 2025 15:21:59.291,674.703
121,13 Feb 2025 16:47:09.719,13 Feb 2025 16:54:37.690,447.970
122,14 Feb 2025 13:21:54.959,14 Feb 2025 13:27:59.830,364.871
123,14 Feb 2025 14:52:07.895,14 Feb 2025 15:03:05.078,657.183
124,14 Feb 2025 16:27:21.019,14 Feb 2025 16:36:34.932,553.913
125,15 Feb 2025 13:05:23.876,15 Feb 2025 13:07:45.963,142.086
126,15 Feb 2025 14:33:41.596,15 Feb 2025 14:44:10.864,629.268
127,15 Feb 2025 16:07:54.472,15 Feb 2025 16:18:16.246,621.774
128,16 Feb 2025 14:15:26.158,16 Feb 2025 14:25:16.652,590.494
129,16 Feb 2025 15:48:43.466,16 Feb 2025 15:59:47.975,664.509
130,17 Feb 2025 13:57:22.825,17 Feb 2025 14:06:22.437,539.612
131,17 Feb 2025 15:29:45.050,17 Feb 2025 15:41:06.823,681.773
132,17 Feb 2025 17:07:58.981,17 Feb 2025 17:12:13.312,254.331
133,18 Feb 2025 13:39:34.244,18 Feb 2025 13:47:28.224,473.980
134,18 Feb 2025 15:10:57.762,18 Feb 2025 15:22:12.610,674.848
135,18 Feb 2025 16:47:23.863,18 Feb 2025 16:54:50.257,446.394
136,19 Feb 2025 13:22:07.067,19 Feb 2025 13:28:13.652,366.585
137,19 Feb 2025 14:52:20.947,19 Feb 2025 15:03:18.396,657.449
138,19 Feb 2025 16:27:34.829,19 Feb 2025 16:36:47.757,552.928
139,20 Feb 2025 13:05:34.392,20 Feb 2025 13:08:01.296,146.904
140,20 Feb 2025 14:33:54.525,20 Feb 2025 14:44:24.183,629.658
141,20 Feb 2025 16:08:08.071,20 Feb 2025 16:18:29.210,621.139
142,21 Feb 2025 14:15:38.953,21 Feb 2025 14:25:29.971,591.018
143,21 Feb 2025 15:48:56.904,21 Feb 2025 16:00:01.031,664.128
144,22 Feb 2025 13:57:35.467,22 Feb 2025 14:06:35.755,540.288
145,22 Feb 2025 15:29:58.350,22 Feb 2025 15:41:20.141,681.790
146,22 Feb 2025 17:08:14.113,22 Feb 2025 17:12:24.969,250.855
147,23 Feb 2025 13:39:46.687,23 Feb 2025 13:47:41.540,474.853
148,23 Feb 2025 15:11:10.936,23 Feb 2025 15:22:25.926,674.990
149,23 Feb 2025 16:47:38.010,23 Feb 2025 16:55:02.818,444.808
150,24 Feb 2025 13:22:19.178,24 Feb 2025 13:28:27.466,368.288
151,24 Feb 2025 14:52:34.001,24 Feb 2025 15:03:31.712,657.711
152,24 Feb 2025 16:27:48.641,24 Feb 2025 16:37:00.578,551.937
153,25 Feb 2025 13:05:44.982,25 Feb 2025 13:08:16.557,151.574
154,25 Feb 2025 14:34:07.454,25 Feb 2025 14:44:37.497,630.044
155,25 Feb 2025 16:08:21.672,25 Feb 2025 16:18:42.172,620.499
156,26 Feb 2025 14:15:51.751,26 Feb 2025 14:25:43.286,591.535
157,26 Feb 2025 15:49:10.343,26 Feb 2025 16:00:14.086,663.743
158,27 Feb 2025 13:57:48.110,27 Feb 2025 14:06:49.069,540.959
159,27 Feb 2025 15:30:11.653,27 Feb 2025 15:41:33.455,681.802
160,27 Feb 2025 17:08:29.277,27 Feb 2025 17:12:36.597,247.320
161,28 Feb 2025 13:39:59.133,28 Feb 2025 13:47:54.855,475.722
162,28 Feb 2025 15:11:24.113,28 Feb 2025 15:22:39.241,675.128
163,28 Feb 2025 16:47:52.165,28 Feb 2025 16:55:15.375,443.210
164,1 Mar 2025 13:22:31.297,1 Mar 2025 13:28:41.280,369.983
165,1 Mar 2025 14:52:47.057,1 Mar 2025 15:03:45.028,657.972
166,1 Mar 2025 16:28:02.458,1 Mar 2025 16:37:13.399,550.941
167,2 Mar 2025 13:05:55.649,2 Mar 2025 13:08:31.743,156.093
168,2 Mar 2025 14:34:20.386,2 Mar 2025 14:44:50.815,630.429
169,2 Mar 2025 16:08:35.277,2 Mar 2025 16:18:55.133,619.857
170,3 Mar 2025 14:16:04.550,3 Mar 2025 14:25:56.606,592.056
171,3 Mar 2025 15:49:23.785,3 Mar 2025 16:00:27.141,663.356
172,4 Mar 2025 13:58:00.757,4 Mar 2025 14:07:02.390,541.633
173,4 Mar 2025 15:30:24.957,4 Mar 2025 15:41:46.776,681.819
174,4 Mar 2025 17:08:44.469,4 Mar 2025 17:12:48.200,243.732
175,5 Mar 2025 13:40:11.583,5 Mar 2025 13:48:08.176,476.593
176,5 Mar 2025 15:11:37.291,5 Mar 2025 15:22:52.562,675.271
177,5 Mar 2025 16:48:06.324,5 Mar 2025 16:55:27.929,441.606
178,6 Mar 2025 13:22:43.427,6 Mar 2025 13:28:55.084,371.656
179,6 Mar 2025 14:53:00.115,6 Mar 2025 15:03:58.349,658.234
180,6 Mar 2025 16:28:16.274,6 Mar 2025 16:37:26.216,549.942
181,7 Mar 2025 13:06:06.387,7 Mar 2025 13:08:46.857,160.470
182,7 Mar 2025 14:34:33.318,7 Mar 2025 14:45:04.135,630.817
183,7 Mar 2025 16:08:48.881,7 Mar 2025 16:19:08.091,619.210
184,8 Mar 2025 14:16:17.349,8 Mar 2025 14:26:09.925,592.576
185,8 Mar 2025 15:49:37.223,8 Mar 2025 16:00:40.197,662.975
186,9 Mar 2025 13:58:13.401,9 Mar 2025 14:07:15.708,542.307
187,9 Mar 2025 15:30:38.260,9 Mar 2025 15:42:00.094,681.834
188,9 Mar 2025 17:08:59.692,9 Mar 2025 17:12:59.775,240.083
189,10 Mar 2025 13:40:24.034,10 Mar 2025 13:48:21.493,477.459
190,10 Mar 2025 15:11:50.473,10 Mar 2025 15:23:05.879,675.406
191,10 Mar 2025 16:48:20.487,10 Mar 2025 16:55:40.477,439.990
192,11 Mar 2025 13:22:55.554,11 Mar 2025 13:29:08.891,373.337
193,11 Mar 2025 14:53:13.169,11 Mar 2025 15:04:11.665,658.497
194,11 Mar 2025 16:28:30.096,11 Mar 2025 16:37:39.033,548.937
195,12 Mar 2025 13:06:17.180,12 Mar 2025 13:09:01.918,164.738
196,12 Mar 2025 14:34:46.252,12 Mar 2025 14:45:17.452,631.199
197,12 Mar 2025 16:09:02.489,12 Mar 2025 16:19:21.051,618.562
198,13 Mar 2025 14:16:30.152,13 Mar 2025 14:26:23.243,593.092
199,13 Mar 2025 15:49:50.672,13 Mar 2025 16:00:53.247,662.575
200,14 Mar 2025 13:58:26.054,14 Mar 2025 14:07:29.027,542.972
201,14 Mar 2025 15:30:51.568,14 Mar 2025 15:42:13.413,681.845
202,14 Mar 2025 17:09:14.948,14 Mar 2025 17:13:11.311,236.362
203,15 Mar 2025 13:40:36.489,15 Mar 2025 13:48:34.813,478.324
204,15 Mar 2025 15:12:03.654,15 Mar 2025 15:23:19.199,675.544
205,15 Mar 2025 16:48:34.658,15 Mar 2025 16:55:53.022,438.364
206,16 Mar 2025 13:23:07.690,16 Mar 2025 13:29:22.690,374.999
207,16 Mar 2025 14:53:26.229,16 Mar 2025 15:04:24.986,658.758
208,16 Mar 2025 16:28:43.918,16 Mar 2025 16:37:51.849,547.930
209,17 Mar 2025 13:06:28.035,17 Mar 2025 13:09:16.919,168.884
210,17 Mar 2025 14:34:59.189,17 Mar 2025 14:45:30.774,631.585
211,17 Mar 2025 16:09:16.099,17 Mar 2025 16:19:34.009,617.910
212,18 Mar 2025 14:16:42.956,18 Mar 2025 14:26:36.566,593.610
213,18 Mar 2025 15:50:04.115,18 Mar 2025 16:01:06.300,662.185
214,19 Mar 2025 13:58:38.709,19 Mar 2025 14:07:42.350,543.641
215,19 Mar 2025 15:31:04.876,19 Mar 2025 15:42:26.737,681.860
216,19 Mar 2025 17:09:30.237,19 Mar 2025 17:13:22.821,232.584
217,20 Mar 2025 13:40:48.947,20 Mar 2025 13:48:48.136,479.190
218,20 Mar 2025 15:12:16.836,20 Mar 2025 15:23:32.522,675.686
219,20 Mar 2025 16:48:48.833,20 Mar 2025 16:56:05.564,436.731
220,21 Mar 2025 13:23:19.838,21 Mar 2025 13:29:36.481,376.642
221,21 Mar 2025 14:53:39.289,21 Mar 2025 15:04:38.310,659.021
222,21 Mar 2025 16:28:57.745,21 Mar 2025 16:38:04.662,546.917
223,22 Mar 2025 13:06:38.943,22 Mar 2025 13:09:31.866,172.923
224,22 Mar 2025 14:35:12.126,22 Mar 2025 14:45:44.097,631.970
225,22 Mar 2025 16:09:29.710,22 Mar 2025 16:19:46.965,617.255
226,23 Mar 2025 14:16:55.761,23 Mar 2025 14:26:49.888,594.127
227,23 Mar 2025 15:50:17.567,23 Mar 2025 16:01:19.353,661.786
228,24 Mar 2025 13:58:51.363,24 Mar 2025 14:07:55.671,544.308
229,24 Mar 2025 15:31:18.185,24 Mar 2025 15:42:40.057,681.873
230,24 Mar 2025 17:09:45.564,24 Mar 2025 17:13:34.295,228.731
231,25 Mar 2025 13:41:01.404,25 Mar 2025 13:49:01.456,480.052
232,25 Mar 2025 15:12:30.019,25 Mar 2025 15:23:45.842,675.823
233,25 Mar 2025 16:49:03.010,25 Mar 2025 16:56:18.097,435.088
234,26 Mar 2025 13:23:31.985,26 Mar 2025 13:29:50.269,378.284
235,26 Mar 2025 14:53:52.351,26 Mar 2025 15:04:51.629,659.278
236,26 Mar 2025 16:29:11.575,26 Mar 2025 16:38:17.472,545.897
237,27 Mar 2025 13:06:49.897,27 Mar 2025 13:09:46.769,176.872
238,27 Mar 2025 14:35:25.065,27 Mar 2025 14:45:57.416,632.351
239,27 Mar 2025 16:09:43.324,27 Mar 2025 16:19:59.920,616.596
240,28 Mar 2025 14:17:08.568,28 Mar 2025 14:27:03.208,594.639
241,28 Mar 2025 15:50:31.017,28 Mar 2025 16:01:32.404,661.386
242,29 Mar 2025 13:59:04.020,29 Mar 2025 14:08:08.993,544.973
243,29 Mar 2025 15:31:31.497,29 Mar 2025 15:42:53.377,681.880
244,29 Mar 2025 17:10:00.930,29 Mar 2025 17:13:45.730,224.800
245,30 Mar 2025 13:41:13.868,30 Mar 2025 13:49:14.779,480.910
246,30 Mar 2025 15:12:43.205,30 Mar 2025 15:23:59.165,675.960
247,30 Mar 2025 16:49:17.198,30 Mar 2025 16:56:30.629,433.431
248,31 Mar 2025 13:23:44.139,31 Mar 2025 13:30:04.053,379.914
249,31 Mar 2025 14:54:05.415,31 Mar 2025 15:05:04.953,659.538
250,31 Mar 2025 16:29:25.409,31 Mar 2025 16:38:30.281,544.873
251,1 Apr 2025 13:07:00.902,1 Apr 2025 13:10:01.621,180.719
252,1 Apr 2025 14:35:38.006,1 Apr 2025 14:46:10.742,632.735
253,1 Apr 2025 16:09:56.941,1 Apr 2025 16:20:12.875,615.934
254,2 Apr 2025 14:17:21.378,2 Apr 2025 14:27:16.534,595.156
255,2 Apr 2025 15:50:44.469,2 Apr 2025 16:01:45.453,660.985
256,3 Apr 2025 13:59:16.678,3 Apr 2025 14:08:22.320,545.641
257,3 Apr 2025 15:31:44.809,3 Apr 2025 15:43:06.703,681.894
258,3 Apr 2025 17:10:16.331,3 Apr 2025 17:13:57.130,220.799
259,4 Apr 2025 13:41:26.335,4 Apr 2025 13:49:28.104,481.770
260,4 Apr 2025 15:12:56.391,4 Apr 2025 15:24:12.490,676.100
261,4 Apr 2025 16:49:31.389,4 Apr 2025 16:56:43.160,431.771
262,5 Apr 2025 13:23:56.299,5 Apr 2025 13:30:17.826,381.528
263,5 Apr 2025 14:54:18.483,5 Apr 2025 15:05:18.278,659.795
264,5 Apr 2025 16:29:39.247,5 Apr 2025 16:38:43.086,543.840
265,6 Apr 2025 13:07:11.948,6 Apr 2025 13:10:16.434,184.485
266,6 Apr 2025 14:35:50.948,6 Apr 2025 14:46:24.065,633.117
267,6 Apr 2025 16:10:10.558,6 Apr 2025 16:20:25.826,615.268
268,7 Apr 2025 14:17:34.188,7 Apr 2025 14:27:29.856,595.669
269,7 Apr 2025 15:50:57.922,7 Apr 2025 16:01:58.501,660.580
270,8 Apr 2025 13:59:29.337,8 Apr 2025 14:08:35.642,546.304
271,8 Apr 2025 15:31:58.123,8 Apr 2025 15:43:20.026,681.902
272,8 Apr 2025 17:10:31.779,8 Apr 2025 17:14:08.485,216.706
273,9 Apr 2025 13:41:38.802,9 Apr 2025 13:49:41.426,482.625
274,9 Apr 2025 15:13:09.578,9 Apr 2025 15:24:25.812,676.234
275,9 Apr 2025 16:49:45.593,9 Apr 2025 16:56:55.681,430.089
276,10 Apr 2025 13:24:08.459,10 Apr 2025 13:30:31.607,383.148
277,10 Apr 2025 14:54:31.546,10 Apr 2025 15:05:31.600,660.054
278,10 Apr 2025 16:29:53.084,10 Apr 2025 16:38:55.893,542.809
279,11 Apr 2025 13:07:23.033,11 Apr 2025 13:10:31.205,188.172
280,11 Apr 2025 14:36:03.892,11 Apr 2025 14:46:37.389,633.496
281,11 Apr 2025 16:10:24.184,11 Apr 2025 16:20:38.779,614.595
282,12 Apr 2025 14:17:47.001,12 Apr 2025 14:27:43.181,596.180
283,12 Apr 2025 15:51:11.378,12 Apr 2025 16:02:11.550,660.172
284,13 Apr 2025 13:59:42.001,13 Apr 2025 14:08:48.968,546.967
285,13 Apr 2025 15:32:11.441,13 Apr 2025 15:43:33.352,681.912
286,13 Apr 2025 17:10:47.269,13 Apr 2025 17:14:19.800,212.530
287,14 Apr 2025 13:41:51.276,14 Apr 2025 13:49:54.754,483.477
288,14 Apr 2025 15:13:22.769,14 Apr 2025 15:24:39.140,676.370
289,14 Apr 2025 16:49:59.798,14 Apr 2025 16:57:08.200,428.402
290,15 Apr 2025 13:24:20.632,15 Apr 2025 13:30:45.377,384.745
291,15 Apr 2025 14:54:44.616,15 Apr 2025 15:05:44.929,660.313
292,15 Apr 2025 16:30:06.927,15 Apr 2025 16:39:08.697,541.770
293,16 Apr 2025 13:07:34.161,16 Apr 2025 13:10:45.943,191.782
294,16 Apr 2025 14:36:16.838,16 Apr 2025 14:46:50.717,633.879
295,16 Apr 2025 16:10:37.808,16 Apr 2025 16:20:51.731,613.924
296,17 Apr 2025 14:17:59.816,17 Apr 2025 14:27:56.510,596.694
297,17 Apr 2025 15:51:24.836,17 Apr 2025 16:02:24.598,659.763
298,18 Apr 2025 13:59:54.667,18 Apr 2025 14:09:02.297,547.631
299,18 Apr 2025 15:32:24.758,18 Apr 2025 15:43:46.681,681.923
300,18 Apr 2025 17:11:02.803,18 Apr 2025 17:14:31.070,208.267
301,19 Apr 2025 13:42:03.751,19 Apr 2025 13:50:08.082,484.330
302,19 Apr 2025 15:13:35.960,19 Apr 2025 15:24:52.467,676.507
303,19 Apr 2025 16:50:14.008,19 Apr 2025 16:57:20.712,426.705
304,20 Apr 2025 13:24:32.806,20 Apr 2025 13:30:59.143,386.337
305,20 Apr 2025 14:54:57.685,20 Apr 2025 15:05:58.256,660.570
306,20 Apr 2025 16:30:20.772,20 Apr 2025 16:39:21.499,540.726
307,21 Apr 2025 13:07:45.323,21 Apr 2025 13:11:00.642,195.319
308,21 Apr 2025 14:36:29.785,21 Apr 2025 14:47:04.043,634.258
309,21 Apr 2025 16:10:51.432,21 Apr 2025 16:21:04.681,613.248
310,22 Apr 2025 14:18:12.632,22 Apr 2025 14:28:09.835,597.203
311,22 Apr 2025 15:51:38.295,22 Apr 2025 16:02:37.644,659.350
312,23 Apr 2025 14:00:07.333,23 Apr 2025 14:09:15.622,548.289
313,23 Apr 2025 15:32:38.078,23 Apr 2025 15:44:00.006,681.928
314,23 Apr 2025 17:11:18.391,23 Apr 2025 17:14:42.288,203.897
315,24 Apr 2025 13:42:16.229,24 Apr 2025 13:50:21.406,485.177
316,24 Apr 2025 15:13:49.153,24 Apr 2025 15:25:05.792,676.638
317,24 Apr 2025 16:50:28.226,24 Apr 2025 16:57:33.218,424.992
318,25 Apr 2025 13:24:44.984,25 Apr 2025 13:31:12.906,387.922
319,25 Apr 2025 14:55:10.757,25 Apr 2025 15:06:11.580,660.823
320,25 Apr 2025 16:30:34.622,25 Apr 2025 16:39:34.298,539.676
321,26 Apr 2025 13:07:56.518,26 Apr 2025 13:11:15.311,198.794
322,26 Apr 2025 14:36:42.735,26 Apr 2025 14:47:17.369,634.635
323,26 Apr 2025 16:11:05.061,26 Apr 2025 16:21:17.630,612.569
324,27 Apr 2025 14:18:25.451,27 Apr 2025 14:28:23.163,597.711
325,27 Apr 2025 15:51:51.757,27 Apr 2025 16:02:50.691,658.934
326,28 Apr 2025 14:00:20.004,28 Apr 2025 14:09:28.952,548.948
327,28 Apr 2025 15:32:51.400,28 Apr 2025 15:44:13.334,681.934
328,28 Apr 2025 17:11:34.031,28 Apr 2025 17:14:53.457,199.426
329,29 Apr 2025 13:42:28.711,29 Apr 2025 13:50:34.737,486.026
330,29 Apr 2025 15:14:02.349,29 Apr 2025 15:25:19.123,676.773
331,29 Apr 2025 16:50:42.449,29 Apr 2025 16:57:45.721,423.271
332,30 Apr 2025 13:24:57.176,30 Apr 2025 13:31:26.660,389.484
333,30 Apr 2025 14:55:23.831,30 Apr 2025 15:06:24.912,661.081
334,30 Apr 2025 16:30:48.479,30 Apr 2025 16:39:47.096,538.617
335,1 May 2025 13:08:07.748,1 May 2025 13:11:29.943,202.195
336,1 May 2025 14:36:55.682,1 May 2025 14:47:30.701,635.019
337,1 May 2025 16:11:18.691,1 May 2025 16:21:30.575,611.884
338,2 May 2025 14:18:38.272,2 May 2025 14:28:36.489,598.217
339,2 May 2025 15:52:05.218,2 May 2025 16:03:03.734,658.515
340,3 May 2025 14:00:32.675,3 May 2025 14:09:42.282,549.607
341,3 May 2025 15:33:04.723,3 May 2025 15:44:26.664,681.941
342,3 May 2025 17:11:49.727,3 May 2025 17:15:04.568,194.841
343,4 May 2025 13:42:41.195,4 May 2025 13:50:48.067,486.872
344,4 May 2025 15:14:15.545,4 May 2025 15:25:32.451,676.906
345,4 May 2025 16:50:56.679,4 May 2025 16:57:58.217,421.538
346,5 May 2025 13:25:09.366,5 May 2025 13:31:40.414,391.048
347,5 May 2025 14:55:36.910,5 May 2025 15:06:38.239,661.329
348,5 May 2025 16:31:02.335,5 May 2025 16:39:59.891,537.556
349,6 May 2025 13:08:19.007,6 May 2025 13:11:44.550,205.543
350,6 May 2025 14:37:08.634,6 May 2025 14:47:44.028,635.394
351,6 May 2025 16:11:32.323,6 May 2025 16:21:43.521,611.198
352,7 May 2025 14:18:51.094,7 May 2025 14:28:49.815,598.721
353,7 May 2025 15:52:18.683,7 May 2025 16:03:16.778,658.095
354,8 May 2025 14:00:45.349,8 May 2025 14:09:55.604,550.255
355,8 May 2025 15:33:18.048,8 May 2025 15:44:39.991,681.943
356,8 May 2025 17:12:05.488,8 May 2025 17:15:15.618,190.130
357,9 May 2025 13:42:53.682,9 May 2025 13:51:01.394,487.712
358,9 May 2025 15:14:28.744,9 May 2025 15:25:45.779,677.035
359,9 May 2025 16:51:10.915,9 May 2025 16:58:10.711,419.795
360,10 May 2025 13:25:21.562,10 May 2025 13:31:54.167,392.605
361,10 May 2025 14:55:49.987,10 May 2025 15:06:51.568,661.581
362,10 May 2025 16:31:16.196,10 May 2025 16:40:12.685,536.490
363,11 May 2025 13:08:30.297,11 May 2025 13:11:59.130,208.833
364,11 May 2025 14:37:21.589,11 May 2025 14:47:57.357,635.768
365,11 May 2025 16:11:45.960,11 May 2025 16:21:56.467,610.508
366,12 May 2025 14:19:03.919,12 May 2025 14:29:03.146,599.227
367,12 May 2025 15:52:32.152,12 May 2025 16:03:29.823,657.671
368,13 May 2025 14:00:58.025,13 May 2025 14:10:08.936,550.910
369,13 May 2025 15:33:31.376,13 May 2025 15:44:53.323,681.947
370,13 May 2025 17:12:21.314,13 May 2025 17:15:26.607,185.294
371,14 May 2025 13:43:06.172,14 May 2025 13:51:14.726,488.554
372,14 May 2025 15:14:41.945,14 May 2025 15:25:59.111,677.166
373,14 May 2025 16:51:25.160,14 May 2025 16:58:23.199,418.039
374,15 May 2025 13:25:33.764,15 May 2025 13:32:07.914,394.150
375,15 May 2025 14:56:03.066,15 May 2025 15:07:04.900,661.834
376,15 May 2025 16:31:30.059,15 May 2025 16:40:25.478,535.419
377,16 May 2025 13:08:41.617,16 May 2025 13:12:13.680,212.063
378,16 May 2025 14:37:34.545,16 May 2025 14:48:10.689,636.144
379,16 May 2025 16:11:59.593,16 May 2025 16:22:09.413,609.820
380,17 May 2025 14:19:16.745,17 May 2025 14:29:16.478,599.732
381,17 May 2025 15:52:45.622,17 May 2025 16:03:42.867,657.245
382,18 May 2025 14:01:10.703,18 May 2025 14:10:22.266,551.563
383,18 May 2025 15:33:44.705,18 May 2025 15:45:06.655,681.950
384,18 May 2025 17:12:37.209,18 May 2025 17:15:37.529,180.320
385,19 May 2025 13:43:18.664,19 May 2025 13:51:28.058,489.394
386,19 May 2025 15:14:55.146,19 May 2025 15:26:12.440,677.295
387,19 May 2025 16:51:39.411,19 May 2025 16:58:35.680,416.269
388,20 May 2025 13:25:45.969,20 May 2025 13:32:21.658,395.690
389,20 May 2025 14:56:16.145,20 May 2025 15:07:18.229,662.084
390,20 May 2025 16:31:43.920,20 May 2025 16:40:38.267,534.347
391,21 May 2025 13:08:52.960,21 May 2025 13:12:28.207,215.247
392,21 May 2025 14:37:47.503,21 May 2025 14:48:24.017,636.515
393,21 May 2025 16:12:13.235,21 May 2025 16:22:22.361,609.125
394,22 May 2025 14:19:29.573,22 May 2025 14:29:29.805,600.232
395,22 May 2025 15:52:59.095,22 May 2025 16:03:55.910,656.815
396,23 May 2025 14:01:23.384,23 May 2025 14:10:35.594,552.210
397,23 May 2025 15:33:58.036,23 May 2025 15:45:19.983,681.947
398,23 May 2025 17:12:53.186,23 May 2025 17:15:48.368,175.182
399,24 May 2025 13:43:31.160,24 May 2025 13:51:41.386,490.225
400,24 May 2025 15:15:08.350,24 May 2025 15:26:25.769,677.419
401,24 May 2025 16:51:53.670,24 May 2025 16:58:48.157,414.487
402,25 May 2025 13:25:58.180,25 May 2025 13:32:35.401,397.220
403,25 May 2025 14:56:29.227,25 May 2025 15:07:31.559,662.332
404,25 May 2025 16:31:57.793,25 May 2025 16:40:51.055,533.262
405,26 May 2025 13:09:04.331,26 May 2025 13:12:42.710,218.379
406,26 May 2025 14:38:00.463,26 May 2025 14:48:37.349,636.886
407,26 May 2025 16:12:26.881,26 May 2025 16:22:35.304,608.423
408,27 May 2025 14:19:42.404,27 May 2025 14:29:43.139,600.735
409,27 May 2025 15:53:12.568,27 May 2025 16:04:08.953,656.385
410,28 May 2025 14:01:36.065,28 May 2025 14:10:48.928,552.864
411,28 May 2025 15:34:11.365,28 May 2025 15:45:33.317,681.952
412,28 May 2025 17:13:09.248,28 May 2025 17:15:59.134,169.886
413,29 May 2025 13:43:43.659,29 May 2025 13:51:54.717,491.058
414,29 May 2025 15:15:21.556,29 May 2025 15:26:39.103,677.548
415,29 May 2025 16:52:07.934,29 May 2025 16:59:00.630,412.696
416,30 May 2025 13:26:10.397,30 May 2025 13:32:49.137,398.740
417,30 May 2025 14:56:42.311,30 May 2025 15:07:44.892,662.582
418,30 May 2025 16:32:11.667,30 May 2025 16:41:03.841,532.174
419,31 May 2025 13:09:15.727,31 May 2025 13:12:57.187,221.460
420,31 May 2025 14:38:13.424,31 May 2025 14:48:50.681,637.257
421,31 May 2025 16:12:40.521,31 May 2025 16:22:48.246,607.724
422,1 Jun 2025 14:19:55.234,1 Jun 2025 14:29:56.469,601.235
423,1 Jun 2025 15:53:26.045,1 Jun 2025 16:04:21.997,655.952
424,2 Jun 2025 14:01:48.752,2 Jun 2025 14:11:02.258,553.506
425,2 Jun 2025 15:34:24.703,2 Jun 2025 15:45:46.647,681.944
426,2 Jun 2025 17:13:25.396,2 Jun 2025 17:16:09.797,164.401
427,3 Jun 2025 13:43:56.160,3 Jun 2025 13:52:08.046,491.886
428,3 Jun 2025 15:15:34.762,3 Jun 2025 15:26:52.432,677.670
429,3 Jun 2025 16:52:22.206,3 Jun 2025 16:59:13.095,410.890
430,4 Jun 2025 13:26:22.612,4 Jun 2025 13:33:02.872,400.260
431,4 Jun 2025 14:56:55.395,4 Jun 2025 15:07:58.220,662.826
432,4 Jun 2025 16:32:25.545,4 Jun 2025 16:41:16.623,531.077
433,5 Jun 2025 13:09:27.143,5 Jun 2025 13:13:11.647,224.504
434,5 Jun 2025 14:38:26.388,5 Jun 2025 14:49:04.009,637.622
435,5 Jun 2025 16:12:54.170,5 Jun 2025 16:23:01.186,607.016
436,6 Jun 2025 14:20:08.068,6 Jun 2025 14:30:09.798,601.730
437,6 Jun 2025 15:53:39.524,6 Jun 2025 16:04:35.038,655.514
438,7 Jun 2025 14:02:01.439,7 Jun 2025 14:11:15.587,554.147
439,7 Jun 2025 15:34:38.040,7 Jun 2025 15:45:59.977,681.937
440,7 Jun 2025 17:13:41.655,7 Jun 2025 17:16:20.362,158.707
441,8 Jun 2025 13:44:08.664,8 Jun 2025 13:52:21.376,492.712
442,8 Jun 2025 15:15:47.972,8 Jun 2025 15:27:05.762,677.790
443,8 Jun 2025 16:52:36.486,8 Jun 2025 16:59:25.556,409.070
444,9 Jun 2025 13:26:34.837,9 Jun 2025 13:33:16.606,401.769
445,9 Jun 2025 14:57:08.482,9 Jun 2025 15:08:11.551,663.069
446,9 Jun 2025 16:32:39.429,9 Jun 2025 16:41:29.404,529.976
447,10 Jun 2025 13:09:38.585,10 Jun 2025 13:13:26.085,227.500
448,10 Jun 2025 14:38:39.354,10 Jun 2025 14:49:17.341,637.987
449,10 Jun 2025 16:13:07.827,10 Jun 2025 16:23:14.126,606.299
450,11 Jun 2025 14:20:20.907,11 Jun 2025 14:30:23.130,602.223
451,11 Jun 2025 15:53:53.005,11 Jun 2025 16:04:48.077,655.071
452,12 Jun 2025 14:02:14.129,12 Jun 2025 14:11:28.919,554.790
453,12 Jun 2025 15:34:51.379,12 Jun 2025 15:46:13.310,681.930
454,12 Jun 2025 17:13:58.024,12 Jun 2025 17:16:30.819,152.795
455,13 Jun 2025 13:44:21.171,13 Jun 2025 13:52:34.709,493.537
456,13 Jun 2025 15:16:01.183,13 Jun 2025 15:27:19.094,677.911
457,13 Jun 2025 16:52:50.773,13 Jun 2025 16:59:38.011,407.238
458,14 Jun 2025 13:26:47.066,14 Jun 2025 13:33:30.338,403.272
459,14 Jun 2025 14:57:21.570,14 Jun 2025 15:08:24.883,663.313
460,14 Jun 2025 16:32:53.312,14 Jun 2025 16:41:42.183,528.871
461,15 Jun 2025 13:09:50.048,15 Jun 2025 13:13:40.501,230.453
462,15 Jun 2025 14:38:52.320,15 Jun 2025 14:49:30.672,638.352
463,15 Jun 2025 16:13:21.475,15 Jun 2025 16:23:27.064,605.589
464,16 Jun 2025 14:20:33.741,16 Jun 2025 14:30:36.460,602.719
465,16 Jun 2025 15:54:06.487,16 Jun 2025 16:05:01.119,654.631
466,17 Jun 2025 14:02:26.820,17 Jun 2025 14:11:42.248,555.429
467,17 Jun 2025 15:35:04.719,17 Jun 2025 15:46:26.638,681.920
468,17 Jun 2025 17:14:14.521,17 Jun 2025 17:16:41.146,146.625
469,18 Jun 2025 13:44:33.680,18 Jun 2025 13:52:48.036,494.357
470,18 Jun 2025 15:16:14.395,18 Jun 2025 15:27:32.422,678.027
471,18 Jun 2025 16:53:05.067,18 Jun 2025 16:59:50.458,405.391
472,19 Jun 2025 13:26:59.304,19 Jun 2025 13:33:44.060,404.756
473,19 Jun 2025 14:57:34.664,19 Jun 2025 15:08:38.211,663.547
474,19 Jun 2025 16:33:07.203,19 Jun 2025 16:41:54.958,527.755
475,20 Jun 2025 13:10:01.528,20 Jun 2025 13:13:54.901,233.373
476,20 Jun 2025 14:39:05.288,20 Jun 2025 14:49:43.999,638.711
477,20 Jun 2025 16:13:35.136,20 Jun 2025 16:23:40.001,604.864
478,21 Jun 2025 14:20:46.584,21 Jun 2025 14:30:49.788,603.204
479,21 Jun 2025 15:54:19.973,21 Jun 2025 16:05:14.155,654.182
480,22 Jun 2025 14:02:39.513,22 Jun 2025 14:11:55.577,556.064
481,22 Jun 2025 15:35:18.062,22 Jun 2025 15:46:39.968,681.906
482,22 Jun 2025 17:14:31.166,22 Jun 2025 17:16:51.330,140.164
483,23 Jun 2025 13:44:46.192,23 Jun 2025 13:53:01.367,495.174
484,23 Jun 2025 15:16:27.611,23 Jun 2025 15:27:45.753,678.142
485,23 Jun 2025 16:53:19.370,23 Jun 2025 17:00:02.901,403.531
486,24 Jun 2025 13:27:11.543,24 Jun 2025 13:33:57.784,406.241
487,24 Jun 2025 14:57:47.757,24 Jun 2025 15:08:51.542,663.785
488,24 Jun 2025 16:33:21.098,24 Jun 2025 16:42:07.734,526.636
489,25 Jun 2025 13:10:13.033,25 Jun 2025 13:14:09.280,236.247
490,25 Jun 2025 14:39:18.260,25 Jun 2025 14:49:57.332,639.072
491,25 Jun 2025 16:13:48.796,25 Jun 2025 16:23:52.937,604.141
492,26 Jun 2025 14:20:59.425,26 Jun 2025 14:31:03.121,603.696
493,26 Jun 2025 15:54:33.460,26 Jun 2025 16:05:27.193,653.733
494,27 Jun 2025 14:02:52.209,27 Jun 2025 14:12:08.909,556.700
495,27 Jun 2025 15:35:31.406,27 Jun 2025 15:46:53.300,681.894
496,27 Jun 2025 17:14:47.971,27 Jun 2025 17:17:01.354,133.383
497,28 Jun 2025 13:44:58.708,28 Jun 2025 13:53:14.698,495.990
498,28 Jun 2025 15:16:40.826,28 Jun 2025 15:27:59.084,678.258
499,28 Jun 2025 16:53:33.679,28 Jun 2025 17:00:15.337,401.659
500,29 Jun 2025 13:27:23.786,29 Jun 2025 13:34:11.507,407.721
501,29 Jun 2025 14:58:00.851,29 Jun 2025 15:09:04.872,664.021
502,29 Jun 2025 16:33:34.990,29 Jun 2025 16:42:20.503,525.513
503,30 Jun 2025 13:10:24.554,30 Jun 2025 13:14:23.642,239.088
504,30 Jun 2025 14:39:31.231,30 Jun 2025 14:50:10.660,639.429
505,30 Jun 2025 16:14:02.457,30 Jun 2025 16:24:05.871,603.414
506,1 Jul 2025 14:21:12.267,1 Jul 2025 14:31:16.447,604.180
507,1 Jul 2025 15:54:46.949,1 Jul 2025 16:05:40.230,653.281
508,2 Jul 2025 14:03:04.906,2 Jul 2025 14:12:22.235,557.329
509,2 Jul 2025 15:35:44.752,2 Jul 2025 15:47:06.626,681.874
510,2 Jul 2025 17:15:04.975,2 Jul 2025 17:17:11.178,126.204
511,3 Jul 2025 13:45:11.224,3 Jul 2025 13:53:28.023,496.799
512,3 Jul 2025 15:16:54.044,3 Jul 2025 15:28:12.409,678.366
513,3 Jul 2025 16:53:47.997,3 Jul 2025 17:00:27.765,399.768
514,4 Jul 2025 13:27:36.031,4 Jul 2025 13:34:25.225,409.195
515,4 Jul 2025 14:58:13.947,4 Jul 2025 15:09:18.202,664.255
516,4 Jul 2025 16:33:48.892,4 Jul 2025 16:42:33.272,524.380
517,5 Jul 2025 13:10:36.092,5 Jul 2025 13:14:37.990,241.898
518,5 Jul 2025 14:39:44.205,5 Jul 2025 14:50:23.986,639.781
519,5 Jul 2025 16:14:16.122,5 Jul 2025 16:24:18.804,602.682
520,6 Jul 2025 14:21:25.113,6 Jul 2025 14:31:29.774,604.662
521,6 Jul 2025 15:55:00.441,6 Jul 2025 16:05:53.266,652.826
522,7 Jul 2025 14:03:17.606,7 Jul 2025 14:12:35.563,557.957
523,7 Jul 2025 15:35:58.101,7 Jul 2025 15:47:19.953,681.852
524,7 Jul 2025 17:15:22.208,7 Jul 2025 17:17:20.781,118.573
525,8 Jul 2025 13:45:23.744,8 Jul 2025 13:53:41.352,497.608
526,8 Jul 2025 15:17:07.264,8 Jul 2025 15:28:25.737,678.473
527,8 Jul 2025 16:54:02.324,8 Jul 2025 17:00:40.188,397.864
528,9 Jul 2025 13:27:48.283,9 Jul 2025 13:34:38.943,410.660
529,9 Jul 2025 14:58:27.046,9 Jul 2025 15:09:31.530,664.484
530,9 Jul 2025 16:34:02.797,9 Jul 2025 16:42:46.039,523.242
531,10 Jul 2025 13:10:47.651,10 Jul 2025 13:14:52.319,244.668
532,10 Jul 2025 14:39:57.181,10 Jul 2025 14:50:37.315,640.134
533,10 Jul 2025 16:14:29.785,10 Jul 2025 16:24:31.736,601.951
534,11 Jul 2025 14:21:37.959,11 Jul 2025 14:31:43.103,605.144
535,11 Jul 2025 15:55:13.934,11 Jul 2025 16:06:06.302,652.368
536,12 Jul 2025 14:03:30.307,12 Jul 2025 14:12:48.891,558.584
537,12 Jul 2025 15:36:11.450,12 Jul 2025 15:47:33.282,681.831
538,12 Jul 2025 17:15:39.713,12 Jul 2025 17:17:30.114,110.401
539,13 Jul 2025 13:45:36.266,13 Jul 2025 13:53:54.679,498.414
540,13 Jul 2025 15:17:20.485,13 Jul 2025 15:28:39.065,678.580
541,13 Jul 2025 16:54:16.657,13 Jul 2025 17:00:52.604,395.947
542,14 Jul 2025 13:28:00.536,14 Jul 2025 13:34:52.650,412.114
543,14 Jul 2025 14:58:40.141,14 Jul 2025 15:09:44.852,664.712
544,14 Jul 2025 16:34:16.708,14 Jul 2025 16:42:58.803,522.095
545,15 Jul 2025 13:10:59.225,15 Jul 2025 13:15:06.633,247.408
546,15 Jul 2025 14:40:10.157,15 Jul 2025 14:50:50.640,640.483
547,15 Jul 2025 16:14:43.453,15 Jul 2025 16:24:44.665,601.211
548,16 Jul 2025 14:21:50.807,16 Jul 2025 14:31:56.427,605.620
549,16 Jul 2025 15:55:27.429,16 Jul 2025 16:06:19.336,651.907
550,17 Jul 2025 14:03:43.010,17 Jul 2025 14:13:02.214,559.205
551,17 Jul 2025 15:36:24.802,17 Jul 2025 15:47:46.434,681.632
552,17 Jul 2025 17:15:57.560,17 Jul 2025 17:17:39.100,101.539
553,18 Jul 2025 13:45:48.790,18 Jul 2025 13:54:08.002,499.213
554,18 Jul 2025 15:17:33.708,18 Jul 2025 15:28:52.388,678.680
555,18 Jul 2025 16:54:31.000,18 Jul 2025 17:01:05.011,394.012
556,19 Jul 2025 13:28:12.794,19 Jul 2025 13:35:06.364,413.570
557,19 Jul 2025 14:58:53.245,19 Jul 2025 15:09:58.176,664.930
558,19 Jul 2025 16:34:30.618,19 Jul 2025 16:43:11.563,520.945
559,20 Jul 2025 13:11:10.815,20 Jul 2025 13:15:20.934,250.119
560,20 Jul 2025 14:40:23.136,20 Jul 2025 14:51:03.964,640.828
561,20 Jul 2025 16:14:57.127,20 Jul 2025 16:24:57.593,600.467
562,21 Jul 2025 14:22:03.657,21 Jul 2025 14:32:09.752,606.095
563,21 Jul 2025 15:55:40.928,21 Jul 2025 16:06:32.370,651.442
564,22 Jul 2025 14:03:55.716,22 Jul 2025 14:13:15.540,559.825
565,22 Jul 2025 15:36:38.156,22 Jul 2025 15:47:59.545,681.389
566,22 Jul 2025 17:16:15.843,22 Jul 2025 17:17:47.651,91.808
567,23 Jul 2025 13:46:01.315,23 Jul 2025 13:54:21.329,500.014
568,23 Jul 2025 15:17:46.929,23 Jul 2025 15:29:05.714,678.785
569,23 Jul 2025 16:54:45.346,23 Jul 2025 17:01:17.418,392.072
570,24 Jul 2025 13:28:25.055,24 Jul 2025 13:35:20.069,415.014
571,24 Jul 2025 14:59:06.344,24 Jul 2025 15:10:11.503,665.158
572,24 Jul 2025 16:34:44.537,24 Jul 2025 16:43:24.323,519.786
573,25 Jul 2025 13:11:22.423,25 Jul 2025 13:15:35.217,252.793
574,25 Jul 2025 14:40:36.116,25 Jul 2025 14:51:17.292,641.175
575,25 Jul 2025 16:15:10.801,25 Jul 2025 16:25:10.521,599.719
576,26 Jul 2025 14:22:16.509,26 Jul 2025 14:32:23.078,606.569
577,26 Jul 2025 15:55:54.427,26 Jul 2025 16:06:45.402,650.975
578,27 Jul 2025 14:04:08.425,27 Jul 2025 14:13:28.865,560.440
579,27 Jul 2025 15:36:51.510,27 Jul 2025 15:48:12.653,681.143
580,27 Jul 2025 17:16:34.726,27 Jul 2025 17:17:55.606,80.881
581,28 Jul 2025 13:46:13.842,28 Jul 2025 13:54:34.652,500.810
582,28 Jul 2025 15:18:00.158,28 Jul 2025 15:29:19.037,678.879
583,28 Jul 2025 16:54:59.708,28 Jul 2025 17:01:29.807,390.099
584,29 Jul 2025 13:28:37.321,29 Jul 2025 13:35:33.776,416.455
585,29 Jul 2025 14:59:19.451,29 Jul 2025 15:10:24.824,665.373
586,29 Jul 2025 16:34:58.453,29 Jul 2025 16:43:37.079,518.626
587,30 Jul 2025 13:11:34.044,30 Jul 2025 13:15:49.488,255.444
588,30 Jul 2025 14:40:49.097,30 Jul 2025 14:51:30.611,641.514
589,30 Jul 2025 16:15:24.478,30 Jul 2025 16:25:23.445,598.967
590,31 Jul 2025 14:22:29.361,31 Jul 2025 14:32:36.397,607.036
591,31 Jul 2025 15:56:07.928,31 Jul 2025 16:06:58.432,650.504
592,1 Aug 2025 14:04:21.133,1 Aug 2025 14:13:42.184,561.051
593,1 Aug 2025 15:37:04.867,1 Aug 2025 15:48:25.761,680.893
594,1 Aug 2025 17:16:54.500,1 Aug 2025 17:18:02.667,68.167
595,2 Aug 2025 13:46:26.373,2 Aug 2025 13:54:47.971,501.598
596,2 Aug 2025 15:18:13.386,2 Aug 2025 15:29:32.356,678.970
597,2 Aug 2025 16:55:14.076,2 Aug 2025 17:01:42.192,388.116
598,3 Aug 2025 13:28:49.594,3 Aug 2025 13:35:47.482,417.888
599,3 Aug 2025 14:59:32.557,3 Aug 2025 15:10:38.144,665.587
600,3 Aug 2025 16:35:12.378,3 Aug 2025 16:43:49.829,517.451
601,4 Aug 2025 13:11:45.680,4 Aug 2025 13:16:03.747,258.067
602,4 Aug 2025 14:41:02.081,4 Aug 2025 14:51:43.935,641.855
603,4 Aug 2025 16:15:38.159,4 Aug 2025 16:25:36.368,598.209
604,5 Aug 2025 14:22:42.216,5 Aug 2025 14:32:49.718,607.502
605,5 Aug 2025 15:56:21.433,5 Aug 2025 16:07:11.466,650.033
606,6 Aug 2025 14:04:33.842,6 Aug 2025 14:13:55.505,561.664
607,6 Aug 2025 15:37:18.227,6 Aug 2025 15:48:38.869,680.642
608,6 Aug 2025 17:17:15.788,6 Aug 2025 17:18:08.215,52.427
609,7 Aug 2025 13:46:38.907,7 Aug 2025 13:55:01.292,502.386
610,7 Aug 2025 15:18:26.616,7 Aug 2025 15:29:45.678,679.063
611,7 Aug 2025 16:55:28.452,7 Aug 2025 17:01:54.571,386.119
612,8 Aug 2025 13:29:01.869,8 Aug 2025 13:36:01.181,419.313
613,8 Aug 2025 14:59:45.663,8 Aug 2025 15:10:51.466,665.803
614,8 Aug 2025 16:35:26.305,8 Aug 2025 16:44:02.579,516.274
615,9 Aug 2025 13:11:57.333,9 Aug 2025 13:16:17.989,260.656
616,9 Aug 2025 14:41:15.065,9 Aug 2025 14:51:57.252,642.187
617,9 Aug 2025 16:15:51.841,9 Aug 2025 16:25:49.290,597.449
618,10 Aug 2025 14:22:55.072,10 Aug 2025 14:33:03.039,607.967
619,10 Aug 2025 15:56:34.937,10 Aug 2025 16:07:24.494,649.557
620,11 Aug 2025 14:04:46.555,11 Aug 2025 14:14:08.825,562.270
621,11 Aug 2025 15:37:31.586,11 Aug 2025 15:48:51.974,680.389
622,11 Aug 2025 17:17:40.867,11 Aug 2025 17:18:09.973,29.106
623,12 Aug 2025 13:46:51.441,12 Aug 2025 13:55:14.611,503.170
624,12 Aug 2025 15:18:39.846,12 Aug 2025 15:29:58.997,679.151
625,12 Aug 2025 16:55:42.836,12 Aug 2025 17:02:06.941,384.105
626,13 Aug 2025 13:29:14.144,13 Aug 2025 13:36:14.878,420.734
627,13 Aug 2025 14:59:58.771,13 Aug 2025 15:11:04.783,666.013
628,13 Aug 2025 16:35:40.236,13 Aug 2025 16:44:15.324,515.088
629,14 Aug 2025 13:12:08.996,14 Aug 2025 13:16:32.220,263.223
630,14 Aug 2025 14:41:28.050,14 Aug 2025 14:52:10.568,642.518
631,14 Aug 2025 16:16:05.525,14 Aug 2025 16:26:02.208,596.683
632,15 Aug 2025 14:23:07.929,15 Aug 2025 14:33:16.354,608.425
633,15 Aug 2025 15:56:48.445,15 Aug 2025 16:07:37.521,649.076
634,16 Aug 2025 14:04:59.268,16 Aug 2025 14:14:22.140,562.872
635,16 Aug 2025 15:37:44.948,16 Aug 2025 15:49:05.080,680.132
636,17 Aug 2025 13:47:03.979,17 Aug 2025 13:55:27.926,503.947
637,17 Aug 2025 15:18:53.078,17 Aug 2025 15:30:12.312,679.234
638,17 Aug 2025 16:55:57.230,17 Aug 2025 17:02:19.302,382.072
639,18 Aug 2025 13:29:26.423,18 Aug 2025 13:36:28.574,422.151
640,18 Aug 2025 15:00:11.881,18 Aug 2025 15:11:18.100,666.219
641,18 Aug 2025 16:35:54.172,18 Aug 2025 16:44:28.067,513.895
642,19 Aug 2025 13:12:20.676,19 Aug 2025 13:16:46.439,265.763
643,19 Aug 2025 14:41:41.038,19 Aug 2025 14:52:23.886,642.848
644,19 Aug 2025 16:16:19.218,19 Aug 2025 16:26:15.127,595.908
645,20 Aug 2025 14:23:20.789,20 Aug 2025 14:33:29.672,608.884
646,20 Aug 2025 15:57:01.955,20 Aug 2025 16:07:50.548,648.593
647,21 Aug 2025 14:05:11.984,21 Aug 2025 14:14:35.459,563.474
648,21 Aug 2025 15:37:58.312,21 Aug 2025 15:49:18.185,679.873
649,22 Aug 2025 13:47:16.520,22 Aug 2025 13:55:41.245,504.724
650,22 Aug 2025 15:19:06.308,22 Aug 2025 15:30:25.630,679.322
651,22 Aug 2025 16:56:11.627,22 Aug 2025 17:02:31.662,380.034
652,23 Aug 2025 13:29:38.711,23 Aug 2025 13:36:42.265,423.554
653,23 Aug 2025 15:00:24.989,23 Aug 2025 15:11:31.418,666.428
654,23 Aug 2025 16:36:08.109,23 Aug 2025 16:44:40.806,512.697
655,24 Aug 2025 13:12:32.368,24 Aug 2025 13:17:00.642,268.274
656,24 Aug 2025 14:41:54.026,24 Aug 2025 14:52:37.202,643.176
657,24 Aug 2025 16:16:32.907,24 Aug 2025 16:26:28.042,595.135
658,25 Aug 2025 14:23:33.648,25 Aug 2025 14:33:42.987,609.339
659,25 Aug 2025 15:57:15.465,25 Aug 2025 16:08:03.572,648.107
660,26 Aug 2025 14:05:24.700,26 Aug 2025 14:14:48.772,564.072
661,26 Aug 2025 15:38:11.676,26 Aug 2025 15:49:31.287,679.612
662,27 Aug 2025 13:47:29.061,27 Aug 2025 13:55:54.557,505.496
663,27 Aug 2025 15:19:19.542,27 Aug 2025 15:30:38.942,679.400
664,27 Aug 2025 16:56:26.038,27 Aug 2025 17:02:44.005,377.967
665,28 Aug 2025 13:29:50.999,28 Aug 2025 13:36:55.955,424.956
666,28 Aug 2025 15:00:38.101,28 Aug 2025 15:11:44.729,666.628
667,28 Aug 2025 16:36:22.052,28 Aug 2025 16:44:53.541,511.490
668,29 Aug 2025 13:12:44.071,29 Aug 2025 13:17:14.838,270.767
669,29 Aug 2025 14:42:07.015,29 Aug 2025 14:52:50.513,643.498
670,29 Aug 2025 16:16:46.599,29 Aug 2025 16:26:40.955,594.356
671,30 Aug 2025 14:23:46.510,30 Aug 2025 14:33:56.297,609.788
672,30 Aug 2025 15:57:28.978,30 Aug 2025 16:08:16.595,647.616
673,31 Aug 2025 14:05:37.419,31 Aug 2025 14:15:02.082,564.664
674,31 Aug 2025 15:38:25.042,31 Aug 2025 15:49:44.389,679.347
675,1 Sep 2025 13:47:41.608,1 Sep 2025 13:56:07.868,506.259
676,1 Sep 2025 15:19:32.779,1 Sep 2025 15:30:52.253,679.475
677,1 Sep 2025 16:56:40.459,1 Sep 2025 17:02:56.341,375.882
678,2 Sep 2025 13:30:03.290,2 Sep 2025 13:37:09.643,426.353
679,2 Sep 2025 15:00:51.215,2 Sep 2025 15:11:58.041,666.826
680,2 Sep 2025 16:36:35.999,2 Sep 2025 16:45:06.274,510.275
681,3 Sep 2025 13:12:55.788,3 Sep 2025 13:17:29.021,273.233
682,3 Sep 2025 14:42:20.007,3 Sep 2025 14:53:03.826,643.819
683,3 Sep 2025 16:17:00.294,3 Sep 2025 16:26:53.867,593.573
684,4 Sep 2025 14:23:59.373,4 Sep 2025 14:34:09.610,610.237
685,4 Sep 2025 15:57:42.493,4 Sep 2025 16:08:29.617,647.124
686,5 Sep 2025 14:05:50.139,5 Sep 2025 14:15:15.396,565.257
687,5 Sep 2025 15:38:38.410,5 Sep 2025 15:49:57.491,679.081
688,6 Sep 2025 13:47:54.154,6 Sep 2025 13:56:21.181,507.027
689,6 Sep 2025 15:19:46.016,6 Sep 2025 15:31:05.566,679.550
690,6 Sep 2025 16:56:54.887,6 Sep 2025 17:03:08.670,373.782
691,7 Sep 2025 13:30:15.582,7 Sep 2025 13:37:23.326,427.744
692,7 Sep 2025 15:01:04.330,7 Sep 2025 15:12:11.354,667.023
693,7 Sep 2025 16:36:49.948,7 Sep 2025 16:45:19.008,509.060
694,8 Sep 2025 13:13:07.517,8 Sep 2025 13:17:43.190,275.673
695,8 Sep 2025 14:42:32.998,8 Sep 2025 14:53:17.138,644.140
696,8 Sep 2025 16:17:13.990,8 Sep 2025 16:27:06.776,592.786
697,9 Sep 2025 14:24:12.237,9 Sep 2025 14:34:22.920,610.684
698,9 Sep 2025 15:57:56.008,9 Sep 2025 16:08:42.636,646.628
699,10 Sep 2025 14:06:02.855,10 Sep 2025 14:15:28.704,565.849
700,10 Sep 2025 15:38:51.774,10 Sep 2025 15:50:10.594,678.820
701,11 Sep 2025 13:48:06.700,11 Sep 2025 13:56:34.487,507.787
702,11 Sep 2025 15:19:59.254,11 Sep 2025 15:31:18.873,679.619
703,11 Sep 2025 16:57:09.325,11 Sep 2025 17:03:20.986,371.661
704,12 Sep 2025 13:30:27.883,12 Sep 2025 13:37:37.008,429.126
705,12 Sep 2025 15:01:17.445,12 Sep 2025 15:12:24.660,667.214
706,12 Sep 2025 16:37:03.901,12 Sep 2025 16:45:31.732,507.831
707,13 Sep 2025 13:13:19.256,13 Sep 2025 13:17:57.352,278.096
708,13 Sep 2025 14:42:45.991,13 Sep 2025 14:53:30.444,644.453
709,13 Sep 2025 16:17:27.689,13 Sep 2025 16:27:19.683,591.994
710,14 Sep 2025 14:24:25.102,14 Sep 2025 14:34:36.226,611.124
711,14 Sep 2025 15:58:09.523,14 Sep 2025 16:08:55.655,646.132
712,15 Sep 2025 14:06:15.578,15 Sep 2025 14:15:42.010,566.432
713,15 Sep 2025 15:39:05.145,15 Sep 2025 15:50:23.693,678.548
714,16 Sep 2025 13:48:19.250,16 Sep 2025 13:56:47.795,508.545
715,16 Sep 2025 15:20:12.494,16 Sep 2025 15:31:32.181,679.687
716,16 Sep 2025 16:57:23.774,16 Sep 2025 17:03:33.296,369.522
717,17 Sep 2025 13:30:40.180,17 Sep 2025 13:37:50.683,430.503
718,17 Sep 2025 15:01:30.559,17 Sep 2025 15:12:37.969,667.410
719,17 Sep 2025 16:37:17.858,17 Sep 2025 16:45:44.455,506.597
720,18 Sep 2025 13:13:31.010,18 Sep 2025 13:18:11.500,280.490
721,18 Sep 2025 14:42:58.986,18 Sep 2025 14:53:43.754,644.768
722,18 Sep 2025 16:17:41.390,18 Sep 2025 16:27:32.588,591.198
723,19 Sep 2025 14:24:37.969,19 Sep 2025 14:34:49.535,611.566
724,19 Sep 2025 15:58:23.042,19 Sep 2025 16:09:08.672,645.630
725,20 Sep 2025 14:06:28.302,20 Sep 2025 14:15:55.319,567.017
726,20 Sep 2025 15:39:18.516,20 Sep 2025 15:50:36.790,678.274
727,21 Sep 2025 13:48:31.797,21 Sep 2025 13:57:01.103,509.306
728,21 Sep 2025 15:20:25.734,21 Sep 2025 15:31:45.488,679.754
729,21 Sep 2025 16:57:38.229,21 Sep 2025 17:03:45.596,367.367
730,22 Sep 2025 13:30:52.483,22 Sep 2025 13:38:04.357,431.874
731,22 Sep 2025 15:01:43.676,22 Sep 2025 15:12:51.275,667.599
732,22 Sep 2025 16:37:31.817,22 Sep 2025 16:45:57.172,505.355
733,23 Sep 2025 13:13:42.772,23 Sep 2025 13:18:25.637,282.865
734,23 Sep 2025 14:43:11.981,23 Sep 2025 14:53:57.059,645.079
735,23 Sep 2025 16:17:55.092,23 Sep 2025 16:27:45.490,590.398
736,24 Sep 2025 14:24:50.836,24 Sep 2025 14:35:02.838,612.003
737,24 Sep 2025 15:58:36.562,24 Sep 2025 16:09:21.686,645.125
738,25 Sep 2025 14:06:41.027,25 Sep 2025 14:16:08.621,567.594
739,25 Sep 2025 15:39:31.889,25 Sep 2025 15:50:49.885,677.997
740,26 Sep 2025 13:48:44.349,26 Sep 2025 13:57:14.404,510.055
741,26 Sep 2025 15:20:38.980,26 Sep 2025 15:31:58.790,679.810
742,26 Sep 2025 16:57:52.695,26 Sep 2025 17:03:57.884,365.190
743,27 Sep 2025 13:31:04.790,27 Sep 2025 13:38:18.031,433.241
744,27 Sep 2025 15:01:56.794,27 Sep 2025 15:13:04.573,667.779
745,27 Sep 2025 16:37:45.781,27 Sep 2025 16:46:09.886,504.104
746,28 Sep 2025 13:13:54.545,28 Sep 2025 13:18:39.766,285.221
747,28 Sep 2025 14:43:24.977,28 Sep 2025 14:54:10.361,645.384
748,28 Sep 2025 16:18:08.798,28 Sep 2025 16:27:58.390,589.592
749,29 Sep 2025 14:25:03.702,29 Sep 2025 14:35:16.140,612.438
750,29 Sep 2025 15:58:50.084,29 Sep 2025 16:09:34.698,644.613
751,30 Sep 2025 14:06:53.757,30 Sep 2025 14:16:21.924,568.167
752,30 Sep 2025 15:39:45.264,30 Sep 2025 15:51:02.976,677.712
753,1 Oct 2025 13:48:56.904,1 Oct 2025 13:57:27.707,510.803
754,1 Oct 2025 15:20:52.219,1 Oct 2025 15:32:12.093,679.874
755,1 Oct 2025 16:58:07.171,1 Oct 2025 17:04:10.165,362.994
756,2 Oct 2025 13:31:17.101,2 Oct 2025 13:38:31.701,434.600
757,2 Oct 2025 15:02:09.914,2 Oct 2025 15:13:17.877,667.963
758,2 Oct 2025 16:37:59.749,2 Oct 2025 16:46:22.597,502.848
759,3 Oct 2025 13:14:06.332,3 Oct 2025 13:18:53.882,287.550
760,3 Oct 2025 14:43:37.974,3 Oct 2025 14:54:23.666,645.691
761,3 Oct 2025 16:18:22.505,3 Oct 2025 16:28:11.289,588.784
762,4 Oct 2025 14:25:16.572,4 Oct 2025 14:35:29.445,612.873
763,4 Oct 2025 15:59:03.608,4 Oct 2025 16:09:47.710,644.102
764,5 Oct 2025 14:07:06.484,5 Oct 2025 14:16:35.228,568.744
765,5 Oct 2025 15:39:58.638,5 Oct 2025 15:51:16.069,677.430
766,6 Oct 2025 13:49:09.460,6 Oct 2025 13:57:41.011,511.551
767,6 Oct 2025 15:21:05.463,6 Oct 2025 15:32:25.396,679.934
768,6 Oct 2025 16:58:21.655,6 Oct 2025 17:04:22.436,360.781
769,7 Oct 2025 13:31:29.414,7 Oct 2025 13:38:45.366,435.953
770,7 Oct 2025 15:02:23.034,7 Oct 2025 15:13:31.179,668.145
771,7 Oct 2025 16:38:13.719,7 Oct 2025 16:46:35.304,501.584
772,8 Oct 2025 13:14:18.127,8 Oct 2025 13:19:07.987,289.861
773,8 Oct 2025 14:43:50.972,8 Oct 2025 14:54:36.966,645.994
774,8 Oct 2025 16:18:36.214,8 Oct 2025 16:28:24.184,587.970
775,9 Oct 2025 14:25:29.442,9 Oct 2025 14:35:42.743,613.302
776,9 Oct 2025 15:59:17.133,9 Oct 2025 16:10:00.719,643.586
777,10 Oct 2025 14:07:19.210,10 Oct 2025 14:16:48.526,569.315
778,10 Oct 2025 15:40:12.018,10 Oct 2025 15:51:29.164,677.146
779,11 Oct 2025 13:49:22.018,11 Oct 2025 13:57:54.308,512.290
780,11 Oct 2025 15:21:18.709,11 Oct 2025 15:32:38.693,679.984
781,11 Oct 2025 16:58:36.151,11 Oct 2025 17:04:34.695,358.544
782,12 Oct 2025 13:31:41.734,12 Oct 2025 13:38:59.032,437.297
783,12 Oct 2025 15:02:36.156,12 Oct 2025 15:13:44.476,668.321
784,12 Oct 2025 16:38:27.695,12 Oct 2025 16:46:48.006,500.312
785,13 Oct 2025 13:14:29.932,13 Oct 2025 13:19:22.086,292.154
786,13 Oct 2025 14:44:03.972,13 Oct 2025 14:54:50.264,646.293
787,13 Oct 2025 16:18:49.926,13 Oct 2025 16:28:37.077,587.152
788,14 Oct 2025 14:25:42.314,14 Oct 2025 14:35:56.043,613.729
789,14 Oct 2025 15:59:30.660,14 Oct 2025 16:10:13.728,643.068
790,15 Oct 2025 14:07:31.942,15 Oct 2025 14:17:01.826,569.885
791,15 Oct 2025 15:40:25.396,15 Oct 2025 15:51:42.255,676.859
792,16 Oct 2025 13:49:34.579,16 Oct 2025 13:58:07.609,513.031
793,16 Oct 2025 15:21:31.956,16 Oct 2025 15:32:51.995,680.039
794,16 Oct 2025 16:58:50.656,16 Oct 2025 17:04:46.947,356.291
795,17 Oct 2025 13:31:54.053,17 Oct 2025 13:39:12.696,438.643
796,17 Oct 2025 15:02:49.279,17 Oct 2025 15:13:57.778,668.499
797,17 Oct 2025 16:38:41.672,17 Oct 2025 16:47:00.707,499.035
798,18 Oct 2025 13:14:41.749,18 Oct 2025 13:19:36.174,294.424
799,18 Oct 2025 14:44:16.971,18 Oct 2025 14:55:03.566,646.594
800,18 Oct 2025 16:19:03.638,18 Oct 2025 16:28:49.969,586.330
801,19 Oct 2025 14:25:55.187,19 Oct 2025 14:36:09.344,614.157
802,19 Oct 2025 15:59:44.187,19 Oct 2025 16:10:26.734,642.547
803,20 Oct 2025 14:07:44.673,20 Oct 2025 14:17:15.126,570.453
804,20 Oct 2025 15:40:38.773,20 Oct 2025 15:51:55.343,676.569
805,21 Oct 2025 13:49:47.140,21 Oct 2025 13:58:20.908,513.768
806,21 Oct 2025 15:21:45.203,21 Oct 2025 15:33:05.293,680.090
807,21 Oct 2025 16:59:05.169,21 Oct 2025 17:04:59.185,354.015
808,22 Oct 2025 13:32:06.372,22 Oct 2025 13:39:26.353,439.980
809,22 Oct 2025 15:03:02.401,22 Oct 2025 15:14:11.075,668.674
810,22 Oct 2025 16:38:55.652,22 Oct 2025 16:47:13.401,497.749
811,23 Oct 2025 13:14:53.574,23 Oct 2025 13:19:50.250,296.676
812,23 Oct 2025 14:44:29.971,23 Oct 2025 14:55:16.861,646.890
813,23 Oct 2025 16:19:17.353,23 Oct 2025 16:29:02.856,585.504
814,24 Oct 2025 14:26:08.060,24 Oct 2025 14:36:22.639,614.579
815,24 Oct 2025 15:59:57.716,24 Oct 2025 16:10:39.738,642.022
816,25 Oct 2025 14:07:57.405,25 Oct 2025 14:17:28.421,571.016
817,25 Oct 2025 15:40:52.152,25 Oct 2025 15:52:08.429,676.277
818,26 Oct 2025 13:49:59.702,26 Oct 2025 13:58:34.203,514.500
819,26 Oct 2025 15:21:58.451,26 Oct 2025 15:33:18.589,680.138
820,26 Oct 2025 16:59:19.695,26 Oct 2025 17:05:11.411,351.717
821,27 Oct 2025 13:32:18.701,27 Oct 2025 13:39:39.990,441.289
822,27 Oct 2025 15:03:15.525,27 Oct 2025 15:14:24.371,668.845
823,27 Oct 2025 16:39:09.637,27 Oct 2025 16:47:26.093,496.456
824,28 Oct 2025 13:15:05.410,28 Oct 2025 13:20:04.312,298.902
825,28 Oct 2025 14:44:42.973,28 Oct 2025 14:55:30.153,647.180
826,28 Oct 2025 16:19:31.070,28 Oct 2025 16:29:15.743,584.673
827,29 Oct 2025 14:26:20.935,29 Oct 2025 14:36:35.936,615.001
828,29 Oct 2025 16:00:11.252,29 Oct 2025 16:10:52.742,641.490
829,30 Oct 2025 14:08:10.140,30 Oct 2025 14:17:41.719,571.579
830,30 Oct 2025 15:41:05.533,30 Oct 2025 15:52:21.516,675.982
831,31 Oct 2025 13:50:12.268,31 Oct 2025 13:58:47.502,515.234
832,31 Oct 2025 15:22:11.695,31 Oct 2025 15:33:31.888,680.193
833,31 Oct 2025 16:59:34.229,31 Oct 2025 17:05:23.630,349.401
834,1 Nov 2025 13:32:31.026,1 Nov 2025 13:39:53.289,442.263
835,1 Nov 2025 15:03:28.649,1 Nov 2025 15:14:37.670,669.021
836,1 Nov 2025 16:39:23.627,1 Nov 2025 16:47:38.782,495.155
837,2 Nov 2025 13:15:17.257,2 Nov 2025 13:20:18.366,301.109
838,2 Nov 2025 14:44:55.976,2 Nov 2025 14:55:43.453,647.476
839,2 Nov 2025 16:19:44.788,2 Nov 2025 16:29:28.628,583.839
840,3 Nov 2025 14:26:33.811,3 Nov 2025 14:36:49.235,615.424
841,3 Nov 2025 16:00:24.783,3 Nov 2025 16:11:05.743,640.960
842,4 Nov 2025 14:08:22.874,4 Nov 2025 14:17:55.016,572.142
843,4 Nov 2025 15:41:18.914,4 Nov 2025 15:52:34.599,675.685
844,5 Nov 2025 13:50:24.834,5 Nov 2025 13:59:00.798,515.963
845,5 Nov 2025 15:22:24.943,5 Nov 2025 15:33:45.184,680.241
846,5 Nov 2025 16:59:48.773,5 Nov 2025 17:05:35.837,347.064
847,6 Nov 2025 13:32:43.357,6 Nov 2025 13:40:06.583,443.226
848,6 Nov 2025 15:03:41.774,6 Nov 2025 15:14:50.964,669.191
849,6 Nov 2025 16:39:37.617,6 Nov 2025 16:47:51.465,493.847
850,7 Nov 2025 13:15:29.110,7 Nov 2025 13:20:32.413,303.303
851,7 Nov 2025 14:45:08.979,7 Nov 2025 14:55:56.746,647.767
852,7 Nov 2025 16:19:58.508,7 Nov 2025 16:29:41.508,583.000
853,8 Nov 2025 14:26:46.687,8 Nov 2025 14:37:02.528,615.840
854,8 Nov 2025 16:00:38.316,8 Nov 2025 16:11:18.742,640.426
855,9 Nov 2025 14:08:35.611,9 Nov 2025 14:18:08.309,572.699
856,9 Nov 2025 15:41:32.296,9 Nov 2025 15:52:47.682,675.385
857,10 Nov 2025 13:50:37.403,10 Nov 2025 13:59:14.092,516.689
858,10 Nov 2025 15:22:38.194,10 Nov 2025 15:33:58.479,680.285
859,10 Nov 2025 17:00:03.331,10 Nov 2025 17:05:48.037,344.707
860,11 Nov 2025 13:32:55.692,11 Nov 2025 13:40:19.879,444.187
861,11 Nov 2025 15:03:54.901,11 Nov 2025 15:15:04.260,669.359
862,11 Nov 2025 16:39:51.614,11 Nov 2025 16:48:04.146,492.532
863,12 Nov 2025 13:15:40.975,12 Nov 2025 13:20:46.450,305.474
864,12 Nov 2025 14:45:21.984,12 Nov 2025 14:56:10.043,648.059
865,12 Nov 2025 16:20:12.232,12 Nov 2025 16:29:54.389,582.157
866,13 Nov 2025 14:26:59.565,13 Nov 2025 14:37:15.826,616.261
867,13 Nov 2025 16:00:51.851,13 Nov 2025 16:11:31.741,639.890
868,14 Nov 2025 14:08:48.349,14 Nov 2025 14:18:21.608,573.259
869,14 Nov 2025 15:41:45.680,14 Nov 2025 15:53:00.764,675.084
870,15 Nov 2025 13:50:49.974,15 Nov 2025 13:59:27.390,517.417
871,15 Nov 2025 15:22:51.445,15 Nov 2025 15:34:11.778,680.333
872,15 Nov 2025 17:00:17.896,15 Nov 2025 17:06:00.223,342.327
873,16 Nov 2025 13:33:08.030,16 Nov 2025 13:40:33.177,445.146
874,16 Nov 2025 15:04:08.028,16 Nov 2025 15:15:17.558,669.530
875,16 Nov 2025 16:40:05.611,16 Nov 2025 16:48:16.823,491.212
876,17 Nov 2025 13:15:52.851,17 Nov 2025 13:21:00.474,307.624
877,17 Nov 2025 14:45:34.989,17 Nov 2025 14:56:23.340,648.351
878,17 Nov 2025 16:20:25.955,17 Nov 2025 16:30:07.266,581.311
879,18 Nov 2025 14:27:12.443,18 Nov 2025 14:37:29.122,616.679
880,18 Nov 2025 16:01:05.385,18 Nov 2025 16:11:44.737,639.351
881,19 Nov 2025 14:09:01.087,19 Nov 2025 14:18:34.904,573.816
882,19 Nov 2025 15:41:59.063,19 Nov 2025 15:53:13.843,674.779
883,20 Nov 2025 13:51:02.545,20 Nov 2025 13:59:40.685,518.140
884,20 Nov 2025 15:23:04.697,20 Nov 2025 15:34:25.070,680.374
885,20 Nov 2025 17:00:32.472,20 Nov 2025 17:06:12.397,339.925
886,21 Nov 2025 13:33:20.371,21 Nov 2025 13:40:46.471,446.100
887,21 Nov 2025 15:04:21.155,21 Nov 2025 15:15:30.852,669.697
888,21 Nov 2025 16:40:19.612,21 Nov 2025 16:48:29.495,489.883
889,22 Nov 2025 13:16:04.733,22 Nov 2025 13:21:14.494,309.761
890,22 Nov 2025 14:45:47.994,22 Nov 2025 14:56:36.634,648.640
891,22 Nov 2025 16:20:39.681,22 Nov 2025 16:30:20.140,580.459
892,23 Nov 2025 14:27:25.323,23 Nov 2025 14:37:42.416,617.093
893,23 Nov 2025 16:01:18.922,23 Nov 2025 16:11:57.731,638.809
894,24 Nov 2025 14:09:13.828,24 Nov 2025 14:18:48.198,574.371
895,24 Nov 2025 15:42:12.449,24 Nov 2025 15:53:26.921,674.473
896,25 Nov 2025 13:51:15.119,25 Nov 2025 13:59:53.981,518.862
897,25 Nov 2025 15:23:17.952,25 Nov 2025 15:34:38.367,680.415
898,25 Nov 2025 17:00:47.061,25 Nov 2025 17:06:24.561,337.500
899,26 Nov 2025 13:33:32.715,26 Nov 2025 13:40:59.767,447.052
900,26 Nov 2025 15:04:34.284,26 Nov 2025 15:15:44.149,669.865
901,26 Nov 2025 16:40:33.618,26 Nov 2025 16:48:42.165,488.547
902,27 Nov 2025 13:16:16.627,27 Nov 2025 13:21:28.502,311.875
903,27 Nov 2025 14:46:01.002,27 Nov 2025 14:56:49.932,648.930
904,27 Nov 2025 16:20:53.405,27 Nov 2025 16:30:33.014,579.608
905,28 Nov 2025 14:27:38.203,28 Nov 2025 14:37:55.715,617.513
906,28 Nov 2025 16:01:32.460,28 Nov 2025 16:12:10.725,638.265
907,29 Nov 2025 14:09:26.570,29 Nov 2025 14:19:01.498,574.928
908,29 Nov 2025 15:42:25.835,29 Nov 2025 15:53:39.999,674.164
909,30 Nov 2025 13:51:27.696,30 Nov 2025 14:00:07.281,519.585
910,30 Nov 2025 15:23:31.206,30 Nov 2025 15:34:51.667,680.461
911,30 Nov 2025 17:01:01.660,30 Nov 2025 17:06:36.716,335.056
912,1 Dec 2025 13:33:45.063,1 Dec 2025 13:41:13.066,448.003
913,1 Dec 2025 15:04:47.414,1 Dec 2025 15:15:57.448,670.035
914,1 Dec 2025 16:40:47.624,1 Dec 2025 16:48:54.832,487.208
915,2 Dec 2025 13:16:28.529,2 Dec 2025 13:21:42.499,313.969
916,2 Dec 2025 14:46:14.009,2 Dec 2025 14:57:03.230,649.221
917,2 Dec 2025 16:21:07.136,2 Dec 2025 16:30:45.885,578.748
918,3 Dec 2025 14:27:51.084,3 Dec 2025 14:38:09.012,617.929
919,3 Dec 2025 16:01:45.994,3 Dec 2025 16:12:23.715,637.721
920,4 Dec 2025 14:09:39.312,4 Dec 2025 14:19:14.794,575.482
921,4 Dec 2025 15:42:39.222,4 Dec 2025 15:53:53.074,673.852
922,5 Dec 2025 13:51:40.272,5 Dec 2025 14:00:20.575,520.303
923,5 Dec 2025 15:23:44.460,5 Dec 2025 15:35:04.961,680.501
924,5 Dec 2025 17:01:16.270,5 Dec 2025 17:06:48.856,332.585
925,6 Dec 2025 13:33:57.417,6 Dec 2025 13:41:26.360,448.943
926,6 Dec 2025 15:05:00.549,6 Dec 2025 15:16:10.743,670.194
927,6 Dec 2025 16:41:01.633,6 Dec 2025 16:49:07.492,485.859
928,7 Dec 2025 13:16:40.437,7 Dec 2025 13:21:56.490,316.054
929,7 Dec 2025 14:46:27.018,7 Dec 2025 14:57:16.525,649.507
930,7 Dec 2025 16:21:20.865,7 Dec 2025 16:30:58.753,577.887
931,8 Dec 2025 14:28:03.967,8 Dec 2025 14:38:22.313,618.346
932,8 Dec 2025 16:01:59.536,8 Dec 2025 16:12:36.706,637.170
933,9 Dec 2025 14:09:52.061,9 Dec 2025 14:19:28.091,576.030
934,9 Dec 2025 15:42:52.607,9 Dec 2025 15:54:06.147,673.540
935,10 Dec 2025 13:51:52.853,10 Dec 2025 14:00:33.874,521.022
936,10 Dec 2025 15:23:57.716,10 Dec 2025 15:35:18.260,680.544
937,10 Dec 2025 17:01:30.894,10 Dec 2025 17:07:00.986,330.093
938,11 Dec 2025 13:34:09.772,11 Dec 2025 13:41:39.661,449.888
939,11 Dec 2025 15:05:13.681,11 Dec 2025 15:16:24.043,670.362
940,11 Dec 2025 16:41:15.649,11 Dec 2025 16:49:20.153,484.504
941,12 Dec 2025 13:16:52.358,12 Dec 2025 13:22:10.471,318.113
942,12 Dec 2025 14:46:40.029,12 Dec 2025 14:57:29.827,649.798
943,12 Dec 2025 16:21:34.600,12 Dec 2025 16:31:11.621,577.021
944,13 Dec 2025 14:28:16.852,13 Dec 2025 14:38:35.615,618.763
945,13 Dec 2025 16:02:13.079,13 Dec 2025 16:12:49.695,636.616
946,14 Dec 2025 14:10:04.807,14 Dec 2025 14:19:41.393,576.586
947,14 Dec 2025 15:43:05.996,14 Dec 2025 15:54:19.220,673.224
948,15 Dec 2025 13:52:05.434,15 Dec 2025 14:00:47.176,521.742
949,15 Dec 2025 15:24:10.972,15 Dec 2025 15:35:31.562,680.589
950,15 Dec 2025 17:01:45.527,15 Dec 2025 17:07:13.106,327.579
951,16 Dec 2025 13:34:22.129,16 Dec 2025 13:41:52.961,450.832
952,16 Dec 2025 15:05:26.813,16 Dec 2025 15:16:37.344,670.532
953,16 Dec 2025 16:41:29.666,16 Dec 2025 16:49:32.809,483.143
954,17 Dec 2025 13:17:04.286,17 Dec 2025 13:22:24.441,320.155
955,17 Dec 2025 14:46:53.039,17 Dec 2025 14:57:43.127,650.088
956,17 Dec 2025 16:21:48.334,17 Dec 2025 16:31:24.485,576.151
957,18 Dec 2025 14:28:29.736,18 Dec 2025 14:38:48.914,619.178
958,18 Dec 2025 16:02:26.622,18 Dec 2025 16:13:02.681,636.059
959,19 Dec 2025 14:10:17.554,19 Dec 2025 14:19:54.693,577.139
960,19 Dec 2025 15:43:19.386,19 Dec 2025 15:54:32.291,672.905
961,20 Dec 2025 13:52:18.022,20 Dec 2025 14:01:00.475,522.454
962,20 Dec 2025 15:24:24.230,20 Dec 2025 15:35:44.861,680.631
963,20 Dec 2025 17:02:00.173,20 Dec 2025 17:07:25.212,325.039
964,21 Dec 2025 13:34:34.489,21 Dec 2025 13:42:06.260,451.771
965,21 Dec 2025 15:05:39.946,21 Dec 2025 15:16:50.644,670.698
966,21 Dec 2025 16:41:43.688,21 Dec 2025 16:49:45.461,481.773
967,22 Dec 2025 13:17:16.223,22 Dec 2025 13:22:38.404,322.181
968,22 Dec 2025 14:47:06.051,22 Dec 2025 14:57:56.427,650.377
969,22 Dec 2025 16:22:02.072,22 Dec 2025 16:31:37.349,575.276
970,23 Dec 2025 14:28:42.623,23 Dec 2025 14:39:02.216,619.593
971,23 Dec 2025 16:02:40.168,23 Dec 2025 16:13:15.667,635.499
972,24 Dec 2025 14:10:30.303,24 Dec 2025 14:20:07.995,577.692
973,24 Dec 2025 15:43:32.778,24 Dec 2025 15:54:45.363,672.585
974,25 Dec 2025 13:52:30.608,25 Dec 2025 14:01:13.779,523.171
975,25 Dec 2025 15:24:37.487,25 Dec 2025 15:35:58.165,680.677
976,25 Dec 2025 17:02:14.838,25 Dec 2025 17:07:37.307,322.470
977,26 Dec 2025 13:34:46.854,26 Dec 2025 13:42:19.564,452.710
