3UCubedIntegratedSim/Reports & Plots/Comms/UNH/Sat 1 Comms.csv

"Access","Start Time (UTCG)","Stop Time (UTCG)","Duration (sec)"
1,1 Jan 2025 16:07:25.775,1 Jan 2025 16:17:25.367,599.593
2,1 Jan 2025 17:40:18.894,1 Jan 2025 17:51:35.903,677.008
3,2 Jan 2025 15:49:28.500,2 Jan 2025 15:58:20.976,532.475
4,2 Jan 2025 17:21:25.522,2 Jan 2025 17:32:58.293,692.771
5,2 Jan 2025 18:58:43.569,2 Jan 2025 19:04:41.036,357.467
6,3 Jan 2025 15:31:48.102,3 Jan 2025 15:39:06.043,437.940
7,3 Jan 2025 17:02:42.909,3 Jan 2025 17:14:15.607,692.698
8,3 Jan 2025 18:38:34.859,3 Jan 2025 18:46:54.562,499.703
9,4 Jan 2025 15:14:36.062,4 Jan 2025 15:19:29.295,293.233
10,4 Jan 2025 16:44:10.665,4 Jan 2025 16:55:28.260,677.594
11,4 Jan 2025 18:18:56.963,4 Jan 2025 18:28:43.723,586.761
12,5 Jan 2025 16:25:48.947,5 Jan 2025 16:36:36.186,647.239
13,5 Jan 2025 17:59:37.608,5 Jan 2025 18:10:20.429,642.821
14,6 Jan 2025 16:07:38.507,6 Jan 2025 16:17:38.762,600.255
15,6 Jan 2025 17:40:32.272,6 Jan 2025 17:51:48.994,676.722
16,7 Jan 2025 15:49:41.063,7 Jan 2025 15:58:34.466,533.403
17,7 Jan 2025 17:21:38.769,7 Jan 2025 17:33:11.448,692.679
18,7 Jan 2025 18:58:58.072,7 Jan 2025 19:04:53.289,355.217
19,8 Jan 2025 15:32:00.425,8 Jan 2025 15:39:19.695,439.270
20,8 Jan 2025 17:02:56.032,8 Jan 2025 17:14:28.818,692.786
21,8 Jan 2025 18:38:48.835,8 Jan 2025 18:47:07.264,498.429
22,9 Jan 2025 15:14:47.891,9 Jan 2025 15:19:43.364,295.474
23,9 Jan 2025 16:44:23.665,9 Jan 2025 16:55:41.524,677.859
24,9 Jan 2025 18:19:10.674,9 Jan 2025 18:28:56.616,585.942
25,10 Jan 2025 16:26:01.820,10 Jan 2025 16:36:49.508,647.688
26,10 Jan 2025 17:59:51.134,10 Jan 2025 18:10:33.436,642.302
27,11 Jan 2025 16:07:51.240,11 Jan 2025 16:17:52.153,600.914
28,11 Jan 2025 17:40:45.648,11 Jan 2025 17:52:02.082,676.433
29,12 Jan 2025 15:49:53.627,12 Jan 2025 15:58:47.954,534.327
30,12 Jan 2025 17:21:52.015,12 Jan 2025 17:33:24.601,692.586
31,12 Jan 2025 18:59:12.585,12 Jan 2025 19:05:05.529,352.944
32,13 Jan 2025 15:32:12.750,13 Jan 2025 15:39:33.344,440.594
33,13 Jan 2025 17:03:09.154,13 Jan 2025 17:14:42.027,692.873
34,13 Jan 2025 18:39:02.814,13 Jan 2025 18:47:19.962,497.148
35,14 Jan 2025 15:14:59.728,14 Jan 2025 15:19:57.422,297.695
36,14 Jan 2025 16:44:36.666,14 Jan 2025 16:55:54.788,678.122
37,14 Jan 2025 18:19:24.388,14 Jan 2025 18:29:09.506,585.118
38,15 Jan 2025 16:26:14.695,15 Jan 2025 16:37:02.830,648.135
39,15 Jan 2025 18:00:04.663,15 Jan 2025 18:10:46.442,641.779
40,16 Jan 2025 16:08:03.974,16 Jan 2025 16:18:05.543,601.569
41,16 Jan 2025 17:40:59.028,16 Jan 2025 17:52:15.170,676.142
42,17 Jan 2025 15:50:06.194,17 Jan 2025 15:59:01.442,535.248
43,17 Jan 2025 17:22:05.264,17 Jan 2025 17:33:37.754,692.490
44,17 Jan 2025 18:59:27.110,17 Jan 2025 19:05:17.760,350.650
45,18 Jan 2025 15:32:25.086,18 Jan 2025 15:39:46.992,441.906
46,18 Jan 2025 17:03:22.279,18 Jan 2025 17:14:55.237,692.957
47,18 Jan 2025 18:39:16.798,18 Jan 2025 18:47:32.657,495.859
48,19 Jan 2025 15:15:11.577,19 Jan 2025 15:20:11.473,299.896
49,19 Jan 2025 16:44:49.670,19 Jan 2025 16:56:08.052,678.382
50,19 Jan 2025 18:19:38.105,19 Jan 2025 18:29:22.396,584.291
51,20 Jan 2025 16:26:27.572,20 Jan 2025 16:37:16.152,648.580
52,20 Jan 2025 18:00:18.199,20 Jan 2025 18:10:59.448,641.249
53,21 Jan 2025 16:08:16.712,21 Jan 2025 16:18:18.934,602.222
54,21 Jan 2025 17:41:12.409,21 Jan 2025 17:52:28.257,675.848
55,22 Jan 2025 15:50:18.764,22 Jan 2025 15:59:14.927,536.163
56,22 Jan 2025 17:22:18.508,22 Jan 2025 17:33:50.906,692.398
57,22 Jan 2025 18:59:41.644,22 Jan 2025 19:05:29.984,348.340
58,23 Jan 2025 15:32:37.416,23 Jan 2025 15:40:00.629,443.213
59,23 Jan 2025 17:03:35.404,23 Jan 2025 17:15:08.445,693.041
60,23 Jan 2025 18:39:30.787,23 Jan 2025 18:47:45.350,494.563
61,24 Jan 2025 15:15:23.437,24 Jan 2025 15:20:25.512,302.075
62,24 Jan 2025 16:45:02.674,24 Jan 2025 16:56:21.314,678.641
63,24 Jan 2025 18:19:51.823,24 Jan 2025 18:29:35.284,583.461
64,25 Jan 2025 16:26:40.450,25 Jan 2025 16:37:29.472,649.022
65,25 Jan 2025 18:00:31.730,25 Jan 2025 18:11:12.451,640.721
66,26 Jan 2025 16:08:29.449,26 Jan 2025 16:18:32.322,602.872
67,26 Jan 2025 17:41:25.790,26 Jan 2025 17:52:41.343,675.552
68,27 Jan 2025 15:50:31.334,27 Jan 2025 15:59:28.409,537.075
69,27 Jan 2025 17:22:31.758,27 Jan 2025 17:34:04.056,692.298
70,27 Jan 2025 18:59:56.189,27 Jan 2025 19:05:42.202,346.013
71,28 Jan 2025 15:32:49.754,28 Jan 2025 15:40:14.270,444.516
72,28 Jan 2025 17:03:48.530,28 Jan 2025 17:15:21.652,693.121
73,28 Jan 2025 18:39:44.778,28 Jan 2025 18:47:58.039,493.260
74,29 Jan 2025 15:15:35.304,29 Jan 2025 15:20:39.545,304.241
75,29 Jan 2025 16:45:15.679,29 Jan 2025 16:56:34.576,678.897
76,29 Jan 2025 18:20:05.544,29 Jan 2025 18:29:48.169,582.625
77,30 Jan 2025 16:26:53.328,30 Jan 2025 16:37:42.791,649.463
78,30 Jan 2025 18:00:45.264,30 Jan 2025 18:11:25.454,640.190
79,31 Jan 2025 16:08:42.189,31 Jan 2025 16:18:45.711,603.521
80,31 Jan 2025 17:41:39.174,31 Jan 2025 17:52:54.428,675.254
81,1 Feb 2025 15:50:43.907,1 Feb 2025 15:59:41.892,537.985
82,1 Feb 2025 17:22:45.010,1 Feb 2025 17:34:17.207,692.196
83,1 Feb 2025 19:00:10.746,1 Feb 2025 19:05:54.401,343.654
84,2 Feb 2025 15:33:02.096,2 Feb 2025 15:40:27.909,445.813
85,2 Feb 2025 17:04:01.660,2 Feb 2025 17:15:34.859,693.200
86,2 Feb 2025 18:39:58.775,2 Feb 2025 18:48:10.725,491.950
87,3 Feb 2025 15:15:47.184,3 Feb 2025 15:20:53.569,306.385
88,3 Feb 2025 16:45:28.687,3 Feb 2025 16:56:47.838,679.151
89,3 Feb 2025 18:20:19.268,3 Feb 2025 18:30:01.054,581.786
90,4 Feb 2025 16:27:06.210,4 Feb 2025 16:37:56.110,649.900
91,4 Feb 2025 18:00:58.800,4 Feb 2025 18:11:38.456,639.656
92,5 Feb 2025 16:08:54.932,5 Feb 2025 16:18:59.098,604.166
93,5 Feb 2025 17:41:52.560,5 Feb 2025 17:53:07.513,674.953
94,6 Feb 2025 15:50:56.483,6 Feb 2025 15:59:55.371,538.888
95,6 Feb 2025 17:22:58.264,6 Feb 2025 17:34:30.356,692.093
96,6 Feb 2025 19:00:25.313,6 Feb 2025 19:06:06.596,341.283
97,7 Feb 2025 15:33:14.442,7 Feb 2025 15:40:41.542,447.101
98,7 Feb 2025 17:04:14.789,7 Feb 2025 17:15:48.065,693.276
99,7 Feb 2025 18:40:12.773,7 Feb 2025 18:48:23.409,490.636
100,8 Feb 2025 15:15:59.073,8 Feb 2025 15:21:07.582,308.509
101,8 Feb 2025 16:45:41.694,8 Feb 2025 16:57:01.097,679.403
102,8 Feb 2025 18:20:32.993,8 Feb 2025 18:30:13.936,580.943
103,9 Feb 2025 16:27:19.092,9 Feb 2025 16:38:09.427,650.335
104,9 Feb 2025 18:01:12.332,9 Feb 2025 18:11:51.456,639.124
105,10 Feb 2025 16:09:07.674,10 Feb 2025 16:19:12.483,604.808
106,10 Feb 2025 17:42:05.945,10 Feb 2025 17:53:20.595,674.650
107,11 Feb 2025 15:51:09.064,11 Feb 2025 16:00:08.850,539.786
108,11 Feb 2025 17:23:11.518,11 Feb 2025 17:34:43.504,691.986
109,11 Feb 2025 19:00:39.892,11 Feb 2025 19:06:18.776,338.884
110,12 Feb 2025 15:33:26.790,12 Feb 2025 15:40:55.175,448.385
111,12 Feb 2025 17:04:27.920,12 Feb 2025 17:16:01.270,693.350
112,12 Feb 2025 18:40:26.777,12 Feb 2025 18:48:36.088,489.311
113,13 Feb 2025 15:16:10.970,13 Feb 2025 15:21:21.588,310.618
114,13 Feb 2025 16:45:54.704,13 Feb 2025 16:57:14.357,679.653
115,13 Feb 2025 18:20:46.721,13 Feb 2025 18:30:26.817,580.095
116,14 Feb 2025 16:27:31.977,14 Feb 2025 16:38:22.744,650.767
117,14 Feb 2025 18:01:25.874,14 Feb 2025 18:12:04.456,638.582
118,15 Feb 2025 16:09:20.420,15 Feb 2025 16:19:25.868,605.448
119,15 Feb 2025 17:42:19.335,15 Feb 2025 17:53:33.679,674.344
120,16 Feb 2025 15:51:21.641,16 Feb 2025 16:00:22.328,540.687
121,16 Feb 2025 17:23:24.777,16 Feb 2025 17:34:56.653,691.876
122,16 Feb 2025 19:00:54.483,16 Feb 2025 19:06:30.948,336.465
123,17 Feb 2025 15:33:39.148,17 Feb 2025 15:41:08.809,449.661
124,17 Feb 2025 17:04:41.058,17 Feb 2025 17:16:14.471,693.413
125,17 Feb 2025 18:40:40.781,17 Feb 2025 18:48:48.764,487.984
126,18 Feb 2025 15:16:22.876,18 Feb 2025 15:21:35.586,312.710
127,18 Feb 2025 16:46:07.716,18 Feb 2025 16:57:27.616,679.900
128,18 Feb 2025 18:21:00.452,18 Feb 2025 18:30:39.697,579.245
129,19 Feb 2025 16:27:44.860,19 Feb 2025 16:38:36.060,651.200
130,19 Feb 2025 18:01:39.419,19 Feb 2025 18:12:17.455,638.036
131,20 Feb 2025 16:09:33.168,20 Feb 2025 16:19:39.252,606.084
132,20 Feb 2025 17:42:32.725,20 Feb 2025 17:53:46.761,674.036
133,21 Feb 2025 15:51:34.224,21 Feb 2025 16:00:35.803,541.579
134,21 Feb 2025 17:23:38.035,21 Feb 2025 17:35:09.801,691.766
135,21 Feb 2025 19:01:09.085,21 Feb 2025 19:06:43.111,334.025
136,22 Feb 2025 15:33:51.504,22 Feb 2025 15:41:22.434,450.930
137,22 Feb 2025 17:04:54.192,22 Feb 2025 17:16:27.675,693.483
138,22 Feb 2025 18:40:54.791,22 Feb 2025 18:49:01.439,486.648
139,23 Feb 2025 15:16:34.793,23 Feb 2025 15:21:49.575,314.781
140,23 Feb 2025 16:46:20.728,23 Feb 2025 16:57:40.873,680.146
141,23 Feb 2025 18:21:14.185,23 Feb 2025 18:30:52.575,578.389
142,24 Feb 2025 16:27:57.747,24 Feb 2025 16:38:49.375,651.628
143,24 Feb 2025 18:01:52.956,24 Feb 2025 18:12:30.452,637.495
144,25 Feb 2025 16:09:45.920,25 Feb 2025 16:19:52.638,606.718
145,25 Feb 2025 17:42:46.111,25 Feb 2025 17:53:59.839,673.728
146,26 Feb 2025 15:51:46.808,26 Feb 2025 16:00:49.276,542.468
147,26 Feb 2025 17:23:51.293,26 Feb 2025 17:35:22.947,691.654
148,26 Feb 2025 19:01:23.700,26 Feb 2025 19:06:55.259,331.559
149,27 Feb 2025 15:34:03.863,27 Feb 2025 15:41:36.059,452.196
150,27 Feb 2025 17:05:07.327,27 Feb 2025 17:16:40.878,693.552
151,27 Feb 2025 18:41:08.806,27 Feb 2025 18:49:14.109,485.303
152,28 Feb 2025 15:16:46.717,28 Feb 2025 15:22:03.558,316.841
153,28 Feb 2025 16:46:33.742,28 Feb 2025 16:57:54.131,680.389
154,28 Feb 2025 18:21:27.917,28 Feb 2025 18:31:05.450,577.534
155,1 Mar 2025 16:28:10.636,1 Mar 2025 16:39:02.690,652.054
156,1 Mar 2025 18:02:06.503,1 Mar 2025 18:12:43.449,636.946
157,2 Mar 2025 16:09:58.671,2 Mar 2025 16:20:06.021,607.349
158,2 Mar 2025 17:42:59.505,2 Mar 2025 17:54:12.920,673.415
159,3 Mar 2025 15:51:59.396,3 Mar 2025 16:01:02.750,543.354
160,3 Mar 2025 17:24:04.554,3 Mar 2025 17:35:36.094,691.539
161,3 Mar 2025 19:01:38.329,3 Mar 2025 19:07:07.399,329.070
162,4 Mar 2025 15:34:16.227,4 Mar 2025 15:41:49.681,453.453
163,4 Mar 2025 17:05:20.464,4 Mar 2025 17:16:54.082,693.617
164,4 Mar 2025 18:41:22.826,4 Mar 2025 18:49:26.778,483.952
165,5 Mar 2025 15:16:58.653,5 Mar 2025 15:22:17.531,318.878
166,5 Mar 2025 16:46:46.758,5 Mar 2025 16:58:07.388,680.630
167,5 Mar 2025 18:21:41.655,5 Mar 2025 18:31:18.326,576.671
168,6 Mar 2025 16:28:23.526,6 Mar 2025 16:39:16.003,652.477
169,6 Mar 2025 18:02:20.050,6 Mar 2025 18:12:56.445,636.394
170,7 Mar 2025 16:10:11.424,7 Mar 2025 16:20:19.401,607.977
171,7 Mar 2025 17:43:12.899,7 Mar 2025 17:54:25.999,673.100
172,8 Mar 2025 15:52:11.989,8 Mar 2025 16:01:16.220,544.231
173,8 Mar 2025 17:24:17.816,8 Mar 2025 17:35:49.239,691.422
174,8 Mar 2025 19:01:52.967,8 Mar 2025 19:07:19.526,326.559
175,9 Mar 2025 15:34:28.594,9 Mar 2025 15:42:03.296,454.703
176,9 Mar 2025 17:05:33.602,9 Mar 2025 17:17:07.283,693.681
177,9 Mar 2025 18:41:36.849,9 Mar 2025 18:49:39.443,482.594
178,10 Mar 2025 15:17:10.595,10 Mar 2025 15:22:31.495,320.900
179,10 Mar 2025 16:46:59.774,10 Mar 2025 16:58:20.644,680.869
180,10 Mar 2025 18:21:55.396,10 Mar 2025 18:31:31.199,575.803
181,11 Mar 2025 16:28:36.418,11 Mar 2025 16:39:29.316,652.898
182,11 Mar 2025 18:02:33.600,11 Mar 2025 18:13:09.439,635.839
183,12 Mar 2025 16:10:24.178,12 Mar 2025 16:20:32.780,608.602
184,12 Mar 2025 17:43:26.296,12 Mar 2025 17:54:39.077,672.782
185,13 Mar 2025 15:52:24.581,13 Mar 2025 16:01:29.690,545.109
186,13 Mar 2025 17:24:31.081,13 Mar 2025 17:36:02.383,691.303
187,13 Mar 2025 19:02:07.627,13 Mar 2025 19:07:31.641,324.014
188,14 Mar 2025 15:34:40.964,14 Mar 2025 15:42:16.911,455.948
189,14 Mar 2025 17:05:46.742,14 Mar 2025 17:17:20.485,693.743
190,14 Mar 2025 18:41:50.878,14 Mar 2025 18:49:52.104,481.226
191,15 Mar 2025 15:17:22.547,15 Mar 2025 15:22:45.455,322.908
192,15 Mar 2025 16:47:12.794,15 Mar 2025 16:58:33.900,681.107
193,15 Mar 2025 18:22:09.141,15 Mar 2025 18:31:44.071,574.930
194,16 Mar 2025 16:28:49.312,16 Mar 2025 16:39:42.626,653.314
195,16 Mar 2025 18:02:47.153,16 Mar 2025 18:13:22.433,635.280
196,17 Mar 2025 16:10:36.936,17 Mar 2025 16:20:46.160,609.225
197,17 Mar 2025 17:43:39.695,17 Mar 2025 17:54:52.157,672.461
198,18 Mar 2025 15:52:37.176,18 Mar 2025 16:01:43.160,545.983
199,18 Mar 2025 17:24:44.345,18 Mar 2025 17:36:15.529,691.184
200,18 Mar 2025 19:02:22.295,18 Mar 2025 19:07:43.745,321.450
201,19 Mar 2025 15:34:53.338,19 Mar 2025 15:42:30.526,457.188
202,19 Mar 2025 17:05:59.885,19 Mar 2025 17:17:33.688,693.803
203,19 Mar 2025 18:42:04.911,19 Mar 2025 18:50:04.764,479.853
204,20 Mar 2025 15:17:34.508,20 Mar 2025 15:22:59.404,324.896
205,20 Mar 2025 16:47:25.815,20 Mar 2025 16:58:47.156,681.341
206,20 Mar 2025 18:22:22.888,20 Mar 2025 18:31:56.942,574.054
207,21 Mar 2025 16:29:02.208,21 Mar 2025 16:39:55.938,653.730
208,21 Mar 2025 18:03:00.708,21 Mar 2025 18:13:35.427,634.719
209,22 Mar 2025 16:10:49.694,22 Mar 2025 16:20:59.538,609.844
210,22 Mar 2025 17:43:53.095,22 Mar 2025 17:55:05.234,672.139
211,23 Mar 2025 15:52:49.773,23 Mar 2025 16:01:56.626,546.853
212,23 Mar 2025 17:24:57.612,23 Mar 2025 17:36:28.673,691.061
213,23 Mar 2025 19:02:36.975,23 Mar 2025 19:07:55.837,318.862
214,24 Mar 2025 15:35:05.715,24 Mar 2025 15:42:44.136,458.420
215,24 Mar 2025 17:06:13.028,24 Mar 2025 17:17:46.888,693.860
216,24 Mar 2025 18:42:18.947,24 Mar 2025 18:50:17.419,478.473
217,25 Mar 2025 15:17:46.475,25 Mar 2025 15:23:13.347,326.872
218,25 Mar 2025 16:47:38.836,25 Mar 2025 16:59:00.410,681.574
219,25 Mar 2025 18:22:36.637,25 Mar 2025 18:32:09.811,573.174
220,26 Mar 2025 16:29:15.105,26 Mar 2025 16:40:09.249,654.144
221,26 Mar 2025 18:03:14.261,26 Mar 2025 18:13:48.418,634.157
222,27 Mar 2025 16:11:02.454,27 Mar 2025 16:21:12.916,610.461
223,27 Mar 2025 17:44:06.497,27 Mar 2025 17:55:18.311,671.813
224,28 Mar 2025 15:53:02.371,28 Mar 2025 16:02:10.093,547.721
225,28 Mar 2025 17:25:10.881,28 Mar 2025 17:36:41.816,690.935
226,28 Mar 2025 19:02:51.667,28 Mar 2025 19:08:07.913,316.246
227,29 Mar 2025 15:35:18.096,29 Mar 2025 15:42:57.746,459.650
228,29 Mar 2025 17:06:26.173,29 Mar 2025 17:18:00.089,693.916
229,29 Mar 2025 18:42:32.989,29 Mar 2025 18:50:30.072,477.082
230,30 Mar 2025 15:17:58.452,30 Mar 2025 15:23:27.285,328.833
231,30 Mar 2025 16:47:51.861,30 Mar 2025 16:59:13.665,681.805
232,30 Mar 2025 18:22:50.389,30 Mar 2025 18:32:22.678,572.289
233,31 Mar 2025 16:29:28.004,31 Mar 2025 16:40:22.560,654.556
234,31 Mar 2025 18:03:27.820,31 Mar 2025 18:14:01.410,633.590
235,1 Apr 2025 16:11:15.217,1 Apr 2025 16:21:26.293,611.075
236,1 Apr 2025 17:44:19.907,1 Apr 2025 17:55:31.388,671.481
237,2 Apr 2025 15:53:14.970,2 Apr 2025 16:02:23.558,548.588
238,2 Apr 2025 17:25:24.153,2 Apr 2025 17:36:54.960,690.806
239,2 Apr 2025 19:03:06.381,2 Apr 2025 19:08:19.980,313.599
240,3 Apr 2025 15:35:30.481,3 Apr 2025 15:43:11.353,460.873
241,3 Apr 2025 17:06:39.315,3 Apr 2025 17:18:13.289,693.974
242,3 Apr 2025 18:42:47.039,3 Apr 2025 18:50:42.720,475.681
243,4 Apr 2025 15:18:10.437,4 Apr 2025 15:23:41.213,330.776
244,4 Apr 2025 16:48:04.886,4 Apr 2025 16:59:26.919,682.033
245,4 Apr 2025 18:23:04.144,4 Apr 2025 18:32:35.545,571.401
246,5 Apr 2025 16:29:40.905,5 Apr 2025 16:40:35.869,654.964
247,5 Apr 2025 18:03:41.381,5 Apr 2025 18:14:14.403,633.022
248,6 Apr 2025 16:11:27.982,6 Apr 2025 16:21:39.668,611.686
249,6 Apr 2025 17:44:33.312,6 Apr 2025 17:55:44.463,671.151
250,7 Apr 2025 15:53:27.573,7 Apr 2025 16:02:37.021,549.448
251,7 Apr 2025 17:25:37.425,7 Apr 2025 17:37:08.102,690.677
252,7 Apr 2025 19:03:21.106,7 Apr 2025 19:08:32.031,310.925
253,8 Apr 2025 15:35:42.867,8 Apr 2025 15:43:24.958,462.091
254,8 Apr 2025 17:06:52.463,8 Apr 2025 17:18:26.489,694.026
255,8 Apr 2025 18:43:01.090,8 Apr 2025 18:50:55.365,474.276
256,9 Apr 2025 15:18:22.427,9 Apr 2025 15:23:55.132,332.704
257,9 Apr 2025 16:48:17.913,9 Apr 2025 16:59:40.172,682.260
258,9 Apr 2025 18:23:17.902,9 Apr 2025 18:32:48.409,570.507
259,10 Apr 2025 16:29:53.807,10 Apr 2025 16:40:49.179,655.372
260,10 Apr 2025 18:03:54.943,10 Apr 2025 18:14:27.392,632.448
261,11 Apr 2025 16:11:40.749,11 Apr 2025 16:21:53.044,612.295
262,11 Apr 2025 17:44:46.720,11 Apr 2025 17:55:57.539,670.819
263,12 Apr 2025 15:53:40.179,12 Apr 2025 16:02:50.485,550.305
264,12 Apr 2025 17:25:50.699,12 Apr 2025 17:37:21.244,690.545
265,12 Apr 2025 19:03:35.849,12 Apr 2025 19:08:44.067,308.219
266,13 Apr 2025 15:35:55.255,13 Apr 2025 15:43:38.562,463.307
267,13 Apr 2025 17:07:05.614,13 Apr 2025 17:18:39.693,694.079
268,13 Apr 2025 18:43:15.145,13 Apr 2025 18:51:08.010,472.865
269,14 Apr 2025 15:18:34.426,14 Apr 2025 15:24:09.055,334.629
270,14 Apr 2025 16:48:30.942,14 Apr 2025 16:59:53.426,682.484
271,14 Apr 2025 18:23:31.667,14 Apr 2025 18:33:01.273,569.606
272,15 Apr 2025 16:30:06.712,15 Apr 2025 16:41:02.490,655.778
273,15 Apr 2025 18:04:08.507,15 Apr 2025 18:14:40.379,631.872
274,16 Apr 2025 16:11:53.517,16 Apr 2025 16:22:06.420,612.902
275,16 Apr 2025 17:45:00.131,16 Apr 2025 17:56:10.617,670.486
276,17 Apr 2025 15:53:52.789,17 Apr 2025 16:03:03.947,551.158
277,17 Apr 2025 17:26:03.976,17 Apr 2025 17:37:34.387,690.411
278,17 Apr 2025 19:03:50.602,17 Apr 2025 19:08:56.092,305.491
279,18 Apr 2025 15:36:07.651,18 Apr 2025 15:43:52.163,464.513
280,18 Apr 2025 17:07:18.766,18 Apr 2025 17:18:52.892,694.126
281,18 Apr 2025 18:43:29.206,18 Apr 2025 18:51:20.650,471.444
282,19 Apr 2025 15:18:46.434,19 Apr 2025 15:24:22.965,336.531
283,19 Apr 2025 16:48:43.973,19 Apr 2025 17:00:06.679,682.706
284,19 Apr 2025 18:23:45.431,19 Apr 2025 18:33:14.135,568.704
285,20 Apr 2025 16:30:19.618,20 Apr 2025 16:41:15.799,656.180
286,20 Apr 2025 18:04:22.074,20 Apr 2025 18:14:53.367,631.293
287,21 Apr 2025 16:12:06.287,21 Apr 2025 16:22:19.793,613.506
288,21 Apr 2025 17:45:13.542,21 Apr 2025 17:56:23.691,670.149
289,22 Apr 2025 15:54:05.404,22 Apr 2025 16:03:17.407,552.003
290,22 Apr 2025 17:26:17.253,22 Apr 2025 17:37:47.528,690.275
291,22 Apr 2025 19:04:05.376,22 Apr 2025 19:09:08.100,302.724
292,23 Apr 2025 15:36:20.048,23 Apr 2025 15:44:05.760,465.712
293,23 Apr 2025 17:07:31.919,23 Apr 2025 17:19:06.090,694.171
294,23 Apr 2025 18:43:43.272,23 Apr 2025 18:51:33.285,470.013
295,24 Apr 2025 15:18:58.443,24 Apr 2025 15:24:36.866,338.422
296,24 Apr 2025 16:48:57.006,24 Apr 2025 17:00:19.932,682.926
297,24 Apr 2025 18:23:59.194,24 Apr 2025 18:33:26.994,567.800
298,25 Apr 2025 16:30:32.525,25 Apr 2025 16:41:29.107,656.582
299,25 Apr 2025 18:04:35.643,25 Apr 2025 18:15:06.353,630.710
300,26 Apr 2025 16:12:19.059,26 Apr 2025 16:22:33.167,614.108
301,26 Apr 2025 17:45:26.956,26 Apr 2025 17:56:36.764,669.808
302,27 Apr 2025 15:54:18.018,27 Apr 2025 16:03:30.868,552.851
303,27 Apr 2025 17:26:30.533,27 Apr 2025 17:38:00.670,690.137
304,27 Apr 2025 19:04:20.171,27 Apr 2025 19:09:20.092,299.922
305,28 Apr 2025 15:36:32.450,28 Apr 2025 15:44:19.363,466.913
306,28 Apr 2025 17:07:45.079,28 Apr 2025 17:19:19.285,694.207
307,28 Apr 2025 18:43:57.344,28 Apr 2025 18:51:45.918,468.574
308,29 Apr 2025 15:19:10.466,29 Apr 2025 15:24:50.767,340.301
309,29 Apr 2025 16:49:10.040,29 Apr 2025 17:00:33.185,683.145
310,29 Apr 2025 18:24:12.967,29 Apr 2025 18:33:39.854,566.887
311,30 Apr 2025 15:03:23.106,30 Apr 2025 15:03:54.272,31.166
312,30 Apr 2025 16:30:45.436,30 Apr 2025 16:41:42.415,656.979
313,30 Apr 2025 18:04:49.217,30 Apr 2025 18:15:19.343,630.126
314,1 May 2025 16:12:31.835,1 May 2025 16:22:46.541,614.705
315,1 May 2025 17:45:40.367,1 May 2025 17:56:49.839,669.471
316,2 May 2025 15:54:30.634,2 May 2025 16:03:44.327,553.693
317,2 May 2025 17:26:43.814,2 May 2025 17:38:13.810,689.997
318,2 May 2025 19:04:34.978,2 May 2025 19:09:32.072,297.094
319,3 May 2025 15:36:44.855,3 May 2025 15:44:32.957,468.102
320,3 May 2025 17:07:58.236,3 May 2025 17:19:32.483,694.247
321,3 May 2025 18:44:11.419,3 May 2025 18:51:58.548,467.129
322,4 May 2025 15:19:22.499,4 May 2025 15:25:04.663,342.164
323,4 May 2025 16:49:23.075,4 May 2025 17:00:46.432,683.357
324,4 May 2025 18:24:26.740,4 May 2025 18:33:52.710,565.970
325,5 May 2025 15:03:27.221,5 May 2025 15:04:15.993,48.772
326,5 May 2025 16:30:58.347,5 May 2025 16:41:55.723,657.377
327,5 May 2025 18:05:02.790,5 May 2025 18:15:32.325,629.535
328,6 May 2025 16:12:44.610,6 May 2025 16:22:59.913,615.302
329,6 May 2025 17:45:53.789,6 May 2025 17:57:02.910,669.120
330,7 May 2025 15:54:43.252,7 May 2025 16:03:57.785,554.534
331,7 May 2025 17:26:57.096,7 May 2025 17:38:26.950,689.854
332,7 May 2025 19:04:49.804,7 May 2025 19:09:44.031,294.227
333,8 May 2025 15:36:57.262,8 May 2025 15:44:46.550,469.288
334,8 May 2025 17:08:11.393,8 May 2025 17:19:45.681,694.288
335,8 May 2025 18:44:25.496,8 May 2025 18:52:11.173,465.677
336,9 May 2025 15:19:34.534,9 May 2025 15:25:18.553,344.019
337,9 May 2025 16:49:36.112,9 May 2025 17:00:59.684,683.572
338,9 May 2025 18:24:40.518,9 May 2025 18:34:05.565,565.048
339,10 May 2025 15:03:33.763,10 May 2025 15:04:35.300,61.538
340,10 May 2025 16:31:11.260,10 May 2025 16:42:09.032,657.771
341,10 May 2025 18:05:16.367,10 May 2025 18:15:45.309,628.942
342,11 May 2025 16:12:57.389,11 May 2025 16:23:13.286,615.897
343,11 May 2025 17:46:07.210,11 May 2025 17:57:15.982,668.772
344,12 May 2025 15:54:55.873,12 May 2025 16:04:11.244,555.371
345,12 May 2025 17:27:10.382,12 May 2025 17:38:40.091,689.709
346,12 May 2025 19:05:04.652,12 May 2025 19:09:55.975,291.323
347,13 May 2025 15:37:09.674,13 May 2025 15:45:00.144,470.471
348,13 May 2025 17:08:24.554,13 May 2025 17:19:58.879,694.325
349,13 May 2025 18:44:39.583,13 May 2025 18:52:23.796,464.212
350,14 May 2025 15:19:46.577,14 May 2025 15:25:32.437,345.859
351,14 May 2025 16:49:49.153,14 May 2025 17:01:12.936,683.784
352,14 May 2025 18:24:54.298,14 May 2025 18:34:18.420,564.121
353,15 May 2025 15:03:41.429,15 May 2025 15:04:53.480,72.052
354,15 May 2025 16:31:24.176,15 May 2025 16:42:22.340,658.164
355,15 May 2025 18:05:29.947,15 May 2025 18:15:58.294,628.347
356,16 May 2025 16:13:10.170,16 May 2025 16:23:26.658,616.488
357,16 May 2025 17:46:20.632,16 May 2025 17:57:29.054,668.422
358,17 May 2025 15:55:08.496,17 May 2025 16:04:24.701,556.204
359,17 May 2025 17:27:23.669,17 May 2025 17:38:53.231,689.561
360,17 May 2025 19:05:19.515,17 May 2025 19:10:07.903,288.388
361,18 May 2025 15:37:22.088,18 May 2025 15:45:13.734,471.646
362,18 May 2025 17:08:37.716,18 May 2025 17:20:12.076,694.360
363,18 May 2025 18:44:53.674,18 May 2025 18:52:36.414,462.739
364,19 May 2025 15:19:58.626,19 May 2025 15:25:46.314,347.687
365,19 May 2025 16:50:02.193,19 May 2025 17:01:26.187,683.994
366,19 May 2025 18:25:08.081,19 May 2025 18:34:31.271,563.191
367,20 May 2025 15:03:49.771,20 May 2025 15:05:10.984,81.213
368,20 May 2025 16:31:37.092,20 May 2025 16:42:35.646,658.554
369,20 May 2025 18:05:43.527,20 May 2025 18:16:11.275,627.748
370,21 May 2025 16:13:22.951,21 May 2025 16:23:40.028,617.077
371,21 May 2025 17:46:34.051,21 May 2025 17:57:42.124,668.074
372,22 May 2025 15:55:21.120,22 May 2025 16:04:38.156,557.036
373,22 May 2025 17:27:36.957,22 May 2025 17:39:06.369,689.412
374,22 May 2025 19:05:34.399,22 May 2025 19:10:19.809,285.409
375,23 May 2025 15:37:34.505,23 May 2025 15:45:27.323,472.818
376,23 May 2025 17:08:50.880,23 May 2025 17:20:25.273,694.393
377,23 May 2025 18:45:07.772,23 May 2025 18:52:49.027,461.255
378,24 May 2025 15:20:10.681,24 May 2025 15:26:00.188,349.507
379,24 May 2025 16:50:15.236,24 May 2025 17:01:39.438,684.202
380,24 May 2025 18:25:21.867,24 May 2025 18:34:44.121,562.254
381,25 May 2025 15:03:58.579,25 May 2025 15:05:28.026,89.447
382,25 May 2025 16:31:50.011,25 May 2025 16:42:48.954,658.943
383,25 May 2025 18:05:57.111,25 May 2025 18:16:24.257,627.145
384,26 May 2025 16:13:35.736,26 May 2025 16:23:53.400,617.664
385,26 May 2025 17:46:47.478,26 May 2025 17:57:55.195,667.718
386,27 May 2025 15:55:33.748,27 May 2025 16:04:51.613,557.865
387,27 May 2025 17:27:50.248,27 May 2025 17:39:19.507,689.258
388,27 May 2025 19:05:49.305,27 May 2025 19:10:31.697,282.392
389,28 May 2025 15:37:46.930,28 May 2025 15:45:40.907,473.977
390,28 May 2025 17:09:04.044,28 May 2025 17:20:38.474,694.430
391,28 May 2025 18:45:21.879,28 May 2025 18:53:01.637,459.759
392,29 May 2025 15:20:22.744,29 May 2025 15:26:14.056,351.312
393,29 May 2025 16:50:28.281,29 May 2025 17:01:52.689,684.408
394,29 May 2025 18:25:35.658,29 May 2025 18:34:56.970,561.312
395,30 May 2025 15:04:07.747,30 May 2025 15:05:44.703,96.956
396,30 May 2025 16:32:02.932,30 May 2025 16:43:02.260,659.328
397,30 May 2025 18:06:10.697,30 May 2025 18:16:37.240,626.543
398,31 May 2025 16:13:48.523,31 May 2025 16:24:06.770,618.247
399,31 May 2025 17:47:00.908,31 May 2025 17:58:08.265,667.357
400,1 Jun 2025 15:55:46.377,1 Jun 2025 16:05:05.066,558.689
401,1 Jun 2025 17:28:03.538,1 Jun 2025 17:39:32.644,689.105
402,1 Jun 2025 19:06:04.229,1 Jun 2025 19:10:43.567,279.338
403,2 Jun 2025 15:37:59.353,2 Jun 2025 15:45:54.492,475.139
404,2 Jun 2025 17:09:17.211,2 Jun 2025 17:20:51.670,694.459
405,2 Jun 2025 18:45:35.985,2 Jun 2025 18:53:14.243,458.257
406,3 Jun 2025 15:20:34.812,3 Jun 2025 15:26:27.919,353.107
407,3 Jun 2025 16:50:41.326,3 Jun 2025 17:02:05.939,684.612
408,3 Jun 2025 18:25:49.449,3 Jun 2025 18:35:09.816,560.367
409,4 Jun 2025 15:04:17.181,4 Jun 2025 15:06:01.124,103.942
410,4 Jun 2025 16:32:15.853,4 Jun 2025 16:43:15.563,659.710
411,4 Jun 2025 18:06:24.285,4 Jun 2025 18:16:50.216,625.931
412,5 Jun 2025 16:14:01.310,5 Jun 2025 16:24:20.140,618.831
413,5 Jun 2025 17:47:14.336,5 Jun 2025 17:58:21.333,666.997
414,6 Jun 2025 15:55:59.008,6 Jun 2025 16:05:18.520,559.513
415,6 Jun 2025 17:28:16.833,6 Jun 2025 17:39:45.780,688.948
416,6 Jun 2025 19:06:19.178,6 Jun 2025 19:10:55.413,276.235
417,7 Jun 2025 15:38:11.779,7 Jun 2025 15:46:08.078,476.299
418,7 Jun 2025 17:09:30.380,7 Jun 2025 17:21:04.866,694.486
419,7 Jun 2025 18:45:50.099,7 Jun 2025 18:53:26.844,456.744
420,8 Jun 2025 15:20:46.886,8 Jun 2025 15:26:41.780,354.894
421,8 Jun 2025 16:50:54.374,8 Jun 2025 17:02:19.189,684.815
422,8 Jun 2025 18:26:03.245,8 Jun 2025 18:35:22.660,559.415
423,9 Jun 2025 15:04:26.838,9 Jun 2025 15:06:17.318,110.480
424,9 Jun 2025 16:32:28.777,9 Jun 2025 16:43:28.870,660.093
425,9 Jun 2025 18:06:37.877,9 Jun 2025 18:17:03.194,625.318
426,10 Jun 2025 16:14:14.096,10 Jun 2025 16:24:33.511,619.415
427,10 Jun 2025 17:47:27.773,10 Jun 2025 17:58:34.403,666.631
428,11 Jun 2025 15:56:11.642,11 Jun 2025 16:05:31.974,560.333
429,11 Jun 2025 17:28:30.131,11 Jun 2025 17:39:58.917,688.785
430,11 Jun 2025 19:06:34.149,11 Jun 2025 19:11:07.241,273.092
431,12 Jun 2025 15:38:24.209,12 Jun 2025 15:46:21.661,477.453
432,12 Jun 2025 17:09:43.552,12 Jun 2025 17:21:18.062,694.510
433,12 Jun 2025 18:46:04.219,12 Jun 2025 18:53:39.442,455.223
434,13 Jun 2025 15:20:58.966,13 Jun 2025 15:26:55.634,356.668
435,13 Jun 2025 16:51:07.424,13 Jun 2025 17:02:32.439,685.015
436,13 Jun 2025 18:26:17.044,13 Jun 2025 18:35:35.503,558.459
437,14 Jun 2025 15:04:36.685,14 Jun 2025 15:06:33.327,116.642
438,14 Jun 2025 16:32:41.703,14 Jun 2025 16:43:42.176,660.473
439,14 Jun 2025 18:06:51.470,14 Jun 2025 18:17:16.172,624.702
440,15 Jun 2025 16:14:26.887,15 Jun 2025 16:24:46.879,619.992
441,15 Jun 2025 17:47:41.201,15 Jun 2025 17:58:47.473,666.272
442,16 Jun 2025 15:56:24.275,16 Jun 2025 16:05:45.422,561.147
443,16 Jun 2025 17:28:43.427,16 Jun 2025 17:40:12.057,688.630
444,16 Jun 2025 19:06:49.137,16 Jun 2025 19:11:19.045,269.908
445,17 Jun 2025 15:38:36.640,17 Jun 2025 15:46:35.242,478.602
446,17 Jun 2025 17:09:56.723,17 Jun 2025 17:21:31.256,694.532
447,17 Jun 2025 18:46:18.342,17 Jun 2025 18:53:52.034,453.692
448,18 Jun 2025 15:21:11.051,18 Jun 2025 15:27:09.483,358.432
449,18 Jun 2025 16:51:20.474,18 Jun 2025 17:02:45.687,685.213
450,18 Jun 2025 18:26:30.846,18 Jun 2025 18:35:48.342,557.497
451,19 Jun 2025 15:04:46.685,19 Jun 2025 15:06:49.184,122.500
452,19 Jun 2025 16:32:54.629,19 Jun 2025 16:43:55.480,660.851
453,19 Jun 2025 18:07:05.065,19 Jun 2025 18:17:29.146,624.081
454,20 Jun 2025 16:14:39.679,20 Jun 2025 16:25:00.248,620.568
455,20 Jun 2025 17:47:54.637,20 Jun 2025 17:59:00.539,665.902
456,21 Jun 2025 15:56:36.912,21 Jun 2025 16:05:58.874,561.962
457,21 Jun 2025 17:28:56.727,21 Jun 2025 17:40:25.193,688.466
458,21 Jun 2025 19:07:04.156,21 Jun 2025 19:11:30.825,266.669
459,22 Jun 2025 15:38:49.075,22 Jun 2025 15:46:48.824,479.749
460,22 Jun 2025 17:10:09.898,22 Jun 2025 17:21:44.450,694.553
461,22 Jun 2025 18:46:32.473,22 Jun 2025 18:54:04.622,452.149
462,23 Jun 2025 15:21:23.141,23 Jun 2025 15:27:23.330,360.189
463,23 Jun 2025 16:51:33.527,23 Jun 2025 17:02:58.937,685.409
464,23 Jun 2025 18:26:44.652,23 Jun 2025 18:36:01.181,556.529
465,24 Jun 2025 15:04:56.823,24 Jun 2025 15:07:04.909,128.085
466,24 Jun 2025 16:33:07.558,24 Jun 2025 16:44:08.787,661.229
467,24 Jun 2025 18:07:18.659,24 Jun 2025 18:17:42.123,623.464
468,25 Jun 2025 16:14:52.476,25 Jun 2025 16:25:13.616,621.140
469,25 Jun 2025 17:48:08.080,25 Jun 2025 17:59:13.603,665.522
470,26 Jun 2025 15:56:49.558,26 Jun 2025 16:06:12.329,562.771
471,26 Jun 2025 17:29:10.028,26 Jun 2025 17:40:38.326,688.297
472,26 Jun 2025 19:07:19.199,26 Jun 2025 19:11:42.585,263.386
473,27 Jun 2025 15:39:01.514,27 Jun 2025 15:47:02.402,480.888
474,27 Jun 2025 17:10:23.073,27 Jun 2025 17:21:57.645,694.571
475,27 Jun 2025 18:46:46.608,27 Jun 2025 18:54:17.208,450.599
476,28 Jun 2025 15:21:35.238,28 Jun 2025 15:27:37.170,361.932
477,28 Jun 2025 16:51:46.581,28 Jun 2025 17:03:12.185,685.603
478,28 Jun 2025 18:26:58.460,28 Jun 2025 18:36:14.017,555.557
479,29 Jun 2025 15:05:07.082,29 Jun 2025 15:07:20.508,133.427
480,29 Jun 2025 16:33:20.488,29 Jun 2025 16:44:22.090,661.603
481,29 Jun 2025 18:07:32.259,29 Jun 2025 18:17:55.096,622.837
482,30 Jun 2025 16:15:05.272,30 Jun 2025 16:25:26.983,621.711
483,30 Jun 2025 17:48:21.519,30 Jun 2025 17:59:26.667,665.148
484,1 Jul 2025 15:57:02.198,1 Jul 2025 16:06:25.778,563.580
485,1 Jul 2025 17:29:23.330,1 Jul 2025 17:40:51.459,688.128
486,1 Jul 2025 19:07:34.266,1 Jul 2025 19:11:54.313,260.047
487,2 Jul 2025 15:39:13.954,2 Jul 2025 15:47:15.978,482.025
488,2 Jul 2025 17:10:36.249,2 Jul 2025 17:22:10.837,694.587
489,2 Jul 2025 18:47:00.748,2 Jul 2025 18:54:29.786,449.037
490,3 Jul 2025 15:21:47.344,3 Jul 2025 15:27:51.008,363.663
491,3 Jul 2025 16:51:59.636,3 Jul 2025 17:03:25.432,685.796
492,3 Jul 2025 18:27:12.272,3 Jul 2025 18:36:26.850,554.578
493,4 Jul 2025 15:05:17.438,4 Jul 2025 15:07:36.012,138.573
494,4 Jul 2025 16:33:33.419,4 Jul 2025 16:44:35.394,661.975
495,4 Jul 2025 18:07:45.861,4 Jul 2025 18:18:08.067,622.206
496,5 Jul 2025 16:15:18.070,5 Jul 2025 16:25:40.350,622.280
497,5 Jul 2025 17:48:34.961,5 Jul 2025 17:59:39.730,664.769
498,6 Jul 2025 15:57:14.842,6 Jul 2025 16:06:39.228,564.386
499,6 Jul 2025 17:29:36.633,6 Jul 2025 17:41:04.592,687.959
500,6 Jul 2025 19:07:49.364,6 Jul 2025 19:12:06.018,256.655
501,7 Jul 2025 15:39:26.397,7 Jul 2025 15:47:29.555,483.158
502,7 Jul 2025 17:10:49.429,7 Jul 2025 17:22:24.030,694.601
503,7 Jul 2025 18:47:14.896,7 Jul 2025 18:54:42.360,447.464
504,8 Jul 2025 15:21:59.452,8 Jul 2025 15:28:04.842,365.390
505,8 Jul 2025 16:52:12.694,8 Jul 2025 17:03:38.679,685.986
506,8 Jul 2025 18:27:26.085,8 Jul 2025 18:36:39.681,553.597
507,9 Jul 2025 15:05:27.892,9 Jul 2025 15:07:51.421,143.529
508,9 Jul 2025 16:33:46.353,9 Jul 2025 16:44:48.698,662.346
509,9 Jul 2025 18:07:59.466,9 Jul 2025 18:18:21.037,621.571
510,10 Jul 2025 16:15:30.870,10 Jul 2025 16:25:53.717,622.847
511,10 Jul 2025 17:48:48.404,10 Jul 2025 17:59:52.793,664.389
512,11 Jul 2025 15:57:27.487,11 Jul 2025 16:06:52.676,565.190
513,11 Jul 2025 17:29:49.940,11 Jul 2025 17:41:17.726,687.786
514,11 Jul 2025 19:08:04.487,11 Jul 2025 19:12:17.700,253.213
515,12 Jul 2025 15:39:38.844,12 Jul 2025 15:47:43.128,484.285
516,12 Jul 2025 17:11:02.608,12 Jul 2025 17:22:37.222,694.614
517,12 Jul 2025 18:47:29.048,12 Jul 2025 18:54:54.930,445.882
518,13 Jul 2025 15:22:11.562,13 Jul 2025 15:28:18.666,367.103
519,13 Jul 2025 16:52:25.753,13 Jul 2025 17:03:51.926,686.173
520,13 Jul 2025 18:27:39.902,13 Jul 2025 18:36:52.511,552.608
521,14 Jul 2025 15:05:38.430,14 Jul 2025 15:08:06.742,148.312
522,14 Jul 2025 16:33:59.286,14 Jul 2025 16:45:01.998,662.712
523,14 Jul 2025 18:08:13.072,14 Jul 2025 18:18:34.006,620.934
524,15 Jul 2025 16:15:43.671,15 Jul 2025 16:26:07.081,623.410
525,15 Jul 2025 17:49:01.849,15 Jul 2025 18:00:05.854,664.005
526,16 Jul 2025 15:57:40.133,16 Jul 2025 16:07:06.123,565.990
527,16 Jul 2025 17:30:03.247,16 Jul 2025 17:41:30.857,687.610
528,16 Jul 2025 19:08:19.638,16 Jul 2025 19:12:29.348,249.710
529,17 Jul 2025 15:39:51.291,17 Jul 2025 15:47:56.700,485.409
530,17 Jul 2025 17:11:15.789,17 Jul 2025 17:22:50.412,694.623
531,17 Jul 2025 18:47:43.206,17 Jul 2025 18:55:07.493,444.288
532,18 Jul 2025 15:22:23.680,18 Jul 2025 15:28:32.491,368.811
533,18 Jul 2025 16:52:38.812,18 Jul 2025 17:04:05.171,686.359
534,18 Jul 2025 18:27:53.723,18 Jul 2025 18:37:05.336,551.613
535,19 Jul 2025 15:05:49.041,19 Jul 2025 15:08:21.993,152.952
536,19 Jul 2025 16:34:12.222,19 Jul 2025 16:45:15.297,663.075
537,19 Jul 2025 18:08:26.681,19 Jul 2025 18:18:46.972,620.291
538,20 Jul 2025 16:15:56.474,20 Jul 2025 16:26:20.447,623.973
539,20 Jul 2025 17:49:15.296,20 Jul 2025 18:00:18.914,663.618
540,21 Jul 2025 15:57:52.783,21 Jul 2025 16:07:19.571,566.788
541,21 Jul 2025 17:30:16.557,21 Jul 2025 17:41:43.988,687.431
542,21 Jul 2025 19:08:34.824,21 Jul 2025 19:12:40.969,246.145
543,22 Jul 2025 15:40:03.742,22 Jul 2025 15:48:10.273,486.530
544,22 Jul 2025 17:11:28.973,22 Jul 2025 17:23:03.604,694.631
545,22 Jul 2025 18:47:57.371,22 Jul 2025 18:55:20.053,442.682
546,23 Jul 2025 15:22:35.805,23 Jul 2025 15:28:46.312,370.508
547,23 Jul 2025 16:52:51.874,23 Jul 2025 17:04:18.417,686.543
548,23 Jul 2025 18:28:07.548,23 Jul 2025 18:37:18.161,550.613
549,24 Jul 2025 15:05:59.727,24 Jul 2025 15:08:37.171,157.443
550,24 Jul 2025 16:34:25.160,24 Jul 2025 16:45:28.599,663.439
551,24 Jul 2025 18:08:40.293,24 Jul 2025 18:18:59.938,619.645
552,25 Jul 2025 16:16:09.279,25 Jul 2025 16:26:33.811,624.533
553,25 Jul 2025 17:49:28.740,25 Jul 2025 18:00:31.974,663.234
554,26 Jul 2025 15:58:05.434,26 Jul 2025 16:07:33.015,567.581
555,26 Jul 2025 17:30:29.867,26 Jul 2025 17:41:57.118,687.251
556,26 Jul 2025 19:08:50.037,26 Jul 2025 19:12:52.561,242.524
557,27 Jul 2025 15:40:16.196,27 Jul 2025 15:48:23.836,487.640
558,27 Jul 2025 17:11:42.156,27 Jul 2025 17:23:16.793,694.637
559,27 Jul 2025 18:48:11.539,27 Jul 2025 18:55:32.608,441.068
560,28 Jul 2025 15:22:47.938,28 Jul 2025 15:29:00.125,372.187
561,28 Jul 2025 16:53:04.938,28 Jul 2025 17:04:31.665,686.727
562,28 Jul 2025 18:28:21.372,28 Jul 2025 18:37:30.980,549.608
563,29 Jul 2025 15:06:10.476,29 Jul 2025 15:08:52.289,161.813
564,29 Jul 2025 16:34:38.098,29 Jul 2025 16:45:41.902,663.804
565,29 Jul 2025 18:08:53.905,29 Jul 2025 18:19:12.900,618.994
566,30 Jul 2025 16:16:22.082,30 Jul 2025 16:26:47.174,625.091
567,30 Jul 2025 17:49:42.189,30 Jul 2025 18:00:45.034,662.845
568,31 Jul 2025 15:58:18.083,31 Jul 2025 16:07:46.456,568.373
569,31 Jul 2025 17:30:43.177,31 Jul 2025 17:42:10.251,687.073
570,31 Jul 2025 19:09:05.285,31 Jul 2025 19:13:04.121,238.836
571,1 Aug 2025 15:40:28.651,1 Aug 2025 15:48:37.408,488.757
572,1 Aug 2025 17:11:55.345,1 Aug 2025 17:23:29.977,694.632
573,1 Aug 2025 18:48:25.714,1 Aug 2025 18:55:45.155,439.441
574,2 Aug 2025 15:23:00.067,2 Aug 2025 15:29:13.942,373.875
575,2 Aug 2025 16:53:17.997,2 Aug 2025 17:04:44.904,686.907
576,2 Aug 2025 18:28:35.204,2 Aug 2025 18:37:43.799,548.596
577,3 Aug 2025 15:06:21.280,3 Aug 2025 15:09:07.349,166.070
578,3 Aug 2025 16:34:51.037,3 Aug 2025 16:45:55.198,664.160
579,3 Aug 2025 18:09:07.520,3 Aug 2025 18:19:25.862,618.341
580,4 Aug 2025 16:16:34.890,4 Aug 2025 16:27:00.537,625.647
581,4 Aug 2025 17:49:55.645,4 Aug 2025 18:00:58.087,662.442
582,5 Aug 2025 15:58:30.743,5 Aug 2025 16:07:59.904,569.161
583,5 Aug 2025 17:30:56.491,5 Aug 2025 17:42:23.377,686.885
584,5 Aug 2025 19:09:20.567,5 Aug 2025 19:13:15.641,235.073
585,6 Aug 2025 15:40:41.109,6 Aug 2025 15:48:50.974,489.865
586,6 Aug 2025 17:12:08.532,6 Aug 2025 17:23:43.165,694.633
587,6 Aug 2025 18:48:39.896,6 Aug 2025 18:55:57.698,437.802
588,7 Aug 2025 15:23:12.210,7 Aug 2025 15:29:27.750,375.540
589,7 Aug 2025 16:53:31.063,7 Aug 2025 17:04:58.148,687.085
590,7 Aug 2025 18:28:49.034,7 Aug 2025 18:37:56.616,547.582
591,8 Aug 2025 15:06:32.142,8 Aug 2025 15:09:22.359,170.217
592,8 Aug 2025 16:35:03.979,8 Aug 2025 16:46:08.497,664.518
593,8 Aug 2025 18:09:21.138,8 Aug 2025 18:19:38.823,617.685
594,9 Aug 2025 16:16:47.699,9 Aug 2025 16:27:13.898,626.199
595,9 Aug 2025 17:50:09.094,9 Aug 2025 18:01:11.143,662.049
596,10 Aug 2025 15:58:43.399,10 Aug 2025 16:08:13.345,569.946
597,10 Aug 2025 17:31:09.805,10 Aug 2025 17:42:36.504,686.698
598,10 Aug 2025 19:09:35.883,10 Aug 2025 19:13:27.131,231.248
599,11 Aug 2025 15:40:53.569,11 Aug 2025 15:49:04.536,490.968
600,11 Aug 2025 17:12:21.719,11 Aug 2025 17:23:56.352,694.632
601,11 Aug 2025 18:48:54.082,11 Aug 2025 18:56:10.241,436.159
602,12 Aug 2025 15:23:24.354,12 Aug 2025 15:29:41.552,377.199
603,12 Aug 2025 16:53:44.128,12 Aug 2025 17:05:11.389,687.261
604,12 Aug 2025 18:29:02.869,12 Aug 2025 18:38:09.428,546.560
605,13 Aug 2025 15:06:43.054,13 Aug 2025 15:09:37.313,174.259
606,13 Aug 2025 16:35:16.920,13 Aug 2025 16:46:21.793,664.873
607,13 Aug 2025 18:09:34.756,13 Aug 2025 18:19:51.780,617.024
608,14 Aug 2025 16:17:00.507,14 Aug 2025 16:27:27.258,626.751
609,14 Aug 2025 17:50:22.553,14 Aug 2025 18:01:24.199,661.646
610,15 Aug 2025 15:58:56.056,15 Aug 2025 16:08:26.782,570.727
611,15 Aug 2025 17:31:23.120,15 Aug 2025 17:42:49.631,686.512
612,15 Aug 2025 19:09:51.242,15 Aug 2025 19:13:38.581,227.340
613,16 Aug 2025 15:41:06.029,16 Aug 2025 15:49:18.099,492.070
614,16 Aug 2025 17:12:34.908,16 Aug 2025 17:24:09.537,694.629
615,16 Aug 2025 18:49:08.270,16 Aug 2025 18:56:22.767,434.497
616,17 Aug 2025 15:23:36.501,17 Aug 2025 15:29:55.353,378.852
617,17 Aug 2025 16:53:57.195,17 Aug 2025 17:05:24.631,687.436
618,17 Aug 2025 18:29:16.708,17 Aug 2025 18:38:22.238,545.530
619,18 Aug 2025 15:06:54.010,18 Aug 2025 15:09:52.225,178.215
620,18 Aug 2025 16:35:29.864,18 Aug 2025 16:46:35.091,665.227
621,18 Aug 2025 18:09:48.378,18 Aug 2025 18:20:04.736,616.358
622,19 Aug 2025 16:17:13.319,19 Aug 2025 16:27:40.619,627.300
623,19 Aug 2025 17:50:36.010,19 Aug 2025 18:01:37.252,661.242
624,20 Aug 2025 15:59:08.715,20 Aug 2025 16:08:40.223,571.508
625,20 Aug 2025 17:31:36.438,20 Aug 2025 17:43:02.757,686.319
626,20 Aug 2025 19:10:06.639,20 Aug 2025 19:13:49.993,223.354
627,21 Aug 2025 15:41:18.494,21 Aug 2025 15:49:31.659,493.165
628,21 Aug 2025 17:12:48.099,21 Aug 2025 17:24:22.723,694.624
629,21 Aug 2025 18:49:22.469,21 Aug 2025 18:56:35.296,432.827
630,22 Aug 2025 15:23:48.655,22 Aug 2025 15:30:09.144,380.489
631,22 Aug 2025 16:54:10.267,22 Aug 2025 17:05:37.874,687.607
632,22 Aug 2025 18:29:30.553,22 Aug 2025 18:38:35.045,544.492
633,23 Aug 2025 15:07:05.016,23 Aug 2025 15:10:07.089,182.073
634,23 Aug 2025 16:35:42.809,23 Aug 2025 16:46:48.387,665.578
635,23 Aug 2025 18:10:02.001,23 Aug 2025 18:20:17.690,615.689
636,24 Aug 2025 16:17:26.131,24 Aug 2025 16:27:53.977,627.846
637,24 Aug 2025 17:50:49.467,24 Aug 2025 18:01:50.303,660.836
638,25 Aug 2025 15:59:21.375,25 Aug 2025 16:08:53.664,572.290
639,25 Aug 2025 17:31:49.755,25 Aug 2025 17:43:15.878,686.122
640,25 Aug 2025 19:10:22.075,25 Aug 2025 19:14:01.363,219.288
641,26 Aug 2025 15:41:30.959,26 Aug 2025 15:49:45.216,494.257
642,26 Aug 2025 17:13:01.288,26 Aug 2025 17:24:35.906,694.618
643,26 Aug 2025 18:49:36.676,26 Aug 2025 18:56:47.819,431.142
644,27 Aug 2025 15:24:00.809,27 Aug 2025 15:30:22.938,382.129
645,27 Aug 2025 16:54:23.332,27 Aug 2025 17:05:51.110,687.778
646,27 Aug 2025 18:29:44.392,27 Aug 2025 18:38:47.850,543.457
647,28 Aug 2025 15:07:16.058,28 Aug 2025 15:10:21.910,185.852
648,28 Aug 2025 16:35:55.753,28 Aug 2025 16:47:01.681,665.928
649,28 Aug 2025 18:10:15.625,28 Aug 2025 18:20:30.643,615.018
650,29 Aug 2025 16:17:38.943,29 Aug 2025 16:28:07.334,628.391
651,29 Aug 2025 17:51:02.926,29 Aug 2025 18:02:03.352,660.426
652,30 Aug 2025 15:59:34.036,30 Aug 2025 16:09:07.102,573.066
653,30 Aug 2025 17:32:03.074,30 Aug 2025 17:43:28.999,685.925
654,30 Aug 2025 19:10:37.556,30 Aug 2025 19:14:12.685,215.129
655,31 Aug 2025 15:41:43.427,31 Aug 2025 15:49:58.772,495.345
656,31 Aug 2025 17:13:14.481,31 Aug 2025 17:24:49.088,694.608
657,31 Aug 2025 18:49:50.887,31 Aug 2025 18:57:00.332,429.445
658,1 Sep 2025 15:24:12.968,1 Sep 2025 15:30:36.726,383.758
659,1 Sep 2025 16:54:36.402,1 Sep 2025 17:06:04.349,687.947
660,1 Sep 2025 18:29:58.240,1 Sep 2025 18:39:00.651,542.411
661,2 Sep 2025 15:07:27.140,2 Sep 2025 15:10:36.696,189.556
662,2 Sep 2025 16:36:08.700,2 Sep 2025 16:47:14.980,666.280
663,2 Sep 2025 18:10:29.256,2 Sep 2025 18:20:43.593,614.337
664,3 Sep 2025 16:17:51.758,3 Sep 2025 16:28:20.691,628.933
665,3 Sep 2025 17:51:16.386,3 Sep 2025 18:02:16.400,660.014
666,4 Sep 2025 15:59:46.700,4 Sep 2025 16:09:20.538,573.838
667,4 Sep 2025 17:32:16.395,4 Sep 2025 17:43:42.121,685.726
668,4 Sep 2025 19:10:53.083,4 Sep 2025 19:14:23.965,210.882
669,5 Sep 2025 15:41:55.901,5 Sep 2025 15:50:12.327,496.426
670,5 Sep 2025 17:13:27.674,5 Sep 2025 17:25:02.273,694.598
671,5 Sep 2025 18:50:05.103,5 Sep 2025 18:57:12.842,427.739
672,6 Sep 2025 15:24:25.140,6 Sep 2025 15:30:50.507,385.368
673,6 Sep 2025 16:54:49.473,6 Sep 2025 17:06:17.586,688.113
674,6 Sep 2025 18:30:12.090,6 Sep 2025 18:39:13.451,541.361
675,7 Sep 2025 15:07:38.263,7 Sep 2025 15:10:51.447,193.184
676,7 Sep 2025 16:36:21.648,7 Sep 2025 16:47:28.272,666.625
677,7 Sep 2025 18:10:42.884,7 Sep 2025 18:20:56.542,613.658
678,8 Sep 2025 16:18:04.574,8 Sep 2025 16:28:34.045,629.471
679,8 Sep 2025 17:51:29.848,8 Sep 2025 18:02:29.447,659.599
680,9 Sep 2025 15:59:59.365,9 Sep 2025 16:09:33.969,574.604
681,9 Sep 2025 17:32:29.715,9 Sep 2025 17:43:55.240,685.524
682,9 Sep 2025 19:11:08.656,9 Sep 2025 19:14:35.195,206.539
683,10 Sep 2025 15:42:08.373,10 Sep 2025 15:50:25.878,497.504
684,10 Sep 2025 17:13:40.868,10 Sep 2025 17:25:15.452,694.584
685,10 Sep 2025 18:50:19.322,10 Sep 2025 18:57:25.343,426.021
686,11 Sep 2025 15:24:37.306,11 Sep 2025 15:31:04.285,386.979
687,11 Sep 2025 16:55:02.544,11 Sep 2025 17:06:30.821,688.276
688,11 Sep 2025 18:30:25.941,11 Sep 2025 18:39:26.245,540.304
689,12 Sep 2025 15:07:49.416,12 Sep 2025 15:11:06.162,196.746
690,12 Sep 2025 16:36:34.596,12 Sep 2025 16:47:41.563,666.968
691,12 Sep 2025 18:10:56.514,12 Sep 2025 18:21:09.488,612.974
692,13 Sep 2025 16:18:17.390,13 Sep 2025 16:28:47.399,630.009
693,13 Sep 2025 17:51:43.310,13 Sep 2025 18:02:42.491,659.181
694,14 Sep 2025 16:00:12.031,14 Sep 2025 16:09:47.402,575.371
695,14 Sep 2025 17:32:43.038,14 Sep 2025 17:44:08.358,685.320
696,14 Sep 2025 19:11:24.286,14 Sep 2025 19:14:46.369,202.083
697,15 Sep 2025 15:42:20.849,15 Sep 2025 15:50:39.429,498.580
698,15 Sep 2025 17:13:54.063,15 Sep 2025 17:25:28.631,694.568
699,15 Sep 2025 18:50:33.551,15 Sep 2025 18:57:37.838,424.287
700,16 Sep 2025 15:24:49.480,16 Sep 2025 15:31:18.060,388.580
701,16 Sep 2025 16:55:15.618,16 Sep 2025 17:06:44.057,688.439
702,16 Sep 2025 18:30:39.802,16 Sep 2025 18:39:39.038,539.236
703,17 Sep 2025 15:08:00.607,17 Sep 2025 15:11:20.844,200.236
704,17 Sep 2025 16:36:47.546,17 Sep 2025 16:47:54.855,667.309
705,17 Sep 2025 18:11:10.146,17 Sep 2025 18:21:22.433,612.286
706,18 Sep 2025 16:18:30.209,18 Sep 2025 16:29:00.753,630.544
707,18 Sep 2025 17:51:56.775,18 Sep 2025 18:02:55.535,658.760
708,19 Sep 2025 16:00:24.699,19 Sep 2025 16:10:00.834,576.134
709,19 Sep 2025 17:32:56.362,19 Sep 2025 17:44:21.475,685.114
710,19 Sep 2025 19:11:39.968,19 Sep 2025 19:14:57.492,197.524
711,20 Sep 2025 15:42:33.327,20 Sep 2025 15:50:52.976,499.649
712,20 Sep 2025 17:14:07.260,20 Sep 2025 17:25:41.808,694.549
713,20 Sep 2025 18:50:47.783,20 Sep 2025 18:57:50.327,422.544
714,21 Sep 2025 15:25:01.665,21 Sep 2025 15:31:31.823,390.159
715,21 Sep 2025 16:55:28.692,21 Sep 2025 17:06:57.292,688.600
716,21 Sep 2025 18:30:53.659,21 Sep 2025 18:39:51.829,538.170
717,22 Sep 2025 15:08:11.825,22 Sep 2025 15:11:35.489,203.664
718,22 Sep 2025 16:37:00.492,22 Sep 2025 16:48:08.143,667.651
719,22 Sep 2025 18:11:23.779,22 Sep 2025 18:21:35.372,611.593
720,23 Sep 2025 16:18:43.028,23 Sep 2025 16:29:14.103,631.075
721,23 Sep 2025 17:52:10.239,23 Sep 2025 18:03:08.573,658.334
722,24 Sep 2025 16:00:37.368,24 Sep 2025 16:10:14.265,576.897
723,24 Sep 2025 17:33:09.685,24 Sep 2025 17:44:34.589,684.904
724,24 Sep 2025 19:11:55.710,24 Sep 2025 19:15:08.550,192.840
725,25 Sep 2025 15:42:45.806,25 Sep 2025 15:51:06.521,500.715
726,25 Sep 2025 17:14:20.456,25 Sep 2025 17:25:54.984,694.528
727,25 Sep 2025 18:51:02.019,25 Sep 2025 18:58:02.811,420.792
728,26 Sep 2025 15:25:13.848,26 Sep 2025 15:31:45.588,391.740
729,26 Sep 2025 16:55:41.770,26 Sep 2025 17:07:10.524,688.754
730,26 Sep 2025 18:31:07.519,26 Sep 2025 18:40:04.614,537.096
731,27 Sep 2025 15:08:23.074,27 Sep 2025 15:11:50.109,207.034
732,27 Sep 2025 16:37:13.443,27 Sep 2025 16:48:21.430,667.988
733,27 Sep 2025 18:11:37.414,27 Sep 2025 18:21:48.311,610.897
734,28 Sep 2025 16:18:55.848,28 Sep 2025 16:29:27.450,631.602
735,28 Sep 2025 17:52:23.704,28 Sep 2025 18:03:21.613,657.909
736,29 Sep 2025 16:00:50.038,29 Sep 2025 16:10:27.691,577.653
737,29 Sep 2025 17:33:23.011,29 Sep 2025 17:44:47.703,684.693
738,29 Sep 2025 19:12:11.518,29 Sep 2025 19:15:19.545,188.027
739,30 Sep 2025 15:42:58.288,30 Sep 2025 15:51:20.064,501.777
740,30 Sep 2025 17:14:33.654,30 Sep 2025 17:26:08.159,694.506
741,30 Sep 2025 18:51:16.265,30 Sep 2025 18:58:15.288,419.023
742,1 Oct 2025 15:25:26.036,1 Oct 2025 15:31:59.349,393.313
743,1 Oct 2025 16:55:54.846,1 Oct 2025 17:07:23.755,688.909
744,1 Oct 2025 18:31:21.382,1 Oct 2025 18:40:17.398,536.016
745,2 Oct 2025 15:08:34.354,2 Oct 2025 15:12:04.699,210.344
746,2 Oct 2025 16:37:26.396,2 Oct 2025 16:48:34.718,668.322
747,2 Oct 2025 18:11:51.051,2 Oct 2025 18:22:01.250,610.199
748,3 Oct 2025 16:19:08.670,3 Oct 2025 16:29:40.799,632.129
749,3 Oct 2025 17:52:37.173,3 Oct 2025 18:03:34.652,657.479
750,4 Oct 2025 16:01:02.710,4 Oct 2025 16:10:41.117,578.407
751,4 Oct 2025 17:33:36.337,4 Oct 2025 17:45:00.817,684.479
752,4 Oct 2025 19:12:27.392,4 Oct 2025 19:15:30.478,183.085
753,5 Oct 2025 15:43:10.772,5 Oct 2025 15:51:33.605,502.832
754,5 Oct 2025 17:14:46.852,5 Oct 2025 17:26:21.334,694.482
755,5 Oct 2025 18:51:30.516,5 Oct 2025 18:58:27.760,417.244
756,6 Oct 2025 15:25:38.229,6 Oct 2025 15:32:13.103,394.874
757,6 Oct 2025 16:56:07.922,6 Oct 2025 17:07:36.982,689.060
758,6 Oct 2025 18:31:35.247,6 Oct 2025 18:40:30.180,534.933
759,7 Oct 2025 15:08:45.663,7 Oct 2025 15:12:19.258,213.595
760,7 Oct 2025 16:37:39.349,7 Oct 2025 16:48:48.002,668.654
761,7 Oct 2025 18:12:04.685,7 Oct 2025 18:22:14.186,609.501
762,8 Oct 2025 16:19:21.491,8 Oct 2025 16:29:54.145,632.654
763,8 Oct 2025 17:52:50.642,8 Oct 2025 18:03:47.689,657.047
764,9 Oct 2025 16:01:15.383,9 Oct 2025 16:10:54.541,579.158
765,9 Oct 2025 17:33:49.664,9 Oct 2025 17:45:13.927,684.264
766,9 Oct 2025 19:12:43.341,9 Oct 2025 19:15:41.330,177.990
767,10 Oct 2025 15:43:23.258,10 Oct 2025 15:51:47.143,503.885
768,10 Oct 2025 17:15:00.051,10 Oct 2025 17:26:34.506,694.455
769,10 Oct 2025 18:51:44.773,10 Oct 2025 18:58:40.224,415.452
770,11 Oct 2025 15:25:50.423,11 Oct 2025 15:32:26.855,396.432
771,11 Oct 2025 16:56:20.998,11 Oct 2025 17:07:50.208,689.210
772,11 Oct 2025 18:31:49.111,11 Oct 2025 18:40:42.956,533.846
773,12 Oct 2025 15:08:56.995,12 Oct 2025 15:12:33.796,216.801
774,12 Oct 2025 16:37:52.303,12 Oct 2025 16:49:01.287,668.984
775,12 Oct 2025 18:12:18.327,12 Oct 2025 18:22:27.125,608.798
776,13 Oct 2025 16:19:34.315,13 Oct 2025 16:30:07.492,633.177
777,13 Oct 2025 17:53:04.113,13 Oct 2025 18:04:00.724,656.611
778,14 Oct 2025 16:01:28.058,14 Oct 2025 16:11:07.965,579.907
779,14 Oct 2025 17:34:02.993,14 Oct 2025 17:45:27.038,684.045
780,14 Oct 2025 19:12:59.373,14 Oct 2025 19:15:52.102,172.728
781,15 Oct 2025 15:43:35.747,15 Oct 2025 15:52:00.680,504.933
782,15 Oct 2025 17:15:13.252,15 Oct 2025 17:26:47.679,694.426
783,15 Oct 2025 18:51:59.036,15 Oct 2025 18:58:52.684,413.648
784,16 Oct 2025 15:26:02.626,16 Oct 2025 15:32:40.602,397.977
785,16 Oct 2025 16:56:34.077,16 Oct 2025 17:08:03.441,689.364
786,16 Oct 2025 18:32:02.983,16 Oct 2025 18:40:55.732,532.749
787,17 Oct 2025 15:09:08.356,17 Oct 2025 15:12:48.304,219.949
788,17 Oct 2025 16:38:05.259,17 Oct 2025 16:49:14.570,669.311
789,17 Oct 2025 18:12:31.970,17 Oct 2025 18:22:40.059,608.089
790,18 Oct 2025 16:19:47.140,18 Oct 2025 16:30:20.836,633.696
791,18 Oct 2025 17:53:17.583,18 Oct 2025 18:04:13.759,656.176
792,19 Oct 2025 16:01:40.732,19 Oct 2025 16:11:21.388,580.656
793,19 Oct 2025 17:34:16.318,19 Oct 2025 17:45:40.151,683.833
794,19 Oct 2025 19:13:15.494,19 Oct 2025 19:16:02.793,167.299
795,20 Oct 2025 15:43:48.237,20 Oct 2025 15:52:14.212,505.975
796,20 Oct 2025 17:15:26.453,20 Oct 2025 17:27:00.849,694.396
797,20 Oct 2025 18:52:13.303,20 Oct 2025 18:59:05.138,411.835
798,21 Oct 2025 15:26:14.831,21 Oct 2025 15:32:54.343,399.512
799,21 Oct 2025 16:56:47.155,21 Oct 2025 17:08:16.667,689.511
800,21 Oct 2025 18:32:16.856,21 Oct 2025 18:41:08.504,531.648
801,22 Oct 2025 15:09:19.740,22 Oct 2025 15:13:02.787,223.047
802,22 Oct 2025 16:38:18.214,22 Oct 2025 16:49:27.850,669.637
803,22 Oct 2025 18:12:45.607,22 Oct 2025 18:22:52.989,607.381
804,23 Oct 2025 16:19:59.964,23 Oct 2025 16:30:34.181,634.217
805,23 Oct 2025 17:53:31.056,23 Oct 2025 18:04:26.793,655.737
806,24 Oct 2025 16:01:53.412,24 Oct 2025 16:11:34.802,581.390
807,24 Oct 2025 17:34:29.651,24 Oct 2025 17:45:53.254,683.603
808,24 Oct 2025 19:13:31.704,24 Oct 2025 19:16:13.375,161.671
809,25 Oct 2025 15:44:00.729,25 Oct 2025 15:52:27.743,507.014
810,25 Oct 2025 17:15:39.655,25 Oct 2025 17:27:14.017,694.363
811,25 Oct 2025 18:52:27.577,25 Oct 2025 18:59:17.584,410.007
812,26 Oct 2025 15:26:27.037,26 Oct 2025 15:33:08.080,401.044
813,26 Oct 2025 16:57:00.234,26 Oct 2025 17:08:29.891,689.657
814,26 Oct 2025 18:32:30.732,26 Oct 2025 18:41:21.272,530.540
815,27 Oct 2025 15:09:31.146,27 Oct 2025 15:13:17.249,226.103
816,27 Oct 2025 16:38:31.171,27 Oct 2025 16:49:41.130,669.960
817,27 Oct 2025 18:12:59.252,27 Oct 2025 18:23:05.917,606.665
818,28 Oct 2025 16:20:12.791,28 Oct 2025 16:30:47.522,634.732
819,28 Oct 2025 17:53:44.530,28 Oct 2025 18:04:39.824,655.295
820,29 Oct 2025 16:02:06.092,29 Oct 2025 16:11:48.221,582.129
821,29 Oct 2025 17:34:42.983,29 Oct 2025 17:46:06.361,683.378
822,29 Oct 2025 19:13:48.029,29 Oct 2025 19:16:23.855,155.826
823,30 Oct 2025 15:44:13.224,30 Oct 2025 15:52:41.267,508.043
824,30 Oct 2025 17:15:52.858,30 Oct 2025 17:27:27.186,694.328
825,30 Oct 2025 18:52:41.858,30 Oct 2025 18:59:30.025,408.167
826,31 Oct 2025 15:26:39.254,31 Oct 2025 15:33:21.814,402.560
827,31 Oct 2025 16:57:13.315,31 Oct 2025 17:08:43.115,689.800
828,31 Oct 2025 18:32:44.612,31 Oct 2025 18:41:34.039,529.427
829,1 Nov 2025 15:09:42.578,1 Nov 2025 15:13:31.686,229.108
830,1 Nov 2025 16:38:44.129,1 Nov 2025 16:49:54.407,670.278
831,1 Nov 2025 18:13:12.903,1 Nov 2025 18:23:18.845,605.942
832,2 Nov 2025 16:20:25.622,2 Nov 2025 16:31:00.860,635.237
833,2 Nov 2025 17:53:58.005,2 Nov 2025 18:04:52.852,654.847
834,3 Nov 2025 16:02:18.773,3 Nov 2025 16:12:01.636,582.864
835,3 Nov 2025 17:34:56.315,3 Nov 2025 17:46:19.466,683.151
836,3 Nov 2025 19:14:04.468,3 Nov 2025 19:16:34.220,149.752
837,4 Nov 2025 15:44:25.722,4 Nov 2025 15:52:54.792,509.071
838,4 Nov 2025 17:16:06.062,4 Nov 2025 17:27:40.352,694.291
839,4 Nov 2025 18:52:56.144,4 Nov 2025 18:59:42.460,406.317
840,5 Nov 2025 15:26:51.474,5 Nov 2025 15:33:35.541,404.067
841,5 Nov 2025 16:57:26.398,5 Nov 2025 17:08:56.337,689.939
842,5 Nov 2025 18:32:58.492,5 Nov 2025 18:41:46.802,528.310
843,6 Nov 2025 15:09:54.030,6 Nov 2025 15:13:46.100,232.071
844,6 Nov 2025 16:38:57.088,6 Nov 2025 16:50:07.684,670.596
845,6 Nov 2025 18:13:26.550,6 Nov 2025 18:23:31.770,605.220
846,7 Nov 2025 16:20:38.451,7 Nov 2025 16:31:14.197,635.747
847,7 Nov 2025 17:54:11.480,7 Nov 2025 18:05:05.879,654.399
848,8 Nov 2025 16:02:31.454,8 Nov 2025 16:12:15.050,583.596
849,8 Nov 2025 17:35:09.647,8 Nov 2025 17:46:32.569,682.921
850,8 Nov 2025 19:14:21.046,8 Nov 2025 19:16:44.444,143.398
851,9 Nov 2025 15:44:38.220,9 Nov 2025 15:53:08.317,510.096
852,9 Nov 2025 17:16:19.267,9 Nov 2025 17:27:53.518,694.251
853,9 Nov 2025 18:53:10.437,9 Nov 2025 18:59:54.887,404.450
854,10 Nov 2025 15:27:03.696,10 Nov 2025 15:33:49.266,405.570
855,10 Nov 2025 16:57:39.481,10 Nov 2025 17:09:09.558,690.078
856,10 Nov 2025 18:33:12.377,10 Nov 2025 18:41:59.562,527.185
857,11 Nov 2025 15:10:05.502,11 Nov 2025 15:14:00.497,234.995
858,11 Nov 2025 16:39:10.048,11 Nov 2025 16:50:20.961,670.913
859,11 Nov 2025 18:13:40.200,11 Nov 2025 18:23:44.693,604.493
860,12 Nov 2025 16:20:51.282,12 Nov 2025 16:31:27.535,636.254
861,12 Nov 2025 17:54:24.958,12 Nov 2025 18:05:18.906,653.948
862,13 Nov 2025 16:02:44.139,13 Nov 2025 16:12:28.463,584.325
863,13 Nov 2025 17:35:22.983,13 Nov 2025 17:46:45.672,682.690
864,13 Nov 2025 19:14:37.777,13 Nov 2025 19:16:54.519,136.742
865,14 Nov 2025 15:44:50.724,14 Nov 2025 15:53:21.842,511.118
866,14 Nov 2025 17:16:32.473,14 Nov 2025 17:28:06.685,694.212
867,14 Nov 2025 18:53:24.737,14 Nov 2025 19:00:07.311,402.574
868,15 Nov 2025 15:27:15.924,15 Nov 2025 15:34:02.989,407.064
869,15 Nov 2025 16:57:52.565,15 Nov 2025 17:09:22.775,690.210
870,15 Nov 2025 18:33:26.260,15 Nov 2025 18:42:12.320,526.060
871,16 Nov 2025 15:10:16.999,16 Nov 2025 15:14:14.868,237.870
872,16 Nov 2025 16:39:23.010,16 Nov 2025 16:50:34.236,671.227
873,16 Nov 2025 18:13:53.851,16 Nov 2025 18:23:57.616,603.765
874,17 Nov 2025 16:21:04.113,17 Nov 2025 16:31:40.871,636.757
875,17 Nov 2025 17:54:38.436,17 Nov 2025 18:05:31.932,653.496
876,18 Nov 2025 16:02:56.824,18 Nov 2025 16:12:41.873,585.049
877,18 Nov 2025 17:35:36.317,18 Nov 2025 17:46:58.773,682.456
878,18 Nov 2025 19:14:54.685,18 Nov 2025 19:17:04.420,129.735
879,19 Nov 2025 15:45:03.228,19 Nov 2025 15:53:35.355,512.127
880,19 Nov 2025 17:16:45.679,19 Nov 2025 17:28:19.847,694.169
881,19 Nov 2025 18:53:39.041,19 Nov 2025 19:00:19.727,400.686
882,20 Nov 2025 15:27:28.156,20 Nov 2025 15:34:16.701,408.546
883,20 Nov 2025 16:58:05.649,20 Nov 2025 17:09:35.993,690.344
884,20 Nov 2025 18:33:40.149,20 Nov 2025 18:42:25.076,524.927
885,21 Nov 2025 15:10:28.512,21 Nov 2025 15:14:29.220,240.708
886,21 Nov 2025 16:39:35.971,21 Nov 2025 16:50:47.507,671.536
887,21 Nov 2025 18:14:07.503,21 Nov 2025 18:24:10.535,603.032
888,22 Nov 2025 16:21:16.946,22 Nov 2025 16:31:54.204,637.259
889,22 Nov 2025 17:54:51.915,22 Nov 2025 18:05:44.955,653.040
890,23 Nov 2025 16:03:09.511,23 Nov 2025 16:12:55.282,585.771
891,23 Nov 2025 17:35:49.653,23 Nov 2025 17:47:11.873,682.220
892,23 Nov 2025 19:15:11.795,23 Nov 2025 19:17:14.108,122.313
893,24 Nov 2025 15:45:15.734,24 Nov 2025 15:53:48.871,513.137
894,24 Nov 2025 17:16:58.887,24 Nov 2025 17:28:33.009,694.123
895,24 Nov 2025 18:53:53.354,24 Nov 2025 19:00:32.136,398.782
896,25 Nov 2025 15:27:40.392,25 Nov 2025 15:34:30.414,410.022
897,25 Nov 2025 16:58:18.735,25 Nov 2025 17:09:49.211,690.476
898,25 Nov 2025 18:33:54.041,25 Nov 2025 18:42:37.829,523.788
899,26 Nov 2025 15:10:40.046,26 Nov 2025 15:14:43.555,243.509
900,26 Nov 2025 16:39:48.935,26 Nov 2025 16:51:00.781,671.846
901,26 Nov 2025 18:14:21.154,26 Nov 2025 18:24:23.455,602.301
902,27 Nov 2025 16:21:29.781,27 Nov 2025 16:32:07.535,637.755
903,27 Nov 2025 17:55:05.397,27 Nov 2025 18:05:57.979,652.582
904,28 Nov 2025 16:03:22.201,28 Nov 2025 16:13:08.690,586.489
905,28 Nov 2025 17:36:02.992,28 Nov 2025 17:47:24.973,681.982
906,28 Nov 2025 19:15:29.161,28 Nov 2025 19:17:23.556,114.394
907,29 Nov 2025 15:45:28.244,29 Nov 2025 15:54:02.386,514.142
908,29 Nov 2025 17:17:12.097,29 Nov 2025 17:28:46.171,694.075
909,29 Nov 2025 18:54:07.673,29 Nov 2025 19:00:44.541,396.868
910,30 Nov 2025 15:27:52.633,30 Nov 2025 15:34:44.119,411.486
911,30 Nov 2025 16:58:31.822,30 Nov 2025 17:10:02.428,690.606
912,30 Nov 2025 18:34:07.936,30 Nov 2025 18:42:50.581,522.645
913,1 Dec 2025 15:10:51.601,1 Dec 2025 15:14:57.868,246.268
914,1 Dec 2025 16:40:01.900,1 Dec 2025 16:51:14.054,672.154
915,1 Dec 2025 18:14:34.810,1 Dec 2025 18:24:36.373,601.562
916,2 Dec 2025 16:21:42.616,2 Dec 2025 16:32:20.867,638.250
917,2 Dec 2025 17:55:18.879,2 Dec 2025 18:06:11.001,652.122
918,3 Dec 2025 16:03:34.891,3 Dec 2025 16:13:22.094,587.203
919,3 Dec 2025 17:36:16.330,3 Dec 2025 17:47:38.071,681.741
920,3 Dec 2025 19:15:46.818,3 Dec 2025 19:17:32.703,105.885
921,4 Dec 2025 15:45:40.755,4 Dec 2025 15:54:15.896,515.141
922,4 Dec 2025 17:17:25.306,4 Dec 2025 17:28:59.330,694.024
923,4 Dec 2025 18:54:21.997,4 Dec 2025 19:00:56.938,394.941
924,5 Dec 2025 15:28:04.877,5 Dec 2025 15:34:57.820,412.942
925,5 Dec 2025 16:58:44.909,5 Dec 2025 17:10:15.643,690.734
926,5 Dec 2025 18:34:21.833,5 Dec 2025 18:43:03.329,521.496
927,6 Dec 2025 15:11:03.170,6 Dec 2025 15:15:12.165,248.995
928,6 Dec 2025 16:40:14.865,6 Dec 2025 16:51:27.324,672.459
929,6 Dec 2025 18:14:48.468,6 Dec 2025 18:24:49.287,600.820
930,7 Dec 2025 16:21:55.453,7 Dec 2025 16:32:34.197,638.744
931,7 Dec 2025 17:55:32.363,7 Dec 2025 18:06:24.022,651.659
932,8 Dec 2025 16:03:47.583,8 Dec 2025 16:13:35.499,587.915
933,8 Dec 2025 17:36:29.670,8 Dec 2025 17:47:51.168,681.498
934,8 Dec 2025 19:16:04.866,8 Dec 2025 19:17:41.460,96.593
935,9 Dec 2025 15:45:53.267,9 Dec 2025 15:54:29.405,516.138
936,9 Dec 2025 17:17:38.514,9 Dec 2025 17:29:12.494,693.980
937,9 Dec 2025 18:54:36.327,9 Dec 2025 19:01:09.334,393.007
938,10 Dec 2025 15:28:17.123,10 Dec 2025 15:35:11.514,414.391
939,10 Dec 2025 16:58:57.996,10 Dec 2025 17:10:28.863,690.868
940,10 Dec 2025 18:34:35.738,10 Dec 2025 18:43:16.077,520.339
941,11 Dec 2025 15:11:14.760,11 Dec 2025 15:15:26.445,251.686
942,11 Dec 2025 16:40:27.833,11 Dec 2025 16:51:40.593,672.760
943,11 Dec 2025 18:15:02.129,11 Dec 2025 18:25:02.203,600.074
944,12 Dec 2025 16:22:08.293,12 Dec 2025 16:32:47.527,639.234
945,12 Dec 2025 17:55:45.849,12 Dec 2025 18:06:37.043,651.194
946,13 Dec 2025 16:04:00.279,13 Dec 2025 16:13:48.901,588.623
947,13 Dec 2025 17:36:43.012,13 Dec 2025 17:48:04.266,681.254
948,13 Dec 2025 19:16:23.417,13 Dec 2025 19:17:49.718,86.302
949,14 Dec 2025 15:46:05.783,14 Dec 2025 15:54:42.913,517.130
950,14 Dec 2025 17:17:51.731,14 Dec 2025 17:29:25.651,693.920
951,14 Dec 2025 18:54:50.670,14 Dec 2025 19:01:21.716,391.045
952,15 Dec 2025 15:28:29.378,15 Dec 2025 15:35:25.209,415.830
953,15 Dec 2025 16:59:11.090,15 Dec 2025 17:10:42.073,690.983
954,15 Dec 2025 18:34:49.638,15 Dec 2025 18:43:28.821,519.183
955,16 Dec 2025 15:11:26.368,16 Dec 2025 15:15:40.705,254.337
956,16 Dec 2025 16:40:40.802,16 Dec 2025 16:51:53.862,673.060
957,16 Dec 2025 18:15:15.791,16 Dec 2025 18:25:15.117,599.326
958,17 Dec 2025 16:22:21.133,17 Dec 2025 16:33:00.854,639.721
959,17 Dec 2025 17:55:59.336,17 Dec 2025 18:06:50.062,650.726
960,18 Dec 2025 16:04:12.975,18 Dec 2025 16:14:02.301,589.327
961,18 Dec 2025 17:36:56.354,18 Dec 2025 17:48:17.361,681.007
962,18 Dec 2025 19:16:42.678,18 Dec 2025 19:17:57.267,74.589
963,19 Dec 2025 15:46:18.302,19 Dec 2025 15:54:56.417,518.115
964,19 Dec 2025 17:18:04.944,19 Dec 2025 17:29:38.808,693.864
965,19 Dec 2025 18:55:05.016,19 Dec 2025 19:01:34.095,389.078
966,20 Dec 2025 15:28:41.636,20 Dec 2025 15:35:38.897,417.261
967,20 Dec 2025 16:59:24.181,20 Dec 2025 17:10:55.286,691.105
968,20 Dec 2025 18:35:03.545,20 Dec 2025 18:43:41.568,518.023
969,21 Dec 2025 15:11:37.990,21 Dec 2025 15:15:54.951,256.960
970,21 Dec 2025 16:40:53.772,21 Dec 2025 16:52:07.130,673.359
971,21 Dec 2025 18:15:29.455,21 Dec 2025 18:25:28.028,598.574
972,22 Dec 2025 16:22:33.975,22 Dec 2025 16:33:14.182,640.207
973,22 Dec 2025 17:56:12.824,22 Dec 2025 18:07:03.080,650.255
974,23 Dec 2025 16:04:25.676,23 Dec 2025 16:14:15.701,590.026
975,23 Dec 2025 17:37:09.699,23 Dec 2025 17:48:30.457,680.758
976,23 Dec 2025 19:17:03.069,23 Dec 2025 19:18:03.691,60.622
977,24 Dec 2025 15:46:30.824,24 Dec 2025 15:55:09.920,519.097
978,24 Dec 2025 17:18:18.160,24 Dec 2025 17:29:51.965,693.805
