3UCubedIntegratedSim/Reports & Plots/Comms/UNH/Sat 8 Comms.csv

"Access","Start Time (UTCG)","Stop Time (UTCG)","Duration (sec)"
1,1 Jan 2025 22:28:48.961,1 Jan 2025 22:35:46.855,417.895
2,1 Jan 2025 23:59:31.903,1 Jan 2025 23:59:59.992,28.089
3,1 Jan 2025 23:59:59.992,2 Jan 2025 00:11:03.077,663.085
4,2 Jan 2025 01:35:11.700,2 Jan 2025 01:43:49.160,517.461
5,2 Jan 2025 11:29:37.599,2 Jan 2025 11:36:39.968,422.369
6,2 Jan 2025 13:01:46.052,2 Jan 2025 13:13:20.606,694.555
7,2 Jan 2025 14:36:34.858,2 Jan 2025 14:44:54.608,499.750
8,2 Jan 2025 22:11:45.037,2 Jan 2025 22:16:03.131,258.094
9,2 Jan 2025 23:41:01.434,2 Jan 2025 23:52:14.938,673.504
10,3 Jan 2025 01:15:37.486,3 Jan 2025 01:25:35.699,598.212
11,3 Jan 2025 11:12:30.577,3 Jan 2025 11:15:47.627,197.050
12,3 Jan 2025 12:43:06.394,3 Jan 2025 12:54:31.485,685.091
13,3 Jan 2025 14:17:27.009,3 Jan 2025 14:27:03.218,576.209
14,3 Jan 2025 23:22:41.574,3 Jan 2025 23:33:22.012,640.438
15,4 Jan 2025 00:56:20.759,4 Jan 2025 01:07:10.797,650.038
16,4 Jan 2025 12:24:32.343,4 Jan 2025 12:35:31.058,658.714
17,4 Jan 2025 13:58:27.099,4 Jan 2025 14:08:57.690,630.592
18,4 Jan 2025 23:04:33.202,4 Jan 2025 23:14:23.552,590.350
19,5 Jan 2025 00:37:17.559,5 Jan 2025 00:48:38.209,680.651
20,5 Jan 2025 02:17:14.983,5 Jan 2025 02:18:07.641,52.659
21,5 Jan 2025 12:06:05.452,5 Jan 2025 12:16:17.671,612.219
22,5 Jan 2025 13:39:32.998,5 Jan 2025 13:50:40.343,667.345
23,5 Jan 2025 15:16:06.881,5 Jan 2025 15:19:27.463,200.582
24,5 Jan 2025 22:46:38.271,5 Jan 2025 22:55:17.809,519.538
25,6 Jan 2025 00:18:25.956,6 Jan 2025 00:29:59.737,693.781
26,6 Jan 2025 01:55:27.754,6 Jan 2025 02:01:53.899,386.144
27,6 Jan 2025 11:47:48.864,6 Jan 2025 11:56:47.988,539.124
28,6 Jan 2025 13:20:43.798,6 Jan 2025 13:32:12.252,688.454
29,6 Jan 2025 14:56:09.747,6 Jan 2025 15:02:38.490,388.743
30,6 Jan 2025 22:29:01.226,6 Jan 2025 22:36:00.542,419.316
31,6 Jan 2025 23:59:45.008,6 Jan 2025 23:59:59.992,14.983
32,6 Jan 2025 23:59:59.992,7 Jan 2025 00:11:16.296,676.305
33,7 Jan 2025 01:35:25.620,7 Jan 2025 01:44:01.910,516.290
34,7 Jan 2025 11:29:50.094,7 Jan 2025 11:36:54.197,424.103
35,7 Jan 2025 13:01:59.229,7 Jan 2025 13:13:33.801,694.573
36,7 Jan 2025 14:36:48.400,7 Jan 2025 14:45:07.088,498.688
37,7 Jan 2025 22:11:56.688,7 Jan 2025 22:16:17.364,260.676
38,7 Jan 2025 23:41:14.413,7 Jan 2025 23:52:28.208,673.795
39,8 Jan 2025 01:15:51.164,8 Jan 2025 01:25:48.616,597.452
40,8 Jan 2025 11:12:41.706,8 Jan 2025 11:16:03.305,201.598
41,8 Jan 2025 12:43:19.511,8 Jan 2025 12:54:44.809,685.298
42,8 Jan 2025 14:17:40.437,8 Jan 2025 14:27:15.887,575.450
43,8 Jan 2025 23:22:54.426,8 Jan 2025 23:33:35.345,640.919
44,9 Jan 2025 00:56:34.258,9 Jan 2025 01:07:23.821,649.563
45,9 Jan 2025 12:24:45.388,9 Jan 2025 12:35:44.521,659.133
46,9 Jan 2025 13:58:40.450,9 Jan 2025 14:09:10.509,630.059
47,9 Jan 2025 23:04:45.911,9 Jan 2025 23:14:36.959,591.048
48,10 Jan 2025 00:37:30.913,10 Jan 2025 00:48:51.311,680.398
49,10 Jan 2025 02:17:39.919,10 Jan 2025 02:18:09.532,29.613
50,10 Jan 2025 12:06:18.400,10 Jan 2025 12:16:31.301,612.901
51,10 Jan 2025 13:39:46.287,10 Jan 2025 13:50:53.293,667.006
52,10 Jan 2025 15:16:21.545,10 Jan 2025 15:19:38.665,197.120
53,10 Jan 2025 22:46:50.803,10 Jan 2025 22:55:31.317,520.514
54,11 Jan 2025 00:18:39.181,11 Jan 2025 00:30:12.902,693.721
55,11 Jan 2025 01:55:42.130,11 Jan 2025 02:02:06.269,384.139
56,11 Jan 2025 11:48:01.660,11 Jan 2025 11:57:01.839,540.179
57,11 Jan 2025 13:20:57.036,11 Jan 2025 13:32:25.329,688.293
58,11 Jan 2025 14:56:23.519,11 Jan 2025 15:02:50.668,387.149
59,11 Jan 2025 22:29:13.507,11 Jan 2025 22:36:14.230,420.723
60,11 Jan 2025 23:59:58.112,11 Jan 2025 23:59:59.991,1.880
61,11 Jan 2025 23:59:59.991,12 Jan 2025 00:11:29.516,689.524
62,12 Jan 2025 01:35:39.543,12 Jan 2025 01:44:14.654,515.110
63,12 Jan 2025 11:30:02.595,12 Jan 2025 11:37:08.424,425.829
64,12 Jan 2025 13:02:12.405,12 Jan 2025 13:13:46.995,694.589
65,12 Jan 2025 14:37:01.943,12 Jan 2025 14:45:19.564,497.621
66,12 Jan 2025 22:12:08.356,12 Jan 2025 22:16:31.582,263.226
67,12 Jan 2025 23:41:27.395,12 Jan 2025 23:52:41.484,674.090
68,13 Jan 2025 01:16:04.841,13 Jan 2025 01:26:01.533,596.692
69,13 Jan 2025 11:12:52.889,13 Jan 2025 11:16:18.931,206.043
70,13 Jan 2025 12:43:32.628,13 Jan 2025 12:54:58.133,685.505
71,13 Jan 2025 14:17:53.861,13 Jan 2025 14:27:28.555,574.694
72,13 Jan 2025 23:23:07.278,13 Jan 2025 23:33:48.676,641.399
73,14 Jan 2025 00:56:47.758,14 Jan 2025 01:07:36.845,649.086
74,14 Jan 2025 12:24:58.432,14 Jan 2025 12:35:57.980,659.547
75,14 Jan 2025 13:58:53.800,14 Jan 2025 14:09:23.327,629.528
76,14 Jan 2025 23:04:58.616,14 Jan 2025 23:14:50.365,591.750
77,15 Jan 2025 00:37:44.268,15 Jan 2025 00:49:04.411,680.143
78,15 Jan 2025 12:06:31.345,15 Jan 2025 12:16:44.928,613.582
79,15 Jan 2025 13:39:59.574,15 Jan 2025 13:51:06.240,666.665
80,15 Jan 2025 15:16:36.240,15 Jan 2025 15:19:49.833,193.593
81,15 Jan 2025 22:47:03.336,15 Jan 2025 22:55:44.821,521.485
82,16 Jan 2025 00:18:52.407,16 Jan 2025 00:30:26.063,693.656
83,16 Jan 2025 01:55:56.511,16 Jan 2025 02:02:18.631,382.119
84,16 Jan 2025 11:48:14.452,16 Jan 2025 11:57:15.691,541.239
85,16 Jan 2025 13:21:10.268,16 Jan 2025 13:32:38.398,688.130
86,16 Jan 2025 14:56:37.283,16 Jan 2025 15:03:02.841,385.558
87,16 Jan 2025 22:29:25.783,16 Jan 2025 22:36:27.918,422.135
88,17 Jan 2025 00:00:11.215,17 Jan 2025 00:11:42.729,691.514
89,17 Jan 2025 01:35:53.468,17 Jan 2025 01:44:27.393,513.925
90,17 Jan 2025 11:30:15.100,17 Jan 2025 11:37:22.639,427.539
91,17 Jan 2025 13:02:25.583,17 Jan 2025 13:14:00.183,694.600
92,17 Jan 2025 14:37:15.491,17 Jan 2025 14:45:32.042,496.552
93,17 Jan 2025 22:12:20.036,17 Jan 2025 22:16:45.784,265.748
94,17 Jan 2025 23:41:40.376,17 Jan 2025 23:52:54.756,674.380
95,18 Jan 2025 01:16:18.521,18 Jan 2025 01:26:14.447,595.926
96,18 Jan 2025 11:13:04.122,18 Jan 2025 11:16:34.500,210.377
97,18 Jan 2025 12:43:45.746,18 Jan 2025 12:55:11.451,685.705
98,18 Jan 2025 14:18:07.290,18 Jan 2025 14:27:41.220,573.930
99,18 Jan 2025 23:23:20.132,18 Jan 2025 23:34:02.008,641.876
100,19 Jan 2025 00:57:01.261,19 Jan 2025 01:07:49.864,648.603
101,19 Jan 2025 12:25:11.478,19 Jan 2025 12:36:11.439,659.962
102,19 Jan 2025 13:59:07.150,19 Jan 2025 14:09:36.142,628.992
103,19 Jan 2025 23:05:11.327,19 Jan 2025 23:15:03.769,592.442
104,20 Jan 2025 00:37:57.625,20 Jan 2025 00:49:17.511,679.886
105,20 Jan 2025 12:06:44.295,20 Jan 2025 12:16:58.553,614.257
106,20 Jan 2025 13:40:12.864,20 Jan 2025 13:51:19.186,666.323
107,20 Jan 2025 15:16:50.967,20 Jan 2025 15:20:00.969,190.003
108,20 Jan 2025 22:47:15.872,20 Jan 2025 22:55:58.327,522.455
109,21 Jan 2025 00:19:05.635,21 Jan 2025 00:30:39.227,693.592
110,21 Jan 2025 01:56:10.904,21 Jan 2025 02:02:30.984,380.080
111,21 Jan 2025 11:48:27.253,21 Jan 2025 11:57:29.537,542.285
112,21 Jan 2025 13:21:23.502,21 Jan 2025 13:32:51.467,687.965
113,21 Jan 2025 14:56:51.057,21 Jan 2025 15:03:15.011,383.955
114,21 Jan 2025 22:29:38.066,21 Jan 2025 22:36:41.602,423.535
115,22 Jan 2025 00:00:24.321,22 Jan 2025 00:11:55.948,691.627
116,22 Jan 2025 01:36:07.400,22 Jan 2025 01:44:40.132,512.732
117,22 Jan 2025 11:30:27.612,22 Jan 2025 11:37:36.851,429.239
118,22 Jan 2025 13:02:38.768,22 Jan 2025 13:14:13.374,694.606
119,22 Jan 2025 14:37:29.038,22 Jan 2025 14:45:44.515,495.476
120,22 Jan 2025 22:12:31.731,22 Jan 2025 22:16:59.977,268.246
121,22 Jan 2025 23:41:53.360,22 Jan 2025 23:53:08.031,674.670
122,23 Jan 2025 01:16:32.203,23 Jan 2025 01:26:27.361,595.157
123,23 Jan 2025 11:13:15.403,23 Jan 2025 11:16:50.022,214.619
124,23 Jan 2025 12:43:58.866,23 Jan 2025 12:55:24.770,685.903
125,23 Jan 2025 14:18:20.722,23 Jan 2025 14:27:53.884,573.163
126,23 Jan 2025 23:23:32.984,23 Jan 2025 23:34:15.336,642.352
127,24 Jan 2025 00:57:14.767,24 Jan 2025 01:08:02.887,648.120
128,24 Jan 2025 12:25:24.525,24 Jan 2025 12:36:24.896,660.371
129,24 Jan 2025 13:59:20.503,24 Jan 2025 14:09:48.952,628.449
130,24 Jan 2025 23:05:24.041,24 Jan 2025 23:15:17.172,593.130
131,25 Jan 2025 00:38:10.985,25 Jan 2025 00:49:30.611,679.626
132,25 Jan 2025 12:06:57.247,25 Jan 2025 12:17:12.177,614.930
133,25 Jan 2025 13:40:26.155,25 Jan 2025 13:51:32.130,665.975
134,25 Jan 2025 15:17:05.738,25 Jan 2025 15:20:12.066,186.328
135,25 Jan 2025 22:47:28.411,25 Jan 2025 22:56:11.832,523.420
136,26 Jan 2025 00:19:18.865,26 Jan 2025 00:30:52.389,693.524
137,26 Jan 2025 01:56:25.305,26 Jan 2025 02:02:43.333,378.028
138,26 Jan 2025 11:48:40.054,26 Jan 2025 11:57:43.381,543.327
139,26 Jan 2025 13:21:36.738,26 Jan 2025 13:33:04.536,687.798
140,26 Jan 2025 14:57:04.837,26 Jan 2025 15:03:27.175,382.338
141,26 Jan 2025 22:29:50.354,26 Jan 2025 22:36:55.280,424.926
142,27 Jan 2025 00:00:37.429,27 Jan 2025 00:12:09.166,691.737
143,27 Jan 2025 01:36:21.336,27 Jan 2025 01:44:52.865,511.529
144,27 Jan 2025 11:30:40.127,27 Jan 2025 11:37:51.056,430.930
145,27 Jan 2025 13:02:51.948,27 Jan 2025 13:14:26.564,694.617
146,27 Jan 2025 14:37:42.589,27 Jan 2025 14:45:56.984,494.395
147,27 Jan 2025 22:12:43.441,27 Jan 2025 22:17:14.154,270.713
148,27 Jan 2025 23:42:06.346,27 Jan 2025 23:53:21.302,674.956
149,28 Jan 2025 01:16:45.889,28 Jan 2025 01:26:40.273,594.384
150,28 Jan 2025 11:13:26.727,28 Jan 2025 11:17:05.498,218.770
151,28 Jan 2025 12:44:11.986,28 Jan 2025 12:55:38.086,686.100
152,28 Jan 2025 14:18:34.154,28 Jan 2025 14:28:06.546,572.391
153,28 Jan 2025 23:23:45.842,28 Jan 2025 23:34:28.666,642.824
154,29 Jan 2025 00:57:28.273,29 Jan 2025 01:08:15.907,647.634
155,29 Jan 2025 12:25:37.573,29 Jan 2025 12:36:38.354,660.782
156,29 Jan 2025 13:59:33.856,29 Jan 2025 14:10:01.766,627.910
157,29 Jan 2025 23:05:36.757,29 Jan 2025 23:15:30.572,593.816
158,30 Jan 2025 00:38:24.345,30 Jan 2025 00:49:43.710,679.365
159,30 Jan 2025 12:07:10.195,30 Jan 2025 12:17:25.797,615.602
160,30 Jan 2025 13:40:39.446,30 Jan 2025 13:51:45.073,665.628
161,30 Jan 2025 15:17:20.543,30 Jan 2025 15:20:23.121,182.579
162,30 Jan 2025 22:47:40.952,30 Jan 2025 22:56:25.331,524.379
163,31 Jan 2025 00:19:32.094,31 Jan 2025 00:31:05.551,693.458
164,31 Jan 2025 01:56:39.713,31 Jan 2025 02:02:55.672,375.959
165,31 Jan 2025 11:48:52.858,31 Jan 2025 11:57:57.221,544.363
166,31 Jan 2025 13:21:49.973,31 Jan 2025 13:33:17.598,687.625
167,31 Jan 2025 14:57:18.619,31 Jan 2025 15:03:39.333,380.715
168,31 Jan 2025 22:30:02.645,31 Jan 2025 22:37:08.956,426.311
169,1 Feb 2025 00:00:50.536,1 Feb 2025 00:12:22.382,691.846
170,1 Feb 2025 01:36:35.269,1 Feb 2025 01:45:05.596,510.327
171,1 Feb 2025 11:30:52.647,1 Feb 2025 11:38:05.255,432.607
172,1 Feb 2025 13:03:05.129,1 Feb 2025 13:14:39.752,694.623
173,1 Feb 2025 14:37:56.140,1 Feb 2025 14:46:09.450,493.310
174,1 Feb 2025 22:12:55.162,1 Feb 2025 22:17:28.324,273.162
175,1 Feb 2025 23:42:19.333,1 Feb 2025 23:53:34.573,675.240
176,2 Feb 2025 01:16:59.577,2 Feb 2025 01:26:53.183,593.606
177,2 Feb 2025 11:13:38.098,2 Feb 2025 11:17:20.930,222.831
178,2 Feb 2025 12:44:25.103,2 Feb 2025 12:55:51.396,686.293
179,2 Feb 2025 14:18:47.587,2 Feb 2025 14:28:19.206,571.619
180,2 Feb 2025 23:23:58.703,2 Feb 2025 23:34:41.994,643.292
181,3 Feb 2025 00:57:41.783,3 Feb 2025 01:08:28.927,647.144
182,3 Feb 2025 12:25:50.618,3 Feb 2025 12:36:51.811,661.193
183,3 Feb 2025 13:59:47.206,3 Feb 2025 14:10:14.578,627.372
184,3 Feb 2025 23:05:49.474,3 Feb 2025 23:15:43.974,594.500
185,4 Feb 2025 00:38:37.708,4 Feb 2025 00:49:56.808,679.100
186,4 Feb 2025 12:07:23.146,4 Feb 2025 12:17:39.417,616.271
187,4 Feb 2025 13:40:52.738,4 Feb 2025 13:51:58.016,665.278
188,4 Feb 2025 15:17:35.386,4 Feb 2025 15:20:34.136,178.750
189,4 Feb 2025 22:47:53.497,4 Feb 2025 22:56:38.833,525.336
190,5 Feb 2025 00:19:45.327,5 Feb 2025 00:31:18.714,693.388
191,5 Feb 2025 01:56:54.130,5 Feb 2025 02:03:08.009,373.878
192,5 Feb 2025 11:49:05.665,5 Feb 2025 11:58:11.059,545.394
193,5 Feb 2025 13:22:03.211,5 Feb 2025 13:33:30.665,687.454
194,5 Feb 2025 14:57:32.406,5 Feb 2025 15:03:51.488,379.082
195,5 Feb 2025 22:30:14.941,5 Feb 2025 22:37:22.631,427.690
196,6 Feb 2025 00:01:03.647,6 Feb 2025 00:12:35.599,691.952
197,6 Feb 2025 01:36:49.214,6 Feb 2025 01:45:18.327,509.113
198,6 Feb 2025 11:31:05.170,6 Feb 2025 11:38:19.445,434.275
199,6 Feb 2025 13:03:18.311,6 Feb 2025 13:14:52.940,694.628
200,6 Feb 2025 14:38:09.693,6 Feb 2025 14:46:21.915,492.221
201,6 Feb 2025 22:13:06.899,6 Feb 2025 22:17:42.482,275.583
202,6 Feb 2025 23:42:32.326,6 Feb 2025 23:53:47.840,675.514
203,7 Feb 2025 01:17:13.270,7 Feb 2025 01:27:06.094,592.824
204,7 Feb 2025 11:13:49.508,7 Feb 2025 11:17:36.323,226.815
205,7 Feb 2025 12:44:38.226,7 Feb 2025 12:56:04.711,686.485
206,7 Feb 2025 14:19:01.024,7 Feb 2025 14:28:31.865,570.840
207,7 Feb 2025 23:24:11.566,7 Feb 2025 23:34:55.325,643.760
208,8 Feb 2025 00:57:55.294,8 Feb 2025 01:08:41.947,646.653
209,8 Feb 2025 12:26:03.668,8 Feb 2025 12:37:05.265,661.596
210,8 Feb 2025 14:00:00.563,8 Feb 2025 14:10:27.388,626.825
211,8 Feb 2025 23:06:02.195,8 Feb 2025 23:15:57.374,595.179
212,9 Feb 2025 00:38:51.073,9 Feb 2025 00:50:09.906,678.833
213,9 Feb 2025 12:07:36.102,9 Feb 2025 12:17:53.035,616.934
214,9 Feb 2025 13:41:06.032,9 Feb 2025 13:52:10.957,664.926
215,9 Feb 2025 15:17:50.281,9 Feb 2025 15:20:45.105,174.824
216,9 Feb 2025 22:48:06.048,9 Feb 2025 22:56:52.333,526.284
217,10 Feb 2025 00:19:58.561,10 Feb 2025 00:31:31.876,693.315
218,10 Feb 2025 01:57:08.558,10 Feb 2025 02:03:20.332,371.774
219,10 Feb 2025 11:49:18.474,10 Feb 2025 11:58:24.894,546.420
220,10 Feb 2025 13:22:16.446,10 Feb 2025 13:33:43.729,687.283
221,10 Feb 2025 14:57:46.200,10 Feb 2025 15:04:03.636,377.437
222,10 Feb 2025 22:30:27.241,10 Feb 2025 22:37:36.301,429.059
223,11 Feb 2025 00:01:16.759,11 Feb 2025 00:12:48.816,692.056
224,11 Feb 2025 01:37:03.161,11 Feb 2025 01:45:31.056,507.895
225,11 Feb 2025 11:31:17.700,11 Feb 2025 11:38:33.633,435.933
226,11 Feb 2025 13:03:31.494,11 Feb 2025 13:15:06.128,694.634
227,11 Feb 2025 14:38:23.250,11 Feb 2025 14:46:34.373,491.122
228,11 Feb 2025 22:13:18.646,11 Feb 2025 22:17:56.621,277.975
229,11 Feb 2025 23:42:45.313,11 Feb 2025 23:54:01.115,675.802
230,12 Feb 2025 01:17:26.963,12 Feb 2025 01:27:19.002,592.039
231,12 Feb 2025 11:14:00.955,12 Feb 2025 11:17:51.675,230.720
232,12 Feb 2025 12:44:51.349,12 Feb 2025 12:56:18.023,686.674
233,12 Feb 2025 14:19:14.462,12 Feb 2025 14:28:44.520,570.058
234,12 Feb 2025 23:24:24.429,12 Feb 2025 23:35:08.654,644.225
235,13 Feb 2025 00:58:08.808,13 Feb 2025 01:08:54.965,646.158
236,13 Feb 2025 12:26:16.719,13 Feb 2025 12:37:18.712,661.993
237,13 Feb 2025 14:00:13.919,13 Feb 2025 14:10:40.195,626.276
238,13 Feb 2025 23:06:14.916,13 Feb 2025 23:16:10.773,595.857
239,14 Feb 2025 00:39:04.439,14 Feb 2025 00:50:23.003,678.564
240,14 Feb 2025 12:07:49.059,14 Feb 2025 12:18:06.650,617.591
241,14 Feb 2025 13:41:19.325,14 Feb 2025 13:52:23.897,664.572
242,14 Feb 2025 15:18:05.216,14 Feb 2025 15:20:56.029,170.813
243,14 Feb 2025 22:48:18.597,14 Feb 2025 22:57:05.831,527.233
244,15 Feb 2025 00:20:11.797,15 Feb 2025 00:31:45.032,693.235
245,15 Feb 2025 01:57:22.995,15 Feb 2025 02:03:32.645,369.650
246,15 Feb 2025 11:49:31.285,15 Feb 2025 11:58:38.725,547.440
247,15 Feb 2025 13:22:29.684,15 Feb 2025 13:33:56.792,687.108
248,15 Feb 2025 14:57:59.995,15 Feb 2025 15:04:15.780,375.785
249,15 Feb 2025 22:30:39.545,15 Feb 2025 22:37:49.969,430.425
250,16 Feb 2025 00:01:29.873,16 Feb 2025 00:13:02.031,692.159
251,16 Feb 2025 01:37:17.111,16 Feb 2025 01:45:43.780,506.668
252,16 Feb 2025 11:31:30.237,16 Feb 2025 11:38:47.815,437.578
253,16 Feb 2025 13:03:44.677,16 Feb 2025 13:15:19.311,694.634
254,16 Feb 2025 14:38:36.810,16 Feb 2025 14:46:46.832,490.022
255,16 Feb 2025 22:13:30.405,16 Feb 2025 22:18:10.756,280.351
256,16 Feb 2025 23:42:58.304,16 Feb 2025 23:54:14.385,676.080
257,17 Feb 2025 01:17:40.659,17 Feb 2025 01:27:31.907,591.248
258,17 Feb 2025 11:14:12.443,17 Feb 2025 11:18:06.989,234.546
259,17 Feb 2025 12:45:04.473,17 Feb 2025 12:56:31.334,686.861
260,17 Feb 2025 14:19:27.900,17 Feb 2025 14:28:57.174,569.275
261,17 Feb 2025 23:24:37.294,17 Feb 2025 23:35:21.984,644.689
262,18 Feb 2025 00:58:22.326,18 Feb 2025 01:09:07.983,645.657
263,18 Feb 2025 12:26:29.773,18 Feb 2025 12:37:32.162,662.390
264,18 Feb 2025 14:00:27.280,18 Feb 2025 14:10:53.002,625.722
265,18 Feb 2025 23:06:27.640,18 Feb 2025 23:16:24.172,596.533
266,19 Feb 2025 00:39:17.808,19 Feb 2025 00:50:36.099,678.292
267,19 Feb 2025 12:08:02.020,19 Feb 2025 12:18:20.265,618.245
268,19 Feb 2025 13:41:32.620,19 Feb 2025 13:52:36.836,664.216
269,19 Feb 2025 15:18:20.204,19 Feb 2025 15:21:06.904,166.700
270,19 Feb 2025 22:48:31.150,19 Feb 2025 22:57:19.329,528.179
271,20 Feb 2025 00:20:25.036,20 Feb 2025 00:31:58.192,693.156
272,20 Feb 2025 01:57:37.444,20 Feb 2025 02:03:44.952,367.509
273,20 Feb 2025 11:49:44.100,20 Feb 2025 11:58:52.552,548.452
274,20 Feb 2025 13:22:42.924,20 Feb 2025 13:34:09.855,686.931
275,20 Feb 2025 14:58:13.797,20 Feb 2025 15:04:27.920,374.124
276,20 Feb 2025 22:30:51.853,20 Feb 2025 22:38:03.637,431.784
277,21 Feb 2025 00:01:42.989,21 Feb 2025 00:13:15.249,692.260
278,21 Feb 2025 01:37:31.067,21 Feb 2025 01:45:56.507,505.440
279,21 Feb 2025 11:31:42.780,21 Feb 2025 11:39:01.993,439.213
280,21 Feb 2025 13:03:57.863,21 Feb 2025 13:15:32.499,694.636
281,21 Feb 2025 14:38:50.373,21 Feb 2025 14:46:59.289,488.916
282,21 Feb 2025 22:13:42.177,21 Feb 2025 22:18:24.879,282.702
283,21 Feb 2025 23:43:11.299,21 Feb 2025 23:54:27.655,676.356
284,22 Feb 2025 01:17:54.354,22 Feb 2025 01:27:44.809,590.454
285,22 Feb 2025 11:14:23.963,22 Feb 2025 11:18:22.270,238.306
286,22 Feb 2025 12:45:17.599,22 Feb 2025 12:56:44.645,687.046
287,22 Feb 2025 14:19:41.339,22 Feb 2025 14:29:09.828,568.488
288,22 Feb 2025 23:24:50.163,22 Feb 2025 23:35:35.313,645.150
289,23 Feb 2025 00:58:35.844,23 Feb 2025 01:09:21.001,645.157
290,23 Feb 2025 12:26:42.827,23 Feb 2025 12:37:45.612,662.784
291,23 Feb 2025 14:00:40.639,23 Feb 2025 14:11:05.807,625.168
292,23 Feb 2025 23:06:40.366,23 Feb 2025 23:16:37.571,597.205
293,24 Feb 2025 00:39:31.179,24 Feb 2025 00:50:49.196,678.017
294,24 Feb 2025 12:08:14.978,24 Feb 2025 12:18:33.877,618.899
295,24 Feb 2025 13:41:45.917,24 Feb 2025 13:52:49.774,663.857
296,24 Feb 2025 15:18:35.249,24 Feb 2025 15:21:17.721,162.472
297,24 Feb 2025 22:48:43.706,24 Feb 2025 22:57:32.823,529.117
298,25 Feb 2025 00:20:38.276,25 Feb 2025 00:32:11.356,693.081
299,25 Feb 2025 01:57:51.901,25 Feb 2025 02:03:57.253,365.352
300,25 Feb 2025 11:49:56.916,25 Feb 2025 11:59:06.379,549.463
301,25 Feb 2025 13:22:56.164,25 Feb 2025 13:34:22.916,686.752
302,25 Feb 2025 14:58:27.604,25 Feb 2025 15:04:40.053,372.450
303,25 Feb 2025 22:31:04.166,25 Feb 2025 22:38:17.299,433.134
304,26 Feb 2025 00:01:56.106,26 Feb 2025 00:13:28.463,692.357
305,26 Feb 2025 01:37:45.025,26 Feb 2025 01:46:09.228,504.202
306,26 Feb 2025 11:31:55.325,26 Feb 2025 11:39:16.166,440.840
307,26 Feb 2025 13:04:11.048,26 Feb 2025 13:15:45.682,694.633
308,26 Feb 2025 14:39:03.932,26 Feb 2025 14:47:11.742,487.810
309,26 Feb 2025 22:13:53.962,26 Feb 2025 22:18:38.990,285.029
310,26 Feb 2025 23:43:24.294,26 Feb 2025 23:54:40.924,676.630
311,27 Feb 2025 01:18:08.055,27 Feb 2025 01:27:57.713,589.658
312,27 Feb 2025 11:14:35.517,27 Feb 2025 11:18:37.516,241.999
313,27 Feb 2025 12:45:30.725,27 Feb 2025 12:56:57.953,687.228
314,27 Feb 2025 14:19:54.780,27 Feb 2025 14:29:22.478,567.697
315,27 Feb 2025 23:25:03.029,27 Feb 2025 23:35:48.641,645.611
316,28 Feb 2025 00:58:49.364,28 Feb 2025 01:09:34.016,644.652
317,28 Feb 2025 12:26:55.882,28 Feb 2025 12:37:59.058,663.176
318,28 Feb 2025 14:00:53.997,28 Feb 2025 14:11:18.610,624.612
319,28 Feb 2025 23:06:53.093,28 Feb 2025 23:16:50.968,597.875
320,1 Mar 2025 00:39:44.550,1 Mar 2025 00:51:02.291,677.741
321,1 Mar 2025 12:08:27.940,1 Mar 2025 12:18:47.486,619.546
322,1 Mar 2025 13:41:59.214,1 Mar 2025 13:53:02.710,663.495
323,1 Mar 2025 15:18:50.346,1 Mar 2025 15:21:28.481,158.134
324,1 Mar 2025 22:48:56.262,1 Mar 2025 22:57:46.318,530.055
325,2 Mar 2025 00:20:51.516,2 Mar 2025 00:32:24.514,692.998
326,2 Mar 2025 01:58:06.367,2 Mar 2025 02:04:09.543,363.175
327,2 Mar 2025 11:50:09.735,2 Mar 2025 11:59:20.200,550.465
328,2 Mar 2025 13:23:09.405,2 Mar 2025 13:34:35.975,686.570
329,2 Mar 2025 14:58:41.413,2 Mar 2025 15:04:52.182,370.769
330,2 Mar 2025 22:31:16.481,2 Mar 2025 22:38:30.961,434.480
331,3 Mar 2025 00:02:09.223,3 Mar 2025 00:13:41.679,692.456
332,3 Mar 2025 01:37:58.988,3 Mar 2025 01:46:21.943,502.956
333,3 Mar 2025 11:32:07.878,3 Mar 2025 11:39:30.331,442.454
334,3 Mar 2025 13:04:24.235,3 Mar 2025 13:15:58.863,694.628
335,3 Mar 2025 14:39:17.497,3 Mar 2025 14:47:24.199,486.702
336,3 Mar 2025 22:14:05.755,3 Mar 2025 22:18:53.095,287.339
337,3 Mar 2025 23:43:37.292,3 Mar 2025 23:54:54.193,676.902
338,4 Mar 2025 01:18:21.760,4 Mar 2025 01:28:10.616,588.856
339,4 Mar 2025 11:14:47.104,4 Mar 2025 11:18:52.728,245.624
340,4 Mar 2025 12:45:43.853,4 Mar 2025 12:57:11.261,687.408
341,4 Mar 2025 14:20:08.223,4 Mar 2025 14:29:35.127,566.905
342,4 Mar 2025 23:25:15.901,4 Mar 2025 23:36:01.969,646.068
343,5 Mar 2025 00:59:02.886,5 Mar 2025 01:09:47.032,644.146
344,5 Mar 2025 12:27:08.940,5 Mar 2025 12:38:12.504,663.565
345,5 Mar 2025 14:01:07.359,5 Mar 2025 14:11:31.412,624.053
346,5 Mar 2025 23:07:05.823,5 Mar 2025 23:17:04.363,598.540
347,6 Mar 2025 00:39:57.925,6 Mar 2025 00:51:15.386,677.461
348,6 Mar 2025 12:08:40.902,6 Mar 2025 12:19:01.095,620.193
349,6 Mar 2025 13:42:12.516,6 Mar 2025 13:53:15.646,663.130
350,6 Mar 2025 15:19:05.512,6 Mar 2025 15:21:39.178,153.666
351,6 Mar 2025 22:49:08.820,6 Mar 2025 22:57:59.813,530.993
352,7 Mar 2025 00:21:04.761,7 Mar 2025 00:32:37.674,692.913
353,7 Mar 2025 01:58:20.846,7 Mar 2025 02:04:21.827,360.980
354,7 Mar 2025 11:50:22.559,7 Mar 2025 11:59:34.022,551.464
355,7 Mar 2025 13:23:22.648,7 Mar 2025 13:34:49.034,686.387
356,7 Mar 2025 14:58:55.230,7 Mar 2025 15:05:04.306,369.076
357,7 Mar 2025 22:31:28.798,7 Mar 2025 22:38:44.621,435.823
358,8 Mar 2025 00:02:22.344,8 Mar 2025 00:13:54.897,692.553
359,8 Mar 2025 01:38:12.956,8 Mar 2025 01:46:34.659,501.703
360,8 Mar 2025 11:32:20.435,8 Mar 2025 11:39:44.495,444.060
361,8 Mar 2025 13:04:37.424,8 Mar 2025 13:16:12.044,694.620
362,8 Mar 2025 14:39:31.065,8 Mar 2025 14:47:36.648,485.583
363,8 Mar 2025 22:14:17.563,8 Mar 2025 22:19:07.188,289.626
364,8 Mar 2025 23:43:50.291,8 Mar 2025 23:55:07.463,677.172
365,9 Mar 2025 01:18:35.468,9 Mar 2025 01:28:23.519,588.051
366,9 Mar 2025 11:14:58.719,9 Mar 2025 11:19:07.913,249.194
367,9 Mar 2025 12:45:56.981,9 Mar 2025 12:57:24.568,687.586
368,9 Mar 2025 14:20:21.665,9 Mar 2025 14:29:47.775,566.110
369,9 Mar 2025 23:25:28.774,9 Mar 2025 23:36:15.295,646.522
370,10 Mar 2025 00:59:16.411,10 Mar 2025 01:10:00.047,643.636
371,10 Mar 2025 12:27:22.000,10 Mar 2025 12:38:25.949,663.950
372,10 Mar 2025 14:01:20.722,10 Mar 2025 14:11:44.213,623.491
373,10 Mar 2025 23:07:18.555,10 Mar 2025 23:17:17.759,599.204
374,11 Mar 2025 00:40:11.301,11 Mar 2025 00:51:28.480,677.180
375,11 Mar 2025 12:08:53.866,11 Mar 2025 12:19:14.701,620.835
376,11 Mar 2025 13:42:25.814,11 Mar 2025 13:53:28.579,662.765
377,11 Mar 2025 15:19:20.745,11 Mar 2025 15:21:49.802,149.057
378,11 Mar 2025 22:49:21.382,11 Mar 2025 22:58:13.305,531.923
379,12 Mar 2025 00:21:18.005,12 Mar 2025 00:32:50.832,692.827
380,12 Mar 2025 01:58:35.333,12 Mar 2025 02:04:34.102,358.768
381,12 Mar 2025 11:50:35.384,12 Mar 2025 11:59:47.841,552.457
382,12 Mar 2025 13:23:35.890,12 Mar 2025 13:35:02.091,686.201
383,12 Mar 2025 14:59:09.050,12 Mar 2025 15:05:16.423,367.374
384,12 Mar 2025 22:31:41.120,12 Mar 2025 22:38:58.277,437.157
385,13 Mar 2025 00:02:35.465,13 Mar 2025 00:14:08.111,692.646
386,13 Mar 2025 01:38:26.926,13 Mar 2025 01:46:47.369,500.443
387,13 Mar 2025 11:32:32.996,13 Mar 2025 11:39:58.652,445.656
388,13 Mar 2025 13:04:50.609,13 Mar 2025 13:16:25.222,694.613
389,13 Mar 2025 14:39:44.633,13 Mar 2025 14:47:49.094,484.461
390,13 Mar 2025 22:14:29.379,13 Mar 2025 22:19:21.271,291.892
391,13 Mar 2025 23:44:03.291,13 Mar 2025 23:55:20.730,677.439
392,14 Mar 2025 01:18:49.177,14 Mar 2025 01:28:36.419,587.242
393,14 Mar 2025 11:15:10.364,14 Mar 2025 11:19:23.064,252.700
394,14 Mar 2025 12:46:10.110,14 Mar 2025 12:57:37.871,687.761
395,14 Mar 2025 14:20:35.109,14 Mar 2025 14:30:00.420,565.311
396,14 Mar 2025 23:25:41.647,14 Mar 2025 23:36:28.621,646.974
397,15 Mar 2025 00:59:29.937,15 Mar 2025 01:10:13.059,643.122
398,15 Mar 2025 12:27:35.058,15 Mar 2025 12:38:39.389,664.331
399,15 Mar 2025 14:01:34.084,15 Mar 2025 14:11:57.012,622.928
400,15 Mar 2025 23:07:31.290,15 Mar 2025 23:17:31.157,599.866
401,16 Mar 2025 00:40:24.678,16 Mar 2025 00:51:41.573,676.895
402,16 Mar 2025 12:09:06.833,16 Mar 2025 12:19:28.305,621.472
403,16 Mar 2025 13:42:39.111,16 Mar 2025 13:53:41.511,662.400
404,16 Mar 2025 15:19:36.049,16 Mar 2025 15:22:00.352,144.303
405,16 Mar 2025 22:49:33.946,16 Mar 2025 22:58:26.798,532.852
406,17 Mar 2025 00:21:31.252,17 Mar 2025 00:33:03.989,692.737
407,17 Mar 2025 01:58:49.832,17 Mar 2025 02:04:46.364,356.531
408,17 Mar 2025 11:50:48.212,17 Mar 2025 12:00:01.656,553.444
409,17 Mar 2025 13:23:49.134,17 Mar 2025 13:35:15.147,686.013
410,17 Mar 2025 14:59:22.873,17 Mar 2025 15:05:28.537,365.664
411,17 Mar 2025 22:31:53.445,17 Mar 2025 22:39:11.932,438.487
412,18 Mar 2025 00:02:48.589,18 Mar 2025 00:14:21.325,692.736
413,18 Mar 2025 01:38:40.902,18 Mar 2025 01:47:00.076,499.174
414,18 Mar 2025 11:32:45.566,18 Mar 2025 11:40:12.797,447.232
415,18 Mar 2025 13:05:03.798,18 Mar 2025 13:16:38.400,694.602
416,18 Mar 2025 14:39:58.203,18 Mar 2025 14:48:01.538,483.335
417,18 Mar 2025 22:14:41.205,18 Mar 2025 22:19:35.348,294.144
418,18 Mar 2025 23:44:16.293,18 Mar 2025 23:55:33.999,677.705
419,19 Mar 2025 01:19:02.890,19 Mar 2025 01:28:49.315,586.425
420,19 Mar 2025 11:15:22.040,19 Mar 2025 11:19:38.188,256.147
421,19 Mar 2025 12:46:23.243,19 Mar 2025 12:57:51.176,687.933
422,19 Mar 2025 14:20:48.555,19 Mar 2025 14:30:13.065,564.510
423,19 Mar 2025 23:25:54.524,19 Mar 2025 23:36:41.947,647.423
424,20 Mar 2025 00:59:43.467,20 Mar 2025 01:10:26.071,642.604
425,20 Mar 2025 12:27:48.120,20 Mar 2025 12:38:52.831,664.711
426,20 Mar 2025 14:01:47.448,20 Mar 2025 14:12:09.811,622.362
427,20 Mar 2025 23:07:44.026,20 Mar 2025 23:17:44.553,600.527
428,21 Mar 2025 00:40:38.061,21 Mar 2025 00:51:54.666,676.605
429,21 Mar 2025 12:09:19.802,21 Mar 2025 12:19:41.908,622.106
430,21 Mar 2025 13:42:52.414,21 Mar 2025 13:53:54.441,662.028
431,21 Mar 2025 15:19:51.437,21 Mar 2025 15:22:10.825,139.388
432,21 Mar 2025 22:49:46.513,21 Mar 2025 22:58:40.290,533.777
433,22 Mar 2025 00:21:44.501,22 Mar 2025 00:33:17.147,692.646
434,22 Mar 2025 01:59:04.343,22 Mar 2025 02:04:58.618,354.275
435,22 Mar 2025 11:51:01.037,22 Mar 2025 12:00:15.469,554.432
436,22 Mar 2025 13:24:02.380,22 Mar 2025 13:35:28.206,685.826
437,22 Mar 2025 14:59:36.703,22 Mar 2025 15:05:40.644,363.941
438,22 Mar 2025 22:32:05.773,22 Mar 2025 22:39:25.581,439.808
439,23 Mar 2025 00:03:01.715,23 Mar 2025 00:14:34.539,692.824
440,23 Mar 2025 01:38:54.883,23 Mar 2025 01:47:12.782,497.898
441,23 Mar 2025 11:32:58.138,23 Mar 2025 11:40:26.943,448.805
442,23 Mar 2025 13:05:16.989,23 Mar 2025 13:16:51.577,694.588
443,23 Mar 2025 14:40:11.776,23 Mar 2025 14:48:13.980,482.204
444,23 Mar 2025 22:14:53.043,23 Mar 2025 22:19:49.416,296.373
445,23 Mar 2025 23:44:29.298,23 Mar 2025 23:55:47.267,677.969
446,24 Mar 2025 01:19:16.606,24 Mar 2025 01:29:02.213,585.607
447,24 Mar 2025 11:15:33.741,24 Mar 2025 11:19:53.286,259.545
448,24 Mar 2025 12:46:36.376,24 Mar 2025 12:58:04.480,688.104
449,24 Mar 2025 14:21:02.003,24 Mar 2025 14:30:25.707,563.704
450,24 Mar 2025 23:26:07.400,24 Mar 2025 23:36:55.273,647.873
451,25 Mar 2025 00:59:56.998,25 Mar 2025 01:10:39.082,642.085
452,25 Mar 2025 12:28:01.180,25 Mar 2025 12:39:06.272,665.092
453,25 Mar 2025 14:02:00.813,25 Mar 2025 14:12:22.604,621.791
454,25 Mar 2025 23:07:56.764,25 Mar 2025 23:17:57.947,601.183
455,26 Mar 2025 00:40:51.443,26 Mar 2025 00:52:07.758,676.315
456,26 Mar 2025 12:09:32.771,26 Mar 2025 12:19:55.508,622.738
457,26 Mar 2025 13:43:05.715,26 Mar 2025 13:54:07.371,661.656
458,26 Mar 2025 15:20:06.920,26 Mar 2025 15:22:21.197,134.277
459,26 Mar 2025 22:49:59.082,26 Mar 2025 22:58:53.780,534.698
460,27 Mar 2025 00:21:57.751,27 Mar 2025 00:33:30.303,692.552
461,27 Mar 2025 01:59:18.862,27 Mar 2025 02:05:10.862,352.000
462,27 Mar 2025 11:51:13.867,27 Mar 2025 12:00:29.279,555.411
463,27 Mar 2025 13:24:15.625,27 Mar 2025 13:35:41.256,685.631
464,27 Mar 2025 14:59:50.538,27 Mar 2025 15:05:52.745,362.208
465,27 Mar 2025 22:32:18.106,27 Mar 2025 22:39:39.229,441.124
466,28 Mar 2025 00:03:14.841,28 Mar 2025 00:14:47.751,692.910
467,28 Mar 2025 01:39:08.867,28 Mar 2025 01:47:25.483,496.616
468,28 Mar 2025 11:33:10.715,28 Mar 2025 11:40:41.086,450.371
469,28 Mar 2025 13:05:30.178,28 Mar 2025 13:17:04.748,694.570
470,28 Mar 2025 14:40:25.352,28 Mar 2025 14:48:26.416,481.064
471,28 Mar 2025 22:15:04.890,28 Mar 2025 22:20:03.471,298.582
472,28 Mar 2025 23:44:42.302,28 Mar 2025 23:56:00.533,678.230
473,29 Mar 2025 01:19:30.324,29 Mar 2025 01:29:15.107,584.783
474,29 Mar 2025 11:15:45.467,29 Mar 2025 11:20:08.354,262.887
475,29 Mar 2025 12:46:49.507,29 Mar 2025 12:58:17.779,688.272
476,29 Mar 2025 14:21:15.450,29 Mar 2025 14:30:38.347,562.896
477,29 Mar 2025 23:26:20.278,29 Mar 2025 23:37:08.597,648.319
478,30 Mar 2025 01:00:10.530,30 Mar 2025 01:10:52.091,641.561
479,30 Mar 2025 12:28:14.243,30 Mar 2025 12:39:19.709,665.466
480,30 Mar 2025 14:02:14.178,30 Mar 2025 14:12:35.398,621.220
481,30 Mar 2025 23:08:09.499,30 Mar 2025 23:18:11.341,601.842
482,31 Mar 2025 00:41:04.826,31 Mar 2025 00:52:20.849,676.023
483,31 Mar 2025 12:09:45.741,31 Mar 2025 12:20:09.104,623.362
484,31 Mar 2025 13:43:19.017,31 Mar 2025 13:54:20.301,661.284
485,31 Mar 2025 15:20:22.499,31 Mar 2025 15:22:31.471,128.972
486,31 Mar 2025 22:50:11.653,31 Mar 2025 22:59:07.270,535.617
487,1 Apr 2025 00:22:11.002,1 Apr 2025 00:33:43.459,692.456
488,1 Apr 2025 01:59:33.395,1 Apr 2025 02:05:23.095,349.700
489,1 Apr 2025 11:51:26.702,1 Apr 2025 12:00:43.086,556.384
490,1 Apr 2025 13:24:28.871,1 Apr 2025 13:35:54.309,685.438
491,1 Apr 2025 15:00:04.375,1 Apr 2025 15:06:04.843,360.468
492,1 Apr 2025 22:32:30.442,1 Apr 2025 22:39:52.879,442.437
493,2 Apr 2025 00:03:27.970,2 Apr 2025 00:15:00.963,692.994
494,2 Apr 2025 01:39:22.857,2 Apr 2025 01:47:38.181,495.324
495,2 Apr 2025 11:33:23.299,2 Apr 2025 11:40:55.221,451.922
496,2 Apr 2025 13:05:43.371,2 Apr 2025 13:17:17.922,694.552
497,2 Apr 2025 14:40:38.929,2 Apr 2025 14:48:38.857,479.929
498,2 Apr 2025 22:15:16.746,2 Apr 2025 22:20:17.523,300.777
499,2 Apr 2025 23:44:55.310,2 Apr 2025 23:56:13.800,678.490
500,3 Apr 2025 01:19:44.046,3 Apr 2025 01:29:28.000,583.954
501,3 Apr 2025 11:15:57.221,3 Apr 2025 11:20:23.397,266.176
502,3 Apr 2025 12:47:02.642,3 Apr 2025 12:58:31.079,688.437
503,3 Apr 2025 14:21:28.900,3 Apr 2025 14:30:50.986,562.086
504,3 Apr 2025 23:26:33.160,3 Apr 2025 23:37:21.922,648.763
505,4 Apr 2025 01:00:24.066,4 Apr 2025 01:11:05.100,641.035
506,4 Apr 2025 12:28:27.309,4 Apr 2025 12:39:33.148,665.840
507,4 Apr 2025 14:02:27.545,4 Apr 2025 14:12:48.193,620.648
508,4 Apr 2025 23:08:22.241,4 Apr 2025 23:18:24.736,602.494
509,5 Apr 2025 00:41:18.213,5 Apr 2025 00:52:33.940,675.727
510,5 Apr 2025 12:09:58.710,5 Apr 2025 12:20:22.703,623.993
511,5 Apr 2025 13:43:32.316,5 Apr 2025 13:54:33.232,660.915
512,5 Apr 2025 15:20:38.202,5 Apr 2025 15:22:41.627,123.425
513,5 Apr 2025 22:50:24.224,5 Apr 2025 22:59:20.760,536.536
514,6 Apr 2025 00:22:24.256,6 Apr 2025 00:33:56.615,692.358
515,6 Apr 2025 01:59:47.939,6 Apr 2025 02:05:35.320,347.382
516,6 Apr 2025 11:51:39.538,6 Apr 2025 12:00:56.889,557.351
517,6 Apr 2025 13:24:42.118,6 Apr 2025 13:36:07.360,685.242
518,6 Apr 2025 15:00:18.220,6 Apr 2025 15:06:16.933,358.713
519,6 Apr 2025 22:32:42.782,6 Apr 2025 22:40:06.525,443.742
520,7 Apr 2025 00:03:41.100,7 Apr 2025 00:15:14.176,693.076
521,7 Apr 2025 01:39:36.851,7 Apr 2025 01:47:50.877,494.026
522,7 Apr 2025 11:33:35.882,7 Apr 2025 11:41:09.351,453.468
523,7 Apr 2025 13:05:56.564,7 Apr 2025 13:17:31.095,694.531
524,7 Apr 2025 14:40:52.508,7 Apr 2025 14:48:51.289,478.781
525,7 Apr 2025 22:15:28.613,7 Apr 2025 22:20:31.565,302.952
526,7 Apr 2025 23:45:08.319,7 Apr 2025 23:56:27.066,678.748
527,8 Apr 2025 01:19:57.770,8 Apr 2025 01:29:40.891,583.121
528,8 Apr 2025 11:16:08.996,8 Apr 2025 11:20:38.417,269.421
529,8 Apr 2025 12:47:15.777,8 Apr 2025 12:58:44.380,688.602
530,8 Apr 2025 14:21:42.346,8 Apr 2025 14:31:03.623,561.277
531,8 Apr 2025 23:26:46.042,8 Apr 2025 23:37:35.246,649.204
532,9 Apr 2025 01:00:37.598,9 Apr 2025 01:11:18.108,640.510
533,9 Apr 2025 12:28:40.373,9 Apr 2025 12:39:46.584,666.211
534,9 Apr 2025 14:02:40.907,9 Apr 2025 14:13:00.985,620.078
535,9 Apr 2025 23:08:34.983,9 Apr 2025 23:18:38.127,603.144
536,10 Apr 2025 00:41:31.599,10 Apr 2025 00:52:47.030,675.430
537,10 Apr 2025 12:10:11.683,10 Apr 2025 12:20:36.297,624.615
538,10 Apr 2025 13:43:45.619,10 Apr 2025 13:54:46.157,660.538
539,10 Apr 2025 15:20:54.034,10 Apr 2025 15:22:51.648,117.615
540,10 Apr 2025 22:50:36.799,10 Apr 2025 22:59:34.246,537.447
541,11 Apr 2025 00:22:37.511,11 Apr 2025 00:34:09.768,692.257
542,11 Apr 2025 02:00:02.492,11 Apr 2025 02:05:47.533,345.041
543,11 Apr 2025 11:51:52.376,11 Apr 2025 12:01:10.690,558.314
544,11 Apr 2025 13:24:55.365,11 Apr 2025 13:36:20.409,685.044
545,11 Apr 2025 15:00:32.068,11 Apr 2025 15:06:29.018,356.950
546,11 Apr 2025 22:32:55.125,11 Apr 2025 22:40:20.168,445.043
547,12 Apr 2025 00:03:54.231,12 Apr 2025 00:15:27.386,693.155
548,12 Apr 2025 01:39:50.849,12 Apr 2025 01:48:03.568,492.719
549,12 Apr 2025 11:33:48.475,12 Apr 2025 11:41:23.468,454.994
550,12 Apr 2025 13:06:09.759,12 Apr 2025 13:17:44.265,694.506
551,12 Apr 2025 14:41:06.086,12 Apr 2025 14:49:03.722,477.636
552,12 Apr 2025 22:15:40.487,12 Apr 2025 22:20:45.598,305.111
553,12 Apr 2025 23:45:21.328,12 Apr 2025 23:56:40.331,679.003
554,13 Apr 2025 01:20:11.495,13 Apr 2025 01:29:53.779,582.283
555,13 Apr 2025 11:16:20.796,13 Apr 2025 11:20:53.410,272.614
556,13 Apr 2025 12:47:28.911,13 Apr 2025 12:58:57.676,688.765
557,13 Apr 2025 14:21:55.796,13 Apr 2025 14:31:16.257,560.462
558,13 Apr 2025 23:26:58.925,13 Apr 2025 23:37:48.568,649.643
559,14 Apr 2025 01:00:51.136,14 Apr 2025 01:11:31.113,639.976
560,14 Apr 2025 12:28:53.438,14 Apr 2025 12:40:00.014,666.576
561,14 Apr 2025 14:02:54.274,14 Apr 2025 14:13:13.776,619.502
562,14 Apr 2025 23:08:47.727,14 Apr 2025 23:18:51.519,603.792
563,15 Apr 2025 00:41:44.987,15 Apr 2025 00:53:00.118,675.130
564,15 Apr 2025 12:10:24.658,15 Apr 2025 12:20:49.886,625.227
565,15 Apr 2025 13:43:58.922,15 Apr 2025 13:54:59.081,660.159
566,15 Apr 2025 15:21:10.012,15 Apr 2025 15:23:01.519,111.507
567,15 Apr 2025 22:50:49.376,15 Apr 2025 22:59:47.733,538.356
568,16 Apr 2025 00:22:50.770,16 Apr 2025 00:34:22.922,692.152
569,16 Apr 2025 02:00:17.060,16 Apr 2025 02:05:59.733,342.674
570,16 Apr 2025 11:52:05.217,16 Apr 2025 12:01:24.489,559.271
571,16 Apr 2025 13:25:08.613,16 Apr 2025 13:36:33.458,684.845
572,16 Apr 2025 15:00:45.919,16 Apr 2025 15:06:41.099,355.180
573,16 Apr 2025 22:33:07.470,16 Apr 2025 22:40:33.811,446.340
574,17 Apr 2025 00:04:07.364,17 Apr 2025 00:15:40.597,693.233
575,17 Apr 2025 01:40:04.852,17 Apr 2025 01:48:16.255,491.404
576,17 Apr 2025 11:34:01.071,17 Apr 2025 11:41:37.587,456.516
577,17 Apr 2025 13:06:22.955,17 Apr 2025 13:17:57.435,694.480
578,17 Apr 2025 14:41:19.664,17 Apr 2025 14:49:16.151,476.487
579,17 Apr 2025 22:15:52.371,17 Apr 2025 22:20:59.628,307.257
580,17 Apr 2025 23:45:34.340,17 Apr 2025 23:56:53.597,679.257
581,18 Apr 2025 01:20:25.225,18 Apr 2025 01:30:06.666,581.440
582,18 Apr 2025 11:16:32.619,18 Apr 2025 11:21:08.383,275.763
583,18 Apr 2025 12:47:42.048,18 Apr 2025 12:59:10.972,688.924
584,18 Apr 2025 14:22:09.248,18 Apr 2025 14:31:28.888,559.640
585,18 Apr 2025 23:27:11.811,18 Apr 2025 23:38:01.889,650.078
586,19 Apr 2025 01:01:04.678,19 Apr 2025 01:11:44.118,639.440
587,19 Apr 2025 12:29:06.506,19 Apr 2025 12:40:13.448,666.942
588,19 Apr 2025 14:03:07.643,19 Apr 2025 14:13:26.566,618.922
589,19 Apr 2025 23:09:00.474,19 Apr 2025 23:19:04.911,604.437
590,20 Apr 2025 00:41:58.378,20 Apr 2025 00:53:13.206,674.828
591,20 Apr 2025 12:10:37.636,20 Apr 2025 12:21:03.480,625.845
592,20 Apr 2025 13:44:12.227,20 Apr 2025 13:55:12.005,659.777
593,20 Apr 2025 15:21:26.174,20 Apr 2025 15:23:11.211,105.036
594,20 Apr 2025 22:51:01.956,20 Apr 2025 23:00:01.218,539.261
595,21 Apr 2025 00:23:04.029,21 Apr 2025 00:34:36.075,692.046
596,21 Apr 2025 02:00:31.643,21 Apr 2025 02:06:11.925,340.282
597,21 Apr 2025 11:52:18.064,21 Apr 2025 12:01:38.285,560.221
598,21 Apr 2025 13:25:21.863,21 Apr 2025 13:36:46.505,684.643
599,21 Apr 2025 15:00:59.778,21 Apr 2025 15:06:53.173,353.395
600,21 Apr 2025 22:33:19.821,21 Apr 2025 22:40:47.450,447.630
601,22 Apr 2025 00:04:20.499,22 Apr 2025 00:15:53.807,693.308
602,22 Apr 2025 01:40:18.858,22 Apr 2025 01:48:28.941,490.083
603,22 Apr 2025 11:34:13.673,22 Apr 2025 11:41:51.700,458.028
604,22 Apr 2025 13:06:36.150,22 Apr 2025 13:18:10.604,694.454
605,22 Apr 2025 14:41:33.248,22 Apr 2025 14:49:28.577,475.329
606,22 Apr 2025 22:16:04.265,22 Apr 2025 22:21:13.642,309.376
607,22 Apr 2025 23:45:47.352,22 Apr 2025 23:57:06.861,679.508
608,23 Apr 2025 01:20:38.961,23 Apr 2025 01:30:19.551,580.590
609,23 Apr 2025 11:16:44.461,23 Apr 2025 11:21:23.334,278.872
610,23 Apr 2025 12:47:55.184,23 Apr 2025 12:59:24.265,689.081
611,23 Apr 2025 14:22:22.701,23 Apr 2025 14:31:41.519,558.818
612,23 Apr 2025 23:27:24.697,23 Apr 2025 23:38:15.210,650.513
613,24 Apr 2025 01:01:18.221,24 Apr 2025 01:11:57.122,638.901
614,24 Apr 2025 12:29:19.573,24 Apr 2025 12:40:26.877,667.304
615,24 Apr 2025 14:03:21.012,24 Apr 2025 14:13:39.353,618.340
616,24 Apr 2025 23:09:13.221,24 Apr 2025 23:19:18.300,605.079
617,25 Apr 2025 00:42:11.769,25 Apr 2025 00:53:26.292,674.523
618,25 Apr 2025 12:10:50.613,25 Apr 2025 12:21:17.067,626.455
619,25 Apr 2025 13:44:25.536,25 Apr 2025 13:55:24.921,659.385
620,25 Apr 2025 15:21:42.556,25 Apr 2025 15:23:20.680,98.124
621,25 Apr 2025 22:51:14.541,25 Apr 2025 23:00:14.700,540.158
622,26 Apr 2025 00:23:17.289,26 Apr 2025 00:34:49.223,691.935
623,26 Apr 2025 02:00:46.233,26 Apr 2025 02:06:24.104,337.871
624,26 Apr 2025 11:52:30.904,26 Apr 2025 12:01:52.077,561.173
625,26 Apr 2025 13:25:35.111,26 Apr 2025 13:36:59.550,684.439
626,26 Apr 2025 15:01:13.640,26 Apr 2025 15:07:05.239,351.599
627,26 Apr 2025 22:33:32.172,26 Apr 2025 22:41:01.087,448.915
628,27 Apr 2025 00:04:33.638,27 Apr 2025 00:16:07.012,693.373
629,27 Apr 2025 01:40:32.864,27 Apr 2025 01:48:41.618,488.754
630,27 Apr 2025 11:34:26.277,27 Apr 2025 11:42:05.809,459.532
631,27 Apr 2025 13:06:49.344,27 Apr 2025 13:18:23.772,694.428
632,27 Apr 2025 14:41:46.832,27 Apr 2025 14:49:41.000,474.168
633,27 Apr 2025 22:16:16.166,27 Apr 2025 22:21:27.655,311.488
634,27 Apr 2025 23:46:00.366,27 Apr 2025 23:57:20.124,679.758
635,28 Apr 2025 01:20:52.691,28 Apr 2025 01:30:32.433,579.742
636,28 Apr 2025 11:16:56.327,28 Apr 2025 11:21:38.264,281.937
637,28 Apr 2025 12:48:08.321,28 Apr 2025 12:59:37.556,689.235
638,28 Apr 2025 14:22:36.154,28 Apr 2025 14:31:54.148,557.994
639,28 Apr 2025 23:27:37.585,28 Apr 2025 23:38:28.531,650.947
640,29 Apr 2025 01:01:31.766,29 Apr 2025 01:12:10.123,638.358
641,29 Apr 2025 12:29:32.642,29 Apr 2025 12:40:40.305,667.662
642,29 Apr 2025 14:03:34.382,29 Apr 2025 14:13:52.139,617.757
643,29 Apr 2025 23:09:25.970,29 Apr 2025 23:19:31.691,605.720
644,30 Apr 2025 00:42:25.163,30 Apr 2025 00:53:39.378,674.215
645,30 Apr 2025 12:11:03.597,30 Apr 2025 12:21:30.654,627.056
646,30 Apr 2025 13:44:38.839,30 Apr 2025 13:55:37.841,659.003
647,30 Apr 2025 15:21:59.188,30 Apr 2025 15:23:29.896,90.708
648,30 Apr 2025 22:51:27.122,30 Apr 2025 23:00:28.184,541.062
649,1 May 2025 00:23:30.550,1 May 2025 00:35:02.375,691.825
650,1 May 2025 02:01:00.837,1 May 2025 02:06:36.270,335.433
651,1 May 2025 11:52:43.756,1 May 2025 12:02:05.868,562.112
652,1 May 2025 13:25:48.366,1 May 2025 13:37:12.599,684.233
653,1 May 2025 15:01:27.508,1 May 2025 15:07:17.303,349.795
654,1 May 2025 22:33:44.528,1 May 2025 22:41:14.723,450.194
655,2 May 2025 00:04:46.775,2 May 2025 00:16:20.221,693.447
656,2 May 2025 01:40:46.880,2 May 2025 01:48:54.296,487.416
657,2 May 2025 11:34:38.887,2 May 2025 11:42:19.913,461.026
658,2 May 2025 13:07:02.541,2 May 2025 13:18:36.939,694.398
659,2 May 2025 14:42:00.420,2 May 2025 14:49:53.421,473.002
660,2 May 2025 22:16:28.079,2 May 2025 22:21:41.656,313.577
661,2 May 2025 23:46:13.382,2 May 2025 23:57:33.388,680.006
662,3 May 2025 01:21:06.430,3 May 2025 01:30:45.315,578.885
663,3 May 2025 11:17:08.212,3 May 2025 11:21:53.174,284.962
664,3 May 2025 12:48:21.460,3 May 2025 12:59:50.847,689.388
665,3 May 2025 14:22:49.610,3 May 2025 14:32:06.774,557.164
666,3 May 2025 23:27:50.475,3 May 2025 23:38:41.853,651.378
667,4 May 2025 01:01:45.313,4 May 2025 01:12:23.125,637.812
668,4 May 2025 12:29:45.712,4 May 2025 12:40:53.731,668.019
669,4 May 2025 14:03:47.753,4 May 2025 14:14:04.923,617.170
670,4 May 2025 23:09:38.722,4 May 2025 23:19:45.080,606.358
671,5 May 2025 00:42:38.558,5 May 2025 00:53:52.464,673.905
672,5 May 2025 12:11:16.574,5 May 2025 12:21:44.238,627.664
673,5 May 2025 13:44:52.149,5 May 2025 13:55:50.760,658.611
674,5 May 2025 15:22:16.166,5 May 2025 15:23:38.766,82.600
675,5 May 2025 22:51:39.708,5 May 2025 23:00:41.664,541.956
676,6 May 2025 00:23:43.812,6 May 2025 00:35:15.526,691.714
677,6 May 2025 02:01:15.452,6 May 2025 02:06:48.427,332.974
678,6 May 2025 11:52:56.605,6 May 2025 12:02:19.654,563.049
679,6 May 2025 13:26:01.616,6 May 2025 13:37:25.641,684.025
680,6 May 2025 15:01:41.381,6 May 2025 15:07:29.358,347.977
681,6 May 2025 22:33:56.892,6 May 2025 22:41:28.359,451.467
682,7 May 2025 00:04:59.913,7 May 2025 00:16:33.428,693.516
683,7 May 2025 01:41:00.898,7 May 2025 01:49:06.970,486.072
684,7 May 2025 11:34:51.494,7 May 2025 11:42:34.011,462.517
685,7 May 2025 13:07:15.737,7 May 2025 13:18:50.104,694.368
686,7 May 2025 14:42:14.008,7 May 2025 14:50:05.838,471.830
687,7 May 2025 22:16:40.000,7 May 2025 22:21:55.647,315.647
688,7 May 2025 23:46:26.399,7 May 2025 23:57:46.650,680.251
689,8 May 2025 01:21:20.170,8 May 2025 01:30:58.194,578.024
690,8 May 2025 11:17:20.115,8 May 2025 11:22:08.061,287.946
691,8 May 2025 12:48:34.597,8 May 2025 13:00:04.135,689.537
692,8 May 2025 14:23:03.068,8 May 2025 14:32:19.399,556.331
693,8 May 2025 23:28:03.365,8 May 2025 23:38:55.172,651.807
694,9 May 2025 01:01:58.861,9 May 2025 01:12:36.124,637.263
695,9 May 2025 12:29:58.778,9 May 2025 12:41:07.151,668.373
696,9 May 2025 14:04:01.126,9 May 2025 14:14:17.705,616.579
697,9 May 2025 23:09:51.473,9 May 2025 23:19:58.462,606.988
698,10 May 2025 00:42:51.954,10 May 2025 00:54:05.546,673.592
699,10 May 2025 12:11:29.557,10 May 2025 12:21:57.818,628.261
700,10 May 2025 13:45:05.454,10 May 2025 13:56:03.676,658.222
701,10 May 2025 15:22:33.579,10 May 2025 15:23:47.200,73.621
702,10 May 2025 22:51:52.294,10 May 2025 23:00:55.143,542.849
703,11 May 2025 00:23:57.075,11 May 2025 00:35:28.675,691.600
704,11 May 2025 02:01:30.080,11 May 2025 02:07:00.568,330.488
705,11 May 2025 11:53:09.456,11 May 2025 12:02:33.436,563.980
706,11 May 2025 13:26:14.866,11 May 2025 13:37:38.682,683.815
707,11 May 2025 15:01:55.256,11 May 2025 15:07:41.408,346.151
708,11 May 2025 22:34:09.253,11 May 2025 22:41:41.989,452.736
709,12 May 2025 00:05:13.054,12 May 2025 00:16:46.635,693.581
710,12 May 2025 01:41:14.921,12 May 2025 01:49:19.639,484.719
711,12 May 2025 11:35:04.112,12 May 2025 11:42:48.104,463.992
712,12 May 2025 13:07:28.933,12 May 2025 13:19:03.266,694.333
713,12 May 2025 14:42:27.598,12 May 2025 14:50:18.253,470.655
714,12 May 2025 22:16:51.924,12 May 2025 22:22:09.637,317.713
715,12 May 2025 23:46:39.416,12 May 2025 23:57:59.911,680.495
716,13 May 2025 01:21:33.913,13 May 2025 01:31:11.069,577.156
717,13 May 2025 11:17:32.039,13 May 2025 11:22:22.926,290.887
718,13 May 2025 12:48:47.736,13 May 2025 13:00:17.418,689.681
719,13 May 2025 14:23:16.525,13 May 2025 14:32:32.022,555.497
720,13 May 2025 23:28:16.257,13 May 2025 23:39:08.491,652.235
721,14 May 2025 01:02:12.412,14 May 2025 01:12:49.121,636.710
722,14 May 2025 12:30:11.849,14 May 2025 12:41:20.573,668.724
723,14 May 2025 14:04:14.498,14 May 2025 14:14:30.486,615.988
724,14 May 2025 23:10:04.227,14 May 2025 23:20:11.849,607.623
725,15 May 2025 00:43:05.349,15 May 2025 00:54:18.629,673.280
726,15 May 2025 12:11:42.542,15 May 2025 12:22:11.397,628.855
727,15 May 2025 13:45:18.760,15 May 2025 13:56:16.592,657.832
728,15 May 2025 15:22:51.628,15 May 2025 15:23:54.997,63.369
729,15 May 2025 22:52:04.884,15 May 2025 23:01:08.622,543.738
730,16 May 2025 00:24:10.340,16 May 2025 00:35:41.824,691.484
731,16 May 2025 02:01:44.722,16 May 2025 02:07:12.698,327.975
732,16 May 2025 11:53:22.307,16 May 2025 12:02:47.213,564.906
733,16 May 2025 13:26:28.115,16 May 2025 13:37:51.722,683.606
734,16 May 2025 15:02:09.138,16 May 2025 15:07:53.452,344.314
735,16 May 2025 22:34:21.617,16 May 2025 22:41:55.618,454.001
736,17 May 2025 00:05:26.195,17 May 2025 00:16:59.841,693.646
737,17 May 2025 01:41:28.950,17 May 2025 01:49:32.304,483.354
738,17 May 2025 11:35:16.734,17 May 2025 11:43:02.187,465.452
739,17 May 2025 13:07:42.131,17 May 2025 13:19:16.427,694.296
740,17 May 2025 14:42:41.191,17 May 2025 14:50:30.665,469.474
741,17 May 2025 22:17:03.859,17 May 2025 22:22:23.617,319.758
742,17 May 2025 23:46:52.436,17 May 2025 23:58:13.172,680.736
743,18 May 2025 01:21:47.657,18 May 2025 01:31:23.940,576.283
744,18 May 2025 11:17:43.980,18 May 2025 11:22:37.774,293.794
745,18 May 2025 12:49:00.877,18 May 2025 13:00:30.704,689.827
746,18 May 2025 14:23:29.979,18 May 2025 14:32:44.647,554.668
747,18 May 2025 23:28:29.149,18 May 2025 23:39:21.812,652.664
748,19 May 2025 01:02:25.964,19 May 2025 01:13:02.118,636.154
749,19 May 2025 12:30:24.922,19 May 2025 12:41:33.994,669.072
750,19 May 2025 14:04:27.872,19 May 2025 14:14:43.265,615.393
751,19 May 2025 23:10:16.983,19 May 2025 23:20:25.236,608.254
752,20 May 2025 00:43:18.748,20 May 2025 00:54:31.710,672.962
753,20 May 2025 12:11:55.525,20 May 2025 12:22:24.974,629.448
754,20 May 2025 13:45:32.069,20 May 2025 13:56:29.506,657.436
755,20 May 2025 15:23:10.695,20 May 2025 15:24:01.772,51.077
756,20 May 2025 22:52:17.476,20 May 2025 23:01:22.099,544.623
757,21 May 2025 00:24:23.606,21 May 2025 00:35:54.972,691.366
758,21 May 2025 02:01:59.376,21 May 2025 02:07:24.816,325.440
759,21 May 2025 11:53:35.161,21 May 2025 12:03:00.990,565.829
760,21 May 2025 13:26:41.367,21 May 2025 13:38:04.759,683.393
761,21 May 2025 15:02:23.027,21 May 2025 15:08:05.488,342.462
762,21 May 2025 22:34:33.984,21 May 2025 22:42:09.243,455.259
763,22 May 2025 00:05:39.337,22 May 2025 00:17:13.046,693.709
764,22 May 2025 01:41:42.982,22 May 2025 01:49:44.966,481.984
765,22 May 2025 11:35:29.358,22 May 2025 11:43:16.269,466.910
766,22 May 2025 13:07:55.326,22 May 2025 13:19:29.586,694.260
767,22 May 2025 14:42:54.785,22 May 2025 14:50:43.073,468.288
768,22 May 2025 22:17:15.802,22 May 2025 22:22:37.591,321.789
769,22 May 2025 23:47:05.456,22 May 2025 23:58:26.431,680.975
770,23 May 2025 01:22:01.405,23 May 2025 01:31:36.813,575.408
771,23 May 2025 11:17:55.937,23 May 2025 11:22:52.602,296.665
772,23 May 2025 12:49:14.017,23 May 2025 13:00:43.986,689.970
773,23 May 2025 14:23:43.437,23 May 2025 14:32:57.266,553.828
774,23 May 2025 23:28:42.044,23 May 2025 23:39:35.129,653.085
775,24 May 2025 01:02:39.518,24 May 2025 01:13:15.113,635.595
776,24 May 2025 12:30:37.994,24 May 2025 12:41:47.410,669.416
777,24 May 2025 14:04:41.243,24 May 2025 14:14:56.041,614.798
778,24 May 2025 23:10:29.739,24 May 2025 23:20:38.621,608.882
779,25 May 2025 00:43:32.148,25 May 2025 00:54:44.790,672.641
780,25 May 2025 12:12:08.511,25 May 2025 12:22:38.547,630.036
781,25 May 2025 13:45:45.376,25 May 2025 13:56:42.417,657.040
782,25 May 2025 15:23:31.809,25 May 2025 15:24:06.503,34.694
783,25 May 2025 22:52:30.068,25 May 2025 23:01:35.574,545.506
784,26 May 2025 00:24:36.873,26 May 2025 00:36:08.118,691.245
785,26 May 2025 02:02:14.043,26 May 2025 02:07:36.918,322.875
786,26 May 2025 11:53:48.018,26 May 2025 12:03:14.763,566.745
787,26 May 2025 13:26:54.618,26 May 2025 13:38:17.795,683.177
788,26 May 2025 15:02:36.917,26 May 2025 15:08:17.519,340.602
789,26 May 2025 22:34:46.355,26 May 2025 22:42:22.866,456.511
790,27 May 2025 00:05:52.479,27 May 2025 00:17:26.250,693.770
791,27 May 2025 01:41:57.019,27 May 2025 01:49:57.622,480.604
792,27 May 2025 11:35:41.988,27 May 2025 11:43:30.345,468.356
793,27 May 2025 13:08:08.524,27 May 2025 13:19:42.743,694.219
794,27 May 2025 14:43:08.380,27 May 2025 14:50:55.479,467.100
795,27 May 2025 22:17:27.751,27 May 2025 22:22:51.560,323.810
796,27 May 2025 23:47:18.477,27 May 2025 23:58:39.690,681.213
797,28 May 2025 01:22:15.153,28 May 2025 01:31:49.682,574.529
798,28 May 2025 11:18:07.915,28 May 2025 11:23:07.411,299.496
799,28 May 2025 12:49:27.154,28 May 2025 13:00:57.269,690.115
800,28 May 2025 14:23:56.898,28 May 2025 14:33:09.883,552.984
801,28 May 2025 23:28:54.941,28 May 2025 23:39:48.446,653.505
802,29 May 2025 01:02:53.074,29 May 2025 01:13:28.106,635.032
803,29 May 2025 12:30:51.068,29 May 2025 12:42:00.827,669.759
804,29 May 2025 14:04:54.616,29 May 2025 14:15:08.817,614.200
805,29 May 2025 23:10:42.497,29 May 2025 23:20:52.006,609.509
806,30 May 2025 00:43:45.551,30 May 2025 00:54:57.869,672.318
807,30 May 2025 12:12:21.500,30 May 2025 12:22:52.117,630.618
808,30 May 2025 13:45:58.685,30 May 2025 13:56:55.328,656.642
809,30 May 2025 22:52:42.664,30 May 2025 23:01:49.050,546.386
810,31 May 2025 00:24:50.142,31 May 2025 00:36:21.265,691.122
811,31 May 2025 02:02:28.727,31 May 2025 02:07:49.009,320.282
812,31 May 2025 11:54:00.878,31 May 2025 12:03:28.535,567.657
813,31 May 2025 13:27:07.871,31 May 2025 13:38:30.830,682.959
814,31 May 2025 15:02:50.816,31 May 2025 15:08:29.543,338.728
815,31 May 2025 22:34:58.729,31 May 2025 22:42:36.488,457.759
816,1 Jun 2025 00:06:05.625,1 Jun 2025 00:17:39.456,693.831
817,1 Jun 2025 01:42:11.060,1 Jun 2025 01:50:10.277,479.217
818,1 Jun 2025 11:35:54.622,1 Jun 2025 11:43:44.418,469.796
819,1 Jun 2025 13:08:21.723,1 Jun 2025 13:19:55.900,694.177
820,1 Jun 2025 14:43:21.977,1 Jun 2025 14:51:07.882,465.905
821,1 Jun 2025 22:17:39.710,1 Jun 2025 22:23:05.519,325.809
822,1 Jun 2025 23:47:31.501,1 Jun 2025 23:58:52.946,681.446
823,2 Jun 2025 01:22:28.906,2 Jun 2025 01:32:02.552,573.645
824,2 Jun 2025 11:18:19.905,2 Jun 2025 11:23:22.205,302.299
825,2 Jun 2025 12:49:40.295,2 Jun 2025 13:01:10.550,690.255
826,2 Jun 2025 14:24:10.359,2 Jun 2025 14:33:22.497,552.138
827,2 Jun 2025 23:29:07.836,2 Jun 2025 23:40:01.758,653.922
828,3 Jun 2025 01:03:06.632,3 Jun 2025 01:13:41.099,634.467
829,3 Jun 2025 12:31:04.142,3 Jun 2025 12:42:14.243,670.100
830,3 Jun 2025 14:05:07.990,3 Jun 2025 14:15:21.590,613.599
831,3 Jun 2025 23:10:55.257,3 Jun 2025 23:21:05.389,610.132
832,4 Jun 2025 00:43:58.955,4 Jun 2025 00:55:10.947,671.992
833,4 Jun 2025 12:12:34.485,4 Jun 2025 12:23:05.687,631.202
834,4 Jun 2025 13:46:11.994,4 Jun 2025 13:57:08.236,656.242
835,4 Jun 2025 22:52:55.261,4 Jun 2025 23:02:02.521,547.260
836,5 Jun 2025 00:25:03.412,5 Jun 2025 00:36:34.409,690.997
837,5 Jun 2025 02:02:43.422,5 Jun 2025 02:08:01.086,317.664
838,5 Jun 2025 11:54:13.738,5 Jun 2025 12:03:42.302,568.565
839,5 Jun 2025 13:27:21.123,5 Jun 2025 13:38:43.862,682.740
840,5 Jun 2025 15:03:04.719,5 Jun 2025 15:08:41.559,336.840
841,5 Jun 2025 22:35:11.106,5 Jun 2025 22:42:50.101,458.995
842,6 Jun 2025 00:06:18.769,6 Jun 2025 00:17:52.656,693.887
843,6 Jun 2025 01:42:25.103,6 Jun 2025 01:50:22.926,477.823
844,6 Jun 2025 11:36:07.257,6 Jun 2025 11:43:58.484,471.227
845,6 Jun 2025 13:08:34.921,6 Jun 2025 13:20:09.053,694.132
846,6 Jun 2025 14:43:35.574,6 Jun 2025 14:51:20.280,464.706
847,6 Jun 2025 22:17:51.675,6 Jun 2025 22:23:19.468,327.793
848,6 Jun 2025 23:47:44.524,6 Jun 2025 23:59:06.202,681.678
849,7 Jun 2025 01:22:42.660,7 Jun 2025 01:32:15.417,572.757
850,7 Jun 2025 11:18:31.916,7 Jun 2025 11:23:36.978,305.062
851,7 Jun 2025 12:49:53.436,7 Jun 2025 13:01:23.825,690.389
852,7 Jun 2025 14:24:23.819,7 Jun 2025 14:33:35.108,551.290
853,7 Jun 2025 23:29:20.734,7 Jun 2025 23:40:15.071,654.337
854,8 Jun 2025 01:03:20.190,8 Jun 2025 01:13:54.088,633.898
855,8 Jun 2025 12:31:17.216,8 Jun 2025 12:42:27.653,670.437
856,8 Jun 2025 14:05:21.363,8 Jun 2025 14:15:34.360,612.997
857,8 Jun 2025 23:11:08.018,8 Jun 2025 23:21:18.771,610.753
858,9 Jun 2025 00:44:12.359,9 Jun 2025 00:55:24.023,671.664
859,9 Jun 2025 12:12:47.469,9 Jun 2025 12:23:19.256,631.786
860,9 Jun 2025 13:46:25.300,9 Jun 2025 13:57:21.141,655.841
861,9 Jun 2025 22:53:07.863,9 Jun 2025 23:02:15.992,548.129
862,10 Jun 2025 00:25:16.682,10 Jun 2025 00:36:47.552,690.870
863,10 Jun 2025 02:02:58.133,10 Jun 2025 02:08:13.147,315.014
864,10 Jun 2025 11:54:26.600,10 Jun 2025 12:03:56.064,569.464
865,10 Jun 2025 13:27:34.375,10 Jun 2025 13:38:56.893,682.518
866,10 Jun 2025 15:03:18.625,10 Jun 2025 15:08:53.569,334.944
867,10 Jun 2025 22:35:23.481,10 Jun 2025 22:43:03.717,460.236
868,11 Jun 2025 00:06:31.916,11 Jun 2025 00:18:05.858,693.942
869,11 Jun 2025 01:42:39.152,11 Jun 2025 01:50:35.571,476.419
870,11 Jun 2025 11:36:19.899,11 Jun 2025 11:44:12.543,472.644
871,11 Jun 2025 13:08:48.119,11 Jun 2025 13:20:22.201,694.082
872,11 Jun 2025 14:43:49.173,11 Jun 2025 14:51:32.672,463.499
873,11 Jun 2025 22:18:03.644,11 Jun 2025 22:23:33.415,329.771
874,11 Jun 2025 23:47:57.548,11 Jun 2025 23:59:19.457,681.908
875,12 Jun 2025 01:22:56.413,12 Jun 2025 01:32:28.280,571.867
876,12 Jun 2025 11:18:43.941,12 Jun 2025 11:23:51.735,307.794
877,12 Jun 2025 12:50:06.578,12 Jun 2025 13:01:37.102,690.523
878,12 Jun 2025 14:24:37.280,12 Jun 2025 14:33:47.718,550.439
879,12 Jun 2025 23:29:33.634,12 Jun 2025 23:40:28.385,654.751
880,13 Jun 2025 01:03:33.756,13 Jun 2025 01:14:07.076,633.321
881,13 Jun 2025 12:31:30.292,13 Jun 2025 12:42:41.062,670.770
882,13 Jun 2025 14:05:34.737,13 Jun 2025 14:15:47.130,612.392
883,13 Jun 2025 23:11:20.780,13 Jun 2025 23:21:32.151,611.371
884,14 Jun 2025 00:44:25.766,14 Jun 2025 00:55:37.098,671.332
885,14 Jun 2025 12:13:00.460,14 Jun 2025 12:23:32.821,632.361
886,14 Jun 2025 13:46:38.610,14 Jun 2025 13:57:34.047,655.436
887,14 Jun 2025 22:53:20.464,14 Jun 2025 23:02:29.462,548.998
888,15 Jun 2025 00:25:29.953,15 Jun 2025 00:37:00.695,690.742
889,15 Jun 2025 02:03:12.859,15 Jun 2025 02:08:25.195,312.335
890,15 Jun 2025 11:54:39.464,15 Jun 2025 12:04:09.827,570.363
891,15 Jun 2025 13:27:47.629,15 Jun 2025 13:39:09.923,682.294
892,15 Jun 2025 15:03:32.540,15 Jun 2025 15:09:05.572,333.031
893,15 Jun 2025 22:35:35.864,15 Jun 2025 22:43:17.331,461.467
894,16 Jun 2025 00:06:45.064,16 Jun 2025 00:18:19.062,693.998
895,16 Jun 2025 01:42:53.200,16 Jun 2025 01:50:48.213,475.013
896,16 Jun 2025 11:36:32.545,16 Jun 2025 11:44:26.600,474.056
897,16 Jun 2025 13:09:01.319,16 Jun 2025 13:20:35.352,694.032
898,16 Jun 2025 14:44:02.776,16 Jun 2025 14:51:45.065,462.289
899,16 Jun 2025 22:18:15.625,16 Jun 2025 22:23:47.352,331.727
900,16 Jun 2025 23:48:10.575,16 Jun 2025 23:59:32.714,682.139
901,17 Jun 2025 01:23:10.172,17 Jun 2025 01:32:41.140,570.968
902,17 Jun 2025 11:18:55.977,17 Jun 2025 11:24:06.478,310.501
903,17 Jun 2025 12:50:19.721,17 Jun 2025 13:01:50.380,690.658
904,17 Jun 2025 14:24:50.738,17 Jun 2025 14:34:00.326,549.588
905,17 Jun 2025 23:29:46.535,17 Jun 2025 23:40:41.697,655.162
906,18 Jun 2025 01:03:47.315,18 Jun 2025 01:14:20.062,632.747
907,18 Jun 2025 12:31:43.368,18 Jun 2025 12:42:54.473,671.105
908,18 Jun 2025 14:05:48.113,18 Jun 2025 14:15:59.897,611.784
909,18 Jun 2025 23:11:33.544,18 Jun 2025 23:21:45.530,611.986
910,19 Jun 2025 00:44:39.173,19 Jun 2025 00:55:50.170,670.997
911,19 Jun 2025 12:13:13.452,19 Jun 2025 12:23:46.381,632.929
912,19 Jun 2025 13:46:51.921,19 Jun 2025 13:57:46.949,655.028
913,19 Jun 2025 22:53:33.066,19 Jun 2025 23:02:42.929,549.863
914,20 Jun 2025 00:25:43.225,20 Jun 2025 00:37:13.836,690.611
915,20 Jun 2025 02:03:27.599,20 Jun 2025 02:08:37.228,309.630
916,20 Jun 2025 11:54:52.329,20 Jun 2025 12:04:23.586,571.257
917,20 Jun 2025 13:28:00.881,20 Jun 2025 13:39:22.950,682.068
918,20 Jun 2025 15:03:46.460,20 Jun 2025 15:09:17.565,331.105
919,20 Jun 2025 22:35:48.247,20 Jun 2025 22:43:30.940,462.693
920,21 Jun 2025 00:06:58.212,21 Jun 2025 00:18:32.256,694.044
921,21 Jun 2025 01:43:07.256,21 Jun 2025 01:51:00.851,473.595
922,21 Jun 2025 11:36:45.192,21 Jun 2025 11:44:40.651,475.459
923,21 Jun 2025 13:09:14.520,21 Jun 2025 13:20:48.499,693.979
924,21 Jun 2025 14:44:16.379,21 Jun 2025 14:51:57.453,461.074
925,21 Jun 2025 22:18:27.611,21 Jun 2025 22:24:01.281,333.670
926,21 Jun 2025 23:48:23.601,21 Jun 2025 23:59:45.969,682.368
927,22 Jun 2025 01:23:23.932,22 Jun 2025 01:32:53.999,570.067
928,22 Jun 2025 11:19:08.029,22 Jun 2025 11:24:21.202,313.174
929,22 Jun 2025 12:50:32.863,22 Jun 2025 13:02:03.648,690.785
930,22 Jun 2025 14:25:04.200,22 Jun 2025 14:34:12.930,548.730
931,22 Jun 2025 23:29:59.437,22 Jun 2025 23:40:55.007,655.571
932,23 Jun 2025 01:04:00.879,23 Jun 2025 01:14:33.046,632.167
933,23 Jun 2025 12:31:56.445,23 Jun 2025 12:43:07.880,671.434
934,23 Jun 2025 14:06:01.482,23 Jun 2025 14:16:12.661,611.179
935,23 Jun 2025 23:11:46.309,23 Jun 2025 23:21:58.907,612.599
936,24 Jun 2025 00:44:52.581,24 Jun 2025 00:56:03.240,670.658
937,24 Jun 2025 12:13:26.442,24 Jun 2025 12:23:59.940,633.498
938,24 Jun 2025 13:47:05.229,24 Jun 2025 13:57:59.850,654.621
939,24 Jun 2025 22:53:45.670,24 Jun 2025 23:02:56.396,550.726
940,25 Jun 2025 00:25:56.499,25 Jun 2025 00:37:26.976,690.477
941,25 Jun 2025 02:03:42.355,25 Jun 2025 02:08:49.244,306.888
942,25 Jun 2025 11:55:05.196,25 Jun 2025 12:04:37.342,572.145
943,25 Jun 2025 13:28:14.135,25 Jun 2025 13:39:35.975,681.841
944,25 Jun 2025 15:04:00.384,25 Jun 2025 15:09:29.554,329.170
945,25 Jun 2025 22:36:00.634,25 Jun 2025 22:43:44.549,463.915
946,26 Jun 2025 00:07:11.362,26 Jun 2025 00:18:45.460,694.097
947,26 Jun 2025 01:43:21.319,26 Jun 2025 01:51:13.483,472.165
948,26 Jun 2025 11:36:57.844,26 Jun 2025 11:44:54.695,476.851
949,26 Jun 2025 13:09:27.722,26 Jun 2025 13:21:01.646,693.924
950,26 Jun 2025 14:44:29.978,26 Jun 2025 14:52:09.840,459.862
951,26 Jun 2025 22:18:39.605,26 Jun 2025 22:24:15.207,335.603
952,26 Jun 2025 23:48:36.630,26 Jun 2025 23:59:59.223,682.594
953,27 Jun 2025 01:23:37.697,27 Jun 2025 01:33:06.857,569.160
954,27 Jun 2025 11:19:20.096,27 Jun 2025 11:24:35.913,315.817
955,27 Jun 2025 12:50:46.007,27 Jun 2025 13:02:16.923,690.916
956,27 Jun 2025 14:25:17.663,27 Jun 2025 14:34:25.533,547.870
957,27 Jun 2025 23:30:12.341,27 Jun 2025 23:41:08.318,655.977
958,28 Jun 2025 01:04:14.448,28 Jun 2025 01:14:46.030,631.583
959,28 Jun 2025 12:32:09.526,28 Jun 2025 12:43:21.285,671.759
960,28 Jun 2025 14:06:14.859,28 Jun 2025 14:16:25.425,610.566
961,28 Jun 2025 23:11:59.076,28 Jun 2025 23:22:12.285,613.209
962,29 Jun 2025 00:45:05.992,29 Jun 2025 00:56:16.312,670.320
963,29 Jun 2025 12:13:39.436,29 Jun 2025 12:24:13.499,634.063
964,29 Jun 2025 13:47:18.540,29 Jun 2025 13:58:12.750,654.210
965,29 Jun 2025 22:53:58.277,29 Jun 2025 23:03:09.861,551.585
966,30 Jun 2025 00:26:09.775,30 Jun 2025 00:37:40.116,690.341
967,30 Jun 2025 02:03:57.127,30 Jun 2025 02:09:01.247,304.120
968,30 Jun 2025 11:55:18.065,30 Jun 2025 12:04:51.095,573.030
969,30 Jun 2025 13:28:27.389,30 Jun 2025 13:39:49.000,681.611
970,30 Jun 2025 15:04:14.318,30 Jun 2025 15:09:41.533,327.215
971,30 Jun 2025 22:36:13.025,30 Jun 2025 22:43:58.154,465.129
972,1 Jul 2025 00:07:24.514,1 Jul 2025 00:18:58.657,694.144
973,1 Jul 2025 01:43:35.386,1 Jul 2025 01:51:26.114,470.728
974,1 Jul 2025 11:37:10.493,1 Jul 2025 11:45:08.737,478.245
975,1 Jul 2025 13:09:40.923,1 Jul 2025 13:21:14.791,693.868
976,1 Jul 2025 14:44:43.586,1 Jul 2025 14:52:22.222,458.637
977,1 Jul 2025 22:18:51.607,1 Jul 2025 22:24:29.123,337.516
978,1 Jul 2025 23:48:49.659,1 Jul 2025 23:59:59.992,670.332
