3UCubedIntegratedSim/Reports & Plots/Comms/UNH/Sat 6 Comms.csv

"Access","Start Time (UTCG)","Stop Time (UTCG)","Duration (sec)"
1,1 Jan 2025 20:52:25.451,1 Jan 2025 21:01:30.616,545.165
2,1 Jan 2025 22:24:31.993,1 Jan 2025 22:36:03.290,691.297
3,2 Jan 2025 00:02:08.628,2 Jan 2025 00:07:32.481,323.854
4,2 Jan 2025 09:53:43.300,2 Jan 2025 10:03:09.694,566.395
5,2 Jan 2025 11:26:49.744,2 Jan 2025 11:38:13.000,683.256
6,2 Jan 2025 13:02:31.799,2 Jan 2025 13:08:13.112,341.313
7,2 Jan 2025 20:34:41.814,2 Jan 2025 20:42:17.845,456.031
8,2 Jan 2025 22:05:47.648,2 Jan 2025 22:17:21.395,693.747
9,2 Jan 2025 23:41:51.842,2 Jan 2025 23:49:52.977,481.135
10,3 Jan 2025 09:35:37.350,3 Jan 2025 09:43:25.157,467.807
11,3 Jan 2025 11:08:03.670,3 Jan 2025 11:19:37.905,694.235
12,3 Jan 2025 12:43:03.376,3 Jan 2025 12:50:50.927,467.552
13,3 Jan 2025 20:17:23.375,3 Jan 2025 20:22:46.411,323.036
14,3 Jan 2025 21:47:13.691,3 Jan 2025 21:58:34.813,681.122
15,3 Jan 2025 23:22:10.086,3 Jan 2025 23:31:44.959,574.873
16,4 Jan 2025 09:18:03.522,4 Jan 2025 09:23:01.946,298.424
17,4 Jan 2025 10:49:22.325,4 Jan 2025 11:00:52.382,690.057
18,4 Jan 2025 12:23:51.943,4 Jan 2025 12:33:05.250,553.307
19,4 Jan 2025 21:28:50.201,4 Jan 2025 21:39:43.545,653.344
20,4 Jan 2025 23:02:48.082,4 Jan 2025 23:13:23.328,635.246
21,5 Jan 2025 10:30:46.260,5 Jan 2025 10:41:55.890,669.631
22,5 Jan 2025 12:04:49.696,5 Jan 2025 12:15:04.123,614.427
23,5 Jan 2025 21:10:37.811,5 Jan 2025 21:20:47.078,609.267
24,5 Jan 2025 22:43:40.621,5 Jan 2025 22:54:53.061,672.439
25,6 Jan 2025 10:12:16.719,6 Jan 2025 10:22:47.122,630.403
26,6 Jan 2025 11:45:53.787,6 Jan 2025 11:56:50.581,656.795
27,6 Jan 2025 13:23:48.277,6 Jan 2025 13:24:06.378,18.102
28,6 Jan 2025 20:52:38.044,6 Jan 2025 21:01:44.086,546.042
29,6 Jan 2025 22:24:45.258,6 Jan 2025 22:36:16.434,691.176
30,7 Jan 2025 00:02:23.302,7 Jan 2025 00:07:44.580,321.278
31,7 Jan 2025 09:53:56.149,7 Jan 2025 10:03:23.462,567.313
32,7 Jan 2025 11:27:02.994,7 Jan 2025 11:38:26.036,683.042
33,7 Jan 2025 13:02:45.697,7 Jan 2025 13:08:25.132,339.435
34,7 Jan 2025 20:34:54.187,7 Jan 2025 20:42:31.466,457.279
35,7 Jan 2025 22:06:00.789,7 Jan 2025 22:17:34.596,693.807
36,7 Jan 2025 23:42:05.875,7 Jan 2025 23:50:05.636,479.761
37,8 Jan 2025 09:35:49.976,8 Jan 2025 09:43:39.230,469.254
38,8 Jan 2025 11:08:16.866,8 Jan 2025 11:19:51.059,694.193
39,8 Jan 2025 12:43:16.973,8 Jan 2025 12:51:03.327,466.354
40,8 Jan 2025 20:17:35.333,8 Jan 2025 20:23:00.363,325.030
41,8 Jan 2025 21:47:26.711,8 Jan 2025 21:58:48.068,681.357
42,8 Jan 2025 23:22:23.833,8 Jan 2025 23:31:57.829,573.995
43,9 Jan 2025 09:18:15.498,9 Jan 2025 09:23:16.747,301.249
44,9 Jan 2025 10:49:35.459,9 Jan 2025 11:01:05.662,690.202
45,9 Jan 2025 12:24:05.405,9 Jan 2025 12:33:17.861,552.456
46,9 Jan 2025 21:29:03.097,9 Jan 2025 21:39:56.857,653.760
47,9 Jan 2025 23:03:01.638,9 Jan 2025 23:13:36.321,634.683
48,10 Jan 2025 10:30:59.330,10 Jan 2025 10:42:09.302,669.972
49,10 Jan 2025 12:05:03.069,10 Jan 2025 12:15:16.893,613.825
50,10 Jan 2025 21:10:50.569,10 Jan 2025 21:21:00.457,609.888
51,10 Jan 2025 22:43:54.022,10 Jan 2025 22:55:06.138,672.116
52,11 Jan 2025 10:12:29.703,11 Jan 2025 10:23:00.691,630.988
53,11 Jan 2025 11:46:07.095,11 Jan 2025 11:57:03.487,656.393
54,11 Jan 2025 20:52:50.640,11 Jan 2025 21:01:57.553,546.912
55,11 Jan 2025 22:24:58.525,11 Jan 2025 22:36:29.577,691.052
56,12 Jan 2025 00:02:37.983,12 Jan 2025 00:07:56.669,318.686
57,12 Jan 2025 09:54:09.002,12 Jan 2025 10:03:37.230,568.228
58,12 Jan 2025 11:27:16.244,12 Jan 2025 11:38:39.066,682.822
59,12 Jan 2025 13:02:59.603,12 Jan 2025 13:08:37.143,337.540
60,12 Jan 2025 20:35:06.563,12 Jan 2025 20:42:45.074,458.510
61,12 Jan 2025 22:06:13.932,12 Jan 2025 22:17:47.796,693.864
62,12 Jan 2025 23:42:19.912,12 Jan 2025 23:50:18.290,478.379
63,13 Jan 2025 09:36:02.603,13 Jan 2025 09:43:53.298,470.694
64,13 Jan 2025 11:08:30.061,13 Jan 2025 11:20:04.211,694.149
65,13 Jan 2025 12:43:30.572,13 Jan 2025 12:51:15.721,465.149
66,13 Jan 2025 20:17:47.299,13 Jan 2025 20:23:14.306,327.006
67,13 Jan 2025 21:47:39.732,13 Jan 2025 21:59:01.322,681.590
68,13 Jan 2025 23:22:37.582,13 Jan 2025 23:32:10.696,573.114
69,14 Jan 2025 09:18:27.488,14 Jan 2025 09:23:31.529,304.041
70,14 Jan 2025 10:49:48.597,14 Jan 2025 11:01:18.938,690.341
71,14 Jan 2025 12:24:18.865,14 Jan 2025 12:33:30.469,551.604
72,14 Jan 2025 21:29:15.991,14 Jan 2025 21:40:10.164,654.173
73,14 Jan 2025 23:03:15.194,14 Jan 2025 23:13:49.311,634.117
74,15 Jan 2025 10:31:12.400,15 Jan 2025 10:42:22.713,670.313
75,15 Jan 2025 12:05:16.441,15 Jan 2025 12:15:29.661,613.220
76,15 Jan 2025 21:11:03.328,15 Jan 2025 21:21:13.834,610.506
77,15 Jan 2025 22:44:07.419,15 Jan 2025 22:55:19.213,671.794
78,16 Jan 2025 10:12:42.687,16 Jan 2025 10:23:14.254,631.566
79,16 Jan 2025 11:46:20.402,16 Jan 2025 11:57:16.391,655.989
80,16 Jan 2025 20:53:03.238,16 Jan 2025 21:02:11.019,547.781
81,16 Jan 2025 22:25:11.793,16 Jan 2025 22:36:42.719,690.926
82,17 Jan 2025 00:02:52.679,17 Jan 2025 00:08:08.741,316.063
83,17 Jan 2025 09:54:21.859,17 Jan 2025 10:03:50.994,569.136
84,17 Jan 2025 11:27:29.494,17 Jan 2025 11:38:52.095,682.601
85,17 Jan 2025 13:03:13.512,17 Jan 2025 13:08:49.148,335.636
86,17 Jan 2025 20:35:18.942,17 Jan 2025 20:42:58.682,459.740
87,17 Jan 2025 22:06:27.076,17 Jan 2025 22:18:00.995,693.920
88,17 Jan 2025 23:42:33.953,17 Jan 2025 23:50:30.939,476.986
89,18 Jan 2025 09:36:15.236,18 Jan 2025 09:44:07.362,472.126
90,18 Jan 2025 11:08:43.257,18 Jan 2025 11:20:17.357,694.100
91,18 Jan 2025 12:43:44.172,18 Jan 2025 12:51:28.109,463.938
92,18 Jan 2025 20:17:59.270,18 Jan 2025 20:23:28.244,328.975
93,18 Jan 2025 21:47:52.755,18 Jan 2025 21:59:14.575,681.821
94,18 Jan 2025 23:22:51.336,18 Jan 2025 23:32:23.561,572.224
95,19 Jan 2025 09:18:39.497,19 Jan 2025 09:23:46.295,306.798
96,19 Jan 2025 10:50:01.736,19 Jan 2025 11:01:32.212,690.476
97,19 Jan 2025 12:24:32.327,19 Jan 2025 12:33:43.077,550.750
98,19 Jan 2025 21:29:28.889,19 Jan 2025 21:40:23.475,654.586
99,19 Jan 2025 23:03:28.750,19 Jan 2025 23:14:02.300,633.550
100,20 Jan 2025 10:31:25.472,20 Jan 2025 10:42:36.121,670.649
101,20 Jan 2025 12:05:29.815,20 Jan 2025 12:15:42.428,612.613
102,20 Jan 2025 21:11:16.089,20 Jan 2025 21:21:27.212,611.122
103,20 Jan 2025 22:44:20.823,20 Jan 2025 22:55:32.289,671.466
104,21 Jan 2025 10:12:55.672,21 Jan 2025 10:23:27.819,632.147
105,21 Jan 2025 11:46:33.711,21 Jan 2025 11:57:29.295,655.583
106,21 Jan 2025 20:53:15.838,21 Jan 2025 21:02:24.485,548.646
107,21 Jan 2025 22:25:25.064,21 Jan 2025 22:36:55.861,690.797
108,22 Jan 2025 00:03:07.390,22 Jan 2025 00:08:20.806,313.416
109,22 Jan 2025 09:54:34.718,22 Jan 2025 10:04:04.758,570.039
110,22 Jan 2025 11:27:42.747,22 Jan 2025 11:39:05.120,682.373
111,22 Jan 2025 13:03:27.430,22 Jan 2025 13:09:01.147,333.716
112,22 Jan 2025 20:35:31.325,22 Jan 2025 20:43:12.290,460.965
113,22 Jan 2025 22:06:40.222,22 Jan 2025 22:18:14.195,693.973
114,22 Jan 2025 23:42:48.001,22 Jan 2025 23:50:43.583,475.581
115,23 Jan 2025 09:36:27.874,23 Jan 2025 09:44:21.419,473.544
116,23 Jan 2025 11:08:56.456,23 Jan 2025 11:20:30.507,694.051
117,23 Jan 2025 12:43:57.777,23 Jan 2025 12:51:40.501,462.724
118,23 Jan 2025 20:18:11.253,23 Jan 2025 20:23:42.175,330.922
119,23 Jan 2025 21:48:05.780,23 Jan 2025 21:59:27.829,682.049
120,23 Jan 2025 23:23:05.092,23 Jan 2025 23:32:36.426,571.333
121,24 Jan 2025 09:18:51.523,24 Jan 2025 09:24:01.048,309.524
122,24 Jan 2025 10:50:14.877,24 Jan 2025 11:01:45.485,690.608
123,24 Jan 2025 12:24:45.792,24 Jan 2025 12:33:55.682,549.890
124,24 Jan 2025 21:29:41.789,24 Jan 2025 21:40:36.785,654.995
125,24 Jan 2025 23:03:42.311,24 Jan 2025 23:14:15.290,632.979
126,25 Jan 2025 10:31:38.545,25 Jan 2025 10:42:49.531,670.986
127,25 Jan 2025 12:05:43.191,25 Jan 2025 12:15:55.194,612.003
128,25 Jan 2025 21:11:28.853,25 Jan 2025 21:21:40.588,611.734
129,25 Jan 2025 22:44:34.228,25 Jan 2025 22:55:45.364,671.136
130,26 Jan 2025 10:13:08.659,26 Jan 2025 10:23:41.382,632.723
131,26 Jan 2025 11:46:47.021,26 Jan 2025 11:57:42.196,655.175
132,26 Jan 2025 20:53:28.442,26 Jan 2025 21:02:37.948,549.506
133,26 Jan 2025 22:25:38.336,26 Jan 2025 22:37:09.003,690.667
134,27 Jan 2025 00:03:22.116,27 Jan 2025 00:08:32.855,310.739
135,27 Jan 2025 09:54:47.580,27 Jan 2025 10:04:18.517,570.937
136,27 Jan 2025 11:27:56.004,27 Jan 2025 11:39:18.151,682.147
137,27 Jan 2025 13:03:41.358,27 Jan 2025 13:09:13.138,331.780
138,27 Jan 2025 20:35:43.716,27 Jan 2025 20:43:25.895,462.180
139,27 Jan 2025 22:06:53.367,27 Jan 2025 22:18:27.394,694.027
140,27 Jan 2025 23:43:02.050,27 Jan 2025 23:50:56.228,474.178
141,28 Jan 2025 09:36:40.514,28 Jan 2025 09:44:35.473,474.959
142,28 Jan 2025 11:09:09.654,28 Jan 2025 11:20:43.655,694.001
143,28 Jan 2025 12:44:11.383,28 Jan 2025 12:51:52.886,461.503
144,28 Jan 2025 20:18:23.243,28 Jan 2025 20:23:56.098,332.855
145,28 Jan 2025 21:48:18.806,28 Jan 2025 21:59:41.081,682.276
146,28 Jan 2025 23:23:18.849,28 Jan 2025 23:32:49.288,570.438
147,29 Jan 2025 09:19:03.557,29 Jan 2025 09:24:15.783,312.226
148,29 Jan 2025 10:50:28.017,29 Jan 2025 11:01:58.760,690.743
149,29 Jan 2025 12:24:59.251,29 Jan 2025 12:34:08.284,549.032
150,29 Jan 2025 21:29:54.690,29 Jan 2025 21:40:50.093,655.403
151,29 Jan 2025 23:03:55.873,29 Jan 2025 23:14:28.277,632.404
152,30 Jan 2025 10:31:51.623,30 Jan 2025 10:43:02.938,671.315
153,30 Jan 2025 12:05:56.567,30 Jan 2025 12:16:07.957,611.390
154,30 Jan 2025 21:11:41.618,30 Jan 2025 21:21:53.962,612.344
155,30 Jan 2025 22:44:47.634,30 Jan 2025 22:55:58.437,670.803
156,31 Jan 2025 10:13:21.644,31 Jan 2025 10:23:54.942,633.298
157,31 Jan 2025 11:47:00.330,31 Jan 2025 11:57:55.096,654.766
158,31 Jan 2025 20:53:41.046,31 Jan 2025 21:02:51.410,550.365
159,31 Jan 2025 22:25:51.608,31 Jan 2025 22:37:22.143,690.535
160,1 Feb 2025 00:03:36.858,1 Feb 2025 00:08:44.886,308.028
161,1 Feb 2025 09:55:00.442,1 Feb 2025 10:04:32.269,571.827
162,1 Feb 2025 11:28:09.257,1 Feb 2025 11:39:31.175,681.919
163,1 Feb 2025 13:03:55.287,1 Feb 2025 13:09:25.121,329.834
164,1 Feb 2025 20:35:56.104,1 Feb 2025 20:43:39.500,463.396
165,1 Feb 2025 22:07:06.513,1 Feb 2025 22:18:40.592,694.078
166,1 Feb 2025 23:43:16.105,1 Feb 2025 23:51:08.867,472.762
167,2 Feb 2025 09:36:53.159,2 Feb 2025 09:44:49.522,476.363
168,2 Feb 2025 11:09:22.854,2 Feb 2025 11:20:56.801,693.947
169,2 Feb 2025 12:44:24.992,2 Feb 2025 12:52:05.270,460.278
170,2 Feb 2025 20:18:35.240,2 Feb 2025 20:24:10.017,334.777
171,2 Feb 2025 21:48:31.833,2 Feb 2025 21:59:54.330,682.497
172,2 Feb 2025 23:23:32.608,2 Feb 2025 23:33:02.148,569.540
173,3 Feb 2025 09:19:15.612,3 Feb 2025 09:24:30.503,314.892
174,3 Feb 2025 10:50:41.159,3 Feb 2025 11:02:12.027,690.869
175,3 Feb 2025 12:25:12.717,3 Feb 2025 12:34:20.885,548.167
176,3 Feb 2025 21:30:07.594,3 Feb 2025 21:41:03.402,655.808
177,3 Feb 2025 23:04:09.435,3 Feb 2025 23:14:41.264,631.829
178,4 Feb 2025 10:32:04.694,4 Feb 2025 10:43:16.343,671.649
179,4 Feb 2025 12:06:09.945,4 Feb 2025 12:16:20.719,610.775
180,4 Feb 2025 21:11:54.385,4 Feb 2025 21:22:07.337,612.952
181,4 Feb 2025 22:45:01.044,4 Feb 2025 22:56:11.511,670.467
182,5 Feb 2025 10:13:34.634,5 Feb 2025 10:24:08.502,633.868
183,5 Feb 2025 11:47:13.642,5 Feb 2025 11:58:07.995,654.353
184,5 Feb 2025 20:53:53.649,5 Feb 2025 21:03:04.873,551.223
185,5 Feb 2025 22:26:04.884,5 Feb 2025 22:37:35.284,690.401
186,6 Feb 2025 00:03:51.617,6 Feb 2025 00:08:56.905,305.288
187,6 Feb 2025 09:55:13.307,6 Feb 2025 10:04:46.025,572.718
188,6 Feb 2025 11:28:22.509,6 Feb 2025 11:39:44.200,681.691
189,6 Feb 2025 13:04:09.227,6 Feb 2025 13:09:37.095,327.867
190,6 Feb 2025 20:36:08.498,6 Feb 2025 20:43:53.102,464.604
191,6 Feb 2025 22:07:19.665,6 Feb 2025 22:18:53.790,694.125
192,6 Feb 2025 23:43:30.166,6 Feb 2025 23:51:21.506,471.339
193,7 Feb 2025 09:37:05.806,7 Feb 2025 09:45:03.567,477.761
194,7 Feb 2025 11:09:36.056,7 Feb 2025 11:21:09.947,693.891
195,7 Feb 2025 12:44:38.600,7 Feb 2025 12:52:17.650,459.050
196,7 Feb 2025 20:18:47.246,7 Feb 2025 20:24:23.927,336.681
197,7 Feb 2025 21:48:44.863,7 Feb 2025 22:00:07.582,682.719
198,7 Feb 2025 23:23:46.372,7 Feb 2025 23:33:15.009,568.636
199,8 Feb 2025 09:19:27.675,8 Feb 2025 09:24:45.212,317.537
200,8 Feb 2025 10:50:54.306,8 Feb 2025 11:02:25.302,690.996
201,8 Feb 2025 12:25:26.187,8 Feb 2025 12:34:33.484,547.297
202,8 Feb 2025 21:30:20.500,8 Feb 2025 21:41:16.710,656.211
203,8 Feb 2025 23:04:23.002,8 Feb 2025 23:14:54.251,631.249
204,9 Feb 2025 10:32:17.769,9 Feb 2025 10:43:29.748,671.979
205,9 Feb 2025 12:06:23.320,9 Feb 2025 12:16:33.480,610.160
206,9 Feb 2025 21:12:07.155,9 Feb 2025 21:22:20.710,613.555
207,9 Feb 2025 22:45:14.454,9 Feb 2025 22:56:24.581,670.127
208,10 Feb 2025 10:13:47.621,10 Feb 2025 10:24:22.059,634.438
209,10 Feb 2025 11:47:26.954,10 Feb 2025 11:58:20.892,653.938
210,10 Feb 2025 20:54:06.262,10 Feb 2025 21:03:18.332,552.070
211,10 Feb 2025 22:26:18.155,10 Feb 2025 22:37:48.423,690.268
212,11 Feb 2025 00:04:06.391,11 Feb 2025 00:09:08.909,302.518
213,11 Feb 2025 09:55:26.172,11 Feb 2025 10:04:59.777,573.604
214,11 Feb 2025 11:28:35.763,11 Feb 2025 11:39:57.222,681.459
215,11 Feb 2025 13:04:23.173,11 Feb 2025 13:09:49.061,325.888
216,11 Feb 2025 20:36:20.893,11 Feb 2025 20:44:06.700,465.807
217,11 Feb 2025 22:07:32.818,11 Feb 2025 22:19:06.987,694.169
218,11 Feb 2025 23:43:44.231,11 Feb 2025 23:51:34.139,469.908
219,12 Feb 2025 09:37:18.456,12 Feb 2025 09:45:17.608,479.152
220,12 Feb 2025 11:09:49.257,12 Feb 2025 11:21:23.091,693.834
221,12 Feb 2025 12:44:52.213,12 Feb 2025 12:52:30.026,457.812
222,12 Feb 2025 20:18:59.258,12 Feb 2025 20:24:37.832,338.574
223,12 Feb 2025 21:48:57.893,12 Feb 2025 22:00:20.833,682.939
224,12 Feb 2025 23:24:00.138,12 Feb 2025 23:33:27.866,567.728
225,13 Feb 2025 09:19:39.753,13 Feb 2025 09:24:59.903,320.150
226,13 Feb 2025 10:51:07.446,13 Feb 2025 11:02:38.570,691.124
227,13 Feb 2025 12:25:39.655,13 Feb 2025 12:34:46.080,546.425
228,13 Feb 2025 21:30:33.405,13 Feb 2025 21:41:30.017,656.612
229,13 Feb 2025 23:04:36.570,13 Feb 2025 23:15:07.235,630.665
230,14 Feb 2025 10:32:30.850,14 Feb 2025 10:43:43.145,672.295
231,14 Feb 2025 12:06:36.699,14 Feb 2025 12:16:46.238,609.540
232,14 Feb 2025 21:12:19.925,14 Feb 2025 21:22:34.083,614.158
233,14 Feb 2025 22:45:27.866,14 Feb 2025 22:56:37.653,669.787
234,15 Feb 2025 10:14:00.613,15 Feb 2025 10:24:35.614,635.001
235,15 Feb 2025 11:47:40.267,15 Feb 2025 11:58:33.788,653.521
236,15 Feb 2025 20:54:18.874,15 Feb 2025 21:03:31.792,552.917
237,15 Feb 2025 22:26:31.438,15 Feb 2025 22:38:01.563,690.126
238,16 Feb 2025 00:04:21.183,16 Feb 2025 00:09:20.895,299.712
239,16 Feb 2025 09:55:39.037,16 Feb 2025 10:05:13.527,574.490
240,16 Feb 2025 11:28:49.019,16 Feb 2025 11:40:10.244,681.225
241,16 Feb 2025 13:04:37.125,16 Feb 2025 13:10:01.022,323.897
242,16 Feb 2025 20:36:33.292,16 Feb 2025 20:44:20.298,467.006
243,16 Feb 2025 22:07:45.973,16 Feb 2025 22:19:20.184,694.211
244,16 Feb 2025 23:43:58.301,16 Feb 2025 23:51:46.768,468.467
245,17 Feb 2025 09:37:31.107,17 Feb 2025 09:45:31.646,480.539
246,17 Feb 2025 11:10:02.460,17 Feb 2025 11:21:36.234,693.774
247,17 Feb 2025 12:45:05.830,17 Feb 2025 12:52:42.400,456.570
248,17 Feb 2025 20:19:11.277,17 Feb 2025 20:24:51.733,340.456
249,17 Feb 2025 21:49:10.927,17 Feb 2025 22:00:34.084,683.158
250,17 Feb 2025 23:24:13.908,17 Feb 2025 23:33:40.722,566.813
251,18 Feb 2025 09:19:51.846,18 Feb 2025 09:25:14.585,322.738
252,18 Feb 2025 10:51:20.595,18 Feb 2025 11:02:51.837,691.243
253,18 Feb 2025 12:25:53.127,18 Feb 2025 12:34:58.675,545.549
254,18 Feb 2025 20:03:23.055,18 Feb 2025 20:03:56.085,33.030
255,18 Feb 2025 21:30:46.314,18 Feb 2025 21:41:43.326,657.011
256,18 Feb 2025 23:04:50.142,18 Feb 2025 23:15:20.219,630.078
257,19 Feb 2025 10:32:43.925,19 Feb 2025 10:43:56.551,672.625
258,19 Feb 2025 12:06:50.080,19 Feb 2025 12:16:58.992,608.911
259,19 Feb 2025 21:12:32.702,19 Feb 2025 21:22:47.456,614.754
260,19 Feb 2025 22:45:41.282,19 Feb 2025 22:56:50.724,669.443
261,20 Feb 2025 10:14:13.609,20 Feb 2025 10:24:49.169,635.560
262,20 Feb 2025 11:47:53.582,20 Feb 2025 11:58:46.684,653.102
263,20 Feb 2025 20:54:31.489,20 Feb 2025 21:03:45.251,553.763
264,20 Feb 2025 22:26:44.714,20 Feb 2025 22:38:14.702,689.988
265,21 Feb 2025 00:04:35.994,21 Feb 2025 00:09:32.868,296.874
266,21 Feb 2025 09:55:51.907,21 Feb 2025 10:05:27.273,575.366
267,21 Feb 2025 11:29:02.277,21 Feb 2025 11:40:23.265,680.988
268,21 Feb 2025 13:04:51.087,21 Feb 2025 13:10:12.974,321.886
269,21 Feb 2025 20:36:45.698,21 Feb 2025 20:44:33.894,468.196
270,21 Feb 2025 22:07:59.131,21 Feb 2025 22:19:33.382,694.251
271,21 Feb 2025 23:44:12.377,21 Feb 2025 23:51:59.396,467.018
272,22 Feb 2025 09:37:43.768,22 Feb 2025 09:45:45.680,481.911
273,22 Feb 2025 11:10:15.663,22 Feb 2025 11:21:49.376,693.713
274,22 Feb 2025 12:45:19.451,22 Feb 2025 12:52:54.771,455.320
275,22 Feb 2025 20:19:23.305,22 Feb 2025 20:25:05.626,342.321
276,22 Feb 2025 21:49:23.962,22 Feb 2025 22:00:47.336,683.374
277,22 Feb 2025 23:24:27.681,22 Feb 2025 23:33:53.577,565.896
278,23 Feb 2025 09:20:03.950,23 Feb 2025 09:25:29.250,325.299
279,23 Feb 2025 10:51:33.738,23 Feb 2025 11:03:05.103,691.365
280,23 Feb 2025 12:26:06.602,23 Feb 2025 12:35:11.264,544.662
281,23 Feb 2025 20:03:27.498,23 Feb 2025 20:04:17.483,49.985
282,23 Feb 2025 21:30:59.224,23 Feb 2025 21:41:56.632,657.407
283,23 Feb 2025 23:05:03.715,23 Feb 2025 23:15:33.201,629.486
284,24 Feb 2025 10:32:57.007,24 Feb 2025 10:44:09.950,672.943
285,24 Feb 2025 12:07:03.463,24 Feb 2025 12:17:11.748,608.285
286,24 Feb 2025 21:12:45.477,24 Feb 2025 21:23:00.827,615.350
287,24 Feb 2025 22:45:54.698,24 Feb 2025 22:57:03.795,669.097
288,25 Feb 2025 10:14:26.602,25 Feb 2025 10:25:02.721,636.119
289,25 Feb 2025 11:48:06.897,25 Feb 2025 11:58:59.577,652.680
290,25 Feb 2025 20:54:44.106,25 Feb 2025 21:03:58.708,554.602
291,25 Feb 2025 22:26:58.000,25 Feb 2025 22:38:27.841,689.842
292,26 Feb 2025 00:04:50.819,26 Feb 2025 00:09:44.824,294.004
293,26 Feb 2025 09:56:04.778,26 Feb 2025 10:05:41.019,576.241
294,26 Feb 2025 11:29:15.534,26 Feb 2025 11:40:36.283,680.749
295,26 Feb 2025 13:05:05.056,26 Feb 2025 13:10:24.916,319.861
296,26 Feb 2025 20:36:58.103,26 Feb 2025 20:44:47.486,469.382
297,26 Feb 2025 22:08:12.286,26 Feb 2025 22:19:46.577,694.291
298,26 Feb 2025 23:44:26.456,26 Feb 2025 23:52:12.018,465.562
299,27 Feb 2025 09:37:56.427,27 Feb 2025 09:45:59.710,483.283
300,27 Feb 2025 11:10:28.866,27 Feb 2025 11:22:02.516,693.650
301,27 Feb 2025 12:45:33.072,27 Feb 2025 12:53:07.138,454.065
302,27 Feb 2025 20:19:35.338,27 Feb 2025 20:25:19.513,344.175
303,27 Feb 2025 21:49:36.997,27 Feb 2025 22:01:00.585,683.588
304,27 Feb 2025 23:24:41.456,27 Feb 2025 23:34:06.429,564.973
305,28 Feb 2025 09:20:16.067,28 Feb 2025 09:25:43.905,327.837
306,28 Feb 2025 10:51:46.885,28 Feb 2025 11:03:18.367,691.482
307,28 Feb 2025 12:26:20.078,28 Feb 2025 12:35:23.854,543.777
308,28 Feb 2025 20:03:34.152,28 Feb 2025 20:04:36.664,62.512
309,28 Feb 2025 21:31:12.135,28 Feb 2025 21:42:09.938,657.803
310,28 Feb 2025 23:05:17.289,28 Feb 2025 23:15:46.182,628.893
311,1 Mar 2025 10:33:10.087,1 Mar 2025 10:44:23.347,673.260
312,1 Mar 2025 12:07:16.846,1 Mar 2025 12:17:24.502,607.656
313,1 Mar 2025 21:12:58.254,1 Mar 2025 21:23:14.198,615.945
314,1 Mar 2025 22:46:08.116,1 Mar 2025 22:57:16.865,668.749
315,2 Mar 2025 10:14:39.599,2 Mar 2025 10:25:16.270,636.671
316,2 Mar 2025 11:48:20.212,2 Mar 2025 11:59:12.469,652.257
317,2 Mar 2025 20:54:56.725,2 Mar 2025 21:04:12.165,555.440
318,2 Mar 2025 22:27:11.283,2 Mar 2025 22:38:40.979,689.696
319,3 Mar 2025 00:05:05.666,3 Mar 2025 00:09:56.761,291.095
320,3 Mar 2025 09:56:17.653,3 Mar 2025 10:05:54.762,577.110
321,3 Mar 2025 11:29:28.793,3 Mar 2025 11:40:49.301,680.508
322,3 Mar 2025 13:05:19.031,3 Mar 2025 13:10:36.853,317.822
323,3 Mar 2025 20:37:10.512,3 Mar 2025 20:45:01.078,470.566
324,3 Mar 2025 22:08:25.447,3 Mar 2025 22:19:59.773,694.327
325,3 Mar 2025 23:44:40.542,3 Mar 2025 23:52:24.637,464.094
326,4 Mar 2025 09:38:09.095,4 Mar 2025 09:46:13.737,484.642
327,4 Mar 2025 11:10:42.071,4 Mar 2025 11:22:15.657,693.586
328,4 Mar 2025 12:45:46.698,4 Mar 2025 12:53:19.504,452.806
329,4 Mar 2025 20:19:47.376,4 Mar 2025 20:25:33.393,346.017
330,4 Mar 2025 21:49:50.039,4 Mar 2025 22:01:13.840,683.801
331,4 Mar 2025 23:24:55.231,4 Mar 2025 23:34:19.281,564.049
332,5 Mar 2025 09:20:28.198,5 Mar 2025 09:25:58.546,330.347
333,5 Mar 2025 10:52:00.034,5 Mar 2025 11:03:31.631,691.597
334,5 Mar 2025 12:26:33.551,5 Mar 2025 12:35:36.444,542.893
335,5 Mar 2025 20:03:41.882,5 Mar 2025 20:04:54.783,72.900
336,5 Mar 2025 21:31:25.050,5 Mar 2025 21:42:23.245,658.196
337,5 Mar 2025 23:05:30.868,5 Mar 2025 23:15:59.165,628.297
338,6 Mar 2025 10:33:23.169,6 Mar 2025 10:44:36.745,673.576
339,6 Mar 2025 12:07:30.231,6 Mar 2025 12:17:37.256,607.024
340,6 Mar 2025 21:13:11.034,6 Mar 2025 21:23:27.570,616.536
341,6 Mar 2025 22:46:21.537,6 Mar 2025 22:57:29.936,668.398
342,7 Mar 2025 10:14:52.595,7 Mar 2025 10:25:29.820,637.225
343,7 Mar 2025 11:48:33.530,7 Mar 2025 11:59:25.360,651.830
344,7 Mar 2025 20:55:09.347,7 Mar 2025 21:04:25.621,556.274
345,7 Mar 2025 22:27:24.569,7 Mar 2025 22:38:54.118,689.549
346,8 Mar 2025 00:05:20.536,8 Mar 2025 00:10:08.686,288.150
347,8 Mar 2025 09:56:30.529,8 Mar 2025 10:06:08.505,577.976
348,8 Mar 2025 11:29:42.054,8 Mar 2025 11:41:02.319,680.265
349,8 Mar 2025 13:05:33.017,8 Mar 2025 13:10:48.779,315.762
350,8 Mar 2025 20:37:22.925,8 Mar 2025 20:45:14.667,471.742
351,8 Mar 2025 22:08:38.609,8 Mar 2025 22:20:12.969,694.360
352,8 Mar 2025 23:44:54.633,8 Mar 2025 23:52:37.254,462.621
353,9 Mar 2025 09:38:21.765,9 Mar 2025 09:46:27.759,485.994
354,9 Mar 2025 11:10:55.277,9 Mar 2025 11:22:28.795,693.518
355,9 Mar 2025 12:46:00.326,9 Mar 2025 12:53:31.863,451.537
356,9 Mar 2025 20:19:59.424,9 Mar 2025 20:25:47.269,347.844
357,9 Mar 2025 21:50:03.079,9 Mar 2025 22:01:27.089,684.010
358,9 Mar 2025 23:25:09.013,9 Mar 2025 23:34:32.131,563.118
359,10 Mar 2025 09:20:40.339,10 Mar 2025 09:26:13.173,332.834
360,10 Mar 2025 10:52:13.182,10 Mar 2025 11:03:44.890,691.708
361,10 Mar 2025 12:26:47.028,10 Mar 2025 12:35:49.031,542.002
362,10 Mar 2025 20:03:50.267,10 Mar 2025 20:05:12.239,81.972
363,10 Mar 2025 21:31:37.965,10 Mar 2025 21:42:36.549,658.584
364,10 Mar 2025 23:05:44.447,10 Mar 2025 23:16:12.146,627.698
365,11 Mar 2025 10:33:36.252,11 Mar 2025 10:44:50.139,673.888
366,11 Mar 2025 12:07:43.617,11 Mar 2025 12:17:50.007,606.390
367,11 Mar 2025 21:13:23.814,11 Mar 2025 21:23:40.939,617.125
368,11 Mar 2025 22:46:34.959,11 Mar 2025 22:57:43.004,668.045
369,12 Mar 2025 10:15:05.593,12 Mar 2025 10:25:43.367,637.774
370,12 Mar 2025 11:48:46.848,12 Mar 2025 11:59:38.249,651.402
371,12 Mar 2025 20:55:21.970,12 Mar 2025 21:04:39.075,557.105
372,12 Mar 2025 22:27:37.856,12 Mar 2025 22:39:07.254,689.399
373,13 Mar 2025 00:05:35.419,13 Mar 2025 00:10:20.588,285.169
374,13 Mar 2025 09:56:43.406,13 Mar 2025 10:06:22.243,578.837
375,13 Mar 2025 11:29:55.314,13 Mar 2025 11:41:15.334,680.020
376,13 Mar 2025 13:05:47.007,13 Mar 2025 13:11:00.697,313.691
377,13 Mar 2025 20:37:35.340,13 Mar 2025 20:45:28.254,472.915
378,13 Mar 2025 22:08:51.769,13 Mar 2025 22:20:26.164,694.395
379,13 Mar 2025 23:45:08.729,13 Mar 2025 23:52:49.864,461.136
380,14 Mar 2025 09:38:34.437,14 Mar 2025 09:46:41.775,487.338
381,14 Mar 2025 11:11:08.482,14 Mar 2025 11:22:41.932,693.449
382,14 Mar 2025 12:46:13.956,14 Mar 2025 12:53:44.222,450.266
383,14 Mar 2025 20:20:11.477,14 Mar 2025 20:26:01.141,349.664
384,14 Mar 2025 21:50:16.117,14 Mar 2025 22:01:40.338,684.221
385,14 Mar 2025 23:25:22.798,14 Mar 2025 23:34:44.978,562.180
386,15 Mar 2025 09:20:52.494,15 Mar 2025 09:26:27.786,335.292
387,15 Mar 2025 10:52:26.331,15 Mar 2025 11:03:58.150,691.819
388,15 Mar 2025 12:27:00.507,15 Mar 2025 12:36:01.616,541.109
389,15 Mar 2025 20:03:59.107,15 Mar 2025 20:05:29.247,90.140
390,15 Mar 2025 21:31:50.881,15 Mar 2025 21:42:49.855,658.974
391,15 Mar 2025 23:05:58.025,15 Mar 2025 23:16:25.125,627.100
392,16 Mar 2025 10:33:49.336,16 Mar 2025 10:45:03.533,674.197
393,16 Mar 2025 12:07:57.004,16 Mar 2025 12:18:02.757,605.754
394,16 Mar 2025 21:13:36.597,16 Mar 2025 21:23:54.309,617.712
395,16 Mar 2025 22:46:48.384,16 Mar 2025 22:57:56.072,667.689
396,17 Mar 2025 10:15:18.594,17 Mar 2025 10:25:56.917,638.322
397,17 Mar 2025 11:49:00.163,17 Mar 2025 11:59:51.139,650.976
398,17 Mar 2025 20:55:34.591,17 Mar 2025 21:04:52.530,557.938
399,17 Mar 2025 22:27:51.145,17 Mar 2025 22:39:20.391,689.246
400,18 Mar 2025 00:05:50.325,18 Mar 2025 00:10:32.471,282.146
401,18 Mar 2025 09:56:56.287,18 Mar 2025 10:06:35.979,579.692
402,18 Mar 2025 11:30:08.576,18 Mar 2025 11:41:28.349,679.773
403,18 Mar 2025 13:06:01.006,18 Mar 2025 13:11:12.609,311.603
404,18 Mar 2025 20:37:47.761,18 Mar 2025 20:45:41.842,474.081
405,18 Mar 2025 22:09:04.934,18 Mar 2025 22:20:39.359,694.425
406,18 Mar 2025 23:45:22.831,18 Mar 2025 23:53:02.472,459.641
407,19 Mar 2025 09:38:47.115,19 Mar 2025 09:46:55.789,488.674
408,19 Mar 2025 11:11:21.691,19 Mar 2025 11:22:55.072,693.381
409,19 Mar 2025 12:46:27.589,19 Mar 2025 12:53:56.579,448.990
410,19 Mar 2025 20:20:23.538,19 Mar 2025 20:26:15.012,351.474
411,19 Mar 2025 21:50:29.161,19 Mar 2025 22:01:53.588,684.427
412,19 Mar 2025 23:25:36.587,19 Mar 2025 23:34:57.825,561.237
413,20 Mar 2025 09:21:04.662,20 Mar 2025 09:26:42.389,337.727
414,20 Mar 2025 10:52:39.482,20 Mar 2025 11:04:11.411,691.929
415,20 Mar 2025 12:27:13.989,20 Mar 2025 12:36:14.200,540.212
416,20 Mar 2025 20:04:08.290,20 Mar 2025 20:05:45.913,97.623
417,20 Mar 2025 21:32:03.801,20 Mar 2025 21:43:03.162,659.361
418,20 Mar 2025 23:06:11.610,20 Mar 2025 23:16:38.104,626.494
419,21 Mar 2025 10:34:02.421,21 Mar 2025 10:45:16.926,674.505
420,21 Mar 2025 12:08:10.393,21 Mar 2025 12:18:15.507,605.114
421,21 Mar 2025 21:13:49.382,21 Mar 2025 21:24:07.678,618.297
422,21 Mar 2025 22:47:01.816,21 Mar 2025 22:58:09.141,667.325
423,22 Mar 2025 10:15:31.597,22 Mar 2025 10:26:10.461,638.864
424,22 Mar 2025 11:49:13.484,22 Mar 2025 12:00:04.027,650.543
425,22 Mar 2025 20:55:47.220,22 Mar 2025 21:05:05.979,558.759
426,22 Mar 2025 22:28:04.436,22 Mar 2025 22:39:33.528,689.092
427,23 Mar 2025 00:06:05.249,23 Mar 2025 00:10:44.336,279.088
428,23 Mar 2025 09:57:09.170,23 Mar 2025 10:06:49.709,580.540
429,23 Mar 2025 11:30:21.839,23 Mar 2025 11:41:41.362,679.523
430,23 Mar 2025 13:06:15.015,23 Mar 2025 13:11:24.511,309.495
431,23 Mar 2025 20:38:00.183,23 Mar 2025 20:45:55.426,475.243
432,23 Mar 2025 22:09:18.101,23 Mar 2025 22:20:52.554,694.453
433,23 Mar 2025 23:45:36.939,23 Mar 2025 23:53:15.077,458.138
434,24 Mar 2025 09:38:59.794,24 Mar 2025 09:47:09.796,490.002
435,24 Mar 2025 11:11:34.899,24 Mar 2025 11:23:08.208,693.309
436,24 Mar 2025 12:46:41.226,24 Mar 2025 12:54:08.934,447.708
437,24 Mar 2025 20:20:35.608,24 Mar 2025 20:26:28.876,353.268
438,24 Mar 2025 21:50:42.204,24 Mar 2025 22:02:06.833,684.628
439,24 Mar 2025 23:25:50.380,24 Mar 2025 23:35:10.669,560.289
440,25 Mar 2025 09:21:16.838,25 Mar 2025 09:26:56.980,340.141
441,25 Mar 2025 10:52:52.633,25 Mar 2025 11:04:24.670,692.036
442,25 Mar 2025 12:27:27.472,25 Mar 2025 12:36:26.781,539.309
443,25 Mar 2025 20:04:17.749,25 Mar 2025 20:06:02.303,104.554
444,25 Mar 2025 21:32:16.721,25 Mar 2025 21:43:16.467,659.745
445,25 Mar 2025 23:06:25.197,25 Mar 2025 23:16:51.083,625.886
446,26 Mar 2025 10:34:15.507,26 Mar 2025 10:45:30.317,674.810
447,26 Mar 2025 12:08:23.782,26 Mar 2025 12:18:28.254,604.472
448,26 Mar 2025 21:14:02.168,26 Mar 2025 21:24:21.046,618.878
449,26 Mar 2025 22:47:15.239,26 Mar 2025 22:58:22.208,666.968
450,27 Mar 2025 10:15:44.599,27 Mar 2025 10:26:24.003,639.404
451,27 Mar 2025 11:49:26.804,27 Mar 2025 12:00:16.911,650.107
452,27 Mar 2025 20:55:59.850,27 Mar 2025 21:05:19.430,559.581
453,27 Mar 2025 22:28:17.728,27 Mar 2025 22:39:46.663,688.936
454,28 Mar 2025 00:06:20.194,28 Mar 2025 00:10:56.180,275.986
455,28 Mar 2025 09:57:22.053,28 Mar 2025 10:07:03.443,581.390
456,28 Mar 2025 11:30:35.102,28 Mar 2025 11:41:54.374,679.272
457,28 Mar 2025 13:06:29.030,28 Mar 2025 13:11:36.408,307.378
458,28 Mar 2025 20:38:12.603,28 Mar 2025 20:46:09.008,476.405
459,28 Mar 2025 22:09:31.268,28 Mar 2025 22:21:05.747,694.479
460,28 Mar 2025 23:45:51.050,28 Mar 2025 23:53:27.675,456.625
461,29 Mar 2025 09:39:12.476,29 Mar 2025 09:47:23.799,491.323
462,29 Mar 2025 11:11:48.105,29 Mar 2025 11:23:21.342,693.236
463,29 Mar 2025 12:46:54.863,29 Mar 2025 12:54:21.283,446.420
464,29 Mar 2025 20:20:47.681,29 Mar 2025 20:26:42.733,355.052
465,29 Mar 2025 21:50:55.250,29 Mar 2025 22:02:20.080,684.831
466,29 Mar 2025 23:26:04.174,29 Mar 2025 23:35:23.511,559.337
467,30 Mar 2025 09:21:29.028,30 Mar 2025 09:27:11.557,342.529
468,30 Mar 2025 10:53:05.786,30 Mar 2025 11:04:37.927,692.141
469,30 Mar 2025 12:27:40.956,30 Mar 2025 12:36:39.363,538.407
470,30 Mar 2025 20:04:27.421,30 Mar 2025 20:06:18.482,111.061
471,30 Mar 2025 21:32:29.643,30 Mar 2025 21:43:29.771,660.128
472,30 Mar 2025 23:06:38.786,30 Mar 2025 23:17:04.059,625.273
473,31 Mar 2025 10:34:28.594,31 Mar 2025 10:45:43.706,675.112
474,31 Mar 2025 12:08:37.172,31 Mar 2025 12:18:40.999,603.828
475,31 Mar 2025 21:14:14.956,31 Mar 2025 21:24:34.415,619.459
476,31 Mar 2025 22:47:28.670,31 Mar 2025 22:58:35.274,666.604
477,1 Apr 2025 10:15:57.604,1 Apr 2025 10:26:37.544,639.940
478,1 Apr 2025 11:49:40.126,1 Apr 2025 12:00:29.798,649.672
479,1 Apr 2025 20:56:12.483,1 Apr 2025 21:05:32.883,560.401
480,1 Apr 2025 22:28:31.023,1 Apr 2025 22:39:59.799,688.776
481,2 Apr 2025 00:06:35.166,2 Apr 2025 00:11:08.003,272.836
482,2 Apr 2025 09:57:34.941,2 Apr 2025 10:07:17.173,582.233
483,2 Apr 2025 11:30:48.371,2 Apr 2025 11:42:07.382,679.010
484,2 Apr 2025 13:06:43.059,2 Apr 2025 13:11:48.291,305.231
485,2 Apr 2025 20:38:25.036,2 Apr 2025 20:46:22.591,477.555
486,2 Apr 2025 22:09:44.437,2 Apr 2025 22:21:18.942,694.505
487,2 Apr 2025 23:46:05.167,2 Apr 2025 23:53:40.270,455.103
488,3 Apr 2025 09:39:25.163,3 Apr 2025 09:47:37.802,492.639
489,3 Apr 2025 11:12:01.316,3 Apr 2025 11:23:34.475,693.159
490,3 Apr 2025 12:47:08.505,3 Apr 2025 12:54:33.630,445.124
491,3 Apr 2025 20:20:59.761,3 Apr 2025 20:26:56.587,356.825
492,3 Apr 2025 21:51:08.299,3 Apr 2025 22:02:33.329,685.031
493,3 Apr 2025 23:26:17.973,3 Apr 2025 23:35:36.353,558.380
494,4 Apr 2025 09:21:41.229,4 Apr 2025 09:27:26.125,344.896
495,4 Apr 2025 10:53:18.940,4 Apr 2025 11:04:51.184,692.244
496,4 Apr 2025 12:27:54.444,4 Apr 2025 12:36:51.941,537.498
497,4 Apr 2025 20:04:37.282,4 Apr 2025 20:06:34.475,117.193
498,4 Apr 2025 21:32:42.568,4 Apr 2025 21:43:43.076,660.508
499,4 Apr 2025 23:06:52.379,4 Apr 2025 23:17:17.036,624.657
500,5 Apr 2025 10:34:41.683,5 Apr 2025 10:45:57.095,675.413
501,5 Apr 2025 12:08:50.565,5 Apr 2025 12:18:53.744,603.180
502,5 Apr 2025 21:14:27.747,5 Apr 2025 21:24:47.782,620.036
503,5 Apr 2025 22:47:42.105,5 Apr 2025 22:58:48.341,666.236
504,6 Apr 2025 10:16:10.605,6 Apr 2025 10:26:51.083,640.478
505,6 Apr 2025 11:49:53.450,6 Apr 2025 12:00:42.682,649.233
506,6 Apr 2025 20:56:25.118,6 Apr 2025 21:05:46.334,561.216
507,6 Apr 2025 22:28:44.319,6 Apr 2025 22:40:12.934,688.615
508,7 Apr 2025 00:06:50.159,7 Apr 2025 00:11:19.806,269.646
509,7 Apr 2025 09:57:47.832,7 Apr 2025 10:07:30.896,583.064
510,7 Apr 2025 11:31:01.633,7 Apr 2025 11:42:20.395,678.762
511,7 Apr 2025 13:06:57.088,7 Apr 2025 13:12:00.164,303.075
512,7 Apr 2025 20:38:37.466,7 Apr 2025 20:46:36.167,478.701
513,7 Apr 2025 22:09:57.606,7 Apr 2025 22:21:32.139,694.533
514,7 Apr 2025 23:46:19.294,7 Apr 2025 23:53:52.861,453.567
515,8 Apr 2025 09:39:37.853,8 Apr 2025 09:47:51.799,493.946
516,8 Apr 2025 11:12:14.527,8 Apr 2025 11:23:47.606,693.080
517,8 Apr 2025 12:47:22.149,8 Apr 2025 12:54:45.972,443.823
518,8 Apr 2025 20:21:11.847,8 Apr 2025 20:27:10.434,358.586
519,8 Apr 2025 21:51:21.348,8 Apr 2025 22:02:46.576,685.228
520,8 Apr 2025 23:26:31.773,8 Apr 2025 23:35:49.191,557.418
521,9 Apr 2025 09:21:53.439,9 Apr 2025 09:27:40.680,347.241
522,9 Apr 2025 10:53:32.094,9 Apr 2025 11:05:04.438,692.344
523,9 Apr 2025 12:28:07.929,9 Apr 2025 12:37:04.516,536.587
524,9 Apr 2025 20:04:47.296,9 Apr 2025 20:06:50.309,123.013
525,9 Apr 2025 21:32:55.489,9 Apr 2025 21:43:56.378,660.888
526,9 Apr 2025 23:07:05.972,9 Apr 2025 23:17:30.009,624.037
527,10 Apr 2025 10:34:54.771,10 Apr 2025 10:46:10.481,675.710
528,10 Apr 2025 12:09:03.956,10 Apr 2025 12:19:06.485,602.528
529,10 Apr 2025 21:14:40.538,10 Apr 2025 21:25:01.149,620.611
530,10 Apr 2025 22:47:55.540,10 Apr 2025 22:59:01.405,665.865
531,11 Apr 2025 10:16:23.612,11 Apr 2025 10:27:04.620,641.008
532,11 Apr 2025 11:50:06.777,11 Apr 2025 12:00:55.565,648.788
533,11 Apr 2025 20:56:37.754,11 Apr 2025 21:05:59.783,562.030
534,11 Apr 2025 22:28:57.616,11 Apr 2025 22:40:26.068,688.452
535,12 Apr 2025 00:07:05.177,12 Apr 2025 00:11:31.582,266.405
536,12 Apr 2025 09:58:00.724,12 Apr 2025 10:07:44.620,583.896
537,12 Apr 2025 11:31:14.898,12 Apr 2025 11:42:33.404,678.505
538,12 Apr 2025 13:07:11.128,12 Apr 2025 13:12:12.031,300.903
539,12 Apr 2025 20:38:49.900,12 Apr 2025 20:46:49.746,479.846
540,12 Apr 2025 22:10:10.778,12 Apr 2025 22:21:45.331,694.554
541,12 Apr 2025 23:46:33.423,12 Apr 2025 23:54:05.447,452.024
542,13 Apr 2025 09:39:50.548,13 Apr 2025 09:48:05.792,495.244
543,13 Apr 2025 11:12:27.738,13 Apr 2025 11:24:00.736,692.998
544,13 Apr 2025 12:47:35.794,13 Apr 2025 12:54:58.312,442.518
545,13 Apr 2025 20:21:23.938,13 Apr 2025 20:27:24.278,360.341
546,13 Apr 2025 21:51:34.399,13 Apr 2025 22:02:59.823,685.425
547,13 Apr 2025 23:26:45.577,13 Apr 2025 23:36:02.027,556.449
548,14 Apr 2025 09:22:05.663,14 Apr 2025 09:27:55.223,349.560
549,14 Apr 2025 10:53:45.249,14 Apr 2025 11:05:17.691,692.442
550,14 Apr 2025 12:28:21.417,14 Apr 2025 12:37:17.088,535.671
551,14 Apr 2025 20:04:57.440,14 Apr 2025 20:07:06.025,128.586
552,14 Apr 2025 21:33:08.417,14 Apr 2025 21:44:09.681,661.265
553,14 Apr 2025 23:07:19.569,14 Apr 2025 23:17:42.982,623.413
554,15 Apr 2025 10:35:07.858,15 Apr 2025 10:46:23.865,676.007
555,15 Apr 2025 12:09:17.350,15 Apr 2025 12:19:19.231,601.881
556,15 Apr 2025 21:14:53.327,15 Apr 2025 21:25:14.516,621.189
557,15 Apr 2025 22:48:08.974,15 Apr 2025 22:59:14.472,665.499
558,16 Apr 2025 10:16:36.621,16 Apr 2025 10:27:18.153,641.532
559,16 Apr 2025 11:50:20.102,16 Apr 2025 12:01:08.447,648.344
560,16 Apr 2025 20:56:50.397,16 Apr 2025 21:06:13.238,562.841
561,16 Apr 2025 22:29:10.916,16 Apr 2025 22:40:39.199,688.283
562,17 Apr 2025 00:07:20.222,17 Apr 2025 00:11:43.336,263.114
563,17 Apr 2025 09:58:13.612,17 Apr 2025 10:07:58.341,584.729
564,17 Apr 2025 11:31:28.165,17 Apr 2025 11:42:46.412,678.246
565,17 Apr 2025 13:07:25.179,17 Apr 2025 13:12:23.890,298.711
566,17 Apr 2025 20:39:02.336,17 Apr 2025 20:47:03.325,480.990
567,17 Apr 2025 22:10:23.955,17 Apr 2025 22:21:58.520,694.565
568,17 Apr 2025 23:46:47.555,17 Apr 2025 23:54:18.031,450.476
569,18 Apr 2025 09:40:03.247,18 Apr 2025 09:48:19.783,496.536
570,18 Apr 2025 11:12:40.951,18 Apr 2025 11:24:13.866,692.915
571,18 Apr 2025 12:47:49.445,18 Apr 2025 12:55:10.650,441.205
572,18 Apr 2025 20:21:36.033,18 Apr 2025 20:27:38.119,362.085
573,18 Apr 2025 21:51:47.452,18 Apr 2025 22:03:13.071,685.619
574,18 Apr 2025 23:26:59.383,18 Apr 2025 23:36:14.862,555.479
575,19 Apr 2025 09:22:17.896,19 Apr 2025 09:28:09.758,351.861
576,19 Apr 2025 10:53:58.406,19 Apr 2025 11:05:30.944,692.538
577,19 Apr 2025 12:28:34.908,19 Apr 2025 12:37:29.657,534.749
578,19 Apr 2025 20:05:07.706,19 Apr 2025 20:07:21.616,133.910
579,19 Apr 2025 21:33:21.346,19 Apr 2025 21:44:22.984,661.638
580,19 Apr 2025 23:07:33.168,19 Apr 2025 23:17:55.954,622.786
581,20 Apr 2025 10:35:20.950,20 Apr 2025 10:46:37.252,676.302
582,20 Apr 2025 12:09:30.745,20 Apr 2025 12:19:31.970,601.225
583,20 Apr 2025 21:15:06.123,20 Apr 2025 21:25:27.882,621.759
584,20 Apr 2025 22:48:22.412,20 Apr 2025 22:59:27.536,665.124
585,21 Apr 2025 10:16:49.631,21 Apr 2025 10:27:31.687,642.056
586,21 Apr 2025 11:50:33.428,21 Apr 2025 12:01:21.326,647.898
587,21 Apr 2025 20:57:03.038,21 Apr 2025 21:06:26.686,563.647
588,21 Apr 2025 22:29:24.219,21 Apr 2025 22:40:52.332,688.113
589,22 Apr 2025 00:07:35.290,22 Apr 2025 00:11:55.067,259.777
590,22 Apr 2025 09:58:26.506,22 Apr 2025 10:08:12.065,585.558
591,22 Apr 2025 11:31:41.433,22 Apr 2025 11:42:59.417,677.984
592,22 Apr 2025 13:07:39.238,22 Apr 2025 13:12:35.740,296.502
593,22 Apr 2025 20:39:14.775,22 Apr 2025 20:47:16.899,482.125
594,22 Apr 2025 22:10:37.132,22 Apr 2025 22:22:11.712,694.580
595,22 Apr 2025 23:47:01.695,22 Apr 2025 23:54:30.609,448.914
596,23 Apr 2025 09:40:15.950,23 Apr 2025 09:48:33.769,497.819
597,23 Apr 2025 11:12:54.164,23 Apr 2025 11:24:26.994,692.829
598,23 Apr 2025 12:48:03.096,23 Apr 2025 12:55:22.982,439.887
599,23 Apr 2025 20:21:48.137,23 Apr 2025 20:27:51.952,363.815
600,23 Apr 2025 21:52:00.506,23 Apr 2025 22:03:26.316,685.810
601,23 Apr 2025 23:27:13.192,23 Apr 2025 23:36:27.694,554.501
602,24 Apr 2025 09:22:30.138,24 Apr 2025 09:28:24.279,354.141
603,24 Apr 2025 10:54:11.562,24 Apr 2025 11:05:44.195,692.633
604,24 Apr 2025 12:28:48.399,24 Apr 2025 12:37:42.226,533.827
605,24 Apr 2025 20:05:18.077,24 Apr 2025 20:07:37.101,139.025
606,24 Apr 2025 21:33:34.276,24 Apr 2025 21:44:36.285,662.010
607,24 Apr 2025 23:07:46.768,24 Apr 2025 23:18:08.923,622.155
608,25 Apr 2025 10:35:34.042,25 Apr 2025 10:46:50.633,676.591
609,25 Apr 2025 12:09:44.140,25 Apr 2025 12:19:44.708,600.568
610,25 Apr 2025 21:15:18.920,25 Apr 2025 21:25:41.247,622.327
611,25 Apr 2025 22:48:35.852,25 Apr 2025 22:59:40.598,664.746
612,26 Apr 2025 10:17:02.642,26 Apr 2025 10:27:45.216,642.574
613,26 Apr 2025 11:50:46.753,26 Apr 2025 12:01:34.203,647.450
614,26 Apr 2025 20:57:15.681,26 Apr 2025 21:06:40.133,564.452
615,26 Apr 2025 22:29:37.519,26 Apr 2025 22:41:05.464,687.945
616,27 Apr 2025 00:07:50.385,27 Apr 2025 00:12:06.769,256.384
617,27 Apr 2025 09:58:39.403,27 Apr 2025 10:08:25.781,586.378
618,27 Apr 2025 11:31:54.706,27 Apr 2025 11:43:12.422,677.716
619,27 Apr 2025 13:07:53.303,27 Apr 2025 13:12:47.579,294.276
620,27 Apr 2025 20:39:27.216,27 Apr 2025 20:47:30.473,483.257
621,27 Apr 2025 22:10:50.309,27 Apr 2025 22:22:24.903,694.593
622,27 Apr 2025 23:47:15.841,27 Apr 2025 23:54:43.181,447.340
623,28 Apr 2025 09:40:28.658,28 Apr 2025 09:48:47.753,499.095
624,28 Apr 2025 11:13:07.379,28 Apr 2025 11:24:40.116,692.737
625,28 Apr 2025 12:48:16.752,28 Apr 2025 12:55:35.308,438.557
626,28 Apr 2025 20:22:00.246,28 Apr 2025 20:28:05.784,365.538
627,28 Apr 2025 21:52:13.562,28 Apr 2025 22:03:39.562,686.000
628,28 Apr 2025 23:27:27.007,28 Apr 2025 23:36:40.523,553.517
629,29 Apr 2025 09:22:42.393,29 Apr 2025 09:28:38.787,356.395
630,29 Apr 2025 10:54:24.717,29 Apr 2025 11:05:57.449,692.732
631,29 Apr 2025 12:29:01.887,29 Apr 2025 12:37:54.799,532.913
632,29 Apr 2025 20:05:28.540,29 Apr 2025 20:07:52.504,143.963
633,29 Apr 2025 21:33:47.212,29 Apr 2025 21:44:49.584,662.372
634,29 Apr 2025 23:08:00.372,29 Apr 2025 23:18:21.890,621.517
635,30 Apr 2025 10:35:47.137,30 Apr 2025 10:47:04.015,676.878
636,30 Apr 2025 12:09:57.537,30 Apr 2025 12:19:57.445,599.908
637,30 Apr 2025 21:15:31.719,30 Apr 2025 21:25:54.613,622.894
638,30 Apr 2025 22:48:49.295,30 Apr 2025 22:59:53.660,664.365
639,1 May 2025 10:17:15.656,1 May 2025 10:27:58.747,643.092
640,1 May 2025 11:51:00.081,1 May 2025 12:01:47.081,647.000
641,1 May 2025 20:57:28.327,1 May 2025 21:06:53.581,565.254
642,1 May 2025 22:29:50.825,1 May 2025 22:41:18.596,687.771
643,2 May 2025 00:08:05.511,2 May 2025 00:12:18.446,252.936
644,2 May 2025 09:58:52.305,2 May 2025 10:08:39.493,587.188
645,2 May 2025 11:32:07.972,2 May 2025 11:43:25.426,677.455
646,2 May 2025 13:08:07.381,2 May 2025 13:12:59.403,292.022
647,2 May 2025 20:39:39.665,2 May 2025 20:47:44.046,484.381
648,2 May 2025 22:11:03.485,2 May 2025 22:22:38.099,694.613
649,2 May 2025 23:47:29.995,2 May 2025 23:54:55.750,445.755
650,3 May 2025 09:40:41.363,3 May 2025 09:49:01.732,500.368
651,3 May 2025 11:13:20.597,3 May 2025 11:24:53.242,692.645
652,3 May 2025 12:48:30.409,3 May 2025 12:55:47.636,437.226
653,3 May 2025 20:22:12.360,3 May 2025 20:28:19.610,367.249
654,3 May 2025 21:52:26.620,3 May 2025 22:03:52.808,686.188
655,3 May 2025 23:27:40.824,3 May 2025 23:36:53.352,552.529
656,4 May 2025 09:22:54.656,4 May 2025 09:28:53.290,358.634
657,4 May 2025 10:54:37.876,4 May 2025 11:06:10.698,692.822
658,4 May 2025 12:29:15.381,4 May 2025 12:38:07.365,531.984
659,4 May 2025 20:05:39.090,4 May 2025 20:08:07.813,148.724
660,4 May 2025 21:34:00.146,4 May 2025 21:45:02.886,662.740
661,4 May 2025 23:08:13.978,4 May 2025 23:18:34.858,620.880
662,5 May 2025 10:36:00.231,5 May 2025 10:47:17.394,677.163
663,5 May 2025 12:10:10.934,5 May 2025 12:20:10.177,599.242
664,5 May 2025 21:15:44.522,5 May 2025 21:26:07.976,623.454
665,5 May 2025 22:49:02.738,5 May 2025 23:00:06.717,663.979
666,6 May 2025 10:17:28.670,6 May 2025 10:28:12.276,643.606
667,6 May 2025 11:51:13.409,6 May 2025 12:01:59.956,646.547
668,6 May 2025 20:57:40.973,6 May 2025 21:07:07.026,566.052
669,6 May 2025 22:30:04.131,6 May 2025 22:41:31.726,687.595
670,7 May 2025 00:08:20.662,7 May 2025 00:12:30.096,249.434
671,7 May 2025 09:59:05.206,7 May 2025 10:08:53.205,587.999
672,7 May 2025 11:32:21.241,7 May 2025 11:43:38.428,677.187
673,7 May 2025 13:08:21.467,7 May 2025 13:13:11.220,289.754
674,7 May 2025 20:39:52.113,7 May 2025 20:47:57.615,485.502
675,7 May 2025 22:11:16.665,7 May 2025 22:22:51.288,694.623
676,7 May 2025 23:47:44.151,7 May 2025 23:55:08.313,444.162
677,8 May 2025 09:40:54.076,8 May 2025 09:49:15.704,501.629
678,8 May 2025 11:13:33.812,8 May 2025 11:25:06.365,692.553
679,8 May 2025 12:48:44.062,8 May 2025 12:55:59.959,435.897
680,8 May 2025 20:22:24.479,8 May 2025 20:28:33.431,368.952
681,8 May 2025 21:52:39.678,8 May 2025 22:04:06.052,686.374
682,8 May 2025 23:27:54.639,8 May 2025 23:37:06.177,551.538
683,9 May 2025 09:23:06.929,9 May 2025 09:29:07.781,360.852
684,9 May 2025 10:54:51.035,9 May 2025 11:06:23.944,692.909
685,9 May 2025 12:29:28.874,9 May 2025 12:38:19.927,531.053
686,9 May 2025 20:05:49.710,9 May 2025 20:08:23.052,153.342
687,9 May 2025 21:34:13.080,9 May 2025 21:45:16.187,663.106
688,9 May 2025 23:08:27.585,9 May 2025 23:18:47.824,620.239
689,10 May 2025 10:36:13.326,10 May 2025 10:47:30.771,677.445
690,10 May 2025 12:10:24.331,10 May 2025 12:20:22.909,598.578
691,10 May 2025 21:15:57.324,10 May 2025 21:26:21.339,624.016
692,10 May 2025 22:49:16.183,10 May 2025 23:00:19.776,663.592
693,11 May 2025 10:17:41.687,11 May 2025 10:28:25.802,644.115
694,11 May 2025 11:51:26.736,11 May 2025 12:02:12.829,646.093
695,11 May 2025 20:57:53.619,11 May 2025 21:07:20.471,566.852
696,11 May 2025 22:30:17.439,11 May 2025 22:41:44.856,687.416
697,12 May 2025 00:08:35.846,12 May 2025 00:12:41.713,245.867
698,12 May 2025 09:59:18.107,12 May 2025 10:09:06.913,588.806
699,12 May 2025 11:32:34.510,12 May 2025 11:43:51.428,676.918
700,12 May 2025 13:08:35.559,12 May 2025 13:13:23.030,287.470
701,12 May 2025 20:40:04.563,12 May 2025 20:48:11.185,486.622
702,12 May 2025 22:11:29.846,12 May 2025 22:23:04.477,694.631
703,12 May 2025 23:47:58.314,12 May 2025 23:55:20.870,442.557
704,13 May 2025 09:41:06.793,13 May 2025 09:49:29.674,502.881
705,13 May 2025 11:13:47.029,13 May 2025 11:25:19.487,692.458
706,13 May 2025 12:48:57.722,13 May 2025 12:56:12.280,434.558
707,13 May 2025 20:22:36.602,13 May 2025 20:28:47.250,370.648
708,13 May 2025 21:52:52.738,13 May 2025 22:04:19.296,686.558
709,13 May 2025 23:28:08.463,13 May 2025 23:37:19.000,550.537
710,14 May 2025 09:23:19.213,14 May 2025 09:29:22.260,363.047
711,14 May 2025 10:55:04.196,14 May 2025 11:06:37.189,692.994
712,14 May 2025 12:29:42.370,14 May 2025 12:38:32.489,530.120
713,14 May 2025 20:06:00.399,14 May 2025 20:08:38.226,157.828
714,14 May 2025 21:34:26.017,14 May 2025 21:45:29.488,663.471
715,14 May 2025 23:08:41.196,14 May 2025 23:19:00.788,619.593
716,15 May 2025 10:36:26.424,15 May 2025 10:47:44.148,677.724
717,15 May 2025 12:10:37.730,15 May 2025 12:20:35.642,597.911
718,15 May 2025 21:16:10.128,15 May 2025 21:26:34.703,624.575
719,15 May 2025 22:49:29.632,15 May 2025 23:00:32.834,663.203
720,16 May 2025 10:17:54.706,16 May 2025 10:28:39.326,644.620
721,16 May 2025 11:51:40.066,16 May 2025 12:02:25.702,645.636
722,16 May 2025 20:58:06.270,16 May 2025 21:07:33.916,567.646
723,16 May 2025 22:30:30.749,16 May 2025 22:41:57.986,687.236
724,17 May 2025 00:08:51.061,17 May 2025 00:12:53.301,242.240
725,17 May 2025 09:59:31.013,17 May 2025 10:09:20.622,589.609
726,17 May 2025 11:32:47.782,17 May 2025 11:44:04.428,676.646
727,17 May 2025 13:08:49.665,17 May 2025 13:13:34.827,285.163
728,17 May 2025 20:40:17.012,17 May 2025 20:48:24.753,487.740
729,17 May 2025 22:11:43.030,17 May 2025 22:23:17.666,694.636
730,17 May 2025 23:48:12.483,17 May 2025 23:55:33.425,440.942
731,18 May 2025 09:41:19.511,18 May 2025 09:49:43.640,504.129
732,18 May 2025 11:14:00.247,18 May 2025 11:25:32.609,692.362
733,18 May 2025 12:49:11.386,18 May 2025 12:56:24.597,433.211
734,18 May 2025 20:22:48.732,18 May 2025 20:29:01.064,372.332
735,18 May 2025 21:53:05.800,18 May 2025 22:04:32.540,686.740
736,18 May 2025 23:28:22.289,18 May 2025 23:37:31.821,549.532
737,19 May 2025 09:23:31.505,19 May 2025 09:29:36.733,365.228
738,19 May 2025 10:55:17.357,19 May 2025 11:06:50.433,693.076
739,19 May 2025 12:29:55.867,19 May 2025 12:38:45.048,529.181
740,19 May 2025 20:06:11.156,19 May 2025 20:08:53.333,162.178
741,19 May 2025 21:34:38.955,19 May 2025 21:45:42.787,663.832
742,19 May 2025 23:08:54.808,19 May 2025 23:19:13.751,618.944
743,20 May 2025 10:36:39.521,20 May 2025 10:47:57.522,678.002
744,20 May 2025 12:10:51.130,20 May 2025 12:20:48.371,597.241
745,20 May 2025 21:16:22.933,20 May 2025 21:26:48.064,625.131
746,20 May 2025 22:49:43.080,20 May 2025 23:00:45.892,662.811
747,21 May 2025 10:18:07.722,21 May 2025 10:28:52.849,645.127
748,21 May 2025 11:51:53.395,21 May 2025 12:02:38.572,645.177
749,21 May 2025 20:58:18.922,21 May 2025 21:07:47.358,568.435
750,21 May 2025 22:30:44.060,21 May 2025 22:42:11.113,687.054
751,22 May 2025 00:09:06.307,22 May 2025 00:13:04.859,238.552
752,22 May 2025 09:59:43.918,22 May 2025 10:09:34.326,590.408
753,22 May 2025 11:33:01.053,22 May 2025 11:44:17.425,676.372
754,22 May 2025 13:09:03.779,22 May 2025 13:13:46.612,282.834
755,22 May 2025 20:40:29.468,22 May 2025 20:48:38.312,488.844
756,22 May 2025 22:11:56.214,22 May 2025 22:23:30.854,694.640
757,22 May 2025 23:48:26.656,22 May 2025 23:55:45.973,439.317
758,23 May 2025 09:41:32.232,23 May 2025 09:49:57.601,505.369
759,23 May 2025 11:14:13.463,23 May 2025 11:25:45.727,692.264
760,23 May 2025 12:49:25.050,23 May 2025 12:56:36.910,431.859
761,23 May 2025 20:23:00.866,23 May 2025 20:29:14.872,374.006
762,23 May 2025 21:53:18.862,23 May 2025 22:04:45.781,686.920
763,23 May 2025 23:28:36.116,23 May 2025 23:37:44.638,548.522
764,24 May 2025 09:23:43.806,24 May 2025 09:29:51.194,367.388
765,24 May 2025 10:55:30.518,24 May 2025 11:07:03.671,693.153
766,24 May 2025 12:30:09.369,24 May 2025 12:38:57.605,528.236
767,24 May 2025 20:06:21.967,24 May 2025 20:09:08.387,166.419
768,24 May 2025 21:34:51.893,24 May 2025 21:45:56.085,664.192
769,24 May 2025 23:09:08.421,24 May 2025 23:19:26.713,618.291
770,25 May 2025 10:36:52.618,25 May 2025 10:48:10.894,678.276
771,25 May 2025 12:11:04.529,25 May 2025 12:21:01.099,596.570
772,25 May 2025 21:16:35.739,25 May 2025 21:27:01.426,625.686
773,25 May 2025 22:49:56.531,25 May 2025 23:00:58.947,662.415
774,26 May 2025 10:18:20.742,26 May 2025 10:29:06.371,645.629
775,26 May 2025 11:52:06.720,26 May 2025 12:02:51.439,644.719
776,26 May 2025 20:58:31.578,26 May 2025 21:08:00.796,569.218
777,26 May 2025 22:30:57.371,26 May 2025 22:42:24.245,686.874
778,27 May 2025 00:09:21.590,27 May 2025 00:13:16.379,234.788
779,27 May 2025 09:59:56.827,27 May 2025 10:09:48.028,591.201
780,27 May 2025 11:33:14.325,27 May 2025 11:44:30.422,676.097
781,27 May 2025 13:09:17.901,27 May 2025 13:13:58.389,280.489
782,27 May 2025 20:40:41.926,27 May 2025 20:48:51.877,489.951
783,27 May 2025 22:12:09.400,27 May 2025 22:23:44.041,694.641
784,27 May 2025 23:48:40.837,27 May 2025 23:55:58.515,437.678
785,28 May 2025 09:41:44.958,28 May 2025 09:50:11.559,506.600
786,28 May 2025 11:14:26.681,28 May 2025 11:25:58.846,692.164
787,28 May 2025 12:49:38.718,28 May 2025 12:56:49.221,430.503
788,28 May 2025 20:23:13.006,28 May 2025 20:29:28.680,375.674
789,28 May 2025 21:53:31.927,28 May 2025 22:04:59.025,687.098
790,28 May 2025 23:28:49.950,28 May 2025 23:37:57.454,547.505
791,29 May 2025 09:23:56.118,29 May 2025 09:30:05.645,369.527
792,29 May 2025 10:55:43.683,29 May 2025 11:07:16.912,693.229
793,29 May 2025 12:30:22.868,29 May 2025 12:39:10.160,527.292
794,29 May 2025 20:06:32.835,29 May 2025 20:09:23.384,170.549
795,29 May 2025 21:35:04.835,29 May 2025 21:46:09.384,664.549
796,29 May 2025 23:09:22.039,29 May 2025 23:19:39.673,617.634
797,30 May 2025 10:37:05.718,30 May 2025 10:48:24.266,678.548
798,30 May 2025 12:11:17.931,30 May 2025 12:21:13.826,595.895
799,30 May 2025 21:16:48.549,30 May 2025 21:27:14.787,626.238
800,30 May 2025 22:50:09.986,30 May 2025 23:01:12.003,662.017
801,31 May 2025 10:18:33.761,31 May 2025 10:29:19.890,646.129
802,31 May 2025 11:52:20.051,31 May 2025 12:03:04.307,644.255
803,31 May 2025 20:58:44.235,31 May 2025 21:08:14.237,570.003
804,31 May 2025 22:31:10.686,31 May 2025 22:42:37.372,686.687
805,1 Jun 2025 00:09:36.908,1 Jun 2025 00:13:27.867,230.959
806,1 Jun 2025 10:00:09.736,1 Jun 2025 10:10:01.728,591.992
807,1 Jun 2025 11:33:27.597,1 Jun 2025 11:44:43.417,675.819
808,1 Jun 2025 13:09:32.037,1 Jun 2025 13:14:10.152,278.116
809,1 Jun 2025 20:40:54.388,1 Jun 2025 20:49:05.439,491.052
810,1 Jun 2025 22:12:22.588,1 Jun 2025 22:23:57.228,694.640
811,1 Jun 2025 23:48:55.018,1 Jun 2025 23:56:11.054,436.036
812,2 Jun 2025 09:41:57.685,2 Jun 2025 09:50:25.513,507.827
813,2 Jun 2025 11:14:39.900,2 Jun 2025 11:26:11.962,692.062
814,2 Jun 2025 12:49:52.389,2 Jun 2025 12:57:01.527,429.138
815,2 Jun 2025 20:23:25.151,2 Jun 2025 20:29:42.480,377.329
816,2 Jun 2025 21:53:44.992,2 Jun 2025 22:05:12.266,687.274
817,2 Jun 2025 23:29:03.784,2 Jun 2025 23:38:10.268,546.484
818,3 Jun 2025 09:24:08.435,3 Jun 2025 09:30:20.085,371.650
819,3 Jun 2025 10:55:56.847,3 Jun 2025 11:07:30.151,693.304
820,3 Jun 2025 12:30:36.368,3 Jun 2025 12:39:22.712,526.344
821,3 Jun 2025 20:06:43.755,3 Jun 2025 20:09:38.332,174.578
822,3 Jun 2025 21:35:17.776,3 Jun 2025 21:46:22.680,664.904
823,3 Jun 2025 23:09:35.657,3 Jun 2025 23:19:52.631,616.975
824,4 Jun 2025 10:37:18.819,4 Jun 2025 10:48:37.634,678.816
825,4 Jun 2025 12:11:31.332,4 Jun 2025 12:21:26.549,595.217
826,4 Jun 2025 21:17:01.358,4 Jun 2025 21:27:28.146,626.788
827,4 Jun 2025 22:50:23.440,4 Jun 2025 23:01:25.056,661.616
828,5 Jun 2025 10:18:46.782,5 Jun 2025 10:29:33.405,646.623
829,5 Jun 2025 11:52:33.382,5 Jun 2025 12:03:17.172,643.790
830,5 Jun 2025 20:58:56.891,5 Jun 2025 21:08:27.676,570.785
831,5 Jun 2025 22:31:24.000,5 Jun 2025 22:42:50.497,686.497
832,6 Jun 2025 00:09:52.266,6 Jun 2025 00:13:39.316,227.050
833,6 Jun 2025 10:00:22.647,6 Jun 2025 10:10:15.419,592.772
834,6 Jun 2025 11:33:40.869,6 Jun 2025 11:44:56.409,675.540
835,6 Jun 2025 13:09:46.180,6 Jun 2025 13:14:21.904,275.725
836,6 Jun 2025 20:41:06.850,6 Jun 2025 20:49:18.999,492.149
837,6 Jun 2025 22:12:35.775,6 Jun 2025 22:24:10.412,694.637
838,6 Jun 2025 23:49:09.209,6 Jun 2025 23:56:23.585,434.377
839,7 Jun 2025 09:42:10.415,7 Jun 2025 09:50:39.460,509.045
840,7 Jun 2025 11:14:53.118,7 Jun 2025 11:26:25.076,691.959
841,7 Jun 2025 12:50:06.059,7 Jun 2025 12:57:13.829,427.770
842,7 Jun 2025 20:23:37.299,7 Jun 2025 20:29:56.276,378.978
843,7 Jun 2025 21:53:58.058,7 Jun 2025 22:05:25.506,687.448
844,7 Jun 2025 23:29:17.621,7 Jun 2025 23:38:23.077,545.456
845,8 Jun 2025 09:24:20.763,8 Jun 2025 09:30:34.515,373.751
846,8 Jun 2025 10:56:10.009,8 Jun 2025 11:07:43.387,693.378
847,8 Jun 2025 12:30:49.867,8 Jun 2025 12:39:35.262,525.395
848,8 Jun 2025 20:06:54.718,8 Jun 2025 20:09:53.235,178.517
849,8 Jun 2025 21:35:30.719,8 Jun 2025 21:46:35.975,665.257
850,8 Jun 2025 23:09:49.277,8 Jun 2025 23:20:05.586,616.310
851,9 Jun 2025 10:37:31.922,9 Jun 2025 10:48:51.001,679.079
852,9 Jun 2025 12:11:44.733,9 Jun 2025 12:21:39.272,594.539
853,9 Jun 2025 21:17:14.168,9 Jun 2025 21:27:41.504,627.336
854,9 Jun 2025 22:50:36.897,9 Jun 2025 23:01:38.107,661.210
855,10 Jun 2025 10:18:59.804,10 Jun 2025 10:29:46.918,647.114
856,10 Jun 2025 11:52:46.712,10 Jun 2025 12:03:30.036,643.324
857,10 Jun 2025 20:59:09.546,10 Jun 2025 21:08:41.116,571.570
858,10 Jun 2025 22:31:37.316,10 Jun 2025 22:43:03.621,686.305
859,11 Jun 2025 00:10:07.660,11 Jun 2025 00:13:50.724,223.064
860,11 Jun 2025 10:00:35.555,11 Jun 2025 10:10:29.115,593.560
861,11 Jun 2025 11:33:54.142,11 Jun 2025 11:45:09.401,675.258
862,11 Jun 2025 13:10:00.333,11 Jun 2025 13:14:33.646,273.313
863,11 Jun 2025 20:41:19.315,11 Jun 2025 20:49:32.558,493.243
864,11 Jun 2025 22:12:48.965,11 Jun 2025 22:24:23.597,694.632
865,11 Jun 2025 23:49:23.407,11 Jun 2025 23:56:36.111,432.704
866,12 Jun 2025 09:42:23.155,12 Jun 2025 09:50:53.405,510.251
867,12 Jun 2025 11:15:06.337,12 Jun 2025 11:26:38.189,691.852
868,12 Jun 2025 12:50:19.734,12 Jun 2025 12:57:26.129,426.396
869,12 Jun 2025 20:23:49.453,12 Jun 2025 20:30:10.070,380.618
870,12 Jun 2025 21:54:11.126,12 Jun 2025 22:05:38.747,687.621
871,12 Jun 2025 23:29:31.463,12 Jun 2025 23:38:35.885,544.422
872,13 Jun 2025 09:24:33.100,13 Jun 2025 09:30:48.936,375.836
873,13 Jun 2025 10:56:23.175,13 Jun 2025 11:07:56.623,693.449
874,13 Jun 2025 12:31:03.366,13 Jun 2025 12:39:47.810,524.444
875,13 Jun 2025 20:07:05.726,13 Jun 2025 20:10:08.093,182.367
876,13 Jun 2025 21:35:43.663,13 Jun 2025 21:46:49.271,665.608
877,13 Jun 2025 23:10:02.900,13 Jun 2025 23:20:18.542,615.642
878,14 Jun 2025 10:37:45.023,14 Jun 2025 10:49:04.367,679.344
879,14 Jun 2025 12:11:58.136,14 Jun 2025 12:21:51.993,593.857
880,14 Jun 2025 21:17:26.982,14 Jun 2025 21:27:54.862,627.881
881,14 Jun 2025 22:50:50.354,14 Jun 2025 23:01:51.159,660.805
882,15 Jun 2025 10:19:12.825,15 Jun 2025 10:30:00.429,647.604
883,15 Jun 2025 11:53:00.049,15 Jun 2025 12:03:42.902,642.852
884,15 Jun 2025 20:59:22.211,15 Jun 2025 21:08:54.557,572.345
885,15 Jun 2025 22:31:50.635,15 Jun 2025 22:43:16.742,686.107
886,16 Jun 2025 00:10:23.096,16 Jun 2025 00:14:02.095,218.999
887,16 Jun 2025 10:00:48.469,16 Jun 2025 10:10:42.807,594.339
888,16 Jun 2025 11:34:07.416,16 Jun 2025 11:45:22.391,674.974
889,16 Jun 2025 13:10:14.500,16 Jun 2025 13:14:45.373,270.872
890,16 Jun 2025 20:41:31.783,16 Jun 2025 20:49:46.114,494.331
891,16 Jun 2025 22:13:02.156,16 Jun 2025 22:24:36.781,694.624
892,16 Jun 2025 23:49:37.610,16 Jun 2025 23:56:48.633,431.024
893,17 Jun 2025 09:42:35.891,17 Jun 2025 09:51:07.347,511.456
894,17 Jun 2025 11:15:19.557,17 Jun 2025 11:26:51.301,691.744
895,17 Jun 2025 12:50:33.411,17 Jun 2025 12:57:38.424,425.012
896,17 Jun 2025 20:24:01.612,17 Jun 2025 20:30:23.858,382.246
897,17 Jun 2025 21:54:24.195,17 Jun 2025 22:05:51.985,687.790
898,17 Jun 2025 23:29:45.306,17 Jun 2025 23:38:48.690,543.385
899,18 Jun 2025 09:24:45.443,18 Jun 2025 09:31:03.348,377.905
900,18 Jun 2025 10:56:36.338,18 Jun 2025 11:08:09.857,693.518
901,18 Jun 2025 12:31:16.869,18 Jun 2025 12:40:00.354,523.485
902,18 Jun 2025 20:07:16.778,18 Jun 2025 20:10:22.905,186.127
903,18 Jun 2025 21:35:56.609,18 Jun 2025 21:47:02.565,665.956
904,18 Jun 2025 23:10:16.523,18 Jun 2025 23:20:31.494,614.971
905,19 Jun 2025 10:37:58.123,19 Jun 2025 10:49:17.730,679.606
906,19 Jun 2025 12:12:11.539,19 Jun 2025 12:22:04.711,593.172
907,19 Jun 2025 21:17:39.793,19 Jun 2025 21:28:08.215,628.422
908,19 Jun 2025 22:51:03.813,19 Jun 2025 23:02:04.208,660.395
909,20 Jun 2025 10:19:25.851,20 Jun 2025 10:30:13.939,648.088
910,20 Jun 2025 11:53:13.376,20 Jun 2025 12:03:55.761,642.385
911,20 Jun 2025 20:59:34.873,20 Jun 2025 21:09:07.992,573.119
912,20 Jun 2025 22:32:03.953,20 Jun 2025 22:43:29.863,685.911
913,21 Jun 2025 00:10:38.578,21 Jun 2025 00:14:13.420,214.841
914,21 Jun 2025 10:01:01.383,21 Jun 2025 10:10:56.494,595.111
915,21 Jun 2025 11:34:20.689,21 Jun 2025 11:45:35.378,674.689
916,21 Jun 2025 13:10:28.676,21 Jun 2025 13:14:57.087,268.411
917,21 Jun 2025 20:41:44.252,21 Jun 2025 20:49:59.668,495.416
918,21 Jun 2025 22:13:15.347,21 Jun 2025 22:24:49.962,694.615
919,21 Jun 2025 23:49:51.818,21 Jun 2025 23:57:01.148,429.330
920,22 Jun 2025 09:42:48.630,22 Jun 2025 09:51:21.282,512.652
921,22 Jun 2025 11:15:32.773,22 Jun 2025 11:27:04.411,691.638
922,22 Jun 2025 12:50:47.089,22 Jun 2025 12:57:50.715,423.626
923,22 Jun 2025 20:24:13.774,22 Jun 2025 20:30:37.642,383.868
924,22 Jun 2025 21:54:37.264,22 Jun 2025 22:06:05.220,687.956
925,22 Jun 2025 23:29:59.152,22 Jun 2025 23:39:01.492,542.340
926,23 Jun 2025 09:24:57.796,23 Jun 2025 09:31:17.749,379.953
927,23 Jun 2025 10:56:49.503,23 Jun 2025 11:08:23.088,693.586
928,23 Jun 2025 12:31:30.373,23 Jun 2025 12:40:12.897,522.524
929,23 Jun 2025 20:07:27.865,23 Jun 2025 20:10:37.690,189.825
930,23 Jun 2025 21:36:09.555,23 Jun 2025 21:47:15.858,666.303
931,23 Jun 2025 23:10:30.149,23 Jun 2025 23:20:44.445,614.295
932,24 Jun 2025 10:38:11.226,24 Jun 2025 10:49:31.091,679.866
933,24 Jun 2025 12:12:24.942,24 Jun 2025 12:22:17.427,592.486
934,24 Jun 2025 21:17:52.607,24 Jun 2025 21:28:21.572,628.964
935,24 Jun 2025 22:51:17.272,24 Jun 2025 23:02:17.256,659.985
936,25 Jun 2025 10:19:38.875,25 Jun 2025 10:30:27.447,648.571
937,25 Jun 2025 11:53:26.709,25 Jun 2025 12:04:08.618,641.909
938,25 Jun 2025 20:59:47.536,25 Jun 2025 21:09:21.428,573.891
939,25 Jun 2025 22:32:17.273,25 Jun 2025 22:43:42.985,685.712
940,26 Jun 2025 00:10:54.109,26 Jun 2025 00:14:24.699,210.590
941,26 Jun 2025 10:01:14.301,26 Jun 2025 10:11:10.180,595.879
942,26 Jun 2025 11:34:33.964,26 Jun 2025 11:45:48.365,674.401
943,26 Jun 2025 13:10:42.864,26 Jun 2025 13:15:08.791,265.927
944,26 Jun 2025 20:41:56.725,26 Jun 2025 20:50:13.223,496.498
945,26 Jun 2025 22:13:28.541,26 Jun 2025 22:25:03.145,694.603
946,26 Jun 2025 23:50:06.034,26 Jun 2025 23:57:13.657,427.623
947,27 Jun 2025 09:43:01.372,27 Jun 2025 09:51:35.216,513.843
948,27 Jun 2025 11:15:45.994,27 Jun 2025 11:27:17.519,691.525
949,27 Jun 2025 12:51:00.771,27 Jun 2025 12:58:03.003,422.233
950,27 Jun 2025 20:24:25.943,27 Jun 2025 20:30:51.424,385.481
951,27 Jun 2025 21:54:50.337,27 Jun 2025 22:06:18.459,688.123
952,27 Jun 2025 23:30:13.002,27 Jun 2025 23:39:14.292,541.290
953,28 Jun 2025 09:25:10.159,28 Jun 2025 09:31:32.144,381.985
954,28 Jun 2025 10:57:02.668,28 Jun 2025 11:08:36.319,693.651
955,28 Jun 2025 12:31:43.879,28 Jun 2025 12:40:25.438,521.558
956,28 Jun 2025 20:07:38.991,28 Jun 2025 20:10:52.431,193.440
957,28 Jun 2025 21:36:22.500,28 Jun 2025 21:47:29.151,666.651
958,28 Jun 2025 23:10:43.778,28 Jun 2025 23:20:57.392,613.614
959,29 Jun 2025 10:38:24.330,29 Jun 2025 10:49:44.451,680.121
960,29 Jun 2025 12:12:38.347,29 Jun 2025 12:22:30.140,591.793
961,29 Jun 2025 21:18:05.425,29 Jun 2025 21:28:34.926,629.502
962,29 Jun 2025 22:51:30.734,29 Jun 2025 23:02:30.304,659.570
963,30 Jun 2025 10:19:51.899,30 Jun 2025 10:30:40.952,649.053
964,30 Jun 2025 11:53:40.042,30 Jun 2025 12:04:21.475,641.433
965,30 Jun 2025 21:00:00.203,30 Jun 2025 21:09:34.858,574.655
966,30 Jun 2025 22:32:30.595,30 Jun 2025 22:43:56.105,685.511
967,1 Jul 2025 00:11:09.685,1 Jul 2025 00:14:35.931,206.246
968,1 Jul 2025 10:01:27.219,1 Jul 2025 10:11:23.862,596.643
969,1 Jul 2025 11:34:47.239,1 Jul 2025 11:46:01.350,674.111
970,1 Jul 2025 13:10:57.066,1 Jul 2025 13:15:20.477,263.411
971,1 Jul 2025 20:42:09.199,1 Jul 2025 20:50:26.772,497.573
972,1 Jul 2025 22:13:41.735,1 Jul 2025 22:25:16.325,694.590
973,1 Jul 2025 23:50:20.254,1 Jul 2025 23:57:26.162,425.908
974,2 Jul 2025 09:43:14.116,2 Jul 2025 09:51:49.144,515.028
975,2 Jul 2025 11:15:59.214,2 Jul 2025 11:27:30.626,691.413
976,2 Jul 2025 12:51:14.455,2 Jul 2025 12:58:15.286,420.831
977,2 Jul 2025 20:24:38.115,2 Jul 2025 20:31:05.194,387.078
978,2 Jul 2025 21:55:03.408,2 Jul 2025 22:06:31.693,688.285
