3UCubedIntegratedSim/Reports & Plots/Comms/UNH/Sat 11 Comms.csv

"Access","Start Time (UTCG)","Stop Time (UTCG)","Duration (sec)"
1,1 Jan 2025 16:29:56.218,1 Jan 2025 16:41:16.218,680.000
2,1 Jan 2025 18:05:47.929,1 Jan 2025 18:11:01.537,313.607
3,2 Jan 2025 14:38:35.317,2 Jan 2025 14:46:42.713,487.396
4,2 Jan 2025 16:11:09.379,2 Jan 2025 16:22:42.831,693.452
5,2 Jan 2025 17:46:14.868,2 Jan 2025 17:53:45.081,450.213
6,3 Jan 2025 14:20:53.353,3 Jan 2025 14:26:28.754,335.401
7,3 Jan 2025 15:52:27.224,3 Jan 2025 16:03:59.055,691.832
8,3 Jan 2025 17:27:01.415,3 Jan 2025 17:36:02.484,541.070
9,4 Jan 2025 15:33:50.230,4 Jan 2025 15:45:04.441,674.211
10,4 Jan 2025 17:07:57.904,4 Jan 2025 17:18:03.629,605.725
11,5 Jan 2025 15:15:19.484,5 Jan 2025 15:25:57.828,638.344
12,5 Jan 2025 16:49:01.066,5 Jan 2025 16:59:52.017,650.952
13,6 Jan 2025 14:56:57.177,6 Jan 2025 15:06:36.901,579.724
14,6 Jan 2025 16:30:09.474,6 Jan 2025 16:41:29.230,679.756
15,6 Jan 2025 18:06:01.922,6 Jan 2025 18:11:13.450,311.528
16,7 Jan 2025 14:38:47.990,7 Jan 2025 14:46:56.724,488.734
17,7 Jan 2025 16:11:22.584,7 Jan 2025 16:22:55.965,693.381
18,7 Jan 2025 17:46:28.499,7 Jan 2025 17:53:57.435,448.937
19,8 Jan 2025 14:21:05.520,8 Jan 2025 14:26:43.352,337.832
20,8 Jan 2025 15:52:40.377,8 Jan 2025 16:04:12.313,691.936
21,8 Jan 2025 17:27:14.893,8 Jan 2025 17:36:15.067,540.173
22,9 Jan 2025 15:34:03.314,9 Jan 2025 15:45:17.832,674.518
23,9 Jan 2025 17:08:11.291,9 Jan 2025 17:18:16.377,605.086
24,10 Jan 2025 15:15:32.485,10 Jan 2025 15:26:11.372,638.887
25,10 Jan 2025 16:49:14.385,10 Jan 2025 17:00:04.904,650.519
26,11 Jan 2025 14:57:10.059,11 Jan 2025 15:06:50.634,580.576
27,11 Jan 2025 16:30:22.736,11 Jan 2025 16:41:42.242,679.506
28,11 Jan 2025 18:06:15.931,11 Jan 2025 18:11:25.351,309.420
29,12 Jan 2025 14:39:00.669,12 Jan 2025 14:47:10.733,490.064
30,12 Jan 2025 16:11:35.792,12 Jan 2025 16:23:09.099,693.308
31,12 Jan 2025 17:46:42.135,12 Jan 2025 17:54:09.786,447.652
32,13 Jan 2025 14:21:17.694,13 Jan 2025 14:26:57.943,340.248
33,13 Jan 2025 15:52:53.524,13 Jan 2025 16:04:25.571,692.048
34,13 Jan 2025 17:27:28.376,13 Jan 2025 17:36:27.646,539.271
35,14 Jan 2025 15:34:16.399,14 Jan 2025 15:45:31.222,674.823
36,14 Jan 2025 17:08:24.680,14 Jan 2025 17:18:29.122,604.442
37,15 Jan 2025 15:15:45.488,15 Jan 2025 15:26:24.912,639.424
38,15 Jan 2025 16:49:27.705,15 Jan 2025 17:00:17.788,650.083
39,16 Jan 2025 14:57:22.940,16 Jan 2025 15:07:04.363,581.423
40,16 Jan 2025 16:30:35.997,16 Jan 2025 16:41:55.252,679.255
41,16 Jan 2025 18:06:29.946,16 Jan 2025 18:11:37.241,307.295
42,17 Jan 2025 14:39:13.350,17 Jan 2025 14:47:24.735,491.385
43,17 Jan 2025 16:11:48.998,17 Jan 2025 16:23:22.231,693.232
44,17 Jan 2025 17:46:55.771,17 Jan 2025 17:54:22.133,446.362
45,18 Jan 2025 14:21:29.880,18 Jan 2025 14:27:12.516,342.636
46,18 Jan 2025 15:53:06.674,18 Jan 2025 16:04:38.826,692.152
47,18 Jan 2025 17:27:41.857,18 Jan 2025 17:36:40.223,538.366
48,19 Jan 2025 15:34:29.481,19 Jan 2025 15:45:44.609,675.127
49,19 Jan 2025 17:08:38.068,19 Jan 2025 17:18:41.865,603.797
50,20 Jan 2025 15:15:58.488,20 Jan 2025 15:26:38.450,639.962
51,20 Jan 2025 16:49:41.024,20 Jan 2025 17:00:30.670,649.646
52,21 Jan 2025 14:57:35.825,21 Jan 2025 15:07:18.090,582.265
53,21 Jan 2025 16:30:49.260,21 Jan 2025 16:42:08.261,679.001
54,21 Jan 2025 18:06:43.968,21 Jan 2025 18:11:49.123,305.155
55,22 Jan 2025 14:39:26.037,22 Jan 2025 14:47:38.735,492.698
56,22 Jan 2025 16:12:02.207,22 Jan 2025 16:23:35.362,693.155
57,22 Jan 2025 17:47:09.410,22 Jan 2025 17:54:34.478,445.068
58,23 Jan 2025 14:21:42.080,23 Jan 2025 14:27:27.082,345.002
59,23 Jan 2025 15:53:19.826,23 Jan 2025 16:04:52.081,692.255
60,23 Jan 2025 17:27:55.341,23 Jan 2025 17:36:52.800,537.459
61,24 Jan 2025 15:34:42.569,24 Jan 2025 15:45:57.996,675.427
62,24 Jan 2025 17:08:51.458,24 Jan 2025 17:18:54.608,603.150
63,25 Jan 2025 15:16:11.490,25 Jan 2025 15:26:51.992,640.501
64,25 Jan 2025 16:49:54.347,25 Jan 2025 17:00:43.556,649.209
65,26 Jan 2025 14:57:48.713,26 Jan 2025 15:07:31.815,583.101
66,26 Jan 2025 16:31:02.525,26 Jan 2025 16:42:21.270,678.746
67,26 Jan 2025 18:06:58.001,26 Jan 2025 18:12:00.998,302.997
68,27 Jan 2025 14:39:38.726,27 Jan 2025 14:47:52.731,494.005
69,27 Jan 2025 16:12:15.417,27 Jan 2025 16:23:48.492,693.075
70,27 Jan 2025 17:47:23.054,27 Jan 2025 17:54:46.819,443.765
71,28 Jan 2025 14:21:54.289,28 Jan 2025 14:27:41.637,347.348
72,28 Jan 2025 15:53:32.979,28 Jan 2025 16:05:05.335,692.355
73,28 Jan 2025 17:28:08.827,28 Jan 2025 17:37:05.373,536.546
74,29 Jan 2025 15:34:55.656,29 Jan 2025 15:46:11.381,675.725
75,29 Jan 2025 17:09:04.850,29 Jan 2025 17:19:07.349,602.499
76,30 Jan 2025 15:16:24.495,30 Jan 2025 15:27:05.527,641.032
77,30 Jan 2025 16:50:07.669,30 Jan 2025 17:00:56.435,648.766
78,31 Jan 2025 14:58:01.601,31 Jan 2025 15:07:45.536,583.936
79,31 Jan 2025 16:31:15.788,31 Jan 2025 16:42:34.281,678.492
80,31 Jan 2025 18:07:12.042,31 Jan 2025 18:12:12.856,300.814
81,1 Feb 2025 14:39:51.422,1 Feb 2025 14:48:06.722,495.300
82,1 Feb 2025 16:12:28.626,1 Feb 2025 16:24:01.620,692.994
83,1 Feb 2025 17:47:36.699,1 Feb 2025 17:54:59.156,442.458
84,2 Feb 2025 14:22:06.509,2 Feb 2025 14:27:56.180,349.671
85,2 Feb 2025 15:53:46.133,2 Feb 2025 16:05:18.585,692.452
86,2 Feb 2025 17:28:22.309,2 Feb 2025 17:37:17.944,535.635
87,3 Feb 2025 15:35:08.746,3 Feb 2025 15:46:24.764,676.018
88,3 Feb 2025 17:09:18.246,3 Feb 2025 17:19:20.088,601.842
89,4 Feb 2025 15:16:37.504,4 Feb 2025 15:27:19.057,641.553
90,4 Feb 2025 16:50:20.991,4 Feb 2025 17:01:09.312,648.320
91,5 Feb 2025 14:58:14.493,5 Feb 2025 15:07:59.257,584.764
92,5 Feb 2025 16:31:29.054,5 Feb 2025 16:42:47.282,678.228
93,5 Feb 2025 18:07:26.091,5 Feb 2025 18:12:24.713,298.622
94,6 Feb 2025 14:40:04.119,6 Feb 2025 14:48:20.710,496.591
95,6 Feb 2025 16:12:41.838,6 Feb 2025 16:24:14.748,692.910
96,6 Feb 2025 17:47:50.346,6 Feb 2025 17:55:11.492,441.146
97,7 Feb 2025 14:22:18.741,7 Feb 2025 14:28:10.713,351.972
98,7 Feb 2025 15:53:59.289,7 Feb 2025 16:05:31.836,692.547
99,7 Feb 2025 17:28:35.799,7 Feb 2025 17:37:30.515,534.716
100,8 Feb 2025 15:35:21.837,8 Feb 2025 15:46:38.147,676.310
101,8 Feb 2025 17:09:31.640,8 Feb 2025 17:19:32.827,601.187
102,9 Feb 2025 15:16:50.515,9 Feb 2025 15:27:32.590,642.075
103,9 Feb 2025 16:50:34.317,9 Feb 2025 17:01:22.194,647.877
104,10 Feb 2025 14:58:27.385,10 Feb 2025 15:08:12.975,585.590
105,10 Feb 2025 16:31:42.321,10 Feb 2025 16:43:00.292,677.971
106,10 Feb 2025 18:07:40.151,10 Feb 2025 18:12:36.556,296.405
107,11 Feb 2025 14:40:16.818,11 Feb 2025 14:48:34.695,497.877
108,11 Feb 2025 16:12:55.050,11 Feb 2025 16:24:27.869,692.819
109,11 Feb 2025 17:48:03.998,11 Feb 2025 17:55:23.823,439.825
110,12 Feb 2025 14:22:30.981,12 Feb 2025 14:28:25.235,354.253
111,12 Feb 2025 15:54:12.444,12 Feb 2025 16:05:45.082,692.638
112,12 Feb 2025 17:28:49.291,12 Feb 2025 17:37:43.082,533.791
113,13 Feb 2025 15:35:34.927,13 Feb 2025 15:46:51.527,676.600
114,13 Feb 2025 17:09:45.034,13 Feb 2025 17:19:45.562,600.528
115,14 Feb 2025 15:17:03.523,14 Feb 2025 15:27:46.119,642.596
116,14 Feb 2025 16:50:47.641,14 Feb 2025 17:01:35.069,647.428
117,15 Feb 2025 14:58:40.278,15 Feb 2025 15:08:26.689,586.411
118,15 Feb 2025 16:31:55.587,15 Feb 2025 16:43:13.294,677.707
119,15 Feb 2025 18:07:54.218,15 Feb 2025 18:12:48.391,294.173
120,16 Feb 2025 14:40:29.520,16 Feb 2025 14:48:48.674,499.154
121,16 Feb 2025 16:13:08.262,16 Feb 2025 16:24:40.997,692.735
122,16 Feb 2025 17:48:17.649,16 Feb 2025 17:55:36.150,438.501
123,17 Feb 2025 14:22:43.233,17 Feb 2025 14:28:39.743,356.510
124,17 Feb 2025 15:54:25.601,17 Feb 2025 16:05:58.329,692.728
125,17 Feb 2025 17:29:02.780,17 Feb 2025 17:37:55.647,532.867
126,18 Feb 2025 15:35:48.019,18 Feb 2025 15:47:04.906,676.887
127,18 Feb 2025 17:09:58.429,18 Feb 2025 17:19:58.297,599.868
128,19 Feb 2025 15:17:16.534,19 Feb 2025 15:27:59.648,643.113
129,19 Feb 2025 16:51:00.966,19 Feb 2025 17:01:47.944,646.978
130,20 Feb 2025 14:58:53.176,20 Feb 2025 15:08:40.402,587.227
131,20 Feb 2025 16:32:08.854,20 Feb 2025 16:43:26.296,677.441
132,20 Feb 2025 18:08:08.294,20 Feb 2025 18:13:00.217,291.924
133,21 Feb 2025 14:40:42.228,21 Feb 2025 14:49:02.654,500.426
134,21 Feb 2025 16:13:21.476,21 Feb 2025 16:24:54.118,692.642
135,21 Feb 2025 17:48:31.305,21 Feb 2025 17:55:48.473,437.169
136,22 Feb 2025 14:22:55.500,22 Feb 2025 14:28:54.243,358.743
137,22 Feb 2025 15:54:38.760,22 Feb 2025 16:06:11.577,692.817
138,22 Feb 2025 17:29:16.271,22 Feb 2025 17:38:08.211,531.940
139,23 Feb 2025 15:36:01.113,23 Feb 2025 15:47:18.284,677.172
140,23 Feb 2025 17:10:11.826,23 Feb 2025 17:20:11.031,599.205
141,24 Feb 2025 15:17:29.547,24 Feb 2025 15:28:13.173,643.626
142,24 Feb 2025 16:51:14.293,24 Feb 2025 17:02:00.818,646.525
143,25 Feb 2025 14:59:06.074,25 Feb 2025 15:08:54.113,588.040
144,25 Feb 2025 16:32:22.123,25 Feb 2025 16:43:39.297,677.173
145,25 Feb 2025 18:08:22.382,25 Feb 2025 18:13:12.032,289.650
146,26 Feb 2025 14:40:54.937,26 Feb 2025 14:49:16.627,501.690
147,26 Feb 2025 16:13:34.690,26 Feb 2025 16:25:07.244,692.554
148,26 Feb 2025 17:48:44.964,26 Feb 2025 17:56:00.794,435.830
149,27 Feb 2025 14:23:07.770,27 Feb 2025 14:29:08.733,360.963
150,27 Feb 2025 15:54:51.917,27 Feb 2025 16:06:24.822,692.904
151,27 Feb 2025 17:29:29.766,27 Feb 2025 17:38:20.772,531.007
152,28 Feb 2025 15:36:14.206,28 Feb 2025 15:47:31.660,677.454
153,28 Feb 2025 17:10:25.223,28 Feb 2025 17:20:23.762,598.539
154,1 Mar 2025 15:17:42.559,1 Mar 2025 15:28:26.697,644.138
155,1 Mar 2025 16:51:27.620,1 Mar 2025 17:02:13.690,646.070
156,2 Mar 2025 14:59:18.973,2 Mar 2025 15:09:07.820,588.847
157,2 Mar 2025 16:32:35.392,2 Mar 2025 16:43:52.295,676.903
158,2 Mar 2025 18:08:36.476,2 Mar 2025 18:13:23.836,287.359
159,3 Mar 2025 14:41:07.650,3 Mar 2025 14:49:30.594,502.944
160,3 Mar 2025 16:13:47.904,3 Mar 2025 16:25:20.365,692.460
161,3 Mar 2025 17:48:58.623,3 Mar 2025 17:56:13.111,434.488
162,4 Mar 2025 14:23:20.047,4 Mar 2025 14:29:23.207,363.160
163,4 Mar 2025 15:55:05.072,4 Mar 2025 16:06:38.069,692.998
164,4 Mar 2025 17:29:43.264,4 Mar 2025 17:38:33.332,530.068
165,5 Mar 2025 15:36:27.301,5 Mar 2025 15:47:45.035,677.734
166,5 Mar 2025 17:10:38.620,5 Mar 2025 17:20:36.491,597.871
167,6 Mar 2025 15:17:55.571,6 Mar 2025 15:28:40.225,644.654
168,6 Mar 2025 16:51:40.944,6 Mar 2025 17:02:26.558,645.614
169,7 Mar 2025 14:59:31.878,7 Mar 2025 15:09:21.526,589.649
170,7 Mar 2025 16:32:48.662,7 Mar 2025 16:44:05.294,676.631
171,7 Mar 2025 18:08:50.582,7 Mar 2025 18:13:35.631,285.049
172,8 Mar 2025 14:41:20.366,8 Mar 2025 14:49:44.556,504.190
173,8 Mar 2025 16:14:01.120,8 Mar 2025 16:25:33.485,692.365
174,8 Mar 2025 17:49:12.283,8 Mar 2025 17:56:25.431,433.148
175,9 Mar 2025 14:23:32.337,9 Mar 2025 14:29:37.681,365.344
176,9 Mar 2025 15:55:18.237,9 Mar 2025 16:06:51.308,693.072
177,9 Mar 2025 17:29:56.760,9 Mar 2025 17:38:45.890,529.130
178,10 Mar 2025 15:36:40.397,10 Mar 2025 15:47:58.409,678.011
179,10 Mar 2025 17:10:52.020,10 Mar 2025 17:20:49.220,597.200
180,11 Mar 2025 15:18:08.590,11 Mar 2025 15:28:53.742,645.152
181,11 Mar 2025 16:51:54.277,11 Mar 2025 17:02:39.430,645.153
182,12 Mar 2025 14:59:44.779,12 Mar 2025 15:09:35.227,590.448
183,12 Mar 2025 16:33:01.933,12 Mar 2025 16:44:18.285,676.352
184,12 Mar 2025 18:09:04.699,12 Mar 2025 18:13:47.413,282.714
185,13 Mar 2025 14:41:33.085,13 Mar 2025 14:49:58.516,505.431
186,13 Mar 2025 16:14:14.336,13 Mar 2025 16:25:46.603,692.267
187,13 Mar 2025 17:49:25.949,13 Mar 2025 17:56:37.741,431.792
188,14 Mar 2025 14:23:44.635,14 Mar 2025 14:29:52.140,367.505
189,14 Mar 2025 15:55:31.394,14 Mar 2025 16:07:04.549,693.154
190,14 Mar 2025 17:30:10.256,14 Mar 2025 17:38:58.444,528.188
191,15 Mar 2025 15:36:53.493,15 Mar 2025 15:48:11.779,678.286
192,15 Mar 2025 17:11:05.419,15 Mar 2025 17:21:01.946,596.527
193,16 Mar 2025 15:18:21.606,16 Mar 2025 15:29:07.261,645.655
194,16 Mar 2025 16:52:07.606,16 Mar 2025 17:02:52.297,644.692
195,17 Mar 2025 14:59:57.684,17 Mar 2025 15:09:48.927,591.242
196,17 Mar 2025 16:33:15.203,17 Mar 2025 16:44:31.284,676.081
197,17 Mar 2025 18:09:18.822,17 Mar 2025 18:13:59.185,280.363
198,18 Mar 2025 14:41:45.808,18 Mar 2025 14:50:12.471,506.663
199,18 Mar 2025 16:14:27.552,18 Mar 2025 16:25:59.719,692.167
200,18 Mar 2025 17:49:39.620,18 Mar 2025 17:56:50.048,430.428
201,19 Mar 2025 14:23:56.944,19 Mar 2025 14:30:06.588,369.644
202,19 Mar 2025 15:55:44.557,19 Mar 2025 16:07:17.788,693.231
203,19 Mar 2025 17:30:23.752,19 Mar 2025 17:39:10.997,527.245
204,20 Mar 2025 15:37:06.591,20 Mar 2025 15:48:25.149,678.558
205,20 Mar 2025 17:11:18.819,20 Mar 2025 17:21:14.671,595.852
206,21 Mar 2025 15:18:34.625,21 Mar 2025 15:29:20.778,646.153
207,21 Mar 2025 16:52:20.935,21 Mar 2025 17:03:05.164,644.228
208,22 Mar 2025 15:00:10.595,22 Mar 2025 15:10:02.625,592.030
209,22 Mar 2025 16:33:28.475,22 Mar 2025 16:44:44.278,675.803
210,22 Mar 2025 18:09:32.958,22 Mar 2025 18:14:10.947,277.989
211,23 Mar 2025 14:41:58.535,23 Mar 2025 14:50:26.425,507.890
212,23 Mar 2025 16:14:40.770,23 Mar 2025 16:26:12.835,692.064
213,23 Mar 2025 17:49:53.290,23 Mar 2025 17:57:02.352,429.062
214,24 Mar 2025 14:24:09.261,24 Mar 2025 14:30:21.029,371.768
215,24 Mar 2025 15:55:57.719,24 Mar 2025 16:07:31.026,693.307
216,24 Mar 2025 17:30:37.253,24 Mar 2025 17:39:23.548,526.296
217,25 Mar 2025 15:37:19.690,25 Mar 2025 15:48:38.517,678.827
218,25 Mar 2025 17:11:32.220,25 Mar 2025 17:21:27.394,595.173
219,26 Mar 2025 15:18:47.645,26 Mar 2025 15:29:34.296,646.651
220,26 Mar 2025 16:52:34.262,26 Mar 2025 17:03:18.026,643.764
221,27 Mar 2025 15:00:23.504,27 Mar 2025 15:10:16.320,592.817
222,27 Mar 2025 16:33:41.751,27 Mar 2025 16:44:57.269,675.519
223,27 Mar 2025 18:09:47.110,27 Mar 2025 18:14:22.698,275.588
224,28 Mar 2025 14:42:11.265,28 Mar 2025 14:50:40.373,509.108
225,28 Mar 2025 16:14:53.988,28 Mar 2025 16:26:25.948,691.960
226,28 Mar 2025 17:50:06.959,28 Mar 2025 17:57:14.652,427.693
227,29 Mar 2025 14:24:21.585,29 Mar 2025 14:30:35.459,373.874
228,29 Mar 2025 15:56:10.881,29 Mar 2025 16:07:44.262,693.381
229,29 Mar 2025 17:30:50.754,29 Mar 2025 17:39:36.096,525.342
230,30 Mar 2025 15:37:32.788,30 Mar 2025 15:48:51.883,679.094
231,30 Mar 2025 17:11:45.621,30 Mar 2025 17:21:40.114,594.493
232,31 Mar 2025 15:19:00.665,31 Mar 2025 15:29:47.809,647.143
233,31 Mar 2025 16:52:47.592,31 Mar 2025 17:03:30.888,643.296
234,1 Apr 2025 15:00:36.415,1 Apr 2025 15:10:30.012,593.598
235,1 Apr 2025 16:33:55.022,1 Apr 2025 16:45:10.260,675.237
236,1 Apr 2025 18:10:01.261,1 Apr 2025 18:14:34.436,273.175
237,2 Apr 2025 14:42:23.998,2 Apr 2025 14:50:54.318,510.320
238,2 Apr 2025 16:15:07.206,2 Apr 2025 16:26:39.060,691.854
239,2 Apr 2025 17:50:20.638,2 Apr 2025 17:57:26.948,426.310
240,3 Apr 2025 14:24:33.921,3 Apr 2025 14:30:49.879,375.958
241,3 Apr 2025 15:56:24.040,3 Apr 2025 16:07:57.501,693.461
242,3 Apr 2025 17:31:04.260,3 Apr 2025 17:39:48.643,524.383
243,4 Apr 2025 15:37:45.889,4 Apr 2025 15:49:05.248,679.359
244,4 Apr 2025 17:11:59.024,4 Apr 2025 17:21:52.834,593.810
245,5 Apr 2025 15:19:13.688,5 Apr 2025 15:30:01.320,647.633
246,5 Apr 2025 16:53:00.924,5 Apr 2025 17:03:43.750,642.826
247,6 Apr 2025 15:00:49.327,6 Apr 2025 15:10:43.704,594.377
248,6 Apr 2025 16:34:08.293,6 Apr 2025 16:45:23.249,674.956
249,6 Apr 2025 18:10:15.431,6 Apr 2025 18:14:46.158,270.727
250,7 Apr 2025 14:42:36.731,7 Apr 2025 14:51:08.262,511.530
251,7 Apr 2025 16:15:20.430,7 Apr 2025 16:26:52.168,691.738
252,7 Apr 2025 17:50:34.312,7 Apr 2025 17:57:39.246,424.934
253,8 Apr 2025 14:24:46.262,8 Apr 2025 14:31:04.292,378.029
254,8 Apr 2025 15:56:37.208,8 Apr 2025 16:08:10.730,693.522
255,8 Apr 2025 17:31:17.760,8 Apr 2025 17:40:01.187,523.427
256,9 Apr 2025 15:37:58.990,9 Apr 2025 15:49:18.611,679.621
257,9 Apr 2025 17:12:12.423,9 Apr 2025 17:22:05.551,593.128
258,10 Apr 2025 15:19:26.710,10 Apr 2025 15:30:14.829,648.119
259,10 Apr 2025 16:53:14.256,10 Apr 2025 17:03:56.609,642.353
260,11 Apr 2025 15:01:02.240,11 Apr 2025 15:10:57.391,595.152
261,11 Apr 2025 16:34:21.566,11 Apr 2025 16:45:36.235,674.669
262,11 Apr 2025 18:10:29.611,11 Apr 2025 18:14:57.869,268.258
263,12 Apr 2025 14:42:49.468,12 Apr 2025 14:51:22.194,512.725
264,12 Apr 2025 16:15:33.648,12 Apr 2025 16:27:05.276,691.627
265,12 Apr 2025 17:50:47.992,12 Apr 2025 17:57:51.535,423.543
266,13 Apr 2025 14:24:58.612,13 Apr 2025 14:31:18.693,380.081
267,13 Apr 2025 15:56:50.371,13 Apr 2025 16:08:23.961,693.590
268,13 Apr 2025 17:31:31.263,13 Apr 2025 17:40:13.727,522.464
269,14 Apr 2025 15:38:12.091,14 Apr 2025 15:49:31.967,679.876
270,14 Apr 2025 17:12:25.829,14 Apr 2025 17:22:18.266,592.437
271,15 Apr 2025 15:19:39.733,15 Apr 2025 15:30:28.335,648.602
272,15 Apr 2025 16:53:27.587,15 Apr 2025 17:04:09.467,641.879
273,16 Apr 2025 15:01:15.155,16 Apr 2025 15:11:11.076,595.920
274,16 Apr 2025 16:34:34.839,16 Apr 2025 16:45:49.220,674.381
275,16 Apr 2025 18:10:43.800,16 Apr 2025 18:15:09.569,265.769
276,17 Apr 2025 14:43:02.209,17 Apr 2025 14:51:36.125,513.916
277,17 Apr 2025 16:15:46.868,17 Apr 2025 16:27:18.383,691.515
278,17 Apr 2025 17:51:01.673,17 Apr 2025 17:58:03.821,422.148
279,18 Apr 2025 14:25:10.971,18 Apr 2025 14:31:33.086,382.115
280,18 Apr 2025 15:57:03.536,18 Apr 2025 16:08:37.191,693.655
281,18 Apr 2025 17:31:44.768,18 Apr 2025 17:40:26.266,521.498
282,19 Apr 2025 15:38:25.193,19 Apr 2025 15:49:45.326,680.133
283,19 Apr 2025 17:12:39.235,19 Apr 2025 17:22:30.981,591.746
284,20 Apr 2025 15:19:52.758,20 Apr 2025 15:30:41.840,649.082
285,20 Apr 2025 16:53:40.921,20 Apr 2025 17:04:22.324,641.403
286,21 Apr 2025 15:01:28.072,21 Apr 2025 15:11:24.758,596.686
287,21 Apr 2025 16:34:48.114,21 Apr 2025 16:46:02.203,674.090
288,21 Apr 2025 18:10:58.005,21 Apr 2025 18:15:21.255,263.250
289,22 Apr 2025 14:43:14.953,22 Apr 2025 14:51:50.055,515.103
290,22 Apr 2025 16:16:00.089,22 Apr 2025 16:27:31.492,691.404
291,22 Apr 2025 17:51:15.364,22 Apr 2025 17:58:16.103,420.739
292,23 Apr 2025 14:25:23.335,23 Apr 2025 14:31:47.471,384.136
293,23 Apr 2025 15:57:16.701,23 Apr 2025 16:08:50.419,693.718
294,23 Apr 2025 17:31:58.275,23 Apr 2025 17:40:38.802,520.527
295,24 Apr 2025 14:09:20.169,24 Apr 2025 14:09:49.589,29.419
296,24 Apr 2025 15:38:38.296,24 Apr 2025 15:49:58.684,680.388
297,24 Apr 2025 17:12:52.636,24 Apr 2025 17:22:43.692,591.056
298,25 Apr 2025 15:20:05.782,25 Apr 2025 15:30:55.342,649.560
299,25 Apr 2025 16:53:54.254,25 Apr 2025 17:04:35.178,640.924
300,26 Apr 2025 15:01:40.992,26 Apr 2025 15:11:38.436,597.444
301,26 Apr 2025 16:35:01.392,26 Apr 2025 16:46:15.188,673.797
302,26 Apr 2025 18:11:12.226,26 Apr 2025 18:15:32.924,260.699
303,27 Apr 2025 14:43:27.697,27 Apr 2025 14:52:03.983,516.285
304,27 Apr 2025 16:16:13.305,27 Apr 2025 16:27:44.597,691.292
305,27 Apr 2025 17:51:29.051,27 Apr 2025 17:58:28.376,419.325
306,28 Apr 2025 14:25:35.709,28 Apr 2025 14:32:01.845,386.136
307,28 Apr 2025 15:57:29.865,28 Apr 2025 16:09:03.645,693.779
308,28 Apr 2025 17:32:11.784,28 Apr 2025 17:40:51.337,519.554
309,29 Apr 2025 14:09:22.041,29 Apr 2025 14:10:14.540,52.500
310,29 Apr 2025 15:38:51.398,29 Apr 2025 15:50:12.039,680.640
311,29 Apr 2025 17:13:06.044,29 Apr 2025 17:22:56.403,590.358
312,30 Apr 2025 15:20:18.807,30 Apr 2025 15:31:08.842,650.035
313,30 Apr 2025 16:54:07.587,30 Apr 2025 17:04:48.034,640.446
314,1 May 2025 15:01:53.913,1 May 2025 15:11:52.112,598.199
315,1 May 2025 16:35:14.666,1 May 2025 16:46:28.169,673.503
316,1 May 2025 18:11:26.452,1 May 2025 18:15:44.578,258.126
317,2 May 2025 14:43:40.448,2 May 2025 14:52:17.903,517.456
318,2 May 2025 16:16:26.526,2 May 2025 16:27:57.700,691.174
319,2 May 2025 17:51:42.740,2 May 2025 17:58:40.651,417.910
320,3 May 2025 14:25:48.090,3 May 2025 14:32:16.213,388.123
321,3 May 2025 15:57:43.032,3 May 2025 16:09:16.870,693.838
322,3 May 2025 17:32:25.293,3 May 2025 17:41:03.870,518.577
323,4 May 2025 14:09:27.633,4 May 2025 14:10:35.782,68.150
324,4 May 2025 15:39:04.503,4 May 2025 15:50:25.393,680.890
325,4 May 2025 17:13:19.450,4 May 2025 17:23:09.111,589.661
326,5 May 2025 15:20:31.834,5 May 2025 15:31:22.341,650.507
327,5 May 2025 16:54:20.922,5 May 2025 17:05:00.885,639.963
328,6 May 2025 15:02:06.834,6 May 2025 15:12:05.786,598.953
329,6 May 2025 16:35:27.942,6 May 2025 16:46:41.149,673.206
330,6 May 2025 18:11:40.697,6 May 2025 18:15:56.220,255.523
331,7 May 2025 14:43:53.199,7 May 2025 14:52:31.820,518.622
332,7 May 2025 16:16:39.747,7 May 2025 16:28:10.801,691.053
333,7 May 2025 17:51:56.434,7 May 2025 17:58:52.920,416.486
334,8 May 2025 14:26:00.475,8 May 2025 14:32:30.572,390.096
335,8 May 2025 15:57:56.198,8 May 2025 16:09:30.093,693.895
336,8 May 2025 17:32:38.803,8 May 2025 17:41:16.398,517.596
337,9 May 2025 14:09:34.724,9 May 2025 14:10:55.523,80.798
338,9 May 2025 15:39:17.607,9 May 2025 15:50:38.744,681.137
339,9 May 2025 17:13:32.857,9 May 2025 17:23:21.816,588.959
340,10 May 2025 15:20:44.861,10 May 2025 15:31:35.836,650.975
341,10 May 2025 16:54:34.256,10 May 2025 17:05:13.734,639.478
342,11 May 2025 15:02:19.755,11 May 2025 15:12:19.457,599.701
343,11 May 2025 16:35:41.217,11 May 2025 16:46:54.125,672.908
344,11 May 2025 18:11:54.952,11 May 2025 18:16:07.845,252.893
345,12 May 2025 14:44:05.952,12 May 2025 14:52:45.732,519.780
346,12 May 2025 16:16:52.968,12 May 2025 16:28:23.898,690.930
347,12 May 2025 17:52:10.123,12 May 2025 17:59:05.185,415.062
348,13 May 2025 14:26:12.869,13 May 2025 14:32:44.920,392.051
349,13 May 2025 15:58:09.363,13 May 2025 16:09:43.313,693.949
350,13 May 2025 17:32:52.312,13 May 2025 17:41:28.924,516.611
351,14 May 2025 14:09:42.692,14 May 2025 14:11:14.378,91.686
352,14 May 2025 15:39:30.711,14 May 2025 15:50:52.093,681.382
353,14 May 2025 17:13:46.263,14 May 2025 17:23:34.519,588.255
354,15 May 2025 15:20:57.890,15 May 2025 15:31:49.325,651.435
355,15 May 2025 16:54:47.590,15 May 2025 17:05:26.581,638.991
356,16 May 2025 15:02:32.679,16 May 2025 15:12:33.125,600.446
357,16 May 2025 16:35:54.492,16 May 2025 16:47:07.101,672.608
358,16 May 2025 18:12:09.221,16 May 2025 18:16:19.457,250.236
359,17 May 2025 14:44:18.709,17 May 2025 14:52:59.641,520.932
360,17 May 2025 16:17:06.190,17 May 2025 16:28:36.996,690.805
361,17 May 2025 17:52:23.821,17 May 2025 17:59:17.447,413.626
362,18 May 2025 14:26:25.271,18 May 2025 14:32:59.262,393.992
363,18 May 2025 15:58:22.531,18 May 2025 16:09:56.532,694.002
364,18 May 2025 17:33:05.825,18 May 2025 17:41:41.444,515.619
365,19 May 2025 14:09:51.251,19 May 2025 14:11:32.647,101.396
366,19 May 2025 15:39:43.817,19 May 2025 15:51:05.442,681.625
367,19 May 2025 17:13:59.673,19 May 2025 17:23:47.221,587.548
368,20 May 2025 15:21:10.919,20 May 2025 15:32:02.818,651.899
369,20 May 2025 16:55:00.926,20 May 2025 17:05:39.427,638.501
370,21 May 2025 15:02:45.604,21 May 2025 15:12:46.791,601.187
371,21 May 2025 16:36:07.769,21 May 2025 16:47:20.075,672.305
372,21 May 2025 18:12:23.509,21 May 2025 18:16:31.050,247.542
373,22 May 2025 14:44:31.467,22 May 2025 14:53:13.546,522.079
374,22 May 2025 16:17:19.412,22 May 2025 16:28:50.091,690.678
375,22 May 2025 17:52:37.523,22 May 2025 17:59:29.703,412.180
376,23 May 2025 14:26:37.676,23 May 2025 14:33:13.596,395.920
377,23 May 2025 15:58:35.698,23 May 2025 16:10:09.750,694.052
378,23 May 2025 17:33:19.338,23 May 2025 17:41:53.965,514.627
379,24 May 2025 14:10:00.243,24 May 2025 14:11:50.479,110.236
380,24 May 2025 15:39:56.922,24 May 2025 15:51:18.787,681.865
381,24 May 2025 17:14:13.082,24 May 2025 17:23:59.919,586.838
382,25 May 2025 15:21:23.948,25 May 2025 15:32:16.309,652.361
383,25 May 2025 16:55:14.261,25 May 2025 17:05:52.270,638.009
384,26 May 2025 15:02:58.529,26 May 2025 15:13:00.454,601.924
385,26 May 2025 16:36:21.045,26 May 2025 16:47:33.046,672.001
386,26 May 2025 18:12:37.808,26 May 2025 18:16:42.626,244.818
387,27 May 2025 14:44:44.227,27 May 2025 14:53:27.446,523.218
388,27 May 2025 16:17:32.634,27 May 2025 16:29:03.183,690.549
389,27 May 2025 17:52:51.225,27 May 2025 17:59:41.956,410.731
390,28 May 2025 14:26:50.091,28 May 2025 14:33:27.920,397.829
391,28 May 2025 15:58:48.865,28 May 2025 16:10:22.965,694.100
392,28 May 2025 17:33:32.851,28 May 2025 17:42:06.483,513.632
393,29 May 2025 14:10:09.581,29 May 2025 14:12:07.965,118.384
394,29 May 2025 15:40:10.028,29 May 2025 15:51:32.131,682.102
395,29 May 2025 17:14:26.488,29 May 2025 17:24:12.617,586.129
396,30 May 2025 15:21:36.980,30 May 2025 15:32:29.798,652.818
397,30 May 2025 16:55:27.597,30 May 2025 17:06:05.112,637.515
398,31 May 2025 15:03:11.458,31 May 2025 15:13:14.115,602.657
399,31 May 2025 16:36:34.322,31 May 2025 16:47:46.017,671.695
400,31 May 2025 18:12:52.124,31 May 2025 18:16:54.187,242.063
401,1 Jun 2025 14:44:56.991,1 Jun 2025 14:53:41.344,524.353
402,1 Jun 2025 16:17:45.857,1 Jun 2025 16:29:16.275,690.418
403,1 Jun 2025 17:53:04.932,1 Jun 2025 17:59:54.205,409.273
404,2 Jun 2025 14:27:02.511,2 Jun 2025 14:33:42.239,399.728
405,2 Jun 2025 15:59:02.033,2 Jun 2025 16:10:36.179,694.146
406,2 Jun 2025 17:33:46.368,2 Jun 2025 17:42:19.000,512.632
407,3 Jun 2025 14:10:19.181,3 Jun 2025 14:12:25.185,126.004
408,3 Jun 2025 15:40:23.136,3 Jun 2025 15:51:45.473,682.338
409,3 Jun 2025 17:14:39.896,3 Jun 2025 17:24:25.315,585.419
410,4 Jun 2025 15:21:50.013,4 Jun 2025 15:32:43.283,653.270
411,4 Jun 2025 16:55:40.938,4 Jun 2025 17:06:17.948,637.010
412,5 Jun 2025 15:03:24.385,5 Jun 2025 15:13:27.772,603.387
413,5 Jun 2025 16:36:47.599,5 Jun 2025 16:47:58.985,671.386
414,5 Jun 2025 18:13:06.460,5 Jun 2025 18:17:05.726,239.266
415,6 Jun 2025 14:45:09.755,6 Jun 2025 14:53:55.237,525.482
416,6 Jun 2025 16:17:59.080,6 Jun 2025 16:29:29.364,690.284
417,6 Jun 2025 17:53:18.643,6 Jun 2025 18:00:06.448,407.805
418,7 Jun 2025 14:27:14.935,7 Jun 2025 14:33:56.548,401.613
419,7 Jun 2025 15:59:15.201,7 Jun 2025 16:10:49.391,694.190
420,7 Jun 2025 17:33:59.884,7 Jun 2025 17:42:31.511,511.627
421,8 Jun 2025 14:10:29.002,8 Jun 2025 14:12:42.177,133.175
422,8 Jun 2025 15:40:36.242,8 Jun 2025 15:51:58.812,682.571
423,8 Jun 2025 17:14:53.306,8 Jun 2025 17:24:38.007,584.701
424,9 Jun 2025 15:22:03.044,9 Jun 2025 15:32:56.765,653.721
425,9 Jun 2025 16:55:54.274,9 Jun 2025 17:06:30.785,636.511
426,10 Jun 2025 15:03:37.314,10 Jun 2025 15:13:41.427,604.113
427,10 Jun 2025 16:37:00.875,10 Jun 2025 16:48:11.951,671.075
428,10 Jun 2025 18:13:20.810,10 Jun 2025 18:17:17.248,236.437
429,11 Jun 2025 14:45:22.523,11 Jun 2025 14:54:09.123,526.600
430,11 Jun 2025 16:18:12.306,11 Jun 2025 16:29:42.456,690.150
431,11 Jun 2025 17:53:32.359,11 Jun 2025 18:00:18.691,406.332
432,12 Jun 2025 14:27:27.367,12 Jun 2025 14:34:10.850,403.482
433,12 Jun 2025 15:59:28.369,12 Jun 2025 16:11:02.601,694.232
434,12 Jun 2025 17:34:13.399,12 Jun 2025 17:42:44.021,510.622
435,13 Jun 2025 14:10:39.019,13 Jun 2025 14:12:58.976,139.957
436,13 Jun 2025 15:40:49.349,13 Jun 2025 15:52:12.150,682.801
437,13 Jun 2025 17:15:06.717,13 Jun 2025 17:24:50.697,583.980
438,14 Jun 2025 15:22:16.077,14 Jun 2025 15:33:10.246,654.169
439,14 Jun 2025 16:56:07.612,14 Jun 2025 17:06:43.621,636.010
440,15 Jun 2025 15:03:50.245,15 Jun 2025 15:13:55.080,604.835
441,15 Jun 2025 16:37:14.154,15 Jun 2025 16:48:24.916,670.762
442,15 Jun 2025 18:13:35.180,15 Jun 2025 18:17:28.750,233.570
443,16 Jun 2025 14:45:35.293,16 Jun 2025 14:54:23.013,527.720
444,16 Jun 2025 16:18:25.527,16 Jun 2025 16:29:55.541,690.015
445,16 Jun 2025 17:53:46.071,16 Jun 2025 18:00:30.926,404.855
446,17 Jun 2025 14:27:39.805,17 Jun 2025 14:34:25.141,405.336
447,17 Jun 2025 15:59:41.538,17 Jun 2025 16:11:15.811,694.273
448,17 Jun 2025 17:34:26.922,17 Jun 2025 17:42:56.529,509.607
449,18 Jun 2025 14:10:49.200,18 Jun 2025 14:13:15.620,146.420
450,18 Jun 2025 15:41:02.453,18 Jun 2025 15:52:25.492,683.039
451,18 Jun 2025 17:15:20.134,18 Jun 2025 17:25:03.386,583.252
452,19 Jun 2025 15:22:29.108,19 Jun 2025 15:33:23.725,654.617
453,19 Jun 2025 16:56:20.950,19 Jun 2025 17:06:56.455,635.505
454,20 Jun 2025 15:04:03.175,20 Jun 2025 15:14:08.730,605.554
455,20 Jun 2025 16:37:27.432,20 Jun 2025 16:48:37.879,670.447
456,20 Jun 2025 18:13:49.571,20 Jun 2025 18:17:40.229,230.658
457,21 Jun 2025 14:45:48.063,21 Jun 2025 14:54:36.895,528.832
458,21 Jun 2025 16:18:38.750,21 Jun 2025 16:30:08.625,689.875
459,21 Jun 2025 17:53:59.790,21 Jun 2025 18:00:43.154,403.364
460,22 Jun 2025 14:27:52.246,22 Jun 2025 14:34:39.428,407.181
461,22 Jun 2025 15:59:54.707,22 Jun 2025 16:11:29.017,694.311
462,22 Jun 2025 17:34:40.441,22 Jun 2025 17:43:09.033,508.591
463,23 Jun 2025 14:10:59.520,23 Jun 2025 14:13:32.107,152.587
464,23 Jun 2025 15:41:15.560,23 Jun 2025 15:52:38.825,683.265
465,23 Jun 2025 17:15:33.546,23 Jun 2025 17:25:16.072,582.525
466,24 Jun 2025 15:22:42.141,24 Jun 2025 15:33:37.201,655.060
467,24 Jun 2025 16:56:34.287,24 Jun 2025 17:07:09.287,634.999
468,25 Jun 2025 15:04:16.106,25 Jun 2025 15:14:22.380,606.274
469,25 Jun 2025 16:37:40.705,25 Jun 2025 16:48:50.837,670.132
470,25 Jun 2025 18:14:03.974,25 Jun 2025 18:17:51.689,227.715
471,26 Jun 2025 14:46:00.837,26 Jun 2025 14:54:50.770,529.932
472,26 Jun 2025 16:18:51.977,26 Jun 2025 16:30:21.711,689.734
473,26 Jun 2025 17:54:13.516,26 Jun 2025 18:00:55.379,401.863
474,27 Jun 2025 14:28:04.696,27 Jun 2025 14:34:53.707,409.011
475,27 Jun 2025 16:00:07.876,27 Jun 2025 16:11:42.221,694.345
476,27 Jun 2025 17:34:53.962,27 Jun 2025 17:43:21.535,507.572
477,28 Jun 2025 14:11:09.967,28 Jun 2025 14:13:48.472,158.505
478,28 Jun 2025 15:41:28.670,28 Jun 2025 15:52:52.158,683.488
479,28 Jun 2025 17:15:46.960,28 Jun 2025 17:25:28.756,581.796
480,29 Jun 2025 15:22:55.176,29 Jun 2025 15:33:50.676,655.500
481,29 Jun 2025 16:56:47.622,29 Jun 2025 17:07:22.117,634.496
482,30 Jun 2025 15:04:29.040,30 Jun 2025 15:14:36.025,606.986
483,30 Jun 2025 16:37:53.985,30 Jun 2025 16:49:03.797,669.812
484,30 Jun 2025 18:14:18.406,30 Jun 2025 18:18:03.127,224.721
485,1 Jul 2025 14:46:13.613,1 Jul 2025 14:55:04.646,531.034
486,1 Jul 2025 16:19:05.202,1 Jul 2025 16:30:34.793,689.591
487,1 Jul 2025 17:54:27.244,1 Jul 2025 18:01:07.599,400.356
488,2 Jul 2025 14:28:17.150,2 Jul 2025 14:35:07.981,410.832
489,2 Jul 2025 16:00:21.047,2 Jul 2025 16:11:55.425,694.378
490,2 Jul 2025 17:35:07.487,2 Jul 2025 17:43:34.033,506.546
491,3 Jul 2025 14:11:20.521,3 Jul 2025 14:14:04.731,164.209
492,3 Jul 2025 15:41:41.779,3 Jul 2025 15:53:05.489,683.710
493,3 Jul 2025 17:16:00.375,3 Jul 2025 17:25:41.438,581.062
494,4 Jul 2025 15:23:08.210,4 Jul 2025 15:34:04.148,655.938
495,4 Jul 2025 16:57:00.966,4 Jul 2025 17:07:34.945,633.979
496,5 Jul 2025 15:04:41.973,5 Jul 2025 15:14:49.667,607.694
497,5 Jul 2025 16:38:07.264,5 Jul 2025 16:49:16.753,669.489
498,5 Jul 2025 18:14:32.860,5 Jul 2025 18:18:14.538,221.679
499,6 Jul 2025 14:46:26.388,6 Jul 2025 14:55:18.517,532.129
500,6 Jul 2025 16:19:18.426,6 Jul 2025 16:30:47.873,689.447
501,6 Jul 2025 17:54:40.972,6 Jul 2025 18:01:19.810,398.839
502,7 Jul 2025 14:28:29.608,7 Jul 2025 14:35:22.247,412.639
503,7 Jul 2025 16:00:34.216,7 Jul 2025 16:12:08.626,694.411
504,7 Jul 2025 17:35:21.012,7 Jul 2025 17:43:46.528,505.516
505,8 Jul 2025 14:11:31.178,8 Jul 2025 14:14:20.879,169.702
506,8 Jul 2025 15:41:54.887,8 Jul 2025 15:53:18.817,683.930
507,8 Jul 2025 17:16:13.790,8 Jul 2025 17:25:54.116,580.327
508,9 Jul 2025 15:23:21.245,9 Jul 2025 15:34:17.618,656.373
509,9 Jul 2025 16:57:14.301,9 Jul 2025 17:07:47.771,633.470
510,10 Jul 2025 15:04:54.908,10 Jul 2025 15:15:03.307,608.399
511,10 Jul 2025 16:38:20.543,10 Jul 2025 16:49:29.708,669.165
512,10 Jul 2025 18:14:47.333,10 Jul 2025 18:18:25.928,218.595
513,11 Jul 2025 14:46:39.167,11 Jul 2025 14:55:32.385,533.218
514,11 Jul 2025 16:19:31.651,11 Jul 2025 16:31:00.951,689.300
515,11 Jul 2025 17:54:54.706,11 Jul 2025 18:01:32.021,397.314
516,12 Jul 2025 14:28:42.073,12 Jul 2025 14:35:36.506,414.433
517,12 Jul 2025 16:00:47.387,12 Jul 2025 16:12:21.827,694.440
518,12 Jul 2025 17:35:34.539,12 Jul 2025 17:43:59.021,504.482
519,13 Jul 2025 14:11:41.927,13 Jul 2025 14:14:36.937,175.010
520,13 Jul 2025 15:42:07.998,13 Jul 2025 15:53:32.145,684.147
521,13 Jul 2025 17:16:27.207,13 Jul 2025 17:26:06.794,579.588
522,14 Jul 2025 15:23:34.282,14 Jul 2025 15:34:31.087,656.805
523,14 Jul 2025 16:57:27.642,14 Jul 2025 17:08:00.600,632.957
524,15 Jul 2025 15:05:07.845,15 Jul 2025 15:15:16.945,609.100
525,15 Jul 2025 16:38:33.824,15 Jul 2025 16:49:42.665,668.841
526,15 Jul 2025 18:15:01.834,15 Jul 2025 18:18:37.293,215.459
527,16 Jul 2025 14:46:51.949,16 Jul 2025 14:55:46.255,534.306
528,16 Jul 2025 16:19:44.878,16 Jul 2025 16:31:14.029,689.150
529,16 Jul 2025 17:55:08.444,16 Jul 2025 18:01:44.225,395.781
530,17 Jul 2025 14:28:54.542,17 Jul 2025 14:35:50.760,416.218
531,17 Jul 2025 16:01:00.558,17 Jul 2025 16:12:35.026,694.468
532,17 Jul 2025 17:35:48.069,17 Jul 2025 17:44:11.511,503.442
533,18 Jul 2025 14:11:52.754,18 Jul 2025 14:14:52.912,180.158
534,18 Jul 2025 15:42:21.108,18 Jul 2025 15:53:45.470,684.362
535,18 Jul 2025 17:16:40.621,18 Jul 2025 17:26:19.469,578.849
536,19 Jul 2025 15:23:47.318,19 Jul 2025 15:34:44.553,657.235
537,19 Jul 2025 16:57:40.986,19 Jul 2025 17:08:13.422,632.436
538,20 Jul 2025 15:05:20.781,20 Jul 2025 15:15:30.580,609.799
539,20 Jul 2025 16:38:47.105,20 Jul 2025 16:49:55.617,668.512
540,20 Jul 2025 18:15:16.359,20 Jul 2025 18:18:48.628,212.269
541,21 Jul 2025 14:47:04.732,21 Jul 2025 14:56:00.117,535.385
542,21 Jul 2025 16:19:58.104,21 Jul 2025 16:31:27.099,688.994
543,21 Jul 2025 17:55:22.182,21 Jul 2025 18:01:56.427,394.245
544,22 Jul 2025 14:29:07.016,22 Jul 2025 14:36:05.004,417.988
545,22 Jul 2025 16:01:13.729,22 Jul 2025 16:12:48.220,694.492
546,22 Jul 2025 17:36:01.599,22 Jul 2025 17:44:23.997,502.398
547,23 Jul 2025 14:12:03.662,23 Jul 2025 14:15:08.811,185.149
548,23 Jul 2025 15:42:34.219,23 Jul 2025 15:53:58.789,684.571
549,23 Jul 2025 17:16:54.041,23 Jul 2025 17:26:32.142,578.100
550,24 Jul 2025 15:24:00.355,24 Jul 2025 15:34:58.017,657.662
551,24 Jul 2025 16:57:54.330,24 Jul 2025 17:08:26.242,631.912
552,25 Jul 2025 15:05:33.722,25 Jul 2025 15:15:44.212,610.490
553,25 Jul 2025 16:39:00.386,25 Jul 2025 16:50:08.567,668.182
554,25 Jul 2025 18:15:30.909,25 Jul 2025 18:18:59.940,209.032
555,26 Jul 2025 14:47:17.516,26 Jul 2025 14:56:13.971,536.455
556,26 Jul 2025 16:20:11.331,26 Jul 2025 16:31:40.177,688.845
557,26 Jul 2025 17:55:35.931,26 Jul 2025 18:02:08.617,392.687
558,27 Jul 2025 14:29:19.497,27 Jul 2025 14:36:19.245,419.748
559,27 Jul 2025 16:01:26.901,27 Jul 2025 16:13:01.417,694.516
560,27 Jul 2025 17:36:15.133,27 Jul 2025 17:44:36.482,501.349
561,28 Jul 2025 14:12:14.637,28 Jul 2025 14:15:24.639,190.003
562,28 Jul 2025 15:42:47.331,28 Jul 2025 15:54:12.112,684.781
563,28 Jul 2025 17:17:07.463,28 Jul 2025 17:26:44.813,577.350
564,29 Jul 2025 15:24:13.394,29 Jul 2025 15:35:11.481,658.087
565,29 Jul 2025 16:58:07.670,29 Jul 2025 17:08:39.062,631.392
566,30 Jul 2025 15:05:46.661,30 Jul 2025 15:15:57.844,611.182
567,30 Jul 2025 16:39:13.669,30 Jul 2025 16:50:21.517,667.848
568,30 Jul 2025 18:15:45.491,30 Jul 2025 18:19:11.220,205.729
569,31 Jul 2025 14:47:30.302,31 Jul 2025 14:56:27.827,537.525
570,31 Jul 2025 16:20:24.559,31 Jul 2025 16:31:53.249,688.690
571,31 Jul 2025 17:55:49.681,31 Jul 2025 18:02:20.810,391.129
572,1 Aug 2025 14:29:31.980,1 Aug 2025 14:36:33.479,421.499
573,1 Aug 2025 16:01:40.074,1 Aug 2025 16:13:14.611,694.537
574,1 Aug 2025 17:36:28.670,1 Aug 2025 17:44:48.962,500.292
575,2 Aug 2025 14:12:25.672,2 Aug 2025 14:15:40.402,194.731
576,2 Aug 2025 15:43:00.443,2 Aug 2025 15:54:25.433,684.990
577,2 Aug 2025 17:17:20.880,2 Aug 2025 17:26:57.481,576.601
578,3 Aug 2025 15:24:26.437,3 Aug 2025 15:35:24.941,658.504
579,3 Aug 2025 16:58:21.013,3 Aug 2025 17:08:51.878,630.865
580,4 Aug 2025 15:05:59.601,4 Aug 2025 15:16:11.472,611.871
581,4 Aug 2025 16:39:26.951,4 Aug 2025 16:50:34.464,667.513
582,4 Aug 2025 18:16:00.100,4 Aug 2025 18:19:22.469,202.368
583,5 Aug 2025 14:47:43.086,5 Aug 2025 14:56:41.683,538.597
584,5 Aug 2025 16:20:37.786,5 Aug 2025 16:32:06.317,688.531
585,5 Aug 2025 17:56:03.433,5 Aug 2025 18:02:32.994,389.561
586,6 Aug 2025 14:29:44.469,6 Aug 2025 14:36:47.705,423.237
587,6 Aug 2025 16:01:53.246,6 Aug 2025 16:13:27.802,694.556
588,6 Aug 2025 17:36:42.204,6 Aug 2025 17:45:01.440,499.236
589,7 Aug 2025 14:12:36.770,7 Aug 2025 14:15:56.102,199.332
590,7 Aug 2025 15:43:13.555,7 Aug 2025 15:54:38.751,685.196
591,7 Aug 2025 17:17:34.302,7 Aug 2025 17:27:10.147,575.845
592,8 Aug 2025 15:24:39.477,8 Aug 2025 15:35:38.401,658.924
593,8 Aug 2025 16:58:34.358,8 Aug 2025 17:09:04.694,630.335
594,9 Aug 2025 15:06:12.543,9 Aug 2025 15:16:25.098,612.555
595,9 Aug 2025 16:39:40.235,9 Aug 2025 16:50:47.410,667.175
596,9 Aug 2025 18:16:14.739,9 Aug 2025 18:19:33.689,198.950
597,10 Aug 2025 14:47:55.877,10 Aug 2025 14:56:55.533,539.656
598,10 Aug 2025 16:20:51.015,10 Aug 2025 16:32:19.387,688.372
599,10 Aug 2025 17:56:17.192,10 Aug 2025 18:02:45.173,387.982
600,11 Aug 2025 14:29:56.964,11 Aug 2025 14:37:01.927,424.964
601,11 Aug 2025 16:02:06.421,11 Aug 2025 16:13:40.994,694.573
602,11 Aug 2025 17:36:55.743,11 Aug 2025 17:45:13.916,498.173
603,12 Aug 2025 14:12:47.923,12 Aug 2025 14:16:11.747,203.824
604,12 Aug 2025 15:43:26.670,12 Aug 2025 15:54:52.070,685.400
605,12 Aug 2025 17:17:47.727,12 Aug 2025 17:27:22.812,575.085
606,13 Aug 2025 15:24:52.514,13 Aug 2025 15:35:51.856,659.342
607,13 Aug 2025 16:58:47.706,13 Aug 2025 17:09:17.508,629.802
608,14 Aug 2025 15:06:25.485,14 Aug 2025 15:16:38.723,613.238
609,14 Aug 2025 16:39:53.520,14 Aug 2025 16:51:00.355,666.835
610,14 Aug 2025 18:16:29.415,14 Aug 2025 18:19:44.872,195.457
611,15 Aug 2025 14:48:08.669,15 Aug 2025 14:57:09.380,540.711
612,15 Aug 2025 16:21:04.245,15 Aug 2025 16:32:32.455,688.210
613,15 Aug 2025 17:56:30.957,15 Aug 2025 18:02:57.346,386.389
614,16 Aug 2025 14:30:09.461,16 Aug 2025 14:37:16.143,426.682
615,16 Aug 2025 16:02:19.595,16 Aug 2025 16:13:54.183,694.588
616,16 Aug 2025 17:37:09.284,16 Aug 2025 17:45:26.387,497.103
617,17 Aug 2025 14:12:59.125,17 Aug 2025 14:16:27.339,208.215
618,17 Aug 2025 15:43:39.783,17 Aug 2025 15:55:05.385,685.602
619,17 Aug 2025 17:18:01.152,17 Aug 2025 17:27:35.474,574.322
620,18 Aug 2025 15:25:05.554,18 Aug 2025 15:36:05.311,659.757
621,18 Aug 2025 16:59:01.053,18 Aug 2025 17:09:30.319,629.266
622,19 Aug 2025 15:06:38.428,19 Aug 2025 15:16:52.344,613.916
623,19 Aug 2025 16:40:06.804,19 Aug 2025 16:51:13.297,666.492
624,19 Aug 2025 18:16:44.122,19 Aug 2025 18:19:56.021,191.899
625,20 Aug 2025 14:48:21.463,20 Aug 2025 14:57:23.222,541.760
626,20 Aug 2025 16:21:17.474,20 Aug 2025 16:32:45.520,688.046
627,20 Aug 2025 17:56:44.724,20 Aug 2025 18:03:09.514,384.790
628,21 Aug 2025 14:30:21.965,21 Aug 2025 14:37:30.352,428.386
629,21 Aug 2025 16:02:32.770,21 Aug 2025 16:14:07.370,694.600
630,21 Aug 2025 17:37:22.831,21 Aug 2025 17:45:38.857,496.026
631,22 Aug 2025 14:13:10.379,22 Aug 2025 14:16:42.879,212.500
632,22 Aug 2025 15:43:52.898,22 Aug 2025 15:55:18.700,685.801
633,22 Aug 2025 17:18:14.579,22 Aug 2025 17:27:48.134,573.555
634,23 Aug 2025 15:25:18.597,23 Aug 2025 15:36:18.765,660.169
635,23 Aug 2025 16:59:14.403,23 Aug 2025 17:09:43.130,628.727
636,24 Aug 2025 15:06:51.374,24 Aug 2025 15:17:05.965,614.592
637,24 Aug 2025 16:40:20.091,24 Aug 2025 16:51:26.241,666.150
638,24 Aug 2025 18:16:58.864,24 Aug 2025 18:20:07.135,188.270
639,25 Aug 2025 14:48:34.264,25 Aug 2025 14:57:37.064,542.799
640,25 Aug 2025 16:21:30.706,25 Aug 2025 16:32:58.583,687.877
641,25 Aug 2025 17:56:58.498,25 Aug 2025 18:03:21.677,383.179
642,26 Aug 2025 14:30:34.474,26 Aug 2025 14:37:44.557,430.083
643,26 Aug 2025 16:02:45.947,26 Aug 2025 16:14:20.559,694.612
644,26 Aug 2025 17:37:36.375,26 Aug 2025 17:45:51.324,494.949
645,27 Aug 2025 14:13:21.679,27 Aug 2025 14:16:58.376,216.698
646,27 Aug 2025 15:44:06.014,27 Aug 2025 15:55:32.014,685.999
647,27 Aug 2025 17:18:28.009,27 Aug 2025 17:28:00.793,572.784
648,28 Aug 2025 15:25:31.640,28 Aug 2025 15:36:32.219,660.579
649,28 Aug 2025 16:59:27.754,28 Aug 2025 17:09:55.939,628.185
650,29 Aug 2025 15:07:04.319,29 Aug 2025 15:17:19.584,615.265
651,29 Aug 2025 16:40:33.379,29 Aug 2025 16:51:39.182,665.803
652,29 Aug 2025 18:17:13.651,29 Aug 2025 18:20:18.204,184.553
653,30 Aug 2025 14:48:47.062,30 Aug 2025 14:57:50.902,543.840
654,30 Aug 2025 16:21:43.938,30 Aug 2025 16:33:11.646,687.708
655,30 Aug 2025 17:57:12.277,30 Aug 2025 18:03:33.833,381.556
656,31 Aug 2025 14:30:46.986,31 Aug 2025 14:37:58.756,431.770
657,31 Aug 2025 16:02:59.123,31 Aug 2025 16:14:33.744,694.621
658,31 Aug 2025 17:37:49.923,31 Aug 2025 17:46:03.787,493.864
659,1 Sep 2025 14:13:33.018,1 Sep 2025 14:17:13.828,220.810
660,1 Sep 2025 15:44:19.130,1 Sep 2025 15:55:45.325,686.195
661,1 Sep 2025 17:18:41.440,1 Sep 2025 17:28:13.449,572.009
662,2 Sep 2025 15:25:44.684,2 Sep 2025 15:36:45.669,660.986
663,2 Sep 2025 16:59:41.102,2 Sep 2025 17:10:08.746,627.643
664,3 Sep 2025 15:07:17.266,3 Sep 2025 15:17:33.200,615.934
665,3 Sep 2025 16:40:46.666,3 Sep 2025 16:51:52.120,665.454
666,3 Sep 2025 18:17:28.476,3 Sep 2025 18:20:29.235,180.758
667,4 Sep 2025 14:48:59.862,4 Sep 2025 14:58:04.736,544.874
668,4 Sep 2025 16:21:57.170,4 Sep 2025 16:33:24.708,687.538
669,4 Sep 2025 17:57:26.060,4 Sep 2025 18:03:45.985,379.925
670,5 Sep 2025 14:30:59.504,5 Sep 2025 14:38:12.948,433.444
671,5 Sep 2025 16:03:12.300,5 Sep 2025 16:14:46.928,694.628
672,5 Sep 2025 17:38:03.473,5 Sep 2025 17:46:16.248,492.775
673,6 Sep 2025 14:13:44.402,6 Sep 2025 14:17:29.237,224.835
674,6 Sep 2025 15:44:32.248,6 Sep 2025 15:55:58.636,686.387
675,6 Sep 2025 17:18:54.872,6 Sep 2025 17:28:26.104,571.232
676,7 Sep 2025 15:25:57.729,7 Sep 2025 15:36:59.120,661.390
677,7 Sep 2025 16:59:54.455,7 Sep 2025 17:10:21.552,627.097
678,8 Sep 2025 15:07:30.213,8 Sep 2025 15:17:46.813,616.600
679,8 Sep 2025 16:40:59.957,8 Sep 2025 16:52:05.061,665.105
680,8 Sep 2025 18:17:43.342,8 Sep 2025 18:20:40.220,176.878
681,9 Sep 2025 14:49:12.665,9 Sep 2025 14:58:18.570,545.905
682,9 Sep 2025 16:22:10.404,9 Sep 2025 16:33:37.770,687.366
683,9 Sep 2025 17:57:39.849,9 Sep 2025 18:03:58.132,378.282
684,10 Sep 2025 14:31:12.032,10 Sep 2025 14:38:27.137,435.105
685,10 Sep 2025 16:03:25.480,10 Sep 2025 16:15:00.112,694.632
686,10 Sep 2025 17:38:17.032,10 Sep 2025 17:46:28.707,491.675
687,11 Sep 2025 14:13:55.821,11 Sep 2025 14:17:44.609,228.788
688,11 Sep 2025 15:44:45.367,11 Sep 2025 15:56:11.946,686.579
689,11 Sep 2025 17:19:08.307,11 Sep 2025 17:28:38.756,570.450
690,12 Sep 2025 15:26:10.776,12 Sep 2025 15:37:12.569,661.793
691,12 Sep 2025 17:00:07.809,12 Sep 2025 17:10:34.356,626.547
692,13 Sep 2025 15:07:43.162,13 Sep 2025 15:18:00.426,617.264
693,13 Sep 2025 16:41:13.247,13 Sep 2025 16:52:17.998,664.750
694,13 Sep 2025 18:17:58.263,13 Sep 2025 18:20:51.155,172.893
695,14 Sep 2025 14:49:25.469,14 Sep 2025 14:58:32.399,546.931
696,14 Sep 2025 16:22:23.639,14 Sep 2025 16:33:50.832,687.194
697,14 Sep 2025 17:57:53.644,14 Sep 2025 18:04:10.270,376.626
698,15 Sep 2025 14:31:24.558,15 Sep 2025 14:38:41.319,436.762
699,15 Sep 2025 16:03:38.658,15 Sep 2025 16:15:13.293,694.634
700,15 Sep 2025 17:38:30.587,15 Sep 2025 17:46:41.161,490.575
701,16 Sep 2025 14:14:07.277,16 Sep 2025 14:17:59.941,232.664
702,16 Sep 2025 15:44:58.486,16 Sep 2025 15:56:25.253,686.767
703,16 Sep 2025 17:19:21.742,16 Sep 2025 17:28:51.406,569.665
704,17 Sep 2025 15:26:23.827,17 Sep 2025 15:37:26.015,662.188
705,17 Sep 2025 17:00:21.163,17 Sep 2025 17:10:47.158,625.995
706,18 Sep 2025 15:07:56.114,18 Sep 2025 15:18:14.037,617.923
707,18 Sep 2025 16:41:26.538,18 Sep 2025 16:52:30.932,664.394
708,18 Sep 2025 18:18:13.228,18 Sep 2025 18:21:02.045,168.817
709,19 Sep 2025 14:49:38.276,19 Sep 2025 14:58:46.226,547.951
710,19 Sep 2025 16:22:36.874,19 Sep 2025 16:34:03.888,687.014
711,19 Sep 2025 17:58:07.442,19 Sep 2025 18:04:22.406,374.963
712,20 Sep 2025 14:31:37.091,20 Sep 2025 14:38:55.497,438.406
713,20 Sep 2025 16:03:51.839,20 Sep 2025 16:15:26.474,694.635
714,20 Sep 2025 17:38:44.145,20 Sep 2025 17:46:53.615,489.470
715,21 Sep 2025 14:14:18.771,21 Sep 2025 14:18:15.239,236.467
716,21 Sep 2025 15:45:11.607,21 Sep 2025 15:56:38.561,686.954
717,21 Sep 2025 17:19:35.177,21 Sep 2025 17:29:04.056,568.879
718,22 Sep 2025 15:26:36.877,22 Sep 2025 15:37:39.462,662.585
719,22 Sep 2025 17:00:34.521,22 Sep 2025 17:10:59.961,625.440
720,23 Sep 2025 15:08:09.068,23 Sep 2025 15:18:27.648,618.580
721,23 Sep 2025 16:41:39.832,23 Sep 2025 16:52:43.867,664.036
722,23 Sep 2025 18:18:28.251,23 Sep 2025 18:21:12.878,164.627
723,24 Sep 2025 14:49:51.085,24 Sep 2025 14:59:00.053,548.967
724,24 Sep 2025 16:22:50.112,24 Sep 2025 16:34:16.947,686.835
725,24 Sep 2025 17:58:21.249,24 Sep 2025 18:04:34.534,373.285
726,25 Sep 2025 14:31:49.627,25 Sep 2025 14:39:09.670,440.043
727,25 Sep 2025 16:04:05.022,25 Sep 2025 16:15:39.655,694.633
728,25 Sep 2025 17:38:57.708,25 Sep 2025 17:47:06.065,488.357
729,26 Sep 2025 14:14:30.295,26 Sep 2025 14:18:30.505,240.210
730,26 Sep 2025 15:45:24.729,26 Sep 2025 15:56:51.867,687.138
731,26 Sep 2025 17:19:48.617,26 Sep 2025 17:29:16.703,568.086
732,27 Sep 2025 15:26:49.926,27 Sep 2025 15:37:52.907,662.980
733,27 Sep 2025 17:00:47.876,27 Sep 2025 17:11:12.761,624.884
734,28 Sep 2025 15:08:22.022,28 Sep 2025 15:18:41.256,619.234
735,28 Sep 2025 16:41:53.126,28 Sep 2025 16:52:56.800,663.674
736,28 Sep 2025 18:18:43.337,28 Sep 2025 18:21:23.650,160.313
737,29 Sep 2025 14:50:03.896,29 Sep 2025 14:59:13.875,549.979
738,29 Sep 2025 16:23:03.347,29 Sep 2025 16:34:30.003,686.656
739,29 Sep 2025 17:58:35.060,29 Sep 2025 18:04:46.656,371.596
740,30 Sep 2025 14:32:02.168,30 Sep 2025 14:39:23.838,441.670
741,30 Sep 2025 16:04:18.204,30 Sep 2025 16:15:52.833,694.629
742,30 Sep 2025 17:39:11.271,30 Sep 2025 17:47:18.512,487.241
743,1 Oct 2025 14:14:41.852,1 Oct 2025 14:18:45.736,243.885
744,1 Oct 2025 15:45:37.851,1 Oct 2025 15:57:05.172,687.320
745,1 Oct 2025 17:20:02.057,1 Oct 2025 17:29:29.348,567.291
746,2 Oct 2025 15:27:02.977,2 Oct 2025 15:38:06.350,663.373
747,2 Oct 2025 17:01:01.237,2 Oct 2025 17:11:25.559,624.323
748,3 Oct 2025 15:08:34.981,3 Oct 2025 15:18:54.864,619.883
749,3 Oct 2025 16:42:06.420,3 Oct 2025 16:53:09.728,663.308
750,3 Oct 2025 18:18:58.480,3 Oct 2025 18:21:34.364,155.884
751,4 Oct 2025 14:50:16.710,4 Oct 2025 14:59:27.695,550.985
752,4 Oct 2025 16:23:16.586,4 Oct 2025 16:34:43.062,686.476
753,4 Oct 2025 17:58:48.875,4 Oct 2025 18:04:58.775,369.900
754,5 Oct 2025 14:32:14.715,5 Oct 2025 14:39:38.000,443.285
755,5 Oct 2025 16:04:31.388,5 Oct 2025 16:16:06.011,694.623
756,5 Oct 2025 17:39:24.837,5 Oct 2025 17:47:30.957,486.120
757,6 Oct 2025 14:14:53.442,6 Oct 2025 14:19:00.937,247.495
758,6 Oct 2025 15:45:50.976,6 Oct 2025 15:57:18.476,687.500
759,6 Oct 2025 17:20:15.500,6 Oct 2025 17:29:41.993,566.493
760,7 Oct 2025 15:27:16.030,7 Oct 2025 15:38:19.793,663.763
761,7 Oct 2025 17:01:14.598,7 Oct 2025 17:11:38.357,623.760
762,8 Oct 2025 15:08:47.940,8 Oct 2025 15:19:08.470,620.530
763,8 Oct 2025 16:42:19.718,8 Oct 2025 16:53:22.660,662.942
764,8 Oct 2025 18:19:13.695,8 Oct 2025 18:21:45.002,151.307
765,9 Oct 2025 14:50:29.527,9 Oct 2025 14:59:41.514,551.987
766,9 Oct 2025 16:23:29.827,9 Oct 2025 16:34:56.118,686.291
767,9 Oct 2025 17:59:02.699,9 Oct 2025 18:05:10.888,368.189
768,10 Oct 2025 14:32:27.266,10 Oct 2025 14:39:52.160,444.894
769,10 Oct 2025 16:04:44.573,10 Oct 2025 16:16:19.188,694.615
770,10 Oct 2025 17:39:38.408,10 Oct 2025 17:47:43.399,484.991
771,11 Oct 2025 14:15:05.058,11 Oct 2025 14:19:16.110,251.052
772,11 Oct 2025 15:46:04.101,11 Oct 2025 15:57:31.779,687.678
773,11 Oct 2025 17:20:28.945,11 Oct 2025 17:29:54.634,565.689
774,12 Oct 2025 15:27:29.083,12 Oct 2025 15:38:33.234,664.151
775,12 Oct 2025 17:01:27.959,12 Oct 2025 17:11:51.153,623.194
776,13 Oct 2025 15:09:00.896,13 Oct 2025 15:19:22.073,621.177
777,13 Oct 2025 16:42:33.015,13 Oct 2025 16:53:35.588,662.573
778,13 Oct 2025 18:19:28.986,13 Oct 2025 18:21:55.570,146.584
779,14 Oct 2025 14:50:42.344,14 Oct 2025 14:59:55.325,552.982
780,14 Oct 2025 16:23:43.066,14 Oct 2025 16:35:09.167,686.101
781,14 Oct 2025 17:59:16.525,14 Oct 2025 18:05:22.999,366.474
782,15 Oct 2025 14:32:39.821,15 Oct 2025 14:40:06.311,446.490
783,15 Oct 2025 16:04:57.759,15 Oct 2025 16:16:32.360,694.600
784,15 Oct 2025 17:39:51.976,15 Oct 2025 17:47:55.843,483.867
785,16 Oct 2025 14:15:16.705,16 Oct 2025 14:19:31.251,254.547
786,16 Oct 2025 15:46:17.227,16 Oct 2025 15:57:45.080,687.854
787,16 Oct 2025 17:20:42.388,16 Oct 2025 17:30:07.274,564.886
788,17 Oct 2025 15:27:42.139,17 Oct 2025 15:38:46.674,664.535
789,17 Oct 2025 17:01:41.322,17 Oct 2025 17:12:03.948,622.626
790,18 Oct 2025 15:09:13.858,18 Oct 2025 15:19:35.675,621.817
791,18 Oct 2025 16:42:46.314,18 Oct 2025 16:53:48.517,662.203
792,18 Oct 2025 18:19:44.354,18 Oct 2025 18:22:06.059,141.705
793,19 Oct 2025 14:50:55.165,19 Oct 2025 15:00:09.139,553.974
794,19 Oct 2025 16:23:56.309,19 Oct 2025 16:35:22.221,685.911
795,19 Oct 2025 17:59:30.359,19 Oct 2025 18:05:35.102,364.744
796,20 Oct 2025 14:32:52.383,20 Oct 2025 14:40:20.460,448.077
797,20 Oct 2025 16:05:10.948,20 Oct 2025 16:16:45.535,694.588
798,20 Oct 2025 17:40:05.552,20 Oct 2025 17:48:08.281,482.730
799,21 Oct 2025 14:15:28.379,21 Oct 2025 14:19:46.369,257.989
800,21 Oct 2025 15:46:30.355,21 Oct 2025 15:57:58.382,688.027
801,21 Oct 2025 17:20:55.837,21 Oct 2025 17:30:19.914,564.077
802,22 Oct 2025 15:27:55.196,22 Oct 2025 15:39:00.112,664.916
803,22 Oct 2025 17:01:54.688,22 Oct 2025 17:12:16.743,622.055
804,23 Oct 2025 15:09:26.827,23 Oct 2025 15:19:49.276,622.449
805,23 Oct 2025 16:42:59.615,23 Oct 2025 16:54:01.445,661.830
806,23 Oct 2025 18:19:59.819,23 Oct 2025 18:22:16.452,136.633
807,24 Oct 2025 14:51:07.989,24 Oct 2025 15:00:22.951,554.963
808,24 Oct 2025 16:24:09.554,24 Oct 2025 16:35:35.274,685.719
809,24 Oct 2025 17:59:44.200,24 Oct 2025 18:05:47.196,362.997
810,25 Oct 2025 14:33:04.949,25 Oct 2025 14:40:34.605,449.656
811,25 Oct 2025 16:05:24.137,25 Oct 2025 16:16:58.710,694.573
812,25 Oct 2025 17:40:19.131,25 Oct 2025 17:48:20.716,481.585
813,26 Oct 2025 14:15:40.078,26 Oct 2025 14:20:01.460,261.382
814,26 Oct 2025 15:46:43.484,26 Oct 2025 15:58:11.682,688.198
815,26 Oct 2025 17:21:09.288,26 Oct 2025 17:30:32.551,563.263
816,27 Oct 2025 15:28:08.254,27 Oct 2025 15:39:13.550,665.296
817,27 Oct 2025 17:02:08.054,27 Oct 2025 17:12:29.535,621.481
818,28 Oct 2025 15:09:39.791,28 Oct 2025 15:20:02.875,623.084
819,28 Oct 2025 16:43:12.917,28 Oct 2025 16:54:14.372,661.455
820,28 Oct 2025 18:20:15.383,28 Oct 2025 18:22:26.743,131.360
821,29 Oct 2025 14:51:20.814,29 Oct 2025 15:00:36.760,555.946
822,29 Oct 2025 16:24:22.799,29 Oct 2025 16:35:48.324,685.525
823,29 Oct 2025 17:59:58.044,29 Oct 2025 18:05:59.285,361.241
824,30 Oct 2025 14:33:17.519,30 Oct 2025 14:40:48.743,451.224
825,30 Oct 2025 16:05:37.326,30 Oct 2025 16:17:11.882,694.556
826,30 Oct 2025 17:40:32.710,30 Oct 2025 17:48:33.149,480.438
827,31 Oct 2025 14:15:51.805,31 Oct 2025 14:20:16.523,264.718
828,31 Oct 2025 15:46:56.615,31 Oct 2025 15:58:24.981,688.367
829,31 Oct 2025 17:21:22.739,31 Oct 2025 17:30:45.187,562.448
830,1 Nov 2025 15:28:21.314,1 Nov 2025 15:39:26.987,665.673
831,1 Nov 2025 17:02:21.421,1 Nov 2025 17:12:42.327,620.905
832,2 Nov 2025 15:09:52.757,2 Nov 2025 15:20:16.473,623.715
833,2 Nov 2025 16:43:26.220,2 Nov 2025 16:54:27.298,661.078
834,2 Nov 2025 18:20:31.056,2 Nov 2025 18:22:36.926,125.870
835,3 Nov 2025 14:51:33.643,3 Nov 2025 15:00:50.567,556.924
836,3 Nov 2025 16:24:36.046,3 Nov 2025 16:36:01.375,685.329
837,3 Nov 2025 18:00:11.894,3 Nov 2025 18:06:11.371,359.476
838,4 Nov 2025 14:33:30.096,4 Nov 2025 14:41:02.879,452.783
839,4 Nov 2025 16:05:50.518,4 Nov 2025 16:17:25.060,694.542
840,4 Nov 2025 17:40:46.297,4 Nov 2025 17:48:45.578,479.281
841,5 Nov 2025 14:16:03.556,5 Nov 2025 14:20:31.564,268.009
842,5 Nov 2025 15:47:09.747,5 Nov 2025 15:58:38.281,688.534
843,5 Nov 2025 17:21:36.194,5 Nov 2025 17:30:57.822,561.628
844,6 Nov 2025 15:28:34.374,6 Nov 2025 15:39:40.424,666.049
845,6 Nov 2025 17:02:34.792,6 Nov 2025 17:12:55.118,620.326
846,7 Nov 2025 15:10:05.725,7 Nov 2025 15:20:30.070,624.345
847,7 Nov 2025 16:43:39.525,7 Nov 2025 16:54:40.223,660.698
848,7 Nov 2025 18:20:46.868,7 Nov 2025 18:22:46.970,120.102
849,8 Nov 2025 14:51:46.473,8 Nov 2025 15:01:04.372,557.899
850,8 Nov 2025 16:24:49.294,8 Nov 2025 16:36:14.425,685.131
851,8 Nov 2025 18:00:25.753,8 Nov 2025 18:06:23.450,357.697
852,9 Nov 2025 14:33:42.675,9 Nov 2025 14:41:17.011,454.335
853,9 Nov 2025 16:06:03.710,9 Nov 2025 16:17:38.231,694.521
854,9 Nov 2025 17:40:59.883,9 Nov 2025 17:48:58.005,478.121
855,10 Nov 2025 14:16:15.328,10 Nov 2025 14:20:46.581,271.254
856,10 Nov 2025 15:47:22.880,10 Nov 2025 15:58:51.577,688.698
857,10 Nov 2025 17:21:49.649,10 Nov 2025 17:31:10.454,560.805
858,11 Nov 2025 15:28:47.438,11 Nov 2025 15:39:53.858,666.419
859,11 Nov 2025 17:02:48.162,11 Nov 2025 17:13:07.906,619.744
860,12 Nov 2025 15:10:18.698,12 Nov 2025 15:20:43.664,624.965
861,12 Nov 2025 16:43:52.830,12 Nov 2025 16:54:53.146,660.316
862,12 Nov 2025 18:21:02.821,12 Nov 2025 18:22:56.872,114.051
863,13 Nov 2025 14:51:59.306,13 Nov 2025 15:01:18.173,558.867
864,13 Nov 2025 16:25:02.542,13 Nov 2025 16:36:27.473,684.931
865,13 Nov 2025 18:00:39.614,13 Nov 2025 18:06:35.526,355.912
866,14 Nov 2025 14:33:55.257,14 Nov 2025 14:41:31.136,455.879
867,14 Nov 2025 16:06:16.904,14 Nov 2025 16:17:51.401,694.497
868,14 Nov 2025 17:41:13.470,14 Nov 2025 17:49:10.432,476.962
869,15 Nov 2025 14:16:27.127,15 Nov 2025 14:21:01.574,274.447
870,15 Nov 2025 15:47:36.015,15 Nov 2025 15:59:04.874,688.860
871,15 Nov 2025 17:22:03.106,15 Nov 2025 17:31:23.085,559.980
872,16 Nov 2025 15:29:00.504,16 Nov 2025 15:40:07.292,666.788
873,16 Nov 2025 17:03:01.534,16 Nov 2025 17:13:20.695,619.161
874,17 Nov 2025 15:10:31.667,17 Nov 2025 15:20:57.258,625.590
875,17 Nov 2025 16:44:06.138,17 Nov 2025 16:55:06.070,659.933
876,17 Nov 2025 18:21:18.947,17 Nov 2025 18:23:06.602,107.655
877,18 Nov 2025 14:52:12.149,18 Nov 2025 15:01:31.974,559.825
878,18 Nov 2025 16:25:15.794,18 Nov 2025 16:36:40.522,684.728
879,18 Nov 2025 18:00:53.483,18 Nov 2025 18:06:47.594,354.111
880,19 Nov 2025 14:34:07.848,19 Nov 2025 14:41:45.259,457.411
881,19 Nov 2025 16:06:30.100,19 Nov 2025 16:18:04.572,694.472
882,19 Nov 2025 17:41:27.062,19 Nov 2025 17:49:22.856,475.794
883,20 Nov 2025 14:16:38.947,20 Nov 2025 14:21:16.547,277.601
884,20 Nov 2025 15:47:49.151,20 Nov 2025 15:59:18.171,689.020
885,20 Nov 2025 17:22:16.566,20 Nov 2025 17:31:35.716,559.150
886,21 Nov 2025 15:29:13.568,21 Nov 2025 15:40:20.723,667.155
887,21 Nov 2025 17:03:14.909,21 Nov 2025 17:13:33.483,618.574
888,22 Nov 2025 15:10:44.647,22 Nov 2025 15:21:10.850,626.203
889,22 Nov 2025 16:44:19.449,22 Nov 2025 16:55:18.993,659.544
890,22 Nov 2025 18:21:35.285,22 Nov 2025 18:23:16.123,100.838
891,23 Nov 2025 14:52:24.989,23 Nov 2025 15:01:45.772,560.784
892,23 Nov 2025 16:25:29.046,23 Nov 2025 16:36:53.569,684.523
893,23 Nov 2025 18:01:07.358,23 Nov 2025 18:06:59.656,352.298
894,24 Nov 2025 14:34:20.444,24 Nov 2025 14:41:59.376,458.933
895,24 Nov 2025 16:06:43.296,24 Nov 2025 16:18:17.741,694.445
896,24 Nov 2025 17:41:40.656,24 Nov 2025 17:49:35.276,474.620
897,25 Nov 2025 14:16:50.788,25 Nov 2025 14:21:31.497,280.709
898,25 Nov 2025 15:48:02.288,25 Nov 2025 15:59:31.466,689.178
899,25 Nov 2025 17:22:30.027,25 Nov 2025 17:31:48.344,558.317
900,26 Nov 2025 15:29:26.636,26 Nov 2025 15:40:34.155,667.519
901,26 Nov 2025 17:03:28.283,26 Nov 2025 17:13:46.268,617.985
902,27 Nov 2025 15:10:57.619,27 Nov 2025 15:21:24.440,626.821
903,27 Nov 2025 16:44:32.756,27 Nov 2025 16:55:31.918,659.162
904,27 Nov 2025 18:21:51.862,27 Nov 2025 18:23:25.398,93.536
905,28 Nov 2025 14:52:37.831,28 Nov 2025 15:01:59.567,561.735
906,28 Nov 2025 16:25:42.298,28 Nov 2025 16:37:06.615,684.317
907,28 Nov 2025 18:01:21.237,28 Nov 2025 18:07:11.712,350.475
908,29 Nov 2025 14:34:33.049,29 Nov 2025 14:42:13.484,460.435
909,29 Nov 2025 16:06:56.491,29 Nov 2025 16:18:30.909,694.418
910,29 Nov 2025 17:41:54.249,29 Nov 2025 17:49:47.690,473.441
911,30 Nov 2025 14:17:02.655,30 Nov 2025 14:21:46.425,283.770
912,30 Nov 2025 15:48:15.427,30 Nov 2025 15:59:44.760,689.332
913,30 Nov 2025 17:22:43.488,30 Nov 2025 17:32:00.971,557.483
914,1 Dec 2025 15:29:39.706,1 Dec 2025 15:40:47.586,667.881
915,1 Dec 2025 17:03:41.660,1 Dec 2025 17:13:59.054,617.394
916,2 Dec 2025 15:11:10.599,2 Dec 2025 15:21:38.029,627.431
917,2 Dec 2025 16:44:46.067,2 Dec 2025 16:55:44.839,658.772
918,2 Dec 2025 18:22:08.757,2 Dec 2025 18:23:34.363,85.606
919,3 Dec 2025 14:52:50.678,3 Dec 2025 15:02:13.361,562.683
920,3 Dec 2025 16:25:55.553,3 Dec 2025 16:37:19.661,684.108
921,3 Dec 2025 18:01:35.123,3 Dec 2025 18:07:23.765,348.641
922,4 Dec 2025 14:34:45.656,4 Dec 2025 14:42:27.593,461.937
923,4 Dec 2025 16:07:09.691,4 Dec 2025 16:18:44.077,694.386
924,4 Dec 2025 17:42:07.852,4 Dec 2025 17:50:00.109,472.257
925,5 Dec 2025 14:17:14.538,5 Dec 2025 14:22:01.336,286.798
926,5 Dec 2025 15:48:28.568,5 Dec 2025 15:59:58.054,689.486
927,5 Dec 2025 17:22:56.954,5 Dec 2025 17:32:13.597,556.644
928,6 Dec 2025 15:29:52.777,6 Dec 2025 15:41:01.016,668.240
929,6 Dec 2025 17:03:55.038,6 Dec 2025 17:14:11.834,616.796
930,7 Dec 2025 15:11:23.580,7 Dec 2025 15:21:51.617,628.037
931,7 Dec 2025 16:44:59.382,7 Dec 2025 16:55:57.754,658.372
932,7 Dec 2025 18:22:26.072,7 Dec 2025 18:23:42.907,76.835
933,8 Dec 2025 14:53:03.525,8 Dec 2025 15:02:27.152,563.627
934,8 Dec 2025 16:26:08.808,8 Dec 2025 16:37:32.705,683.897
935,8 Dec 2025 18:01:49.015,8 Dec 2025 18:07:35.809,346.794
936,9 Dec 2025 14:34:58.265,9 Dec 2025 14:42:41.695,463.430
937,9 Dec 2025 16:07:22.890,9 Dec 2025 16:18:57.243,694.353
938,9 Dec 2025 17:42:21.454,9 Dec 2025 17:50:12.521,471.068
939,10 Dec 2025 14:17:26.442,10 Dec 2025 14:22:16.224,289.782
940,10 Dec 2025 15:48:41.709,10 Dec 2025 16:00:11.343,689.634
941,10 Dec 2025 17:23:10.418,10 Dec 2025 17:32:26.220,555.802
942,11 Dec 2025 15:30:05.849,11 Dec 2025 15:41:14.444,668.595
943,11 Dec 2025 17:04:08.416,11 Dec 2025 17:14:24.616,616.200
944,12 Dec 2025 15:11:36.562,12 Dec 2025 15:22:05.202,628.640
945,12 Dec 2025 16:45:12.695,12 Dec 2025 16:56:10.672,657.977
946,12 Dec 2025 18:22:43.943,12 Dec 2025 18:23:50.892,66.949
947,13 Dec 2025 14:53:16.376,13 Dec 2025 15:02:40.940,564.563
948,13 Dec 2025 16:26:22.064,13 Dec 2025 16:37:45.748,683.685
949,13 Dec 2025 18:02:02.911,13 Dec 2025 18:07:47.850,344.939
950,14 Dec 2025 14:35:10.882,14 Dec 2025 14:42:55.794,464.911
951,14 Dec 2025 16:07:36.092,14 Dec 2025 16:19:10.409,694.317
952,14 Dec 2025 17:42:35.056,14 Dec 2025 17:50:24.933,469.877
953,15 Dec 2025 14:17:38.367,15 Dec 2025 14:22:31.094,292.726
954,15 Dec 2025 15:48:54.852,15 Dec 2025 16:00:24.635,689.783
955,15 Dec 2025 17:23:23.885,15 Dec 2025 17:32:38.844,554.959
956,16 Dec 2025 15:30:18.924,16 Dec 2025 15:41:27.872,668.948
957,16 Dec 2025 17:04:21.797,16 Dec 2025 17:14:37.399,615.602
958,17 Dec 2025 15:11:49.548,17 Dec 2025 15:22:18.787,629.239
959,17 Dec 2025 16:45:26.011,17 Dec 2025 16:56:23.591,657.580
960,17 Dec 2025 18:23:02.699,17 Dec 2025 18:23:57.995,55.296
961,18 Dec 2025 14:53:29.231,18 Dec 2025 15:02:54.726,565.495
962,18 Dec 2025 16:26:35.322,18 Dec 2025 16:37:58.792,683.470
963,18 Dec 2025 18:02:16.814,18 Dec 2025 18:07:59.885,343.070
964,19 Dec 2025 14:35:23.503,19 Dec 2025 14:43:09.888,466.385
965,19 Dec 2025 16:07:49.295,19 Dec 2025 16:19:23.574,694.279
966,19 Dec 2025 17:42:48.662,19 Dec 2025 17:50:37.343,468.680
967,20 Dec 2025 14:17:50.310,20 Dec 2025 14:22:45.946,295.636
968,20 Dec 2025 15:49:07.997,20 Dec 2025 16:00:37.926,689.929
969,20 Dec 2025 17:23:37.354,20 Dec 2025 17:32:51.465,554.111
970,21 Dec 2025 15:30:31.999,21 Dec 2025 15:41:41.298,669.298
971,21 Dec 2025 17:04:35.174,21 Dec 2025 17:14:50.179,615.006
972,22 Dec 2025 15:12:02.534,22 Dec 2025 15:22:32.369,629.835
973,22 Dec 2025 16:45:39.326,22 Dec 2025 16:56:36.507,657.180
974,22 Dec 2025 18:23:23.067,22 Dec 2025 18:24:03.482,40.416
975,23 Dec 2025 14:53:42.087,23 Dec 2025 15:03:08.509,566.422
976,23 Dec 2025 16:26:48.580,23 Dec 2025 16:38:11.836,683.256
977,23 Dec 2025 18:02:30.722,23 Dec 2025 18:08:11.912,341.190
978,24 Dec 2025 14:35:36.128,24 Dec 2025 14:43:23.976,467.848
