3UCubedIntegratedSim/Reports & Plots/Comms/UNH/Sat 0 Comms.csv

"Access","Start Time (UTCG)","Stop Time (UTCG)","Duration (sec)"
1,1 Jan 2025 16:05:44.362,1 Jan 2025 16:17:18.094,693.732
2,1 Jan 2025 17:41:48.337,1 Jan 2025 17:49:49.813,481.477
3,2 Jan 2025 14:17:20.384,2 Jan 2025 14:22:42.922,322.538
4,2 Jan 2025 15:47:10.436,2 Jan 2025 15:58:31.499,681.063
5,2 Jan 2025 17:22:06.652,2 Jan 2025 17:31:41.742,575.091
6,3 Jan 2025 15:28:46.979,3 Jan 2025 15:39:40.215,653.236
7,3 Jan 2025 17:02:44.699,3 Jan 2025 17:13:20.081,635.383
8,4 Jan 2025 15:10:34.627,4 Jan 2025 15:20:43.737,609.111
9,4 Jan 2025 16:43:37.269,4 Jan 2025 16:54:49.789,672.520
10,5 Jan 2025 14:52:34.897,5 Jan 2025 15:01:40.721,545.824
11,5 Jan 2025 16:24:41.943,5 Jan 2025 16:36:13.149,691.206
12,5 Jan 2025 18:02:19.636,5 Jan 2025 18:07:41.557,321.920
13,6 Jan 2025 14:34:51.099,6 Jan 2025 14:42:28.062,456.963
14,6 Jan 2025 16:05:57.506,6 Jan 2025 16:17:31.298,693.792
15,6 Jan 2025 17:42:02.369,6 Jan 2025 17:50:02.473,480.104
16,7 Jan 2025 14:17:32.342,7 Jan 2025 14:22:56.880,324.538
17,7 Jan 2025 15:47:23.458,7 Jan 2025 15:58:44.757,681.299
18,7 Jan 2025 17:22:20.399,7 Jan 2025 17:31:54.612,574.213
19,8 Jan 2025 15:28:59.874,8 Jan 2025 15:39:53.529,653.655
20,8 Jan 2025 17:02:58.254,8 Jan 2025 17:13:33.074,634.820
21,9 Jan 2025 15:10:47.384,9 Jan 2025 15:20:57.117,609.733
22,9 Jan 2025 16:43:50.669,9 Jan 2025 16:55:02.866,672.197
23,10 Jan 2025 14:52:47.492,10 Jan 2025 15:01:54.190,546.699
24,10 Jan 2025 16:24:55.210,10 Jan 2025 16:36:26.293,691.083
25,10 Jan 2025 18:02:34.318,10 Jan 2025 18:07:53.644,319.326
26,11 Jan 2025 14:35:03.473,11 Jan 2025 14:42:41.676,458.203
27,11 Jan 2025 16:06:10.648,11 Jan 2025 16:17:44.498,693.850
28,11 Jan 2025 17:42:16.407,11 Jan 2025 17:50:15.125,478.719
29,12 Jan 2025 14:17:44.303,12 Jan 2025 14:23:10.830,326.527
30,12 Jan 2025 15:47:36.479,12 Jan 2025 15:58:58.011,681.533
31,12 Jan 2025 17:22:34.148,12 Jan 2025 17:32:07.478,573.330
32,13 Jan 2025 15:29:12.769,13 Jan 2025 15:40:06.841,654.071
33,13 Jan 2025 17:03:11.808,13 Jan 2025 17:13:46.064,634.256
34,14 Jan 2025 15:11:00.143,14 Jan 2025 15:21:10.497,610.354
35,14 Jan 2025 16:44:04.071,14 Jan 2025 16:55:15.942,671.870
36,15 Jan 2025 14:53:00.088,15 Jan 2025 15:02:07.660,547.572
37,15 Jan 2025 16:25:08.479,15 Jan 2025 16:36:39.436,690.957
38,15 Jan 2025 18:02:49.016,15 Jan 2025 18:08:05.717,316.700
39,16 Jan 2025 14:35:15.850,16 Jan 2025 14:42:55.290,459.439
40,16 Jan 2025 16:06:23.793,16 Jan 2025 16:17:57.699,693.906
41,16 Jan 2025 17:42:30.450,16 Jan 2025 17:50:27.774,477.324
42,17 Jan 2025 14:17:56.274,17 Jan 2025 14:23:24.776,328.502
43,17 Jan 2025 15:47:49.503,17 Jan 2025 15:59:11.267,681.765
44,17 Jan 2025 17:22:47.901,17 Jan 2025 17:32:20.344,572.442
45,18 Jan 2025 15:29:25.668,18 Jan 2025 15:40:20.153,654.486
46,18 Jan 2025 17:03:25.367,18 Jan 2025 17:13:59.054,633.687
47,19 Jan 2025 15:11:12.905,19 Jan 2025 15:21:23.876,610.971
48,19 Jan 2025 16:44:17.476,19 Jan 2025 16:55:29.018,671.542
49,20 Jan 2025 14:53:12.684,20 Jan 2025 15:02:21.128,548.443
50,20 Jan 2025 16:25:21.751,20 Jan 2025 16:36:52.579,690.828
51,20 Jan 2025 18:03:03.728,20 Jan 2025 18:08:17.779,314.051
52,21 Jan 2025 14:35:28.232,21 Jan 2025 14:43:08.902,460.670
53,21 Jan 2025 16:06:36.935,21 Jan 2025 16:18:10.900,693.965
54,21 Jan 2025 17:42:44.501,21 Jan 2025 17:50:40.419,475.918
55,22 Jan 2025 14:18:08.253,22 Jan 2025 14:23:38.711,330.458
56,22 Jan 2025 15:48:02.527,22 Jan 2025 15:59:24.521,681.994
57,22 Jan 2025 17:23:01.656,22 Jan 2025 17:32:33.208,571.551
58,23 Jan 2025 15:29:38.567,23 Jan 2025 15:40:33.464,654.897
59,23 Jan 2025 17:03:38.927,23 Jan 2025 17:14:12.042,633.115
60,24 Jan 2025 15:11:25.667,24 Jan 2025 15:21:37.252,611.585
61,24 Jan 2025 16:44:30.885,24 Jan 2025 16:55:42.091,671.206
62,25 Jan 2025 14:53:25.285,25 Jan 2025 15:02:34.593,549.307
63,25 Jan 2025 16:25:35.022,25 Jan 2025 16:37:05.720,690.698
64,25 Jan 2025 18:03:18.453,25 Jan 2025 18:08:29.825,311.372
65,26 Jan 2025 14:35:40.615,26 Jan 2025 14:43:22.509,461.894
66,26 Jan 2025 16:06:50.081,26 Jan 2025 16:18:24.098,694.017
67,26 Jan 2025 17:42:58.551,26 Jan 2025 17:50:53.060,474.509
68,27 Jan 2025 14:18:20.237,27 Jan 2025 14:23:52.635,332.398
69,27 Jan 2025 15:48:15.552,27 Jan 2025 15:59:37.774,682.222
70,27 Jan 2025 17:23:15.414,27 Jan 2025 17:32:46.068,570.655
71,28 Jan 2025 15:29:51.467,28 Jan 2025 15:40:46.773,655.305
72,28 Jan 2025 17:03:52.489,28 Jan 2025 17:14:25.031,632.542
73,29 Jan 2025 15:11:38.432,29 Jan 2025 15:21:50.629,612.197
74,29 Jan 2025 16:44:44.292,29 Jan 2025 16:55:55.164,670.872
75,30 Jan 2025 14:53:37.888,30 Jan 2025 15:02:48.058,550.169
76,30 Jan 2025 16:25:48.295,30 Jan 2025 16:37:18.860,690.566
77,30 Jan 2025 18:03:33.196,30 Jan 2025 18:08:41.856,308.661
78,31 Jan 2025 14:35:52.998,31 Jan 2025 14:43:36.116,463.118
79,31 Jan 2025 16:07:03.230,31 Jan 2025 16:18:37.300,694.070
80,31 Jan 2025 17:43:12.606,31 Jan 2025 17:51:05.700,473.094
81,1 Feb 2025 14:18:32.228,1 Feb 2025 14:24:06.564,334.336
82,1 Feb 2025 15:48:28.579,1 Feb 2025 15:59:51.027,682.447
83,1 Feb 2025 17:23:29.178,1 Feb 2025 17:32:58.928,569.750
84,2 Feb 2025 15:30:04.370,2 Feb 2025 15:41:00.083,655.713
85,2 Feb 2025 17:04:06.051,2 Feb 2025 17:14:38.015,631.964
86,3 Feb 2025 15:11:51.197,3 Feb 2025 15:22:04.004,612.807
87,3 Feb 2025 16:44:57.701,3 Feb 2025 16:56:08.240,670.539
88,4 Feb 2025 14:53:50.494,4 Feb 2025 15:03:01.521,551.026
89,4 Feb 2025 16:26:01.569,4 Feb 2025 16:37:32.001,690.432
90,4 Feb 2025 18:03:47.948,4 Feb 2025 18:08:53.875,305.928
91,5 Feb 2025 14:36:05.389,5 Feb 2025 14:43:49.718,464.330
92,5 Feb 2025 16:07:16.380,5 Feb 2025 16:18:50.498,694.118
93,5 Feb 2025 17:43:26.666,5 Feb 2025 17:51:18.335,471.670
94,6 Feb 2025 14:18:44.229,6 Feb 2025 14:24:20.478,336.249
95,6 Feb 2025 15:48:41.607,6 Feb 2025 16:00:04.278,682.671
96,6 Feb 2025 17:23:42.940,6 Feb 2025 17:33:11.786,568.846
97,7 Feb 2025 15:30:17.273,7 Feb 2025 15:41:13.390,656.117
98,7 Feb 2025 17:04:19.616,7 Feb 2025 17:14:50.999,631.383
99,8 Feb 2025 15:12:03.964,8 Feb 2025 15:22:17.377,613.413
100,8 Feb 2025 16:45:11.110,8 Feb 2025 16:56:21.310,670.201
101,9 Feb 2025 14:54:03.106,9 Feb 2025 15:03:14.981,551.875
102,9 Feb 2025 16:26:14.843,9 Feb 2025 16:37:45.139,690.295
103,9 Feb 2025 18:04:02.720,9 Feb 2025 18:09:05.877,303.157
104,10 Feb 2025 14:36:17.781,10 Feb 2025 14:44:03.318,465.537
105,10 Feb 2025 16:07:29.530,10 Feb 2025 16:19:03.694,694.163
106,10 Feb 2025 17:43:40.730,10 Feb 2025 17:51:30.965,470.235
107,11 Feb 2025 14:18:56.232,11 Feb 2025 14:24:34.383,338.151
108,11 Feb 2025 15:48:54.638,11 Feb 2025 16:00:17.529,682.891
109,11 Feb 2025 17:23:56.701,11 Feb 2025 17:33:24.641,567.940
110,12 Feb 2025 15:30:30.177,12 Feb 2025 15:41:26.698,656.520
111,12 Feb 2025 17:04:33.183,12 Feb 2025 17:15:03.982,630.799
112,13 Feb 2025 15:12:16.733,13 Feb 2025 15:22:30.751,614.018
113,13 Feb 2025 16:45:24.522,13 Feb 2025 16:56:34.381,669.859
114,14 Feb 2025 14:54:15.716,14 Feb 2025 15:03:28.442,552.726
115,14 Feb 2025 16:26:28.121,14 Feb 2025 16:37:58.277,690.157
116,14 Feb 2025 18:04:17.513,14 Feb 2025 18:09:17.864,300.352
117,15 Feb 2025 14:36:30.178,15 Feb 2025 14:44:16.915,466.737
118,15 Feb 2025 16:07:42.684,15 Feb 2025 16:19:16.890,694.207
119,15 Feb 2025 17:43:54.800,15 Feb 2025 17:51:43.592,468.793
120,16 Feb 2025 14:19:08.247,16 Feb 2025 14:24:48.286,340.039
121,16 Feb 2025 15:49:07.669,16 Feb 2025 16:00:30.780,683.110
122,16 Feb 2025 17:24:10.469,16 Feb 2025 17:33:37.495,567.026
123,17 Feb 2025 14:03:22.360,17 Feb 2025 14:03:50.326,27.966
124,17 Feb 2025 15:30:43.085,17 Feb 2025 15:41:40.005,656.920
125,17 Feb 2025 17:04:46.753,17 Feb 2025 17:15:16.965,630.212
126,18 Feb 2025 15:12:29.504,18 Feb 2025 15:22:44.123,614.618
127,18 Feb 2025 16:45:37.935,18 Feb 2025 16:56:47.451,669.516
128,19 Feb 2025 14:54:28.328,19 Feb 2025 15:03:41.900,553.572
129,19 Feb 2025 16:26:41.399,19 Feb 2025 16:38:11.415,690.016
130,19 Feb 2025 18:04:32.317,19 Feb 2025 18:09:29.838,297.521
131,20 Feb 2025 14:36:42.579,20 Feb 2025 14:44:30.515,467.936
132,20 Feb 2025 16:07:55.842,20 Feb 2025 16:19:30.081,694.239
133,20 Feb 2025 17:44:08.873,20 Feb 2025 17:51:56.218,467.345
134,21 Feb 2025 14:19:20.274,21 Feb 2025 14:25:02.184,341.911
135,21 Feb 2025 15:49:20.700,21 Feb 2025 16:00:44.024,683.324
136,21 Feb 2025 17:24:24.242,21 Feb 2025 17:33:50.348,566.106
137,22 Feb 2025 14:03:25.842,22 Feb 2025 14:04:12.683,46.841
138,22 Feb 2025 15:30:55.992,22 Feb 2025 15:41:53.310,657.318
139,22 Feb 2025 17:05:00.323,22 Feb 2025 17:15:29.945,629.622
140,23 Feb 2025 15:12:42.277,23 Feb 2025 15:22:57.492,615.216
141,23 Feb 2025 16:45:51.349,23 Feb 2025 16:57:00.519,669.170
142,24 Feb 2025 14:54:40.941,24 Feb 2025 15:03:55.356,554.415
143,24 Feb 2025 16:26:54.678,24 Feb 2025 16:38:24.551,689.873
144,24 Feb 2025 18:04:47.139,24 Feb 2025 18:09:41.793,294.654
145,25 Feb 2025 14:36:54.981,25 Feb 2025 14:44:44.107,469.126
146,25 Feb 2025 16:08:08.996,25 Feb 2025 16:19:43.275,694.279
147,25 Feb 2025 17:44:22.950,25 Feb 2025 17:52:08.837,465.887
148,26 Feb 2025 14:19:32.302,26 Feb 2025 14:25:16.074,343.773
149,26 Feb 2025 15:49:33.734,26 Feb 2025 16:00:57.273,683.539
150,26 Feb 2025 17:24:38.015,26 Feb 2025 17:34:03.198,565.183
151,27 Feb 2025 14:03:32.154,27 Feb 2025 14:04:32.213,60.060
152,27 Feb 2025 15:31:08.901,27 Feb 2025 15:42:06.615,657.714
153,27 Feb 2025 17:05:13.897,27 Feb 2025 17:15:42.925,629.028
154,28 Feb 2025 15:12:55.051,28 Feb 2025 15:23:10.863,615.812
155,28 Feb 2025 16:46:04.765,28 Feb 2025 16:57:13.587,668.822
156,1 Mar 2025 14:54:53.558,1 Mar 2025 15:04:08.812,555.255
157,1 Mar 2025 16:27:07.960,1 Mar 2025 16:38:37.688,689.728
158,1 Mar 2025 18:05:01.982,1 Mar 2025 18:09:53.732,291.749
159,2 Mar 2025 14:37:07.387,2 Mar 2025 14:44:57.699,470.311
160,2 Mar 2025 16:08:22.152,2 Mar 2025 16:19:56.470,694.318
161,2 Mar 2025 17:44:37.029,2 Mar 2025 17:52:21.455,464.426
162,3 Mar 2025 14:19:44.339,3 Mar 2025 14:25:29.958,345.619
163,3 Mar 2025 15:49:46.770,3 Mar 2025 16:01:10.522,683.752
164,3 Mar 2025 17:24:51.791,3 Mar 2025 17:34:16.047,564.256
165,4 Mar 2025 14:03:39.696,4 Mar 2025 14:04:50.511,70.815
166,4 Mar 2025 15:31:21.813,4 Mar 2025 15:42:19.919,658.107
167,4 Mar 2025 17:05:27.472,4 Mar 2025 17:15:55.904,628.432
168,5 Mar 2025 15:13:07.827,5 Mar 2025 15:23:24.231,616.404
169,5 Mar 2025 16:46:18.183,5 Mar 2025 16:57:26.654,668.472
170,6 Mar 2025 14:55:06.176,6 Mar 2025 15:04:22.266,556.089
171,6 Mar 2025 16:27:21.242,6 Mar 2025 16:38:50.823,689.581
172,6 Mar 2025 18:05:16.839,6 Mar 2025 18:10:05.656,288.817
173,7 Mar 2025 14:37:19.797,7 Mar 2025 14:45:11.285,471.488
174,7 Mar 2025 16:08:35.309,7 Mar 2025 16:20:09.662,694.353
175,7 Mar 2025 17:44:51.115,7 Mar 2025 17:52:34.068,462.953
176,8 Mar 2025 14:19:56.382,8 Mar 2025 14:25:43.833,347.451
177,8 Mar 2025 15:49:59.806,8 Mar 2025 16:01:23.768,683.962
178,8 Mar 2025 17:25:05.569,8 Mar 2025 17:34:28.894,563.325
179,9 Mar 2025 14:03:47.956,9 Mar 2025 14:05:08.090,80.134
180,9 Mar 2025 15:31:34.724,9 Mar 2025 15:42:33.222,658.498
181,9 Mar 2025 17:05:41.048,9 Mar 2025 17:16:08.881,627.833
182,10 Mar 2025 15:13:20.604,10 Mar 2025 15:23:37.598,616.994
183,10 Mar 2025 16:46:31.597,10 Mar 2025 16:57:39.720,668.123
184,11 Mar 2025 14:55:18.796,11 Mar 2025 15:04:35.718,556.922
185,11 Mar 2025 16:27:34.526,11 Mar 2025 16:39:03.957,689.431
186,11 Mar 2025 18:05:31.717,11 Mar 2025 18:10:17.559,285.842
187,12 Mar 2025 14:37:32.209,12 Mar 2025 14:45:24.872,472.663
188,12 Mar 2025 16:08:48.469,12 Mar 2025 16:20:22.855,694.386
189,12 Mar 2025 17:45:05.207,12 Mar 2025 17:52:46.677,461.470
190,13 Mar 2025 14:20:08.431,13 Mar 2025 14:25:57.705,349.274
191,13 Mar 2025 15:50:12.844,13 Mar 2025 16:01:37.015,684.171
192,13 Mar 2025 17:25:19.351,13 Mar 2025 17:34:41.739,562.388
193,14 Mar 2025 14:03:56.705,14 Mar 2025 14:05:25.182,88.477
194,14 Mar 2025 15:31:47.639,14 Mar 2025 15:42:46.525,658.887
195,14 Mar 2025 17:05:54.627,14 Mar 2025 17:16:21.858,627.231
196,15 Mar 2025 15:13:33.384,15 Mar 2025 15:23:50.966,617.582
197,15 Mar 2025 16:46:45.019,15 Mar 2025 16:57:52.786,667.767
198,16 Mar 2025 14:55:31.418,16 Mar 2025 15:04:49.170,557.752
199,16 Mar 2025 16:27:47.812,16 Mar 2025 16:39:17.090,689.278
200,16 Mar 2025 18:05:46.615,16 Mar 2025 18:10:29.445,282.830
201,17 Mar 2025 14:37:44.629,17 Mar 2025 14:45:38.452,473.823
202,17 Mar 2025 16:09:01.628,17 Mar 2025 16:20:36.052,694.424
203,17 Mar 2025 17:45:19.309,17 Mar 2025 17:52:59.283,459.974
204,18 Mar 2025 14:20:20.488,18 Mar 2025 14:26:11.570,351.082
205,18 Mar 2025 15:50:25.884,18 Mar 2025 16:01:50.262,684.377
206,18 Mar 2025 17:25:33.134,18 Mar 2025 17:34:54.584,561.449
207,19 Mar 2025 14:04:05.828,19 Mar 2025 14:05:41.896,96.068
208,19 Mar 2025 15:32:00.555,19 Mar 2025 15:42:59.825,659.271
209,19 Mar 2025 17:06:08.208,19 Mar 2025 17:16:34.837,626.629
210,20 Mar 2025 15:13:46.167,20 Mar 2025 15:24:04.332,618.165
211,20 Mar 2025 16:46:58.445,20 Mar 2025 16:58:05.852,667.407
212,21 Mar 2025 14:55:44.044,21 Mar 2025 15:05:02.620,558.576
213,21 Mar 2025 16:28:01.098,21 Mar 2025 16:39:30.223,689.126
214,21 Mar 2025 18:06:01.531,21 Mar 2025 18:10:41.314,279.783
215,22 Mar 2025 14:37:57.048,22 Mar 2025 14:45:52.032,474.985
216,22 Mar 2025 16:09:14.790,22 Mar 2025 16:20:49.243,694.453
217,22 Mar 2025 17:45:33.409,22 Mar 2025 17:53:11.885,458.476
218,23 Mar 2025 14:20:32.553,23 Mar 2025 14:26:25.429,352.876
219,23 Mar 2025 15:50:38.925,23 Mar 2025 16:02:03.507,684.581
220,23 Mar 2025 17:25:46.921,23 Mar 2025 17:35:07.425,560.504
221,24 Mar 2025 14:04:15.234,24 Mar 2025 14:05:58.336,103.102
222,24 Mar 2025 15:32:13.472,24 Mar 2025 15:43:13.126,659.654
223,24 Mar 2025 17:06:21.791,24 Mar 2025 17:16:47.809,626.018
224,25 Mar 2025 15:13:58.949,25 Mar 2025 15:24:17.697,618.748
225,25 Mar 2025 16:47:11.867,25 Mar 2025 16:58:18.915,667.049
226,26 Mar 2025 14:55:56.670,26 Mar 2025 15:05:16.069,559.399
227,26 Mar 2025 16:28:14.386,26 Mar 2025 16:39:43.355,688.969
228,26 Mar 2025 18:06:16.469,26 Mar 2025 18:10:53.160,276.691
229,27 Mar 2025 14:38:09.469,27 Mar 2025 14:46:05.613,476.143
230,27 Mar 2025 16:09:27.954,27 Mar 2025 16:21:02.434,694.480
231,27 Mar 2025 17:45:47.516,27 Mar 2025 17:53:24.482,456.966
232,28 Mar 2025 14:20:44.622,28 Mar 2025 14:26:39.284,354.662
233,28 Mar 2025 15:50:51.968,28 Mar 2025 16:02:16.752,684.784
234,28 Mar 2025 17:26:00.712,28 Mar 2025 17:35:20.265,559.554
235,29 Mar 2025 14:04:24.865,29 Mar 2025 14:06:14.552,109.687
236,29 Mar 2025 15:32:26.391,29 Mar 2025 15:43:26.428,660.037
237,29 Mar 2025 17:06:35.377,29 Mar 2025 17:17:00.783,625.406
238,30 Mar 2025 15:14:11.731,30 Mar 2025 15:24:31.062,619.331
239,30 Mar 2025 16:47:25.298,30 Mar 2025 16:58:31.981,666.682
240,31 Mar 2025 14:56:09.300,31 Mar 2025 15:05:29.517,560.218
241,31 Mar 2025 16:28:27.680,31 Mar 2025 16:39:56.487,688.807
242,31 Mar 2025 18:06:31.429,31 Mar 2025 18:11:04.989,273.560
243,1 Apr 2025 14:38:21.896,1 Apr 2025 14:46:19.190,477.295
244,1 Apr 2025 16:09:41.121,1 Apr 2025 16:21:15.625,694.505
245,1 Apr 2025 17:46:01.628,1 Apr 2025 17:53:37.078,455.449
246,2 Apr 2025 14:20:56.700,2 Apr 2025 14:26:53.131,356.431
247,2 Apr 2025 15:51:05.013,2 Apr 2025 16:02:29.997,684.984
248,2 Apr 2025 17:26:14.505,2 Apr 2025 17:35:33.105,558.601
249,3 Apr 2025 14:04:34.696,3 Apr 2025 14:06:30.562,115.866
250,3 Apr 2025 15:32:39.312,3 Apr 2025 15:43:39.728,660.416
251,3 Apr 2025 17:06:48.964,3 Apr 2025 17:17:13.756,624.793
252,4 Apr 2025 15:14:24.517,4 Apr 2025 15:24:44.425,619.908
253,4 Apr 2025 16:47:38.722,4 Apr 2025 16:58:45.047,666.325
254,5 Apr 2025 14:56:21.928,5 Apr 2025 15:05:42.959,561.030
255,5 Apr 2025 16:28:40.970,5 Apr 2025 16:40:09.622,688.652
256,5 Apr 2025 18:06:46.404,5 Apr 2025 18:11:16.795,270.390
257,6 Apr 2025 14:38:34.323,6 Apr 2025 14:46:32.765,478.442
258,6 Apr 2025 16:09:54.287,6 Apr 2025 16:21:28.815,694.527
259,6 Apr 2025 17:46:15.744,6 Apr 2025 17:53:49.667,453.923
260,7 Apr 2025 14:21:08.782,7 Apr 2025 14:27:06.974,358.192
261,7 Apr 2025 15:51:18.058,7 Apr 2025 16:02:43.240,685.182
262,7 Apr 2025 17:26:28.300,7 Apr 2025 17:35:45.941,557.642
263,8 Apr 2025 14:04:44.681,8 Apr 2025 14:06:46.425,121.744
264,8 Apr 2025 15:32:52.234,8 Apr 2025 15:43:53.028,660.794
265,8 Apr 2025 17:07:02.553,8 Apr 2025 17:17:26.727,624.174
266,9 Apr 2025 15:14:37.306,9 Apr 2025 15:24:57.788,620.482
267,9 Apr 2025 16:47:52.152,9 Apr 2025 16:58:58.109,665.957
268,10 Apr 2025 14:56:34.562,10 Apr 2025 15:05:56.405,561.843
269,10 Apr 2025 16:28:54.264,10 Apr 2025 16:40:22.754,688.489
270,10 Apr 2025 18:07:01.411,10 Apr 2025 18:11:28.579,267.168
271,11 Apr 2025 14:38:46.755,11 Apr 2025 14:46:46.340,479.585
272,11 Apr 2025 16:10:07.457,11 Apr 2025 16:21:42.005,694.548
273,11 Apr 2025 17:46:29.867,11 Apr 2025 17:54:02.254,452.387
274,12 Apr 2025 14:21:20.870,12 Apr 2025 14:27:20.814,359.943
275,12 Apr 2025 15:51:31.107,12 Apr 2025 16:02:56.485,685.378
276,12 Apr 2025 17:26:42.100,12 Apr 2025 17:35:58.777,556.678
277,13 Apr 2025 14:04:54.809,13 Apr 2025 14:07:02.150,127.340
278,13 Apr 2025 15:33:05.158,13 Apr 2025 15:44:06.329,661.170
279,13 Apr 2025 17:07:16.141,13 Apr 2025 17:17:39.701,623.560
280,14 Apr 2025 15:14:50.098,14 Apr 2025 15:25:11.151,621.053
281,14 Apr 2025 16:48:05.590,14 Apr 2025 16:59:11.169,665.579
282,15 Apr 2025 14:56:47.204,15 Apr 2025 15:06:09.854,562.650
283,15 Apr 2025 16:29:07.561,15 Apr 2025 16:40:35.883,688.322
284,15 Apr 2025 18:07:16.440,15 Apr 2025 18:11:40.344,263.904
285,16 Apr 2025 14:38:59.192,16 Apr 2025 14:46:59.912,480.720
286,16 Apr 2025 16:10:20.628,16 Apr 2025 16:21:55.195,694.567
287,16 Apr 2025 17:46:43.996,16 Apr 2025 17:54:14.839,450.844
288,17 Apr 2025 14:21:32.965,17 Apr 2025 14:27:34.646,361.681
289,17 Apr 2025 15:51:44.157,17 Apr 2025 16:03:09.729,685.572
290,17 Apr 2025 17:26:55.902,17 Apr 2025 17:36:11.612,555.710
291,18 Apr 2025 14:05:05.061,18 Apr 2025 14:07:17.747,132.686
292,18 Apr 2025 15:33:18.085,18 Apr 2025 15:44:19.628,661.543
293,18 Apr 2025 17:07:29.736,18 Apr 2025 17:17:52.672,622.936
294,19 Apr 2025 15:15:02.891,19 Apr 2025 15:25:24.513,621.622
295,19 Apr 2025 16:48:19.024,19 Apr 2025 16:59:24.230,665.206
296,20 Apr 2025 14:56:59.843,20 Apr 2025 15:06:23.297,563.455
297,20 Apr 2025 16:29:20.859,20 Apr 2025 16:40:49.013,688.154
298,20 Apr 2025 18:07:31.493,20 Apr 2025 18:11:52.080,260.587
299,21 Apr 2025 14:39:11.629,21 Apr 2025 14:47:13.481,481.851
300,21 Apr 2025 16:10:33.800,21 Apr 2025 16:22:08.383,694.583
301,21 Apr 2025 17:46:58.128,21 Apr 2025 17:54:27.418,449.290
302,22 Apr 2025 14:21:45.071,22 Apr 2025 14:27:48.474,363.403
303,22 Apr 2025 15:51:57.208,22 Apr 2025 16:03:22.971,685.763
304,22 Apr 2025 17:27:09.707,22 Apr 2025 17:36:24.443,554.737
305,23 Apr 2025 14:05:15.415,23 Apr 2025 14:07:33.243,137.827
306,23 Apr 2025 15:33:31.012,23 Apr 2025 15:44:32.926,661.915
307,23 Apr 2025 17:07:43.332,23 Apr 2025 17:18:05.640,622.308
308,24 Apr 2025 15:15:15.685,24 Apr 2025 15:25:37.874,622.189
309,24 Apr 2025 16:48:32.460,24 Apr 2025 16:59:37.290,664.830
310,25 Apr 2025 14:57:12.483,25 Apr 2025 15:06:36.741,564.257
311,25 Apr 2025 16:29:34.156,25 Apr 2025 16:41:02.142,687.986
312,25 Apr 2025 18:07:46.575,25 Apr 2025 18:12:03.796,257.221
313,26 Apr 2025 14:39:24.070,26 Apr 2025 14:47:27.050,482.980
314,26 Apr 2025 16:10:46.974,26 Apr 2025 16:22:21.572,694.598
315,26 Apr 2025 17:47:12.268,26 Apr 2025 17:54:39.993,447.726
316,27 Apr 2025 14:21:57.178,27 Apr 2025 14:28:02.299,365.121
317,27 Apr 2025 15:52:10.261,27 Apr 2025 16:03:36.214,685.953
318,27 Apr 2025 17:27:23.513,27 Apr 2025 17:36:37.274,553.761
319,28 Apr 2025 14:05:25.868,28 Apr 2025 14:07:48.644,142.776
320,28 Apr 2025 15:33:43.942,28 Apr 2025 15:44:46.225,662.283
321,28 Apr 2025 17:07:56.932,28 Apr 2025 17:18:18.609,621.677
322,29 Apr 2025 15:15:28.483,29 Apr 2025 15:25:51.235,622.752
323,29 Apr 2025 16:48:45.899,29 Apr 2025 16:59:50.351,664.452
324,30 Apr 2025 14:57:25.126,30 Apr 2025 15:06:50.183,565.057
325,30 Apr 2025 16:29:47.459,30 Apr 2025 16:41:15.274,687.814
326,30 Apr 2025 18:08:01.682,30 Apr 2025 18:12:15.485,253.804
327,1 May 2025 14:39:36.516,1 May 2025 14:47:40.616,484.100
328,1 May 2025 16:11:00.150,1 May 2025 16:22:34.761,694.610
329,1 May 2025 17:47:26.412,1 May 2025 17:54:52.566,446.154
330,2 May 2025 14:22:09.290,2 May 2025 14:28:16.113,366.823
331,2 May 2025 15:52:23.317,2 May 2025 16:03:49.456,686.140
332,2 May 2025 17:27:37.325,2 May 2025 17:36:50.104,552.779
333,3 May 2025 14:05:36.406,3 May 2025 14:08:03.955,147.548
334,3 May 2025 15:33:56.869,3 May 2025 15:44:59.518,662.649
335,3 May 2025 17:08:10.532,3 May 2025 17:18:31.573,621.041
336,4 May 2025 15:15:41.285,4 May 2025 15:26:04.594,623.309
337,4 May 2025 16:48:59.337,4 May 2025 17:00:03.409,664.071
338,5 May 2025 14:57:37.771,5 May 2025 15:07:03.623,565.852
339,5 May 2025 16:30:00.762,5 May 2025 16:41:28.402,687.640
340,5 May 2025 18:08:16.817,5 May 2025 18:12:27.147,250.331
341,6 May 2025 14:39:48.963,6 May 2025 14:47:54.180,485.217
342,6 May 2025 16:11:13.327,6 May 2025 16:22:47.948,694.621
343,6 May 2025 17:47:40.561,6 May 2025 17:55:05.132,444.571
344,7 May 2025 14:22:21.409,7 May 2025 14:28:29.929,368.520
345,7 May 2025 15:52:36.373,7 May 2025 16:04:02.698,686.326
346,7 May 2025 17:27:51.139,7 May 2025 17:37:02.930,551.790
347,8 May 2025 14:05:47.021,8 May 2025 14:08:19.197,152.176
348,8 May 2025 15:34:09.806,8 May 2025 15:45:12.815,663.009
349,8 May 2025 17:08:24.137,8 May 2025 17:18:44.542,620.406
350,9 May 2025 15:15:54.082,9 May 2025 15:26:17.955,623.872
351,9 May 2025 16:49:12.781,9 May 2025 17:00:16.469,663.688
352,10 May 2025 14:57:50.419,10 May 2025 15:07:17.064,566.645
353,10 May 2025 16:30:14.068,10 May 2025 16:41:41.531,687.463
354,10 May 2025 18:08:31.984,10 May 2025 18:12:38.781,246.797
355,11 May 2025 14:40:01.414,11 May 2025 14:48:07.745,486.330
356,11 May 2025 16:11:26.508,11 May 2025 16:23:01.137,694.629
357,11 May 2025 17:47:54.719,11 May 2025 17:55:17.695,442.977
358,12 May 2025 14:22:33.536,12 May 2025 14:28:43.741,370.206
359,12 May 2025 15:52:49.432,12 May 2025 16:04:15.941,686.509
360,12 May 2025 17:28:04.959,12 May 2025 17:37:15.756,550.797
361,13 May 2025 14:05:57.710,13 May 2025 14:08:34.367,156.657
362,13 May 2025 15:34:22.742,13 May 2025 15:45:26.113,663.371
363,13 May 2025 17:08:37.744,13 May 2025 17:18:57.509,619.765
364,14 May 2025 15:16:06.885,14 May 2025 15:26:31.314,624.429
365,14 May 2025 16:49:26.227,14 May 2025 17:00:29.528,663.302
366,15 May 2025 14:58:03.070,15 May 2025 15:07:30.504,567.434
367,15 May 2025 16:30:27.376,15 May 2025 16:41:54.660,687.284
368,15 May 2025 18:08:47.180,15 May 2025 18:12:50.389,243.209
369,16 May 2025 14:40:13.869,16 May 2025 14:48:21.302,487.433
370,16 May 2025 16:11:39.689,16 May 2025 16:23:14.324,694.635
371,16 May 2025 17:48:08.881,16 May 2025 17:55:30.255,441.374
372,17 May 2025 14:22:45.672,17 May 2025 14:28:57.545,371.873
373,17 May 2025 15:53:02.494,17 May 2025 16:04:29.186,686.692
374,17 May 2025 17:28:18.778,17 May 2025 17:37:28.578,549.799
375,18 May 2025 14:06:08.465,18 May 2025 14:08:49.468,161.003
376,18 May 2025 15:34:35.678,18 May 2025 15:45:39.413,663.735
377,18 May 2025 17:08:51.352,18 May 2025 17:19:10.471,619.119
378,19 May 2025 15:16:19.688,19 May 2025 15:26:44.672,624.984
379,19 May 2025 16:49:39.668,19 May 2025 17:00:42.589,662.921
380,20 May 2025 14:58:15.719,20 May 2025 15:07:43.939,568.220
381,20 May 2025 16:30:40.683,20 May 2025 16:42:07.792,687.109
382,20 May 2025 18:09:02.409,20 May 2025 18:13:01.968,239.559
383,21 May 2025 14:40:26.325,21 May 2025 14:48:34.866,488.541
384,21 May 2025 16:11:52.875,21 May 2025 16:23:27.506,694.631
385,21 May 2025 17:48:23.047,21 May 2025 17:55:42.808,439.761
386,22 May 2025 14:22:57.805,22 May 2025 14:29:11.352,373.547
387,22 May 2025 15:53:15.552,22 May 2025 16:04:42.423,686.871
388,22 May 2025 17:28:32.605,22 May 2025 17:37:41.400,548.795
389,23 May 2025 14:06:19.275,23 May 2025 14:09:04.520,165.245
390,23 May 2025 15:34:48.616,23 May 2025 15:45:52.705,664.089
391,23 May 2025 17:09:04.964,23 May 2025 17:19:23.435,618.471
392,24 May 2025 15:16:32.495,24 May 2025 15:26:58.031,625.536
393,24 May 2025 16:49:53.121,24 May 2025 17:00:55.642,662.522
394,25 May 2025 14:58:28.379,25 May 2025 15:07:57.381,569.002
395,25 May 2025 16:30:53.995,25 May 2025 16:42:20.918,686.923
396,25 May 2025 18:09:17.672,25 May 2025 18:13:13.507,235.835
397,26 May 2025 14:40:38.785,26 May 2025 14:48:48.426,489.641
398,26 May 2025 16:12:06.061,26 May 2025 16:23:40.694,694.633
399,26 May 2025 17:48:37.223,26 May 2025 17:55:55.359,438.136
400,27 May 2025 14:23:09.947,27 May 2025 14:29:25.151,375.204
401,27 May 2025 15:53:28.616,27 May 2025 16:04:55.665,687.049
402,27 May 2025 17:28:46.431,27 May 2025 17:37:54.221,547.790
403,28 May 2025 14:06:30.146,28 May 2025 14:09:19.512,169.366
404,28 May 2025 15:35:01.557,28 May 2025 15:46:06.002,664.444
405,28 May 2025 17:09:18.579,28 May 2025 17:19:36.399,617.820
406,29 May 2025 15:16:45.304,29 May 2025 15:27:11.389,626.085
407,29 May 2025 16:50:06.568,29 May 2025 17:01:08.700,662.132
408,30 May 2025 14:58:41.036,30 May 2025 15:08:10.818,569.782
409,30 May 2025 16:31:07.307,30 May 2025 16:42:34.045,686.738
410,30 May 2025 18:09:32.968,30 May 2025 18:13:25.020,232.052
411,31 May 2025 14:40:51.247,31 May 2025 14:49:01.982,490.735
412,31 May 2025 16:12:19.247,31 May 2025 16:23:53.880,694.633
413,31 May 2025 17:48:51.402,31 May 2025 17:56:07.908,436.505
414,1 Jun 2025 14:23:22.100,1 Jun 2025 14:29:38.944,376.844
415,1 Jun 2025 15:53:41.680,1 Jun 2025 16:05:08.905,687.225
416,1 Jun 2025 17:29:00.262,1 Jun 2025 17:38:07.038,546.776
417,2 Jun 2025 14:06:41.065,2 Jun 2025 14:09:34.455,173.390
418,2 Jun 2025 15:35:14.498,2 Jun 2025 15:46:19.296,664.798
419,2 Jun 2025 17:09:32.194,2 Jun 2025 17:19:49.359,617.165
420,3 Jun 2025 15:16:58.113,3 Jun 2025 15:27:24.746,626.633
421,3 Jun 2025 16:50:20.025,3 Jun 2025 17:01:21.758,661.733
422,4 Jun 2025 14:58:53.694,4 Jun 2025 15:08:24.251,570.557
423,4 Jun 2025 16:31:20.621,4 Jun 2025 16:42:47.174,686.553
424,4 Jun 2025 18:09:48.306,4 Jun 2025 18:13:36.493,228.188
425,5 Jun 2025 14:41:03.710,5 Jun 2025 14:49:15.538,491.828
426,5 Jun 2025 16:12:32.435,5 Jun 2025 16:24:07.066,694.631
427,5 Jun 2025 17:49:05.585,5 Jun 2025 17:56:20.443,434.858
428,6 Jun 2025 14:23:34.253,6 Jun 2025 14:29:52.737,378.484
429,6 Jun 2025 15:53:54.747,6 Jun 2025 16:05:22.146,687.399
430,6 Jun 2025 17:29:14.098,6 Jun 2025 17:38:19.853,545.756
431,7 Jun 2025 14:06:52.030,7 Jun 2025 14:09:49.355,177.325
432,7 Jun 2025 15:35:27.443,7 Jun 2025 15:46:32.592,665.150
433,7 Jun 2025 17:09:45.814,7 Jun 2025 17:20:02.319,616.505
434,8 Jun 2025 15:17:10.926,8 Jun 2025 15:27:38.104,627.179
435,8 Jun 2025 16:50:33.481,8 Jun 2025 17:01:34.813,661.333
436,9 Jun 2025 14:59:06.356,9 Jun 2025 15:08:37.688,571.332
437,9 Jun 2025 16:31:33.938,9 Jun 2025 16:43:00.301,686.363
438,9 Jun 2025 18:10:03.682,9 Jun 2025 18:13:47.929,224.247
439,10 Jun 2025 14:41:16.179,10 Jun 2025 14:49:29.094,492.915
440,10 Jun 2025 16:12:45.626,10 Jun 2025 16:24:20.252,694.626
441,10 Jun 2025 17:49:19.780,10 Jun 2025 17:56:32.980,433.200
442,11 Jun 2025 14:23:46.412,11 Jun 2025 14:30:06.520,380.108
443,11 Jun 2025 15:54:07.820,11 Jun 2025 16:05:35.390,687.570
444,11 Jun 2025 17:29:27.941,11 Jun 2025 17:38:32.666,544.726
445,12 Jun 2025 14:07:03.044,12 Jun 2025 14:10:04.208,181.164
446,12 Jun 2025 15:35:40.389,12 Jun 2025 15:46:45.888,665.499
447,12 Jun 2025 17:09:59.436,12 Jun 2025 17:20:15.278,615.842
448,13 Jun 2025 15:17:23.740,13 Jun 2025 15:27:51.461,627.721
449,13 Jun 2025 16:50:46.938,13 Jun 2025 17:01:47.868,660.930
450,14 Jun 2025 14:59:19.018,14 Jun 2025 15:08:51.127,572.109
451,14 Jun 2025 16:31:47.256,14 Jun 2025 16:43:13.424,686.168
452,14 Jun 2025 18:10:19.098,14 Jun 2025 18:13:59.326,220.228
453,15 Jun 2025 14:41:28.648,15 Jun 2025 14:49:42.646,493.998
454,15 Jun 2025 16:12:58.816,15 Jun 2025 16:24:33.438,694.621
455,15 Jun 2025 17:49:33.982,15 Jun 2025 17:56:45.514,431.532
456,16 Jun 2025 14:23:58.574,16 Jun 2025 14:30:20.307,381.733
457,16 Jun 2025 15:54:20.886,16 Jun 2025 16:05:48.626,687.740
458,16 Jun 2025 17:29:41.779,16 Jun 2025 17:38:45.479,543.700
459,17 Jun 2025 14:07:14.096,17 Jun 2025 14:10:19.020,184.924
460,17 Jun 2025 15:35:53.335,17 Jun 2025 15:46:59.181,665.846
461,17 Jun 2025 17:10:13.059,17 Jun 2025 17:20:28.236,615.176
462,18 Jun 2025 15:17:36.555,18 Jun 2025 15:28:04.817,628.262
463,18 Jun 2025 16:51:00.396,18 Jun 2025 17:02:00.921,660.524
464,19 Jun 2025 14:59:31.683,19 Jun 2025 15:09:04.562,572.879
465,19 Jun 2025 16:32:00.575,19 Jun 2025 16:43:26.549,685.974
466,19 Jun 2025 18:10:34.558,19 Jun 2025 18:14:10.678,216.119
467,20 Jun 2025 14:41:41.121,20 Jun 2025 14:49:56.199,495.078
468,20 Jun 2025 16:13:12.010,20 Jun 2025 16:24:46.622,694.612
469,20 Jun 2025 17:49:48.189,20 Jun 2025 17:56:58.038,429.850
470,21 Jun 2025 14:24:10.739,21 Jun 2025 14:30:34.089,383.350
471,21 Jun 2025 15:54:33.958,21 Jun 2025 16:06:01.866,687.908
472,21 Jun 2025 17:29:55.625,21 Jun 2025 17:38:58.287,542.662
473,22 Jun 2025 14:07:25.188,22 Jun 2025 14:10:33.798,188.611
474,22 Jun 2025 15:36:06.284,22 Jun 2025 15:47:12.481,666.197
475,22 Jun 2025 17:10:26.687,22 Jun 2025 17:20:41.192,614.506
476,23 Jun 2025 15:17:49.373,23 Jun 2025 15:28:18.174,628.800
477,23 Jun 2025 16:51:13.859,23 Jun 2025 17:02:13.974,660.116
478,24 Jun 2025 14:59:44.352,24 Jun 2025 15:09:17.997,573.645
479,24 Jun 2025 16:32:13.898,24 Jun 2025 16:43:39.675,685.777
480,24 Jun 2025 18:10:50.064,24 Jun 2025 18:14:21.987,211.924
481,25 Jun 2025 14:41:53.600,25 Jun 2025 14:50:09.751,496.151
482,25 Jun 2025 16:13:25.206,25 Jun 2025 16:24:59.809,694.603
483,25 Jun 2025 17:50:02.402,25 Jun 2025 17:57:10.560,428.158
484,26 Jun 2025 14:24:22.918,26 Jun 2025 14:30:47.866,384.948
485,26 Jun 2025 15:54:47.032,26 Jun 2025 16:06:15.106,688.074
486,26 Jun 2025 17:30:09.475,26 Jun 2025 17:39:11.095,541.621
487,27 Jun 2025 14:07:36.320,27 Jun 2025 14:10:48.541,192.221
488,27 Jun 2025 15:36:19.235,27 Jun 2025 15:47:25.775,666.540
489,27 Jun 2025 17:10:40.320,27 Jun 2025 17:20:54.148,613.827
490,28 Jun 2025 15:18:02.193,28 Jun 2025 15:28:31.529,629.336
491,28 Jun 2025 16:51:27.321,28 Jun 2025 17:02:27.026,659.705
492,29 Jun 2025 14:59:57.020,29 Jun 2025 15:09:31.427,574.407
493,29 Jun 2025 16:32:27.221,29 Jun 2025 16:43:52.798,685.577
494,29 Jun 2025 18:11:05.615,29 Jun 2025 18:14:33.249,207.634
495,30 Jun 2025 14:42:06.078,30 Jun 2025 14:50:23.299,497.221
496,30 Jun 2025 16:13:38.402,30 Jun 2025 16:25:12.992,694.590
497,30 Jun 2025 17:50:16.619,30 Jun 2025 17:57:23.073,426.454
498,1 Jul 2025 14:24:35.092,1 Jul 2025 14:31:01.639,386.546
499,1 Jul 2025 15:55:00.106,1 Jul 2025 16:06:28.343,688.237
500,1 Jul 2025 17:30:23.327,1 Jul 2025 17:39:23.899,540.572
501,2 Jul 2025 14:07:47.483,2 Jul 2025 14:11:03.249,195.766
502,2 Jul 2025 15:36:32.186,2 Jul 2025 15:47:39.068,666.882
503,2 Jul 2025 17:10:53.951,2 Jul 2025 17:21:07.100,613.149
504,3 Jul 2025 15:18:15.013,3 Jul 2025 15:28:44.884,629.871
505,3 Jul 2025 16:51:40.786,3 Jul 2025 17:02:40.076,659.290
506,4 Jul 2025 15:00:09.691,4 Jul 2025 15:09:44.860,575.169
507,4 Jul 2025 16:32:40.546,4 Jul 2025 16:44:05.921,685.375
508,4 Jul 2025 18:11:21.223,4 Jul 2025 18:14:44.457,203.234
509,5 Jul 2025 14:42:18.559,5 Jul 2025 14:50:36.849,498.290
510,5 Jul 2025 16:13:51.600,5 Jul 2025 16:25:26.175,694.575
511,5 Jul 2025 17:50:30.846,5 Jul 2025 17:57:35.580,424.734
512,6 Jul 2025 14:24:47.274,6 Jul 2025 14:31:15.411,388.137
513,6 Jul 2025 15:55:13.183,6 Jul 2025 16:06:41.582,688.399
514,6 Jul 2025 17:30:37.184,6 Jul 2025 17:39:36.701,539.517
515,7 Jul 2025 14:07:58.680,7 Jul 2025 14:11:17.928,199.248
516,7 Jul 2025 15:36:45.141,7 Jul 2025 15:47:52.362,667.221
517,7 Jul 2025 17:11:07.586,7 Jul 2025 17:21:20.053,612.467
518,8 Jul 2025 15:18:27.836,8 Jul 2025 15:28:58.239,630.403
519,8 Jul 2025 16:51:54.254,8 Jul 2025 17:02:53.127,658.872
520,9 Jul 2025 15:00:22.365,9 Jul 2025 15:09:58.293,575.928
521,9 Jul 2025 16:32:53.873,9 Jul 2025 16:44:19.044,685.171
522,9 Jul 2025 18:11:36.885,9 Jul 2025 18:14:55.613,198.728
523,10 Jul 2025 14:42:31.044,10 Jul 2025 14:50:50.397,499.353
524,10 Jul 2025 16:14:04.801,10 Jul 2025 16:25:39.357,694.556
525,10 Jul 2025 17:50:45.078,10 Jul 2025 17:57:48.082,423.004
526,11 Jul 2025 14:24:59.467,11 Jul 2025 14:31:29.173,389.707
527,11 Jul 2025 15:55:26.262,11 Jul 2025 16:06:54.822,688.561
528,11 Jul 2025 17:30:51.048,11 Jul 2025 17:39:49.501,538.453
529,12 Jul 2025 14:08:09.909,12 Jul 2025 14:11:32.571,202.662
530,12 Jul 2025 15:36:58.092,12 Jul 2025 15:48:05.654,667.562
531,12 Jul 2025 17:11:21.222,12 Jul 2025 17:21:33.000,611.778
532,13 Jul 2025 15:18:40.661,13 Jul 2025 15:29:11.589,630.928
533,13 Jul 2025 16:52:07.721,13 Jul 2025 17:03:06.172,658.451
534,14 Jul 2025 15:00:35.040,14 Jul 2025 15:10:11.726,576.687
535,14 Jul 2025 16:33:07.201,14 Jul 2025 16:44:32.165,684.963
536,14 Jul 2025 18:11:52.605,14 Jul 2025 18:15:06.708,194.103
537,15 Jul 2025 14:42:43.530,15 Jul 2025 14:51:03.942,500.412
538,15 Jul 2025 16:14:18.001,15 Jul 2025 16:25:52.539,694.537
539,15 Jul 2025 17:50:59.317,15 Jul 2025 17:58:00.577,421.260
540,16 Jul 2025 14:25:11.658,16 Jul 2025 14:31:42.936,391.279
541,16 Jul 2025 15:55:39.345,16 Jul 2025 16:07:08.059,688.714
542,16 Jul 2025 17:31:04.910,16 Jul 2025 17:40:02.297,537.386
543,17 Jul 2025 14:08:21.166,17 Jul 2025 14:11:47.189,206.023
544,17 Jul 2025 15:37:11.048,17 Jul 2025 15:48:18.946,667.898
545,17 Jul 2025 17:11:34.861,17 Jul 2025 17:21:45.948,611.088
546,18 Jul 2025 15:18:53.486,18 Jul 2025 15:29:24.946,631.459
547,18 Jul 2025 16:52:21.192,18 Jul 2025 17:03:19.219,658.028
548,19 Jul 2025 15:00:47.716,19 Jul 2025 15:10:25.155,577.439
549,19 Jul 2025 16:33:20.532,19 Jul 2025 16:44:45.286,684.754
550,19 Jul 2025 18:12:08.391,19 Jul 2025 18:15:17.739,189.348
551,20 Jul 2025 14:42:56.019,20 Jul 2025 14:51:17.488,501.469
552,20 Jul 2025 16:14:31.205,20 Jul 2025 16:26:05.721,694.516
553,20 Jul 2025 17:51:13.562,20 Jul 2025 17:58:13.070,419.507
554,21 Jul 2025 14:25:23.854,21 Jul 2025 14:31:56.698,392.844
555,21 Jul 2025 15:55:52.427,21 Jul 2025 16:07:21.297,688.870
556,21 Jul 2025 17:31:18.778,21 Jul 2025 17:40:15.092,536.313
557,22 Jul 2025 14:08:32.454,22 Jul 2025 14:12:01.782,209.328
558,22 Jul 2025 15:37:24.007,22 Jul 2025 15:48:32.238,668.231
559,22 Jul 2025 17:11:48.498,22 Jul 2025 17:21:58.897,610.398
560,23 Jul 2025 15:19:06.315,23 Jul 2025 15:29:38.296,631.982
561,23 Jul 2025 16:52:34.666,23 Jul 2025 17:03:32.267,657.601
562,24 Jul 2025 15:01:00.395,24 Jul 2025 15:10:38.585,578.190
563,24 Jul 2025 16:33:33.864,24 Jul 2025 16:44:58.407,684.542
564,24 Jul 2025 18:12:24.243,24 Jul 2025 18:15:28.708,184.465
565,25 Jul 2025 14:43:08.511,25 Jul 2025 14:51:31.031,502.520
566,25 Jul 2025 16:14:44.410,25 Jul 2025 16:26:18.902,694.493
567,25 Jul 2025 17:51:27.815,25 Jul 2025 17:58:25.555,417.740
568,26 Jul 2025 14:25:36.056,26 Jul 2025 14:32:10.454,394.399
569,26 Jul 2025 15:56:05.508,26 Jul 2025 16:07:34.528,689.020
570,26 Jul 2025 17:31:32.648,26 Jul 2025 17:40:27.884,535.236
571,27 Jul 2025 14:08:43.769,27 Jul 2025 14:12:16.344,212.575
572,27 Jul 2025 15:37:36.966,27 Jul 2025 15:48:45.529,668.562
573,27 Jul 2025 17:12:02.141,27 Jul 2025 17:22:11.842,609.701
574,28 Jul 2025 15:19:19.143,28 Jul 2025 15:29:51.648,632.505
575,28 Jul 2025 16:52:48.140,28 Jul 2025 17:03:45.312,657.172
576,29 Jul 2025 15:01:13.075,29 Jul 2025 15:10:52.014,578.939
577,29 Jul 2025 16:33:47.197,29 Jul 2025 16:45:11.525,684.328
578,29 Jul 2025 18:12:40.169,29 Jul 2025 18:15:39.603,179.434
579,30 Jul 2025 14:43:21.004,30 Jul 2025 14:51:44.573,503.569
580,30 Jul 2025 16:14:57.615,30 Jul 2025 16:26:32.082,694.467
581,30 Jul 2025 17:51:42.075,30 Jul 2025 17:58:38.032,415.957
582,31 Jul 2025 14:25:48.258,31 Jul 2025 14:32:24.209,395.950
583,31 Jul 2025 15:56:18.591,31 Jul 2025 16:07:47.766,689.175
584,31 Jul 2025 17:31:46.516,31 Jul 2025 17:40:40.671,534.155
585,1 Aug 2025 14:08:55.107,1 Aug 2025 14:12:30.886,215.779
586,1 Aug 2025 15:37:49.927,1 Aug 2025 15:48:58.819,668.892
587,1 Aug 2025 17:12:15.790,1 Aug 2025 17:22:24.790,609.001
588,2 Aug 2025 15:19:31.973,2 Aug 2025 15:30:05.000,633.027
589,2 Aug 2025 16:53:01.618,2 Aug 2025 17:03:58.356,656.738
590,3 Aug 2025 15:01:25.757,3 Aug 2025 15:11:05.443,579.686
591,3 Aug 2025 16:34:00.532,3 Aug 2025 16:45:24.644,684.112
592,3 Aug 2025 18:12:56.179,3 Aug 2025 18:15:50.414,174.235
593,4 Aug 2025 14:43:33.500,4 Aug 2025 14:51:58.115,504.615
594,4 Aug 2025 16:15:10.823,4 Aug 2025 16:26:45.262,694.439
595,4 Aug 2025 17:51:56.343,4 Aug 2025 17:58:50.504,414.161
596,5 Aug 2025 14:26:00.468,5 Aug 2025 14:32:37.961,397.493
597,5 Aug 2025 15:56:31.676,5 Aug 2025 16:08:01.003,689.326
598,5 Aug 2025 17:32:00.394,5 Aug 2025 17:40:53.457,533.063
599,6 Aug 2025 14:09:06.471,6 Aug 2025 14:12:45.403,218.932
600,6 Aug 2025 15:38:02.890,6 Aug 2025 15:49:12.109,669.220
601,6 Aug 2025 17:12:29.440,6 Aug 2025 17:22:37.733,608.293
602,7 Aug 2025 15:19:44.806,7 Aug 2025 15:30:18.351,633.546
603,7 Aug 2025 16:53:15.095,7 Aug 2025 17:04:11.400,656.305
604,8 Aug 2025 15:01:38.438,8 Aug 2025 15:11:18.872,580.434
605,8 Aug 2025 16:34:13.865,8 Aug 2025 16:45:37.766,683.900
606,8 Aug 2025 18:13:12.278,8 Aug 2025 18:16:01.145,168.868
607,9 Aug 2025 14:43:45.998,9 Aug 2025 14:52:11.653,505.655
608,9 Aug 2025 16:15:24.031,9 Aug 2025 16:26:58.440,694.409
609,9 Aug 2025 17:52:10.616,9 Aug 2025 17:59:02.971,412.355
610,10 Aug 2025 14:26:12.682,10 Aug 2025 14:32:51.707,399.025
611,10 Aug 2025 15:56:44.762,10 Aug 2025 16:08:14.236,689.474
612,10 Aug 2025 17:32:14.274,10 Aug 2025 17:41:06.240,531.965
613,11 Aug 2025 14:09:17.860,11 Aug 2025 14:12:59.895,222.035
614,11 Aug 2025 15:38:15.853,11 Aug 2025 15:49:25.398,669.545
615,11 Aug 2025 17:12:43.085,11 Aug 2025 17:22:50.674,607.589
616,12 Aug 2025 15:19:57.637,12 Aug 2025 15:30:31.703,634.066
617,12 Aug 2025 16:53:28.576,12 Aug 2025 17:04:24.444,655.868
618,13 Aug 2025 15:01:51.126,13 Aug 2025 15:11:32.294,581.168
619,13 Aug 2025 16:34:27.206,13 Aug 2025 16:45:50.877,683.672
620,13 Aug 2025 18:13:28.464,13 Aug 2025 18:16:11.771,163.307
621,14 Aug 2025 14:43:58.498,14 Aug 2025 14:52:25.191,506.693
622,14 Aug 2025 16:15:37.240,14 Aug 2025 16:27:11.617,694.377
623,14 Aug 2025 17:52:24.896,14 Aug 2025 17:59:15.429,410.533
624,15 Aug 2025 14:26:24.895,15 Aug 2025 14:33:05.452,400.557
625,15 Aug 2025 15:56:57.849,15 Aug 2025 16:08:27.469,689.620
626,15 Aug 2025 17:32:28.158,15 Aug 2025 17:41:19.018,530.860
627,16 Aug 2025 14:09:29.269,16 Aug 2025 14:13:14.369,225.101
628,16 Aug 2025 15:38:28.817,16 Aug 2025 15:49:38.686,669.869
629,16 Aug 2025 17:12:56.738,16 Aug 2025 17:23:03.612,606.874
630,17 Aug 2025 15:20:10.472,17 Aug 2025 15:30:45.053,634.581
631,17 Aug 2025 16:53:42.058,17 Aug 2025 17:04:37.484,655.426
632,18 Aug 2025 15:02:03.814,18 Aug 2025 15:11:45.721,581.907
633,18 Aug 2025 16:34:40.546,18 Aug 2025 16:46:03.993,683.448
634,18 Aug 2025 18:13:44.766,18 Aug 2025 18:16:22.294,157.528
635,19 Aug 2025 14:44:11.001,19 Aug 2025 14:52:38.729,507.728
636,19 Aug 2025 16:15:50.452,19 Aug 2025 16:27:24.795,694.343
637,19 Aug 2025 17:52:39.185,19 Aug 2025 17:59:27.882,408.697
638,20 Aug 2025 14:26:37.116,20 Aug 2025 14:33:19.194,402.078
639,20 Aug 2025 15:57:10.938,20 Aug 2025 16:08:40.702,689.764
640,20 Aug 2025 17:32:42.046,20 Aug 2025 17:41:31.795,529.749
641,21 Aug 2025 14:09:40.702,21 Aug 2025 14:13:28.820,228.118
642,21 Aug 2025 15:38:41.784,21 Aug 2025 15:49:51.971,670.187
643,21 Aug 2025 17:13:10.398,21 Aug 2025 17:23:16.550,606.152
644,22 Aug 2025 15:20:23.311,22 Aug 2025 15:30:58.399,635.088
645,22 Aug 2025 16:53:55.541,22 Aug 2025 17:04:50.521,654.979
646,23 Aug 2025 15:02:16.502,23 Aug 2025 15:11:59.145,582.643
647,23 Aug 2025 16:34:53.886,23 Aug 2025 16:46:17.107,683.221
648,23 Aug 2025 18:14:01.179,23 Aug 2025 18:16:32.703,151.524
649,24 Aug 2025 14:44:23.505,24 Aug 2025 14:52:52.258,508.752
650,24 Aug 2025 16:16:03.664,24 Aug 2025 16:27:37.970,694.306
651,24 Aug 2025 17:52:53.478,24 Aug 2025 17:59:40.328,406.850
652,25 Aug 2025 14:26:49.341,25 Aug 2025 14:33:32.935,403.594
653,25 Aug 2025 15:57:24.026,25 Aug 2025 16:08:53.932,689.905
654,25 Aug 2025 17:32:55.934,25 Aug 2025 17:41:44.568,528.635
655,26 Aug 2025 14:09:52.155,26 Aug 2025 14:13:43.250,231.095
656,26 Aug 2025 15:38:54.751,26 Aug 2025 15:50:05.260,670.509
657,26 Aug 2025 17:13:24.049,26 Aug 2025 17:23:29.483,605.434
658,27 Aug 2025 15:20:36.144,27 Aug 2025 15:31:11.748,635.604
659,27 Aug 2025 16:54:09.026,27 Aug 2025 17:05:03.560,654.535
660,28 Aug 2025 15:02:29.191,28 Aug 2025 15:12:12.568,583.376
661,28 Aug 2025 16:35:07.227,28 Aug 2025 16:46:30.220,682.992
662,28 Aug 2025 18:14:17.728,28 Aug 2025 18:16:42.975,145.247
663,29 Aug 2025 14:44:36.011,29 Aug 2025 14:53:05.791,509.780
664,29 Aug 2025 16:16:16.877,29 Aug 2025 16:27:51.145,694.268
665,29 Aug 2025 17:53:07.780,29 Aug 2025 17:59:52.765,404.985
666,30 Aug 2025 14:27:01.573,30 Aug 2025 14:33:46.666,405.092
667,30 Aug 2025 15:57:37.120,30 Aug 2025 16:09:07.163,690.043
668,30 Aug 2025 17:33:09.829,30 Aug 2025 17:41:57.338,527.508
669,31 Aug 2025 14:10:03.626,31 Aug 2025 14:13:57.663,234.037
670,31 Aug 2025 15:39:07.719,31 Aug 2025 15:50:18.544,670.825
671,31 Aug 2025 17:13:37.712,31 Aug 2025 17:23:42.416,604.704
672,1 Sep 2025 15:20:48.986,1 Sep 2025 15:31:25.093,636.107
673,1 Sep 2025 16:54:22.512,1 Sep 2025 17:05:16.593,654.081
674,2 Sep 2025 15:02:41.883,2 Sep 2025 15:12:25.991,584.108
675,2 Sep 2025 16:35:20.571,2 Sep 2025 16:46:43.332,682.760
676,2 Sep 2025 18:14:34.430,2 Sep 2025 18:16:53.097,138.667
677,3 Sep 2025 14:44:48.520,3 Sep 2025 14:53:19.323,510.803
678,3 Sep 2025 16:16:30.092,3 Sep 2025 16:28:04.319,694.227
679,3 Sep 2025 17:53:22.089,3 Sep 2025 18:00:05.197,403.108
680,4 Sep 2025 14:27:13.806,4 Sep 2025 14:34:00.397,406.591
681,4 Sep 2025 15:57:50.213,4 Sep 2025 16:09:20.393,690.180
682,4 Sep 2025 17:33:23.726,4 Sep 2025 17:42:10.105,526.379
683,5 Sep 2025 14:10:15.120,5 Sep 2025 14:14:12.055,236.935
684,5 Sep 2025 15:39:20.689,5 Sep 2025 15:50:31.826,671.138
685,5 Sep 2025 17:13:51.373,5 Sep 2025 17:23:55.347,603.974
686,6 Sep 2025 15:21:01.825,6 Sep 2025 15:31:38.438,636.613
687,6 Sep 2025 16:54:36.000,6 Sep 2025 17:05:29.628,653.628
688,7 Sep 2025 15:02:54.576,7 Sep 2025 15:12:39.411,584.835
689,7 Sep 2025 16:35:33.915,7 Sep 2025 16:46:56.442,682.527
690,7 Sep 2025 18:14:51.300,7 Sep 2025 18:17:03.051,131.751
691,8 Sep 2025 14:45:01.032,8 Sep 2025 14:53:32.852,511.820
692,8 Sep 2025 16:16:43.307,8 Sep 2025 16:28:17.493,694.186
693,8 Sep 2025 17:53:36.404,8 Sep 2025 18:00:17.622,401.218
694,9 Sep 2025 14:27:26.043,9 Sep 2025 14:34:14.126,408.083
695,9 Sep 2025 15:58:03.306,9 Sep 2025 16:09:33.617,690.311
696,9 Sep 2025 17:33:37.621,9 Sep 2025 17:42:22.868,525.246
697,10 Sep 2025 14:10:26.631,10 Sep 2025 14:14:26.428,239.797
698,10 Sep 2025 15:39:33.658,10 Sep 2025 15:50:45.109,671.451
699,10 Sep 2025 17:14:05.035,10 Sep 2025 17:24:08.275,603.240
700,11 Sep 2025 15:21:14.665,11 Sep 2025 15:31:51.782,637.117
701,11 Sep 2025 16:54:49.489,11 Sep 2025 17:05:42.660,653.171
702,12 Sep 2025 15:03:07.270,12 Sep 2025 15:12:52.831,585.561
703,12 Sep 2025 16:35:47.261,12 Sep 2025 16:47:09.551,682.290
704,12 Sep 2025 18:15:08.377,12 Sep 2025 18:17:12.793,124.416
705,13 Sep 2025 14:45:13.544,13 Sep 2025 14:53:46.381,512.837
706,13 Sep 2025 16:16:56.524,13 Sep 2025 16:28:30.664,694.140
707,13 Sep 2025 17:53:50.728,13 Sep 2025 18:00:30.037,399.309
708,14 Sep 2025 14:27:38.281,14 Sep 2025 14:34:27.852,409.570
709,14 Sep 2025 15:58:16.401,14 Sep 2025 16:09:46.845,690.444
710,14 Sep 2025 17:33:51.525,14 Sep 2025 17:42:35.628,524.103
711,15 Sep 2025 14:10:38.159,15 Sep 2025 14:14:40.786,242.628
712,15 Sep 2025 15:39:46.630,15 Sep 2025 15:50:58.394,671.763
713,15 Sep 2025 17:14:18.701,15 Sep 2025 17:24:21.202,602.501
714,16 Sep 2025 15:21:27.508,16 Sep 2025 15:32:05.124,637.616
715,16 Sep 2025 16:55:02.980,16 Sep 2025 17:05:55.692,652.712
716,17 Sep 2025 15:03:19.966,17 Sep 2025 15:13:06.250,586.284
717,17 Sep 2025 16:36:00.608,17 Sep 2025 16:47:22.659,682.051
718,17 Sep 2025 18:15:25.695,17 Sep 2025 18:17:22.303,116.608
719,18 Sep 2025 14:45:26.059,18 Sep 2025 14:53:59.907,513.848
720,18 Sep 2025 16:17:09.743,18 Sep 2025 16:28:43.835,694.092
721,18 Sep 2025 17:54:05.059,18 Sep 2025 18:00:42.448,397.389
722,19 Sep 2025 14:27:50.527,19 Sep 2025 14:34:41.573,411.046
723,19 Sep 2025 15:58:29.496,19 Sep 2025 16:10:00.071,690.575
724,19 Sep 2025 17:34:05.430,19 Sep 2025 17:42:48.387,522.956
725,20 Sep 2025 14:10:49.707,20 Sep 2025 14:14:55.123,245.416
726,20 Sep 2025 15:39:59.603,20 Sep 2025 15:51:11.676,672.073
727,20 Sep 2025 17:14:32.362,20 Sep 2025 17:24:34.127,601.764
728,21 Sep 2025 15:21:40.351,21 Sep 2025 15:32:18.466,638.115
729,21 Sep 2025 16:55:16.472,21 Sep 2025 17:06:08.722,652.250
730,22 Sep 2025 15:03:32.663,22 Sep 2025 15:13:19.667,587.004
731,22 Sep 2025 16:36:13.955,22 Sep 2025 16:47:35.765,681.810
732,22 Sep 2025 18:15:43.301,22 Sep 2025 18:17:31.523,108.222
733,23 Sep 2025 14:45:38.575,23 Sep 2025 14:54:13.431,514.856
734,23 Sep 2025 16:17:22.960,23 Sep 2025 16:28:57.003,694.042
735,23 Sep 2025 17:54:19.395,23 Sep 2025 18:00:54.849,395.454
736,24 Sep 2025 14:28:02.772,24 Sep 2025 14:34:55.287,412.515
737,24 Sep 2025 15:58:42.591,24 Sep 2025 16:10:13.295,690.704
738,24 Sep 2025 17:34:19.338,24 Sep 2025 17:43:01.140,521.801
739,25 Sep 2025 14:11:01.269,25 Sep 2025 14:15:09.445,248.176
740,25 Sep 2025 15:40:12.575,25 Sep 2025 15:51:24.956,672.380
741,25 Sep 2025 17:14:46.030,25 Sep 2025 17:24:47.048,601.018
742,26 Sep 2025 15:21:53.194,26 Sep 2025 15:32:31.807,638.613
743,26 Sep 2025 16:55:29.965,26 Sep 2025 17:06:21.749,651.784
744,27 Sep 2025 15:03:45.360,27 Sep 2025 15:13:33.082,587.722
745,27 Sep 2025 16:36:27.304,27 Sep 2025 16:47:48.870,681.566
746,27 Sep 2025 18:16:01.275,27 Sep 2025 18:17:40.369,99.094
747,28 Sep 2025 14:45:51.091,28 Sep 2025 14:54:26.952,515.862
748,28 Sep 2025 16:17:36.176,28 Sep 2025 16:29:10.174,693.998
749,28 Sep 2025 17:54:33.736,28 Sep 2025 18:01:07.247,393.511
750,29 Sep 2025 14:28:15.020,29 Sep 2025 14:35:08.999,413.980
751,29 Sep 2025 15:58:55.685,29 Sep 2025 16:10:26.524,690.839
752,29 Sep 2025 17:34:33.253,29 Sep 2025 17:43:13.891,520.638
753,30 Sep 2025 14:11:12.849,30 Sep 2025 14:15:23.752,250.903
754,30 Sep 2025 15:40:25.550,30 Sep 2025 15:51:38.234,672.684
755,30 Sep 2025 17:14:59.700,30 Sep 2025 17:24:59.968,600.267
756,1 Oct 2025 15:22:06.040,1 Oct 2025 15:32:45.148,639.108
757,1 Oct 2025 16:55:43.460,1 Oct 2025 17:06:34.776,651.315
758,2 Oct 2025 15:03:58.060,2 Oct 2025 15:13:46.497,588.437
759,2 Oct 2025 16:36:40.654,2 Oct 2025 16:48:01.974,681.320
760,2 Oct 2025 18:16:19.722,2 Oct 2025 18:17:48.743,89.021
761,3 Oct 2025 14:46:03.610,3 Oct 2025 14:54:40.474,516.864
762,3 Oct 2025 16:17:49.401,3 Oct 2025 16:29:23.339,693.938
763,3 Oct 2025 17:54:48.093,3 Oct 2025 18:01:19.630,391.537
764,4 Oct 2025 14:28:27.276,4 Oct 2025 14:35:22.711,415.435
765,4 Oct 2025 15:59:08.787,4 Oct 2025 16:10:39.743,690.956
766,4 Oct 2025 17:34:47.165,4 Oct 2025 17:43:26.639,519.474
767,5 Oct 2025 14:11:24.447,5 Oct 2025 14:15:38.039,253.592
768,5 Oct 2025 15:40:38.526,5 Oct 2025 15:51:51.513,672.987
769,5 Oct 2025 17:15:13.372,5 Oct 2025 17:25:12.886,599.514
770,6 Oct 2025 15:22:18.886,6 Oct 2025 15:32:58.486,639.600
771,6 Oct 2025 16:55:56.956,6 Oct 2025 17:06:47.800,650.845
772,7 Oct 2025 15:04:10.761,7 Oct 2025 15:13:59.909,589.148
773,7 Oct 2025 16:36:54.005,7 Oct 2025 16:48:15.076,681.071
774,7 Oct 2025 18:16:38.828,7 Oct 2025 18:17:56.454,77.625
775,8 Oct 2025 14:46:16.131,8 Oct 2025 14:54:53.991,517.860
776,8 Oct 2025 16:18:02.622,8 Oct 2025 16:29:36.503,693.881
777,8 Oct 2025 17:55:02.451,8 Oct 2025 18:01:32.008,389.557
778,9 Oct 2025 14:28:39.533,9 Oct 2025 14:35:36.417,416.884
779,9 Oct 2025 15:59:21.885,9 Oct 2025 16:10:52.964,691.079
780,9 Oct 2025 17:35:01.082,9 Oct 2025 17:43:39.383,518.301
781,10 Oct 2025 14:11:36.057,10 Oct 2025 14:15:52.314,256.257
782,10 Oct 2025 15:40:51.501,10 Oct 2025 15:52:04.790,673.289
783,10 Oct 2025 17:15:27.045,10 Oct 2025 17:25:25.801,598.756
784,11 Oct 2025 15:22:31.733,11 Oct 2025 15:33:11.823,640.090
785,11 Oct 2025 16:56:10.453,11 Oct 2025 17:07:00.823,650.370
786,12 Oct 2025 15:04:23.466,12 Oct 2025 15:14:13.321,589.855
787,12 Oct 2025 16:37:07.357,12 Oct 2025 16:48:28.177,680.820
788,12 Oct 2025 18:16:58.966,12 Oct 2025 18:18:03.144,64.179
789,13 Oct 2025 14:46:28.655,13 Oct 2025 14:55:07.509,518.854
790,13 Oct 2025 16:18:15.845,13 Oct 2025 16:29:49.667,693.822
791,13 Oct 2025 17:55:16.820,13 Oct 2025 18:01:44.379,387.559
792,14 Oct 2025 14:28:51.798,14 Oct 2025 14:35:50.122,418.324
793,14 Oct 2025 15:59:34.986,14 Oct 2025 16:11:06.185,691.199
794,14 Oct 2025 17:35:15.003,14 Oct 2025 17:43:52.123,517.121
795,15 Oct 2025 14:11:47.685,15 Oct 2025 14:16:06.573,258.888
796,15 Oct 2025 15:41:04.479,15 Oct 2025 15:52:18.068,673.589
797,15 Oct 2025 17:15:40.722,15 Oct 2025 17:25:38.716,597.994
798,16 Oct 2025 15:22:44.581,16 Oct 2025 15:33:25.160,640.578
799,16 Oct 2025 16:56:23.952,16 Oct 2025 17:07:13.848,649.896
800,17 Oct 2025 15:04:36.169,17 Oct 2025 15:14:26.730,590.561
801,17 Oct 2025 16:37:20.711,17 Oct 2025 16:48:41.277,680.567
802,17 Oct 2025 18:17:20.950,17 Oct 2025 18:18:07.981,47.031
803,18 Oct 2025 14:46:41.182,18 Oct 2025 14:55:21.023,519.841
804,18 Oct 2025 16:18:29.068,18 Oct 2025 16:30:02.830,693.762
805,18 Oct 2025 17:55:31.194,18 Oct 2025 18:01:56.743,385.550
806,19 Oct 2025 14:29:04.064,19 Oct 2025 14:36:03.819,419.755
807,19 Oct 2025 15:59:48.086,19 Oct 2025 16:11:19.403,691.317
808,19 Oct 2025 17:35:28.925,19 Oct 2025 17:44:04.862,515.936
809,20 Oct 2025 14:11:59.328,20 Oct 2025 14:16:20.813,261.485
810,20 Oct 2025 15:41:17.457,20 Oct 2025 15:52:31.342,673.885
811,20 Oct 2025 17:15:54.398,20 Oct 2025 17:25:51.627,597.229
812,21 Oct 2025 15:22:57.430,21 Oct 2025 15:33:38.493,641.063
813,21 Oct 2025 16:56:37.451,21 Oct 2025 17:07:26.867,649.416
814,22 Oct 2025 15:04:48.874,22 Oct 2025 15:14:40.135,591.261
815,22 Oct 2025 16:37:34.063,22 Oct 2025 16:48:54.374,680.311
816,22 Oct 2025 18:17:49.213,22 Oct 2025 18:18:06.533,17.320
817,23 Oct 2025 14:46:53.709,23 Oct 2025 14:55:34.534,520.826
818,23 Oct 2025 16:18:42.292,23 Oct 2025 16:30:15.990,693.699
819,23 Oct 2025 17:55:45.575,23 Oct 2025 18:02:09.097,383.523
820,24 Oct 2025 14:29:16.330,24 Oct 2025 14:36:17.513,421.183
821,24 Oct 2025 16:00:01.186,24 Oct 2025 16:11:32.620,691.434
822,24 Oct 2025 17:35:42.851,24 Oct 2025 17:44:17.595,514.744
823,25 Oct 2025 14:12:10.983,25 Oct 2025 14:16:35.041,264.058
824,25 Oct 2025 15:41:30.435,25 Oct 2025 15:52:44.615,674.180
825,25 Oct 2025 17:16:08.076,25 Oct 2025 17:26:04.535,596.459
826,26 Oct 2025 15:23:10.280,26 Oct 2025 15:33:51.826,641.546
827,26 Oct 2025 16:56:50.951,26 Oct 2025 17:07:39.884,648.933
828,27 Oct 2025 15:05:01.580,27 Oct 2025 15:14:53.541,591.962
829,27 Oct 2025 16:37:47.419,27 Oct 2025 16:49:07.471,680.053
830,28 Oct 2025 14:47:06.238,28 Oct 2025 14:55:48.045,521.806
831,28 Oct 2025 16:18:55.517,28 Oct 2025 16:30:29.151,693.634
832,28 Oct 2025 17:55:59.965,28 Oct 2025 18:02:21.445,381.479
833,29 Oct 2025 14:29:28.601,29 Oct 2025 14:36:31.205,422.603
834,29 Oct 2025 16:00:14.289,29 Oct 2025 16:11:45.837,691.548
835,29 Oct 2025 17:35:56.781,29 Oct 2025 17:44:30.326,513.545
836,30 Oct 2025 14:12:22.654,30 Oct 2025 14:16:49.255,266.601
837,30 Oct 2025 15:41:43.415,30 Oct 2025 15:52:57.888,674.472
838,30 Oct 2025 17:16:21.762,30 Oct 2025 17:26:17.443,595.681
839,31 Oct 2025 15:23:23.132,31 Oct 2025 15:34:05.156,642.024
840,31 Oct 2025 16:57:04.454,31 Oct 2025 17:07:52.901,648.447
841,1 Nov 2025 15:05:14.288,1 Nov 2025 15:15:06.946,592.659
842,1 Nov 2025 16:38:00.775,1 Nov 2025 16:49:20.567,679.792
843,2 Nov 2025 14:47:18.771,2 Nov 2025 14:56:01.548,522.776
844,2 Nov 2025 16:19:08.739,2 Nov 2025 16:30:42.314,693.575
845,2 Nov 2025 17:56:14.358,2 Nov 2025 18:02:33.790,379.431
846,3 Nov 2025 14:29:40.882,3 Nov 2025 14:36:44.890,424.008
847,3 Nov 2025 16:00:27.390,3 Nov 2025 16:11:59.053,691.663
848,3 Nov 2025 17:36:10.712,3 Nov 2025 17:44:43.055,512.343
849,4 Nov 2025 14:12:34.340,4 Nov 2025 14:17:03.452,269.112
850,4 Nov 2025 15:41:56.396,4 Nov 2025 15:53:11.155,674.759
851,4 Nov 2025 17:16:35.444,4 Nov 2025 17:26:30.348,594.904
852,5 Nov 2025 15:23:35.984,5 Nov 2025 15:34:18.486,642.502
853,5 Nov 2025 16:57:17.956,5 Nov 2025 17:08:05.916,647.959
854,6 Nov 2025 15:05:26.996,6 Nov 2025 15:15:20.348,593.353
855,6 Nov 2025 16:38:14.131,6 Nov 2025 16:49:33.660,679.529
856,7 Nov 2025 14:47:31.304,7 Nov 2025 14:56:15.053,523.749
857,7 Nov 2025 16:19:21.965,7 Nov 2025 16:30:55.471,693.505
858,7 Nov 2025 17:56:28.763,7 Nov 2025 18:02:46.119,377.356
859,8 Nov 2025 14:29:53.161,8 Nov 2025 14:36:58.573,425.412
860,8 Nov 2025 16:00:40.494,8 Nov 2025 16:12:12.267,691.773
861,8 Nov 2025 17:36:24.647,8 Nov 2025 17:44:55.778,511.132
862,9 Nov 2025 14:12:46.036,9 Nov 2025 14:17:17.640,271.603
863,9 Nov 2025 15:42:09.377,9 Nov 2025 15:53:24.427,675.050
864,9 Nov 2025 17:16:49.128,9 Nov 2025 17:26:43.251,594.123
865,10 Nov 2025 15:23:48.838,10 Nov 2025 15:34:31.816,642.978
866,10 Nov 2025 16:57:31.462,10 Nov 2025 17:08:18.929,647.467
867,11 Nov 2025 15:05:39.707,11 Nov 2025 15:15:33.751,594.044
868,11 Nov 2025 16:38:27.490,11 Nov 2025 16:49:46.753,679.264
869,12 Nov 2025 14:47:43.844,12 Nov 2025 14:56:28.558,524.713
870,12 Nov 2025 16:19:35.194,12 Nov 2025 16:31:08.628,693.434
871,12 Nov 2025 17:56:43.178,12 Nov 2025 18:02:58.443,375.265
872,13 Nov 2025 14:30:05.446,13 Nov 2025 14:37:12.253,426.807
873,13 Nov 2025 16:00:53.599,13 Nov 2025 16:12:25.481,691.881
874,13 Nov 2025 17:36:38.585,13 Nov 2025 17:45:08.501,509.915
875,14 Nov 2025 14:12:57.750,14 Nov 2025 14:17:31.811,274.061
876,14 Nov 2025 15:42:22.360,14 Nov 2025 15:53:37.695,675.335
877,14 Nov 2025 17:17:02.814,14 Nov 2025 17:26:56.153,593.339
878,15 Nov 2025 15:24:01.693,15 Nov 2025 15:34:45.144,643.451
879,15 Nov 2025 16:57:44.967,15 Nov 2025 17:08:31.942,646.974
880,16 Nov 2025 15:05:52.419,16 Nov 2025 15:15:47.150,594.731
881,16 Nov 2025 16:38:40.848,16 Nov 2025 16:49:59.845,678.997
882,17 Nov 2025 14:47:56.382,17 Nov 2025 14:56:42.056,525.674
883,17 Nov 2025 16:19:48.422,17 Nov 2025 16:31:21.783,693.361
884,17 Nov 2025 17:56:57.598,17 Nov 2025 18:03:10.759,373.161
885,18 Nov 2025 14:30:17.730,18 Nov 2025 14:37:25.926,428.196
886,18 Nov 2025 16:01:06.706,18 Nov 2025 16:12:38.691,691.985
887,18 Nov 2025 17:36:52.525,18 Nov 2025 17:45:21.224,508.699
888,19 Nov 2025 14:13:09.475,19 Nov 2025 14:17:45.968,276.493
889,19 Nov 2025 15:42:35.343,19 Nov 2025 15:53:50.960,675.617
890,19 Nov 2025 17:17:16.501,19 Nov 2025 17:27:09.052,592.551
891,20 Nov 2025 15:24:14.548,20 Nov 2025 15:34:58.469,643.921
892,20 Nov 2025 16:57:58.469,20 Nov 2025 17:08:44.951,646.482
893,21 Nov 2025 15:06:05.127,21 Nov 2025 15:16:00.550,595.423
894,21 Nov 2025 16:38:54.203,21 Nov 2025 16:50:12.939,678.736
895,22 Nov 2025 14:48:08.920,22 Nov 2025 14:56:55.552,526.632
896,22 Nov 2025 16:20:01.651,22 Nov 2025 16:31:34.936,693.285
897,22 Nov 2025 17:57:12.028,22 Nov 2025 18:03:23.065,371.038
898,23 Nov 2025 14:30:30.024,23 Nov 2025 14:37:39.597,429.573
899,23 Nov 2025 16:01:19.812,23 Nov 2025 16:12:51.901,692.089
900,23 Nov 2025 17:37:06.469,23 Nov 2025 17:45:33.935,507.466
901,24 Nov 2025 14:13:21.211,24 Nov 2025 14:18:00.114,278.903
902,24 Nov 2025 15:42:48.328,24 Nov 2025 15:54:04.221,675.894
903,24 Nov 2025 17:17:30.190,24 Nov 2025 17:27:21.949,591.759
904,25 Nov 2025 15:24:27.405,25 Nov 2025 15:35:11.794,644.389
905,25 Nov 2025 16:58:11.978,25 Nov 2025 17:08:57.960,645.982
906,26 Nov 2025 15:06:17.842,26 Nov 2025 15:16:13.946,596.104
907,26 Nov 2025 16:39:07.565,26 Nov 2025 16:50:26.028,678.464
908,27 Nov 2025 14:48:21.463,27 Nov 2025 14:57:09.049,527.586
909,27 Nov 2025 16:20:14.882,27 Nov 2025 16:31:48.090,693.208
910,27 Nov 2025 17:57:26.466,27 Nov 2025 18:03:35.365,368.899
911,28 Nov 2025 14:30:42.315,28 Nov 2025 14:37:53.260,430.945
912,28 Nov 2025 16:01:32.917,28 Nov 2025 16:13:05.115,692.198
913,28 Nov 2025 17:37:20.415,28 Nov 2025 17:45:46.652,506.237
914,29 Nov 2025 14:13:32.963,29 Nov 2025 14:18:14.246,281.283
915,29 Nov 2025 15:43:01.314,29 Nov 2025 15:54:17.486,676.172
916,29 Nov 2025 17:17:43.881,29 Nov 2025 17:27:34.846,590.964
917,30 Nov 2025 15:24:40.262,30 Nov 2025 15:35:25.118,644.856
918,30 Nov 2025 16:58:25.488,30 Nov 2025 17:09:10.969,645.481
919,1 Dec 2025 15:06:30.559,1 Dec 2025 15:16:27.339,596.781
920,1 Dec 2025 16:39:20.927,1 Dec 2025 16:50:39.116,678.190
921,2 Dec 2025 14:48:34.003,2 Dec 2025 14:57:22.543,528.540
922,2 Dec 2025 16:20:28.113,2 Dec 2025 16:32:01.241,693.128
923,2 Dec 2025 17:57:40.911,2 Dec 2025 18:03:47.656,366.745
924,3 Dec 2025 14:30:54.613,3 Dec 2025 14:38:06.921,432.308
925,3 Dec 2025 16:01:46.025,3 Dec 2025 16:13:18.323,692.298
926,3 Dec 2025 17:37:34.364,3 Dec 2025 17:45:59.361,504.997
927,4 Dec 2025 14:13:44.726,4 Dec 2025 14:18:28.365,283.640
928,4 Dec 2025 15:43:14.300,4 Dec 2025 15:54:30.747,676.448
929,4 Dec 2025 17:17:57.573,4 Dec 2025 17:27:47.739,590.166
930,5 Dec 2025 15:24:53.120,5 Dec 2025 15:35:38.440,645.320
931,5 Dec 2025 16:58:38.997,5 Dec 2025 17:09:23.971,644.974
932,6 Dec 2025 15:06:43.278,6 Dec 2025 15:16:40.730,597.452
933,6 Dec 2025 16:39:34.290,6 Dec 2025 16:50:52.197,677.908
934,7 Dec 2025 14:48:46.553,7 Dec 2025 14:57:36.032,529.479
935,7 Dec 2025 16:20:41.345,7 Dec 2025 16:32:14.392,693.046
936,7 Dec 2025 17:57:55.367,7 Dec 2025 18:03:59.937,364.570
937,8 Dec 2025 14:31:06.920,8 Dec 2025 14:38:20.582,433.663
938,8 Dec 2025 16:01:59.139,8 Dec 2025 16:13:31.530,692.391
939,8 Dec 2025 17:37:48.322,8 Dec 2025 17:46:12.067,503.745
940,9 Dec 2025 14:13:56.500,9 Dec 2025 14:18:42.475,285.975
941,9 Dec 2025 15:43:27.288,9 Dec 2025 15:54:44.010,676.722
942,9 Dec 2025 17:18:11.269,9 Dec 2025 17:28:00.631,589.363
943,10 Dec 2025 15:25:05.982,10 Dec 2025 15:35:51.761,645.779
944,10 Dec 2025 16:58:52.511,10 Dec 2025 17:09:36.977,644.466
945,11 Dec 2025 15:06:55.999,11 Dec 2025 15:16:54.122,598.124
946,11 Dec 2025 16:39:47.655,11 Dec 2025 16:51:05.284,677.629
947,12 Dec 2025 14:48:59.098,12 Dec 2025 14:57:49.525,530.427
948,12 Dec 2025 16:20:54.580,12 Dec 2025 16:32:27.542,692.962
949,12 Dec 2025 17:58:09.831,12 Dec 2025 18:04:12.213,362.382
950,13 Dec 2025 14:31:19.222,13 Dec 2025 14:38:34.237,435.015
951,13 Dec 2025 16:02:12.246,13 Dec 2025 16:13:44.737,692.490
952,13 Dec 2025 17:38:02.274,13 Dec 2025 17:46:24.773,502.498
953,14 Dec 2025 14:14:08.289,14 Dec 2025 14:18:56.570,288.281
954,14 Dec 2025 15:43:40.277,14 Dec 2025 15:54:57.270,676.993
955,14 Dec 2025 17:18:24.965,14 Dec 2025 17:28:13.523,588.558
956,15 Dec 2025 15:25:18.843,15 Dec 2025 15:36:05.079,646.236
957,15 Dec 2025 16:59:06.024,15 Dec 2025 17:09:49.981,643.957
958,16 Dec 2025 15:07:08.719,16 Dec 2025 15:17:07.511,598.791
959,16 Dec 2025 16:40:01.020,16 Dec 2025 16:51:18.368,677.348
960,17 Dec 2025 14:49:11.649,17 Dec 2025 14:58:03.010,531.362
961,17 Dec 2025 16:21:07.814,17 Dec 2025 16:32:40.690,692.876
962,17 Dec 2025 17:58:24.302,17 Dec 2025 18:04:24.479,360.177
963,18 Dec 2025 14:31:31.532,18 Dec 2025 14:38:47.887,436.356
964,18 Dec 2025 16:02:25.357,18 Dec 2025 16:13:57.941,692.584
965,18 Dec 2025 17:38:16.233,18 Dec 2025 17:46:37.474,501.241
966,19 Dec 2025 14:14:20.087,19 Dec 2025 14:19:10.653,290.566
967,19 Dec 2025 15:43:53.267,19 Dec 2025 15:55:10.529,677.262
968,19 Dec 2025 17:18:38.663,19 Dec 2025 17:28:26.411,587.749
969,20 Dec 2025 15:25:31.706,20 Dec 2025 15:36:18.396,646.690
970,20 Dec 2025 16:59:19.539,20 Dec 2025 17:10:02.984,643.445
971,21 Dec 2025 15:07:21.439,21 Dec 2025 15:17:20.896,599.457
972,21 Dec 2025 16:40:14.390,21 Dec 2025 16:51:31.456,677.065
973,22 Dec 2025 14:49:24.202,22 Dec 2025 14:58:16.494,532.292
974,22 Dec 2025 16:21:21.053,22 Dec 2025 16:32:53.838,692.785
975,22 Dec 2025 17:58:38.785,22 Dec 2025 18:04:36.736,357.952
976,23 Dec 2025 14:31:43.850,23 Dec 2025 14:39:01.536,437.686
977,23 Dec 2025 16:02:38.471,23 Dec 2025 16:14:11.145,692.675
978,23 Dec 2025 17:38:30.196,23 Dec 2025 17:46:50.172,499.976
