3UCubedIntegratedSim/Reports & Plots/Comms/UNH/Sat 10 Comms.csv

"Access","Start Time (UTCG)","Stop Time (UTCG)","Duration (sec)"
1,1 Jan 2025 16:30:07.764,1 Jan 2025 16:38:56.145,528.381
2,2 Jan 2025 14:36:51.091,2 Jan 2025 14:48:09.321,678.230
3,2 Jan 2025 16:11:02.950,2 Jan 2025 16:20:59.614,596.664
4,3 Jan 2025 14:18:19.221,3 Jan 2025 14:29:04.776,645.555
5,3 Jan 2025 15:52:05.148,3 Jan 2025 16:02:49.935,644.787
6,4 Jan 2025 13:59:55.323,4 Jan 2025 14:09:46.408,591.084
7,4 Jan 2025 15:33:12.765,4 Jan 2025 15:44:28.898,676.133
8,4 Jan 2025 17:09:16.203,4 Jan 2025 17:13:57.054,280.851
9,5 Jan 2025 13:41:43.483,5 Jan 2025 13:50:09.897,506.414
10,5 Jan 2025 15:14:25.122,5 Jan 2025 15:25:57.309,692.187
11,5 Jan 2025 16:49:37.089,5 Jan 2025 16:56:47.801,430.712
12,6 Jan 2025 13:23:54.701,6 Jan 2025 13:30:03.916,369.215
13,6 Jan 2025 14:55:42.137,6 Jan 2025 15:07:15.353,693.216
14,6 Jan 2025 16:30:21.264,6 Jan 2025 16:39:08.699,527.435
15,7 Jan 2025 14:37:04.186,7 Jan 2025 14:48:22.689,678.503
16,7 Jan 2025 16:11:16.348,7 Jan 2025 16:21:12.337,595.988
17,8 Jan 2025 14:18:32.236,8 Jan 2025 14:29:18.289,646.053
18,8 Jan 2025 15:52:18.480,8 Jan 2025 16:03:02.802,644.321
19,9 Jan 2025 14:00:08.228,9 Jan 2025 14:10:00.100,591.873
20,9 Jan 2025 15:33:26.032,9 Jan 2025 15:44:41.890,675.859
21,9 Jan 2025 17:09:30.335,9 Jan 2025 17:14:08.808,278.473
22,10 Jan 2025 13:41:56.204,10 Jan 2025 13:50:23.849,507.645
23,10 Jan 2025 15:14:38.338,10 Jan 2025 15:26:10.423,692.085
24,10 Jan 2025 16:49:50.764,10 Jan 2025 16:57:00.101,429.337
25,11 Jan 2025 13:24:07.010,11 Jan 2025 13:30:18.358,371.348
26,11 Jan 2025 14:55:55.298,11 Jan 2025 15:07:28.590,693.292
27,11 Jan 2025 16:30:34.762,11 Jan 2025 16:39:21.247,526.485
28,12 Jan 2025 14:37:17.282,12 Jan 2025 14:48:36.056,678.774
29,12 Jan 2025 16:11:29.750,12 Jan 2025 16:21:25.058,595.308
30,13 Jan 2025 14:18:45.253,13 Jan 2025 14:29:31.806,646.553
31,13 Jan 2025 15:52:31.806,13 Jan 2025 16:03:15.661,643.856
32,14 Jan 2025 14:00:21.132,14 Jan 2025 14:10:13.794,592.662
33,14 Jan 2025 15:33:39.306,14 Jan 2025 15:44:54.880,675.574
34,14 Jan 2025 17:09:44.489,14 Jan 2025 17:14:20.555,276.066
35,15 Jan 2025 13:42:08.928,15 Jan 2025 13:50:37.797,508.869
36,15 Jan 2025 15:14:51.554,15 Jan 2025 15:26:23.535,691.981
37,15 Jan 2025 16:50:04.434,15 Jan 2025 16:57:12.397,427.964
38,16 Jan 2025 13:24:19.327,16 Jan 2025 13:30:32.790,373.464
39,16 Jan 2025 14:56:08.458,16 Jan 2025 15:07:41.824,693.367
40,16 Jan 2025 16:30:48.263,16 Jan 2025 16:39:33.792,525.530
41,17 Jan 2025 14:37:30.377,17 Jan 2025 14:48:49.420,679.042
42,17 Jan 2025 16:11:43.150,17 Jan 2025 16:21:37.776,594.625
43,18 Jan 2025 14:18:58.269,18 Jan 2025 14:29:45.317,647.048
44,18 Jan 2025 15:52:45.135,18 Jan 2025 16:03:28.522,643.387
45,19 Jan 2025 14:00:34.039,19 Jan 2025 14:10:27.486,593.447
46,19 Jan 2025 15:33:52.576,19 Jan 2025 15:45:07.868,675.292
47,19 Jan 2025 17:09:58.645,19 Jan 2025 17:14:32.288,273.643
48,20 Jan 2025 13:42:21.656,20 Jan 2025 13:50:51.742,510.087
49,20 Jan 2025 15:15:04.770,20 Jan 2025 15:26:36.645,691.875
50,20 Jan 2025 16:50:18.114,20 Jan 2025 16:57:24.689,426.576
51,21 Jan 2025 13:24:31.654,21 Jan 2025 13:30:47.213,375.559
52,21 Jan 2025 14:56:21.614,21 Jan 2025 15:07:55.062,693.448
53,21 Jan 2025 16:31:01.769,21 Jan 2025 16:39:46.336,524.567
54,22 Jan 2025 14:37:43.475,22 Jan 2025 14:49:02.784,679.308
55,22 Jan 2025 16:11:56.553,22 Jan 2025 16:21:50.493,593.940
56,23 Jan 2025 14:19:11.288,23 Jan 2025 14:29:58.828,647.540
57,23 Jan 2025 15:52:58.466,23 Jan 2025 16:03:41.382,642.916
58,24 Jan 2025 14:00:46.948,24 Jan 2025 14:10:41.178,594.230
59,24 Jan 2025 15:34:05.846,24 Jan 2025 15:45:20.856,675.010
60,24 Jan 2025 17:10:12.815,24 Jan 2025 17:14:44.006,271.191
61,25 Jan 2025 13:42:34.384,25 Jan 2025 13:51:05.686,511.302
62,25 Jan 2025 15:15:17.993,25 Jan 2025 15:26:49.751,691.759
63,25 Jan 2025 16:50:31.790,25 Jan 2025 16:57:36.985,425.195
64,26 Jan 2025 13:24:43.988,26 Jan 2025 13:31:01.629,377.640
65,26 Jan 2025 14:56:34.781,26 Jan 2025 15:08:08.291,693.510
66,26 Jan 2025 16:31:15.271,26 Jan 2025 16:39:58.878,523.608
67,27 Jan 2025 14:37:56.574,27 Jan 2025 14:49:16.146,679.572
68,27 Jan 2025 16:12:09.953,27 Jan 2025 16:22:03.210,593.257
69,28 Jan 2025 14:19:24.308,28 Jan 2025 14:30:12.337,648.029
70,28 Jan 2025 15:53:11.799,28 Jan 2025 16:03:54.240,642.442
71,29 Jan 2025 14:00:59.857,29 Jan 2025 14:10:54.865,595.008
72,29 Jan 2025 15:34:19.119,29 Jan 2025 15:45:33.841,674.723
73,29 Jan 2025 17:10:27.000,29 Jan 2025 17:14:55.712,268.711
74,30 Jan 2025 13:42:47.117,30 Jan 2025 13:51:19.621,512.504
75,30 Jan 2025 15:15:31.211,30 Jan 2025 15:27:02.859,691.648
76,30 Jan 2025 16:50:45.473,30 Jan 2025 16:57:49.270,423.797
77,31 Jan 2025 13:24:56.329,31 Jan 2025 13:31:16.034,379.705
78,31 Jan 2025 14:56:47.943,31 Jan 2025 15:08:21.521,693.578
79,31 Jan 2025 16:31:28.776,31 Jan 2025 16:40:11.416,522.640
80,1 Feb 2025 14:38:09.673,1 Feb 2025 14:49:29.502,679.829
81,1 Feb 2025 16:12:23.360,1 Feb 2025 16:22:15.923,592.563
82,2 Feb 2025 14:19:37.328,2 Feb 2025 14:30:25.843,648.515
83,2 Feb 2025 15:53:25.131,2 Feb 2025 16:04:07.097,641.966
84,3 Feb 2025 14:01:12.769,3 Feb 2025 14:11:08.550,595.781
85,3 Feb 2025 15:34:32.392,3 Feb 2025 15:45:46.826,674.434
86,3 Feb 2025 17:10:41.196,3 Feb 2025 17:15:07.407,266.211
87,4 Feb 2025 13:42:59.853,4 Feb 2025 13:51:33.555,513.702
88,4 Feb 2025 15:15:44.430,4 Feb 2025 15:27:15.966,691.536
89,4 Feb 2025 16:50:59.158,4 Feb 2025 16:58:01.554,422.395
90,5 Feb 2025 13:25:08.681,5 Feb 2025 13:31:30.432,381.751
91,5 Feb 2025 14:57:01.107,5 Feb 2025 15:08:34.751,693.644
92,5 Feb 2025 16:31:42.284,5 Feb 2025 16:40:23.953,521.669
93,6 Feb 2025 14:38:22.774,6 Feb 2025 14:49:42.863,680.088
94,6 Feb 2025 16:12:36.768,6 Feb 2025 16:22:28.636,591.868
95,7 Feb 2025 14:19:50.352,7 Feb 2025 14:30:39.349,648.998
96,7 Feb 2025 15:53:38.466,7 Feb 2025 16:04:19.953,641.488
97,8 Feb 2025 14:01:25.684,8 Feb 2025 14:11:22.235,596.551
98,8 Feb 2025 15:34:45.668,8 Feb 2025 15:45:59.809,674.142
99,8 Feb 2025 17:10:55.407,8 Feb 2025 17:15:19.088,263.681
100,9 Feb 2025 13:43:12.593,9 Feb 2025 13:51:47.488,514.895
101,9 Feb 2025 15:15:57.651,9 Feb 2025 15:27:29.076,691.425
102,9 Feb 2025 16:51:12.854,9 Feb 2025 16:58:13.833,420.979
103,10 Feb 2025 13:25:21.039,10 Feb 2025 13:31:44.823,383.783
104,10 Feb 2025 14:57:14.272,10 Feb 2025 15:08:47.980,693.708
105,10 Feb 2025 16:31:55.795,10 Feb 2025 16:40:36.488,520.694
106,11 Feb 2025 13:09:20.829,11 Feb 2025 13:09:43.962,23.133
107,11 Feb 2025 14:38:35.876,11 Feb 2025 14:49:56.221,680.345
108,11 Feb 2025 16:12:50.171,11 Feb 2025 16:22:41.347,591.176
109,12 Feb 2025 14:20:03.375,12 Feb 2025 14:30:52.853,649.478
110,12 Feb 2025 15:53:51.800,12 Feb 2025 16:04:32.807,641.007
111,13 Feb 2025 14:01:38.598,13 Feb 2025 14:11:35.916,597.317
112,13 Feb 2025 15:34:58.943,13 Feb 2025 15:46:12.791,673.848
113,13 Feb 2025 17:11:09.631,13 Feb 2025 17:15:30.753,261.122
114,14 Feb 2025 13:43:25.334,14 Feb 2025 13:52:01.414,516.080
115,14 Feb 2025 15:16:10.871,14 Feb 2025 15:27:42.180,691.308
116,14 Feb 2025 16:51:26.546,14 Feb 2025 16:58:26.108,419.562
117,15 Feb 2025 13:25:33.405,15 Feb 2025 13:31:59.203,385.797
118,15 Feb 2025 14:57:27.436,15 Feb 2025 15:09:01.206,693.770
119,15 Feb 2025 16:32:09.305,15 Feb 2025 16:40:49.020,519.715
120,16 Feb 2025 13:09:21.130,16 Feb 2025 13:10:10.486,49.356
121,16 Feb 2025 14:38:48.978,16 Feb 2025 14:50:09.577,680.599
122,16 Feb 2025 16:13:03.579,16 Feb 2025 16:22:54.056,590.477
123,17 Feb 2025 14:20:16.399,17 Feb 2025 14:31:06.354,649.955
124,17 Feb 2025 15:54:05.136,17 Feb 2025 16:04:45.660,640.524
125,18 Feb 2025 14:01:51.519,18 Feb 2025 14:11:49.593,598.074
126,18 Feb 2025 15:35:12.223,18 Feb 2025 15:46:25.775,673.553
127,18 Feb 2025 17:11:23.870,18 Feb 2025 17:15:42.402,258.532
128,19 Feb 2025 13:43:38.080,19 Feb 2025 13:52:15.342,517.261
129,19 Feb 2025 15:16:24.090,19 Feb 2025 15:27:55.285,691.195
130,19 Feb 2025 16:51:40.240,19 Feb 2025 16:58:38.376,418.136
131,20 Feb 2025 13:25:45.781,20 Feb 2025 13:32:13.575,387.794
132,20 Feb 2025 14:57:40.603,20 Feb 2025 15:09:14.433,693.830
133,20 Feb 2025 16:32:22.819,20 Feb 2025 16:41:01.553,518.734
134,21 Feb 2025 13:09:26.313,21 Feb 2025 13:10:32.137,65.824
135,21 Feb 2025 14:39:02.083,21 Feb 2025 14:50:22.933,680.850
136,21 Feb 2025 16:13:16.991,21 Feb 2025 16:23:06.765,589.774
137,22 Feb 2025 14:20:29.425,22 Feb 2025 14:31:19.855,650.430
138,22 Feb 2025 15:54:18.473,22 Feb 2025 16:04:58.515,640.042
139,23 Feb 2025 14:02:04.439,23 Feb 2025 14:12:03.270,598.831
140,23 Feb 2025 15:35:25.501,23 Feb 2025 15:46:38.756,673.255
141,23 Feb 2025 17:11:38.122,23 Feb 2025 17:15:54.040,255.918
142,24 Feb 2025 13:43:50.829,24 Feb 2025 13:52:29.263,518.434
143,24 Feb 2025 15:16:37.313,24 Feb 2025 15:28:08.387,691.074
144,24 Feb 2025 16:51:53.940,24 Feb 2025 16:58:50.644,416.704
145,25 Feb 2025 13:25:58.162,25 Feb 2025 13:32:27.941,389.779
146,25 Feb 2025 14:57:53.770,25 Feb 2025 15:09:27.658,693.887
147,25 Feb 2025 16:32:36.335,25 Feb 2025 16:41:14.082,517.748
148,26 Feb 2025 13:09:33.183,26 Feb 2025 13:10:52.098,78.915
149,26 Feb 2025 14:39:15.187,26 Feb 2025 14:50:36.287,681.099
150,26 Feb 2025 16:13:30.402,26 Feb 2025 16:23:19.471,589.069
151,27 Feb 2025 14:20:42.452,27 Feb 2025 14:31:33.354,650.902
152,27 Feb 2025 15:54:31.811,27 Feb 2025 16:05:11.365,639.554
153,28 Feb 2025 14:02:17.360,28 Feb 2025 14:12:16.944,599.584
154,28 Feb 2025 15:35:38.778,28 Feb 2025 15:46:51.734,672.956
155,28 Feb 2025 17:11:52.388,28 Feb 2025 17:16:05.661,253.274
156,1 Mar 2025 13:44:03.580,1 Mar 2025 13:52:43.179,519.599
157,1 Mar 2025 15:16:50.536,1 Mar 2025 15:28:21.487,690.951
158,1 Mar 2025 16:52:07.637,1 Mar 2025 16:59:02.908,415.271
159,2 Mar 2025 13:26:10.550,2 Mar 2025 13:32:42.297,391.746
160,2 Mar 2025 14:58:06.938,2 Mar 2025 15:09:40.880,693.943
161,2 Mar 2025 16:32:49.849,2 Mar 2025 16:41:26.606,516.756
162,3 Mar 2025 13:09:41.014,3 Mar 2025 13:11:11.095,90.081
163,3 Mar 2025 14:39:28.293,3 Mar 2025 14:50:49.639,681.346
164,3 Mar 2025 16:13:43.813,3 Mar 2025 16:23:32.175,588.362
165,4 Mar 2025 14:20:55.481,4 Mar 2025 14:31:46.846,651.365
166,4 Mar 2025 15:54:45.148,4 Mar 2025 16:05:24.214,639.065
167,5 Mar 2025 14:02:30.284,5 Mar 2025 14:12:30.617,600.332
168,5 Mar 2025 15:35:52.057,5 Mar 2025 15:47:04.712,672.655
169,5 Mar 2025 17:12:06.666,5 Mar 2025 17:16:17.270,250.605
170,6 Mar 2025 13:44:16.336,6 Mar 2025 13:52:57.093,520.757
171,6 Mar 2025 15:17:03.761,6 Mar 2025 15:28:34.587,690.826
172,6 Mar 2025 16:52:21.341,6 Mar 2025 16:59:15.170,413.828
173,7 Mar 2025 13:26:22.949,7 Mar 2025 13:32:56.646,393.698
174,7 Mar 2025 14:58:20.108,7 Mar 2025 15:09:54.103,693.996
175,7 Mar 2025 16:33:03.368,7 Mar 2025 16:41:39.130,515.762
176,8 Mar 2025 13:09:49.474,8 Mar 2025 13:11:29.467,99.993
177,8 Mar 2025 14:39:41.401,8 Mar 2025 14:51:02.991,681.590
178,8 Mar 2025 16:13:57.227,8 Mar 2025 16:23:44.879,587.651
179,9 Mar 2025 14:21:08.512,9 Mar 2025 14:32:00.343,651.831
180,9 Mar 2025 15:54:58.489,9 Mar 2025 16:05:37.062,638.573
181,10 Mar 2025 14:02:43.209,10 Mar 2025 14:12:44.287,601.078
182,10 Mar 2025 15:36:05.338,10 Mar 2025 15:47:17.689,672.351
183,10 Mar 2025 17:12:20.963,10 Mar 2025 17:16:28.861,247.898
184,11 Mar 2025 13:44:29.093,11 Mar 2025 13:53:11.004,521.910
185,11 Mar 2025 15:17:16.986,11 Mar 2025 15:28:47.685,690.699
186,11 Mar 2025 16:52:35.050,11 Mar 2025 16:59:27.426,412.376
187,12 Mar 2025 13:26:35.351,12 Mar 2025 13:33:10.988,395.636
188,12 Mar 2025 14:58:33.277,12 Mar 2025 15:10:07.324,694.047
189,12 Mar 2025 16:33:16.887,12 Mar 2025 16:41:51.651,514.764
190,13 Mar 2025 13:09:58.392,13 Mar 2025 13:11:47.377,108.986
191,13 Mar 2025 14:39:54.508,13 Mar 2025 14:51:16.340,681.832
192,13 Mar 2025 16:14:10.641,13 Mar 2025 16:23:57.579,586.938
193,14 Mar 2025 14:21:21.542,14 Mar 2025 14:32:13.838,652.295
194,14 Mar 2025 15:55:11.828,14 Mar 2025 16:05:49.907,638.079
195,15 Mar 2025 14:02:56.135,15 Mar 2025 14:12:57.954,601.819
196,15 Mar 2025 15:36:18.617,15 Mar 2025 15:47:30.663,672.046
197,15 Mar 2025 17:12:35.272,15 Mar 2025 17:16:40.435,245.163
198,16 Mar 2025 13:44:41.854,16 Mar 2025 13:53:24.909,523.055
199,16 Mar 2025 15:17:30.211,16 Mar 2025 15:29:00.781,690.570
200,16 Mar 2025 16:52:48.760,16 Mar 2025 16:59:39.679,410.919
201,17 Mar 2025 13:26:47.763,17 Mar 2025 13:33:25.320,397.557
202,17 Mar 2025 14:58:46.447,17 Mar 2025 15:10:20.542,694.095
203,17 Mar 2025 16:33:30.406,17 Mar 2025 16:42:04.171,513.765
204,18 Mar 2025 13:10:07.670,18 Mar 2025 13:12:04.928,117.258
205,18 Mar 2025 14:40:07.616,18 Mar 2025 14:51:29.687,682.071
206,18 Mar 2025 16:14:24.053,18 Mar 2025 16:24:10.279,586.226
207,19 Mar 2025 14:21:34.575,19 Mar 2025 14:32:27.331,652.756
208,19 Mar 2025 15:55:25.168,19 Mar 2025 16:06:02.752,637.584
209,20 Mar 2025 14:03:09.065,20 Mar 2025 14:13:11.620,602.555
210,20 Mar 2025 15:36:31.898,20 Mar 2025 15:47:43.637,671.739
211,20 Mar 2025 17:12:49.597,20 Mar 2025 17:16:51.995,242.398
212,21 Mar 2025 13:44:54.618,21 Mar 2025 13:53:38.813,524.194
213,21 Mar 2025 15:17:43.438,21 Mar 2025 15:29:13.876,690.438
214,21 Mar 2025 16:53:02.473,21 Mar 2025 16:59:51.929,409.456
215,22 Mar 2025 13:27:00.182,22 Mar 2025 13:33:39.646,399.463
216,22 Mar 2025 14:58:59.619,22 Mar 2025 15:10:33.761,694.142
217,22 Mar 2025 16:33:43.928,22 Mar 2025 16:42:16.689,512.761
218,23 Mar 2025 13:10:17.225,23 Mar 2025 13:12:22.198,124.973
219,23 Mar 2025 14:40:20.727,23 Mar 2025 14:51:43.034,682.307
220,23 Mar 2025 16:14:37.466,23 Mar 2025 16:24:22.980,585.514
221,24 Mar 2025 14:21:47.612,24 Mar 2025 14:32:40.821,653.209
222,24 Mar 2025 15:55:38.510,24 Mar 2025 16:06:15.592,637.082
223,25 Mar 2025 14:03:21.995,25 Mar 2025 14:13:25.284,603.288
224,25 Mar 2025 15:36:45.180,25 Mar 2025 15:47:56.609,671.429
225,25 Mar 2025 17:13:03.942,25 Mar 2025 17:17:03.534,239.593
226,26 Mar 2025 13:45:07.384,26 Mar 2025 13:53:52.712,525.328
227,26 Mar 2025 15:17:56.665,26 Mar 2025 15:29:26.970,690.305
228,26 Mar 2025 16:53:16.191,26 Mar 2025 17:00:04.173,407.983
229,27 Mar 2025 13:27:12.606,27 Mar 2025 13:33:53.964,401.357
230,27 Mar 2025 14:59:12.791,27 Mar 2025 15:10:46.977,694.187
231,27 Mar 2025 16:33:57.451,27 Mar 2025 16:42:29.204,511.753
232,28 Mar 2025 13:10:27.010,28 Mar 2025 13:12:39.237,132.227
233,28 Mar 2025 14:40:33.836,28 Mar 2025 14:51:56.378,682.542
234,28 Mar 2025 16:14:50.882,28 Mar 2025 16:24:35.675,584.793
235,29 Mar 2025 14:22:00.646,29 Mar 2025 14:32:54.309,653.663
236,29 Mar 2025 15:55:51.856,29 Mar 2025 16:06:28.433,636.577
237,30 Mar 2025 14:03:34.926,30 Mar 2025 14:13:38.943,604.017
238,30 Mar 2025 15:36:58.461,30 Mar 2025 15:48:09.579,671.118
239,30 Mar 2025 17:13:18.300,30 Mar 2025 17:17:15.056,236.756
240,31 Mar 2025 13:45:20.153,31 Mar 2025 13:54:06.608,526.454
241,31 Mar 2025 15:18:09.892,31 Mar 2025 15:29:40.064,690.171
242,31 Mar 2025 16:53:29.909,31 Mar 2025 17:00:16.419,406.510
243,1 Apr 2025 13:27:25.039,1 Apr 2025 13:34:08.273,403.234
244,1 Apr 2025 14:59:25.963,1 Apr 2025 15:11:00.192,694.229
245,1 Apr 2025 16:34:10.974,1 Apr 2025 16:42:41.717,510.743
246,2 Apr 2025 13:10:37.002,2 Apr 2025 13:12:56.075,139.073
247,2 Apr 2025 14:40:46.944,2 Apr 2025 14:52:09.726,682.782
248,2 Apr 2025 16:15:04.303,2 Apr 2025 16:24:48.370,584.067
249,3 Apr 2025 14:22:13.681,3 Apr 2025 14:33:07.795,654.114
250,3 Apr 2025 15:56:05.199,3 Apr 2025 16:06:41.273,636.075
251,4 Apr 2025 14:03:47.861,4 Apr 2025 14:13:52.602,604.741
252,4 Apr 2025 15:37:11.745,4 Apr 2025 15:48:22.550,670.805
253,4 Apr 2025 17:13:32.678,4 Apr 2025 17:17:26.561,233.884
254,5 Apr 2025 13:45:32.927,5 Apr 2025 13:54:20.501,527.574
255,5 Apr 2025 15:18:23.121,5 Apr 2025 15:29:53.156,690.035
256,5 Apr 2025 16:53:43.633,5 Apr 2025 17:00:28.657,405.024
257,6 Apr 2025 13:27:37.478,6 Apr 2025 13:34:22.572,405.094
258,6 Apr 2025 14:59:39.137,6 Apr 2025 15:11:13.407,694.270
259,6 Apr 2025 16:34:24.501,6 Apr 2025 16:42:54.229,509.728
260,7 Apr 2025 13:10:47.155,7 Apr 2025 13:13:12.750,145.595
261,7 Apr 2025 14:41:00.057,7 Apr 2025 14:52:23.068,683.011
262,7 Apr 2025 16:15:17.722,7 Apr 2025 16:25:01.063,583.341
263,8 Apr 2025 14:22:26.718,8 Apr 2025 14:33:21.280,654.562
264,8 Apr 2025 15:56:18.537,8 Apr 2025 16:06:54.112,635.574
265,9 Apr 2025 14:04:00.796,9 Apr 2025 14:14:06.258,605.463
266,9 Apr 2025 15:37:25.028,9 Apr 2025 15:48:35.517,670.489
267,9 Apr 2025 17:13:47.075,9 Apr 2025 17:17:38.043,230.968
268,10 Apr 2025 13:45:45.700,10 Apr 2025 13:54:34.390,528.689
269,10 Apr 2025 15:18:36.350,10 Apr 2025 15:30:06.245,689.896
270,10 Apr 2025 16:53:57.359,10 Apr 2025 17:00:40.889,403.530
271,11 Apr 2025 13:27:49.922,11 Apr 2025 13:34:36.867,406.944
272,11 Apr 2025 14:59:52.310,11 Apr 2025 15:11:26.619,694.309
273,11 Apr 2025 16:34:38.026,11 Apr 2025 16:43:06.736,508.710
274,12 Apr 2025 13:10:57.457,12 Apr 2025 13:13:29.266,151.808
275,12 Apr 2025 14:41:13.169,12 Apr 2025 14:52:36.407,683.238
276,12 Apr 2025 16:15:31.139,12 Apr 2025 16:25:13.753,582.613
277,13 Apr 2025 14:22:39.755,13 Apr 2025 14:33:34.761,655.006
278,13 Apr 2025 15:56:31.880,13 Apr 2025 16:07:06.948,635.068
279,14 Apr 2025 14:04:13.730,14 Apr 2025 14:14:19.915,606.184
280,14 Apr 2025 15:37:38.307,14 Apr 2025 15:48:48.480,670.173
281,14 Apr 2025 17:14:01.485,14 Apr 2025 17:17:49.507,228.023
282,15 Apr 2025 13:45:58.479,15 Apr 2025 13:54:48.271,529.793
283,15 Apr 2025 15:18:49.581,15 Apr 2025 15:30:19.336,689.754
284,15 Apr 2025 16:54:11.090,15 Apr 2025 17:00:53.118,402.028
285,16 Apr 2025 13:28:02.375,16 Apr 2025 13:34:51.158,408.783
286,16 Apr 2025 15:00:05.485,16 Apr 2025 15:11:39.827,694.343
287,16 Apr 2025 16:34:51.552,16 Apr 2025 16:43:19.242,507.690
288,17 Apr 2025 13:11:07.892,17 Apr 2025 13:13:45.658,157.766
289,17 Apr 2025 14:41:26.282,17 Apr 2025 14:52:49.745,683.463
290,17 Apr 2025 16:15:44.558,17 Apr 2025 16:25:26.441,581.884
291,18 Apr 2025 14:22:52.795,18 Apr 2025 14:33:48.241,655.446
292,18 Apr 2025 15:56:45.229,18 Apr 2025 16:07:19.783,634.554
293,19 Apr 2025 14:04:26.669,19 Apr 2025 14:14:33.566,606.897
294,19 Apr 2025 15:37:51.591,19 Apr 2025 15:49:01.445,669.853
295,19 Apr 2025 17:14:15.919,19 Apr 2025 17:18:00.951,225.032
296,20 Apr 2025 13:46:11.259,20 Apr 2025 13:55:02.154,530.895
297,20 Apr 2025 15:19:02.812,20 Apr 2025 15:30:32.423,689.611
298,20 Apr 2025 16:54:24.822,20 Apr 2025 17:01:05.343,400.521
299,21 Apr 2025 13:28:14.833,21 Apr 2025 13:35:05.435,410.601
300,21 Apr 2025 15:00:18.660,21 Apr 2025 15:11:53.037,694.377
301,21 Apr 2025 16:35:05.082,21 Apr 2025 16:43:31.746,506.664
302,22 Apr 2025 13:11:18.436,22 Apr 2025 13:14:01.935,163.498
303,22 Apr 2025 14:41:39.397,22 Apr 2025 14:53:03.082,683.685
304,22 Apr 2025 16:15:57.978,22 Apr 2025 16:25:39.128,581.150
305,23 Apr 2025 14:23:05.835,23 Apr 2025 14:34:01.720,655.885
306,23 Apr 2025 15:56:58.574,23 Apr 2025 16:07:32.617,634.042
307,24 Apr 2025 14:04:39.608,24 Apr 2025 14:14:47.214,607.607
308,24 Apr 2025 15:38:04.876,24 Apr 2025 15:49:14.407,669.531
309,24 Apr 2025 17:14:30.376,24 Apr 2025 17:18:12.369,221.993
310,25 Apr 2025 13:46:24.040,25 Apr 2025 13:55:16.031,531.992
311,25 Apr 2025 15:19:16.041,25 Apr 2025 15:30:45.509,689.467
312,25 Apr 2025 16:54:38.556,25 Apr 2025 17:01:17.557,399.002
313,26 Apr 2025 13:28:27.296,26 Apr 2025 13:35:19.707,412.411
314,26 Apr 2025 15:00:31.835,26 Apr 2025 15:12:06.244,694.409
315,26 Apr 2025 16:35:18.612,26 Apr 2025 16:43:44.246,505.634
316,27 Apr 2025 13:11:29.086,27 Apr 2025 13:14:18.102,169.016
317,27 Apr 2025 14:41:52.511,27 Apr 2025 14:53:16.416,683.904
318,27 Apr 2025 16:16:11.398,27 Apr 2025 16:25:51.812,580.414
319,28 Apr 2025 14:23:18.875,28 Apr 2025 14:34:15.195,656.320
320,28 Apr 2025 15:57:11.914,28 Apr 2025 16:07:45.448,633.534
321,29 Apr 2025 14:04:52.548,29 Apr 2025 14:15:00.859,608.311
322,29 Apr 2025 15:38:18.160,29 Apr 2025 15:49:27.367,669.207
323,29 Apr 2025 17:14:44.850,29 Apr 2025 17:18:23.769,218.919
324,30 Apr 2025 13:46:36.825,30 Apr 2025 13:55:29.905,533.081
325,30 Apr 2025 15:19:29.272,30 Apr 2025 15:30:58.592,689.321
326,30 Apr 2025 16:54:52.293,30 Apr 2025 17:01:29.776,397.483
327,1 May 2025 13:28:39.768,1 May 2025 13:35:33.973,414.205
328,1 May 2025 15:00:45.011,1 May 2025 15:12:19.450,694.439
329,1 May 2025 16:35:32.143,1 May 2025 16:43:56.745,504.602
330,2 May 2025 13:11:39.833,2 May 2025 13:14:34.175,174.342
331,2 May 2025 14:42:05.628,2 May 2025 14:53:29.749,684.122
332,2 May 2025 16:16:24.819,2 May 2025 16:26:04.496,579.677
333,3 May 2025 14:23:31.918,3 May 2025 14:34:28.670,656.752
334,3 May 2025 15:57:25.260,3 May 2025 16:07:58.282,633.022
335,4 May 2025 14:05:05.491,4 May 2025 14:15:14.503,609.012
336,4 May 2025 15:38:31.446,4 May 2025 15:49:40.330,668.883
337,4 May 2025 17:14:59.350,4 May 2025 17:18:35.143,215.792
338,5 May 2025 13:46:49.613,5 May 2025 13:55:43.781,534.168
339,5 May 2025 15:19:42.504,5 May 2025 15:31:11.675,689.171
340,5 May 2025 16:55:06.036,5 May 2025 17:01:41.990,395.954
341,6 May 2025 13:28:52.243,6 May 2025 13:35:48.232,415.989
342,6 May 2025 15:00:58.188,6 May 2025 15:12:32.654,694.466
343,6 May 2025 16:35:45.676,6 May 2025 16:44:09.241,503.564
344,7 May 2025 13:11:50.658,7 May 2025 13:14:50.163,179.505
345,7 May 2025 14:42:18.743,7 May 2025 14:53:43.080,684.337
346,7 May 2025 16:16:38.242,7 May 2025 16:26:17.176,578.935
347,8 May 2025 14:23:44.960,8 May 2025 14:34:42.142,657.182
348,8 May 2025 15:57:38.608,8 May 2025 16:08:11.109,632.502
349,9 May 2025 14:05:18.433,9 May 2025 14:15:28.143,609.710
350,9 May 2025 15:38:44.731,9 May 2025 15:49:53.286,668.555
351,9 May 2025 17:15:13.873,9 May 2025 17:18:46.490,212.617
352,10 May 2025 13:47:02.402,10 May 2025 13:55:57.648,535.247
353,10 May 2025 15:19:55.735,10 May 2025 15:31:24.751,689.016
354,10 May 2025 16:55:19.774,10 May 2025 17:01:54.195,394.421
355,11 May 2025 13:29:04.723,11 May 2025 13:36:02.482,417.759
356,11 May 2025 15:01:11.364,11 May 2025 15:12:45.854,694.491
357,11 May 2025 16:35:59.210,11 May 2025 16:44:21.733,502.523
358,12 May 2025 13:12:01.568,12 May 2025 13:15:06.074,184.506
359,12 May 2025 14:42:31.859,12 May 2025 14:53:56.404,684.545
360,12 May 2025 16:16:51.661,12 May 2025 16:26:29.854,578.193
361,13 May 2025 14:23:58.003,13 May 2025 14:34:55.611,657.608
362,13 May 2025 15:57:51.955,13 May 2025 16:08:23.935,631.980
363,14 May 2025 14:05:31.378,14 May 2025 14:15:41.781,610.403
364,14 May 2025 15:38:58.016,14 May 2025 15:50:06.242,668.226
365,14 May 2025 17:15:28.418,14 May 2025 17:18:57.814,209.396
366,15 May 2025 13:47:15.192,15 May 2025 13:56:11.507,536.314
367,15 May 2025 15:20:08.966,15 May 2025 15:31:37.833,688.867
368,15 May 2025 16:55:33.524,15 May 2025 17:02:06.393,392.870
369,16 May 2025 13:29:17.211,16 May 2025 13:36:16.727,419.515
370,16 May 2025 15:01:24.541,16 May 2025 15:12:59.056,694.515
371,16 May 2025 16:36:12.744,16 May 2025 16:44:34.224,501.480
372,17 May 2025 13:12:12.547,17 May 2025 13:15:21.910,189.363
373,17 May 2025 14:42:44.977,17 May 2025 14:54:09.732,684.755
374,17 May 2025 16:17:05.086,17 May 2025 16:26:42.531,577.446
375,18 May 2025 14:24:11.048,18 May 2025 14:35:09.079,658.032
376,18 May 2025 15:58:05.299,18 May 2025 16:08:36.760,631.461
377,19 May 2025 14:05:44.326,19 May 2025 14:15:55.417,611.091
378,19 May 2025 15:39:11.303,19 May 2025 15:50:19.197,667.894
379,19 May 2025 17:15:42.992,19 May 2025 17:19:09.109,206.117
380,20 May 2025 13:47:27.986,20 May 2025 13:56:25.367,537.382
381,20 May 2025 15:20:22.198,20 May 2025 15:31:50.911,688.713
382,20 May 2025 16:55:47.274,20 May 2025 17:02:18.594,391.320
383,21 May 2025 13:29:29.703,21 May 2025 13:36:30.965,421.262
384,21 May 2025 15:01:37.719,21 May 2025 15:13:12.255,694.536
385,21 May 2025 16:36:26.284,21 May 2025 16:44:46.711,500.426
386,22 May 2025 13:12:23.587,22 May 2025 13:15:37.681,194.094
387,22 May 2025 14:42:58.094,22 May 2025 14:54:23.057,684.963
388,22 May 2025 16:17:18.506,22 May 2025 16:26:55.205,576.700
389,23 May 2025 14:24:24.094,23 May 2025 14:35:22.545,658.451
390,23 May 2025 15:58:18.646,23 May 2025 16:08:49.582,630.936
391,24 May 2025 14:05:57.272,24 May 2025 14:16:09.049,611.777
392,24 May 2025 15:39:24.589,24 May 2025 15:50:32.149,667.559
393,24 May 2025 17:15:57.593,24 May 2025 17:19:20.374,202.782
394,25 May 2025 13:47:40.777,25 May 2025 13:56:39.228,538.450
395,25 May 2025 15:20:35.430,25 May 2025 15:32:03.984,688.555
396,25 May 2025 16:56:01.024,25 May 2025 17:02:30.786,389.762
397,26 May 2025 13:29:42.200,26 May 2025 13:36:45.195,422.994
398,26 May 2025 15:01:50.896,26 May 2025 15:13:25.450,694.555
399,26 May 2025 16:36:39.819,26 May 2025 16:44:59.195,499.376
400,27 May 2025 13:12:34.693,27 May 2025 13:15:53.384,198.691
401,27 May 2025 14:43:11.211,27 May 2025 14:54:36.380,685.169
402,27 May 2025 16:17:31.929,27 May 2025 16:27:07.877,575.948
403,28 May 2025 14:24:37.142,28 May 2025 14:35:36.008,658.866
404,28 May 2025 15:58:31.993,28 May 2025 16:09:02.403,630.410
405,29 May 2025 14:06:10.221,29 May 2025 14:16:22.680,612.459
406,29 May 2025 15:39:37.876,29 May 2025 15:50:45.100,667.224
407,29 May 2025 17:16:12.219,29 May 2025 17:19:31.613,199.395
408,30 May 2025 13:47:53.576,30 May 2025 13:56:53.081,539.505
409,30 May 2025 15:20:48.663,30 May 2025 15:32:17.058,688.396
410,30 May 2025 16:56:14.781,30 May 2025 17:02:42.974,388.194
411,31 May 2025 13:29:54.704,31 May 2025 13:36:59.419,424.715
412,31 May 2025 15:02:04.074,31 May 2025 15:13:38.646,694.572
413,31 May 2025 16:36:53.358,31 May 2025 16:45:11.678,498.320
414,1 Jun 2025 13:12:45.855,1 Jun 2025 13:16:09.033,203.179
415,1 Jun 2025 14:43:24.331,1 Jun 2025 14:54:49.703,685.372
416,1 Jun 2025 16:17:45.355,1 Jun 2025 16:27:20.548,575.193
417,2 Jun 2025 14:24:50.184,2 Jun 2025 14:35:49.467,659.282
418,2 Jun 2025 15:58:45.343,2 Jun 2025 16:09:15.222,629.879
419,3 Jun 2025 14:06:23.170,3 Jun 2025 14:16:36.308,613.138
420,3 Jun 2025 15:39:51.164,3 Jun 2025 15:50:58.049,666.885
421,3 Jun 2025 17:16:26.880,3 Jun 2025 17:19:42.816,195.936
422,4 Jun 2025 13:48:06.375,4 Jun 2025 13:57:06.930,540.555
423,4 Jun 2025 15:21:01.895,4 Jun 2025 15:32:30.130,688.235
424,4 Jun 2025 16:56:28.542,4 Jun 2025 17:02:55.156,386.613
425,5 Jun 2025 13:30:07.211,5 Jun 2025 13:37:13.637,426.426
426,5 Jun 2025 15:02:17.253,5 Jun 2025 15:13:51.839,694.587
427,5 Jun 2025 16:37:06.898,5 Jun 2025 16:45:24.156,497.257
428,6 Jun 2025 13:12:57.066,6 Jun 2025 13:16:24.627,207.562
429,6 Jun 2025 14:43:37.449,6 Jun 2025 14:55:03.022,685.573
430,6 Jun 2025 16:17:58.781,6 Jun 2025 16:27:33.215,574.434
431,7 Jun 2025 14:25:03.230,7 Jun 2025 14:36:02.925,659.695
432,7 Jun 2025 15:58:58.691,7 Jun 2025 16:09:28.038,629.346
433,8 Jun 2025 14:06:36.118,8 Jun 2025 14:16:49.932,613.814
434,8 Jun 2025 15:40:04.450,8 Jun 2025 15:51:10.995,666.545
435,8 Jun 2025 17:16:41.570,8 Jun 2025 17:19:53.986,192.416
436,9 Jun 2025 13:48:19.176,9 Jun 2025 13:57:20.775,541.599
437,9 Jun 2025 15:21:15.127,9 Jun 2025 15:32:43.199,688.072
438,9 Jun 2025 16:56:42.305,9 Jun 2025 17:03:07.332,385.027
439,10 Jun 2025 13:30:19.723,10 Jun 2025 13:37:27.846,428.123
440,10 Jun 2025 15:02:30.430,10 Jun 2025 15:14:05.029,694.599
441,10 Jun 2025 16:37:20.443,10 Jun 2025 16:45:36.631,496.188
442,11 Jun 2025 13:13:08.330,11 Jun 2025 13:16:40.167,211.838
443,11 Jun 2025 14:43:50.567,11 Jun 2025 14:55:16.339,685.771
444,11 Jun 2025 16:18:12.206,11 Jun 2025 16:27:45.880,573.674
445,12 Jun 2025 14:25:16.277,12 Jun 2025 14:36:16.382,660.105
446,12 Jun 2025 15:59:12.041,12 Jun 2025 16:09:40.852,628.812
447,13 Jun 2025 14:06:49.069,13 Jun 2025 14:17:03.555,614.485
448,13 Jun 2025 15:40:17.738,13 Jun 2025 15:51:23.943,666.205
449,13 Jun 2025 17:16:56.294,13 Jun 2025 17:20:05.123,188.829
450,14 Jun 2025 13:48:31.984,14 Jun 2025 13:57:34.617,542.633
451,14 Jun 2025 15:21:28.361,14 Jun 2025 15:32:56.265,687.904
452,14 Jun 2025 16:56:56.073,14 Jun 2025 17:03:19.504,383.432
453,15 Jun 2025 13:30:32.241,15 Jun 2025 13:37:42.051,429.810
454,15 Jun 2025 15:02:43.610,15 Jun 2025 15:14:18.221,694.611
455,15 Jun 2025 16:37:33.983,15 Jun 2025 16:45:49.105,495.121
456,16 Jun 2025 13:13:19.641,16 Jun 2025 13:16:55.663,216.022
457,16 Jun 2025 14:44:03.688,16 Jun 2025 14:55:29.655,685.968
458,16 Jun 2025 16:18:25.635,16 Jun 2025 16:27:58.544,572.909
459,17 Jun 2025 14:25:29.325,17 Jun 2025 14:36:29.837,660.512
460,17 Jun 2025 15:59:25.392,17 Jun 2025 16:09:53.666,628.274
461,18 Jun 2025 14:07:02.021,18 Jun 2025 14:17:17.175,615.154
462,18 Jun 2025 15:40:31.027,18 Jun 2025 15:51:36.887,665.861
463,18 Jun 2025 17:17:11.055,18 Jun 2025 17:20:16.218,185.163
464,19 Jun 2025 13:48:44.789,19 Jun 2025 13:57:48.456,543.667
465,19 Jun 2025 15:21:41.594,19 Jun 2025 15:33:09.331,687.737
466,19 Jun 2025 16:57:09.845,19 Jun 2025 17:03:31.670,381.824
467,20 Jun 2025 13:30:44.762,20 Jun 2025 13:37:56.250,431.488
468,20 Jun 2025 15:02:56.789,20 Jun 2025 15:14:31.409,694.620
469,20 Jun 2025 16:37:47.528,20 Jun 2025 16:46:01.574,494.046
470,21 Jun 2025 13:13:30.991,21 Jun 2025 13:17:11.112,220.121
471,21 Jun 2025 14:44:16.807,21 Jun 2025 14:55:42.968,686.162
472,21 Jun 2025 16:18:39.063,21 Jun 2025 16:28:11.204,572.141
473,22 Jun 2025 14:25:42.373,22 Jun 2025 14:36:43.289,660.917
474,22 Jun 2025 15:59:38.742,22 Jun 2025 16:10:06.476,627.734
475,23 Jun 2025 14:07:14.973,23 Jun 2025 14:17:30.792,615.819
476,23 Jun 2025 15:40:44.314,23 Jun 2025 15:51:49.828,665.514
477,23 Jun 2025 17:17:25.853,23 Jun 2025 17:20:27.276,181.423
478,24 Jun 2025 13:48:57.596,24 Jun 2025 13:58:02.290,544.695
479,24 Jun 2025 15:21:54.827,24 Jun 2025 15:33:22.395,687.568
480,24 Jun 2025 16:57:23.619,24 Jun 2025 17:03:43.830,380.211
481,25 Jun 2025 13:30:57.289,25 Jun 2025 13:38:10.440,433.151
482,25 Jun 2025 15:03:09.968,25 Jun 2025 15:14:44.594,694.626
483,25 Jun 2025 16:38:01.072,25 Jun 2025 16:46:14.041,492.968
484,26 Jun 2025 13:13:42.387,26 Jun 2025 13:17:26.516,224.129
485,26 Jun 2025 14:44:29.927,26 Jun 2025 14:55:56.280,686.353
486,26 Jun 2025 16:18:52.492,26 Jun 2025 16:28:23.863,571.371
487,27 Jun 2025 14:25:55.422,27 Jun 2025 14:36:56.740,661.318
488,27 Jun 2025 15:59:52.090,27 Jun 2025 16:10:19.285,627.195
489,28 Jun 2025 14:07:27.928,28 Jun 2025 14:17:44.407,616.480
490,28 Jun 2025 15:40:57.603,28 Jun 2025 15:52:02.769,665.166
491,28 Jun 2025 17:17:40.693,28 Jun 2025 17:20:38.292,177.599
492,29 Jun 2025 13:49:10.405,29 Jun 2025 13:58:16.123,545.718
493,29 Jun 2025 15:22:08.062,29 Jun 2025 15:33:35.459,687.397
494,29 Jun 2025 16:57:37.399,29 Jun 2025 17:03:55.986,378.587
495,30 Jun 2025 13:31:09.825,30 Jun 2025 13:38:24.627,434.802
496,30 Jun 2025 15:03:23.148,30 Jun 2025 15:14:57.779,694.631
497,30 Jun 2025 16:38:14.624,30 Jun 2025 16:46:26.505,491.881
498,1 Jul 2025 13:13:53.818,1 Jul 2025 13:17:41.884,228.066
499,1 Jul 2025 14:44:43.048,1 Jul 2025 14:56:09.591,686.543
500,1 Jul 2025 16:19:05.923,1 Jul 2025 16:28:36.519,570.596
501,2 Jul 2025 14:26:08.472,2 Jul 2025 14:37:10.189,661.718
502,2 Jul 2025 16:00:05.442,2 Jul 2025 16:10:32.092,626.650
503,3 Jul 2025 14:07:40.878,3 Jul 2025 14:17:58.017,617.139
504,3 Jul 2025 15:41:10.893,3 Jul 2025 15:52:15.710,664.817
505,3 Jul 2025 17:17:55.577,3 Jul 2025 17:20:49.257,173.679
506,4 Jul 2025 13:49:23.214,4 Jul 2025 13:58:29.951,546.737
507,4 Jul 2025 15:22:21.296,4 Jul 2025 15:33:48.519,687.223
508,4 Jul 2025 16:57:51.183,4 Jul 2025 17:04:08.134,376.950
509,5 Jul 2025 13:31:22.359,5 Jul 2025 13:38:38.806,436.447
510,5 Jul 2025 15:03:36.328,5 Jul 2025 15:15:10.961,694.633
511,5 Jul 2025 16:38:28.174,5 Jul 2025 16:46:38.964,490.790
512,6 Jul 2025 13:14:05.285,6 Jul 2025 13:17:57.210,231.925
513,6 Jul 2025 14:44:56.168,6 Jul 2025 14:56:22.898,686.730
514,6 Jul 2025 16:19:19.354,6 Jul 2025 16:28:49.172,569.819
515,7 Jul 2025 14:26:21.521,7 Jul 2025 14:37:23.635,662.114
516,7 Jul 2025 16:00:18.793,7 Jul 2025 16:10:44.896,626.103
517,8 Jul 2025 14:07:53.833,8 Jul 2025 14:18:11.627,617.794
518,8 Jul 2025 15:41:24.181,8 Jul 2025 15:52:28.645,664.464
519,8 Jul 2025 17:18:10.507,8 Jul 2025 17:21:00.177,169.670
520,9 Jul 2025 13:49:36.026,9 Jul 2025 13:58:43.776,547.750
521,9 Jul 2025 15:22:34.530,9 Jul 2025 15:34:01.578,687.048
522,9 Jul 2025 16:58:04.970,9 Jul 2025 17:04:20.277,375.308
523,10 Jul 2025 13:31:34.899,10 Jul 2025 13:38:52.978,438.080
524,10 Jul 2025 15:03:49.508,10 Jul 2025 15:15:24.142,694.634
525,10 Jul 2025 16:38:41.725,10 Jul 2025 16:46:51.422,489.697
526,11 Jul 2025 13:14:16.789,11 Jul 2025 13:18:12.500,235.711
527,11 Jul 2025 14:45:09.290,11 Jul 2025 14:56:36.205,686.915
528,11 Jul 2025 16:19:32.783,11 Jul 2025 16:29:01.824,569.041
529,12 Jul 2025 14:26:34.577,12 Jul 2025 14:37:37.080,662.504
530,12 Jul 2025 16:00:32.145,12 Jul 2025 16:10:57.699,625.554
531,13 Jul 2025 14:08:06.790,13 Jul 2025 14:18:25.235,618.445
532,13 Jul 2025 15:41:37.472,13 Jul 2025 15:52:41.581,664.109
533,13 Jul 2025 17:18:25.490,13 Jul 2025 17:21:11.046,165.556
534,14 Jul 2025 13:49:48.840,14 Jul 2025 13:58:57.598,548.758
535,14 Jul 2025 15:22:47.766,14 Jul 2025 15:34:14.636,686.871
536,14 Jul 2025 16:58:18.763,14 Jul 2025 17:04:32.415,373.652
537,15 Jul 2025 13:31:47.442,15 Jul 2025 13:39:07.147,439.705
538,15 Jul 2025 15:04:02.690,15 Jul 2025 15:15:37.321,694.632
539,15 Jul 2025 16:38:55.278,15 Jul 2025 16:47:03.877,488.598
540,16 Jul 2025 13:14:28.324,16 Jul 2025 13:18:27.758,239.434
541,16 Jul 2025 14:45:22.412,16 Jul 2025 14:56:49.510,687.098
542,16 Jul 2025 16:19:46.216,16 Jul 2025 16:29:14.474,568.257
543,17 Jul 2025 14:26:47.627,17 Jul 2025 14:37:50.524,662.896
544,17 Jul 2025 16:00:45.498,17 Jul 2025 16:11:10.500,625.002
545,18 Jul 2025 14:08:19.750,18 Jul 2025 14:18:38.842,619.093
546,18 Jul 2025 15:41:50.762,18 Jul 2025 15:52:54.510,663.748
547,18 Jul 2025 17:18:40.535,18 Jul 2025 17:21:21.855,161.321
548,19 Jul 2025 13:50:01.653,19 Jul 2025 13:59:11.413,549.759
549,19 Jul 2025 15:23:00.997,19 Jul 2025 15:34:27.692,686.695
550,19 Jul 2025 16:58:32.560,19 Jul 2025 17:04:44.548,371.988
551,20 Jul 2025 13:31:59.989,20 Jul 2025 13:39:21.309,441.320
552,20 Jul 2025 15:04:15.870,20 Jul 2025 15:15:50.498,694.628
553,20 Jul 2025 16:39:08.829,20 Jul 2025 16:47:16.326,487.498
554,21 Jul 2025 13:14:39.890,21 Jul 2025 13:18:42.980,243.090
555,21 Jul 2025 14:45:35.533,21 Jul 2025 14:57:02.812,687.279
556,21 Jul 2025 16:19:59.649,21 Jul 2025 16:29:27.120,567.471
557,22 Jul 2025 14:27:00.678,22 Jul 2025 14:38:03.963,663.285
558,22 Jul 2025 16:00:58.850,22 Jul 2025 16:11:23.298,624.448
559,23 Jul 2025 14:08:32.707,23 Jul 2025 14:18:52.445,619.737
560,23 Jul 2025 15:42:04.052,23 Jul 2025 15:53:07.440,663.389
561,23 Jul 2025 17:18:55.629,23 Jul 2025 17:21:32.609,156.980
562,24 Jul 2025 13:50:14.472,24 Jul 2025 13:59:25.232,550.760
563,24 Jul 2025 15:23:14.233,24 Jul 2025 15:34:40.749,686.516
564,24 Jul 2025 16:58:46.360,24 Jul 2025 17:04:56.671,370.310
565,25 Jul 2025 13:32:12.542,25 Jul 2025 13:39:35.464,442.922
566,25 Jul 2025 15:04:29.051,25 Jul 2025 15:16:03.674,694.622
567,25 Jul 2025 16:39:22.388,25 Jul 2025 16:47:28.775,486.387
568,26 Jul 2025 13:14:51.489,26 Jul 2025 13:18:58.171,246.682
569,26 Jul 2025 14:45:48.656,26 Jul 2025 14:57:16.113,687.457
570,26 Jul 2025 16:20:13.084,26 Jul 2025 16:29:39.765,566.681
571,27 Jul 2025 14:27:13.731,27 Jul 2025 14:38:17.403,663.672
572,27 Jul 2025 16:01:12.205,27 Jul 2025 16:11:36.096,623.891
573,28 Jul 2025 14:08:45.667,28 Jul 2025 14:19:06.046,620.379
574,28 Jul 2025 15:42:17.344,28 Jul 2025 15:53:20.370,663.026
575,28 Jul 2025 17:19:10.794,28 Jul 2025 17:21:43.291,152.497
576,29 Jul 2025 13:50:27.291,29 Jul 2025 13:59:39.045,551.754
577,29 Jul 2025 15:23:27.470,29 Jul 2025 15:34:53.802,686.332
578,29 Jul 2025 16:59:00.168,29 Jul 2025 17:05:08.790,368.622
579,30 Jul 2025 13:32:25.097,30 Jul 2025 13:39:49.616,444.519
580,30 Jul 2025 15:04:42.234,30 Jul 2025 15:16:16.848,694.614
581,30 Jul 2025 16:39:35.947,30 Jul 2025 16:47:41.220,485.272
582,31 Jul 2025 13:15:03.113,31 Jul 2025 13:19:13.334,250.222
583,31 Jul 2025 14:46:01.779,31 Jul 2025 14:57:29.413,687.634
584,31 Jul 2025 16:20:26.521,31 Jul 2025 16:29:52.407,565.886
585,1 Aug 2025 14:27:26.783,1 Aug 2025 14:38:30.840,664.057
586,1 Aug 2025 16:01:25.560,1 Aug 2025 16:11:48.891,623.331
587,2 Aug 2025 14:08:58.623,2 Aug 2025 14:19:19.644,621.021
588,2 Aug 2025 15:42:30.635,2 Aug 2025 15:53:33.296,662.661
589,2 Aug 2025 17:19:26.031,2 Aug 2025 17:21:53.900,147.869
590,3 Aug 2025 13:50:40.109,3 Aug 2025 13:59:52.851,552.741
591,3 Aug 2025 15:23:40.705,3 Aug 2025 15:35:06.849,686.144
592,3 Aug 2025 16:59:13.979,3 Aug 2025 17:05:20.907,366.928
593,4 Aug 2025 13:32:37.651,4 Aug 2025 13:40:03.760,446.109
594,4 Aug 2025 15:04:55.415,4 Aug 2025 15:16:30.018,694.603
595,4 Aug 2025 16:39:49.506,4 Aug 2025 16:47:53.660,484.155
596,5 Aug 2025 13:15:14.765,5 Aug 2025 13:19:28.466,253.701
597,5 Aug 2025 14:46:14.902,5 Aug 2025 14:57:42.710,687.808
598,5 Aug 2025 16:20:39.957,5 Aug 2025 16:30:05.046,565.089
599,6 Aug 2025 14:27:39.836,6 Aug 2025 14:38:44.274,664.438
600,6 Aug 2025 16:01:38.915,6 Aug 2025 16:12:01.683,622.769
601,7 Aug 2025 14:09:11.584,7 Aug 2025 14:19:33.240,621.656
602,7 Aug 2025 15:42:43.928,7 Aug 2025 15:53:46.222,662.294
603,7 Aug 2025 17:19:41.341,7 Aug 2025 17:22:04.435,143.094
604,8 Aug 2025 13:50:52.931,8 Aug 2025 14:00:06.657,553.726
605,8 Aug 2025 15:23:53.942,8 Aug 2025 15:35:19.899,685.956
606,8 Aug 2025 16:59:27.795,8 Aug 2025 17:05:33.016,365.220
607,9 Aug 2025 13:32:50.220,9 Aug 2025 13:40:17.900,447.680
608,9 Aug 2025 15:05:08.599,9 Aug 2025 15:16:43.187,694.588
609,9 Aug 2025 16:40:03.067,9 Aug 2025 16:48:06.104,483.037
610,10 Aug 2025 13:15:26.445,10 Aug 2025 13:19:43.571,257.126
611,10 Aug 2025 14:46:28.027,10 Aug 2025 14:57:56.006,687.980
612,10 Aug 2025 16:20:53.394,10 Aug 2025 16:30:17.685,564.291
613,11 Aug 2025 14:27:52.891,11 Aug 2025 14:38:57.706,664.815
614,11 Aug 2025 16:01:52.272,11 Aug 2025 16:12:14.476,622.204
615,12 Aug 2025 14:09:24.547,12 Aug 2025 14:19:46.835,622.288
616,12 Aug 2025 15:42:57.222,12 Aug 2025 15:53:59.147,661.925
617,12 Aug 2025 17:19:56.742,12 Aug 2025 17:22:14.879,138.137
618,13 Aug 2025 13:51:05.754,13 Aug 2025 14:00:20.462,554.707
619,13 Aug 2025 15:24:07.181,13 Aug 2025 15:35:32.947,685.766
620,13 Aug 2025 16:59:41.619,13 Aug 2025 17:05:45.115,363.496
621,14 Aug 2025 13:33:02.787,14 Aug 2025 13:40:32.035,449.249
622,14 Aug 2025 15:05:21.783,14 Aug 2025 15:16:56.356,694.573
623,14 Aug 2025 16:40:16.634,14 Aug 2025 16:48:18.539,481.906
624,15 Aug 2025 13:15:38.147,15 Aug 2025 13:19:58.651,260.505
625,15 Aug 2025 14:46:41.151,15 Aug 2025 14:58:09.301,688.150
626,15 Aug 2025 16:21:06.834,15 Aug 2025 16:30:30.320,563.486
627,16 Aug 2025 14:28:05.945,16 Aug 2025 14:39:11.137,665.193
628,16 Aug 2025 16:02:05.629,16 Aug 2025 16:12:27.264,621.635
629,17 Aug 2025 14:09:37.512,17 Aug 2025 14:20:00.426,622.914
630,17 Aug 2025 15:43:10.515,17 Aug 2025 15:54:12.069,661.554
631,17 Aug 2025 17:20:12.239,17 Aug 2025 17:22:25.224,132.985
632,18 Aug 2025 13:51:18.577,18 Aug 2025 14:00:34.261,555.684
633,18 Aug 2025 15:24:20.418,18 Aug 2025 15:35:45.992,685.574
634,18 Aug 2025 16:59:55.446,18 Aug 2025 17:05:57.208,361.762
635,19 Aug 2025 13:33:15.357,19 Aug 2025 13:40:46.163,450.806
636,19 Aug 2025 15:05:34.966,19 Aug 2025 15:17:09.522,694.556
637,19 Aug 2025 16:40:30.200,19 Aug 2025 16:48:30.971,480.771
638,20 Aug 2025 13:15:49.875,20 Aug 2025 13:20:13.703,263.828
639,20 Aug 2025 14:46:54.276,20 Aug 2025 14:58:22.593,688.317
640,20 Aug 2025 16:21:20.274,20 Aug 2025 16:30:42.953,562.679
641,21 Aug 2025 14:28:19.000,21 Aug 2025 14:39:24.567,665.567
642,21 Aug 2025 16:02:18.987,21 Aug 2025 16:12:40.052,621.065
643,22 Aug 2025 14:09:50.475,22 Aug 2025 14:20:14.016,623.541
644,22 Aug 2025 15:43:23.810,22 Aug 2025 15:54:24.990,661.180
645,22 Aug 2025 17:20:27.840,22 Aug 2025 17:22:35.466,127.626
646,23 Aug 2025 13:51:31.404,23 Aug 2025 14:00:48.060,556.655
647,23 Aug 2025 15:24:33.658,23 Aug 2025 15:35:59.038,685.380
648,23 Aug 2025 17:00:09.279,23 Aug 2025 17:06:09.296,360.018
649,24 Aug 2025 13:33:27.933,24 Aug 2025 13:41:00.289,452.356
650,24 Aug 2025 15:05:48.151,24 Aug 2025 15:17:22.693,694.543
651,24 Aug 2025 16:40:43.773,24 Aug 2025 16:48:43.399,479.626
652,25 Aug 2025 13:16:01.627,25 Aug 2025 13:20:28.733,267.107
653,25 Aug 2025 14:47:07.402,25 Aug 2025 14:58:35.886,688.483
654,25 Aug 2025 16:21:33.717,25 Aug 2025 16:30:55.585,561.867
655,26 Aug 2025 14:28:32.055,26 Aug 2025 14:39:37.997,665.942
656,26 Aug 2025 16:02:32.347,26 Aug 2025 16:12:52.838,620.491
657,27 Aug 2025 14:10:03.438,27 Aug 2025 14:20:27.605,624.167
658,27 Aug 2025 15:43:37.106,27 Aug 2025 15:54:37.910,660.804
659,27 Aug 2025 17:20:43.571,27 Aug 2025 17:22:45.576,122.005
660,28 Aug 2025 13:51:44.231,28 Aug 2025 14:01:01.856,557.624
661,28 Aug 2025 15:24:46.898,28 Aug 2025 15:36:12.081,685.183
662,28 Aug 2025 17:00:23.119,28 Aug 2025 17:06:21.377,358.258
663,29 Aug 2025 13:33:40.511,29 Aug 2025 13:41:14.410,453.899
664,29 Aug 2025 15:06:01.336,29 Aug 2025 15:17:35.858,694.522
665,29 Aug 2025 16:40:57.346,29 Aug 2025 16:48:55.824,478.477
666,30 Aug 2025 13:16:13.397,30 Aug 2025 13:20:43.740,270.343
667,30 Aug 2025 14:47:20.529,30 Aug 2025 14:58:49.175,688.646
668,30 Aug 2025 16:21:47.161,30 Aug 2025 16:31:08.213,561.051
669,31 Aug 2025 14:28:45.113,31 Aug 2025 14:39:51.423,666.310
670,31 Aug 2025 16:02:45.708,31 Aug 2025 16:13:05.622,619.914
671,1 Sep 2025 14:10:16.406,1 Sep 2025 14:20:41.190,624.785
672,1 Sep 2025 15:43:50.402,1 Sep 2025 15:54:50.827,660.425
673,1 Sep 2025 17:20:59.440,1 Sep 2025 17:22:55.544,116.104
674,2 Sep 2025 13:51:57.059,2 Sep 2025 14:01:15.648,558.588
675,2 Sep 2025 15:25:00.138,2 Sep 2025 15:36:25.122,684.985
676,2 Sep 2025 17:00:36.964,2 Sep 2025 17:06:33.455,356.492
677,3 Sep 2025 13:33:53.088,3 Sep 2025 13:41:28.525,455.437
678,3 Sep 2025 15:06:14.521,3 Sep 2025 15:17:49.021,694.500
679,3 Sep 2025 16:41:10.920,3 Sep 2025 16:49:08.246,477.325
680,4 Sep 2025 13:16:25.192,4 Sep 2025 13:20:58.722,273.530
681,4 Sep 2025 14:47:33.655,4 Sep 2025 14:59:02.463,688.808
682,4 Sep 2025 16:22:00.606,4 Sep 2025 16:31:20.839,560.233
683,5 Sep 2025 14:28:58.171,5 Sep 2025 14:40:04.848,666.677
684,5 Sep 2025 16:02:59.069,5 Sep 2025 16:13:18.404,619.335
685,6 Sep 2025 14:10:29.368,6 Sep 2025 14:20:54.775,625.406
686,6 Sep 2025 15:44:03.700,6 Sep 2025 15:55:03.744,660.044
687,6 Sep 2025 17:21:15.469,6 Sep 2025 17:23:05.355,109.886
688,7 Sep 2025 13:52:09.897,7 Sep 2025 14:01:29.438,559.542
689,7 Sep 2025 15:25:13.379,7 Sep 2025 15:36:38.163,684.784
690,7 Sep 2025 17:00:50.815,7 Sep 2025 17:06:45.521,354.707
691,8 Sep 2025 13:34:05.676,8 Sep 2025 13:41:42.637,456.961
692,8 Sep 2025 15:06:27.709,8 Sep 2025 15:18:02.184,694.475
693,8 Sep 2025 16:41:24.498,8 Sep 2025 16:49:20.668,476.170
694,9 Sep 2025 13:16:37.008,9 Sep 2025 13:21:13.685,276.677
695,9 Sep 2025 14:47:46.784,9 Sep 2025 14:59:15.752,688.968
696,9 Sep 2025 16:22:14.055,9 Sep 2025 16:31:33.464,559.410
697,10 Sep 2025 14:29:11.230,10 Sep 2025 14:40:18.270,667.040
698,10 Sep 2025 16:03:12.433,10 Sep 2025 16:13:31.186,618.753
699,11 Sep 2025 14:10:42.341,11 Sep 2025 14:21:08.358,626.017
700,11 Sep 2025 15:44:16.999,11 Sep 2025 15:55:16.659,659.660
701,11 Sep 2025 17:21:31.699,11 Sep 2025 17:23:14.965,103.266
702,12 Sep 2025 13:52:22.729,12 Sep 2025 14:01:43.226,560.497
703,12 Sep 2025 15:25:26.622,12 Sep 2025 15:36:51.203,684.581
704,12 Sep 2025 17:01:04.674,12 Sep 2025 17:06:57.584,352.910
705,13 Sep 2025 13:34:18.264,13 Sep 2025 13:41:56.743,458.479
706,13 Sep 2025 15:06:40.896,13 Sep 2025 15:18:15.344,694.448
707,13 Sep 2025 16:41:38.079,13 Sep 2025 16:49:33.083,475.004
708,14 Sep 2025 13:16:48.841,14 Sep 2025 13:21:28.624,279.783
709,14 Sep 2025 14:47:59.912,14 Sep 2025 14:59:29.038,689.125
710,14 Sep 2025 16:22:27.503,14 Sep 2025 16:31:46.086,558.583
711,15 Sep 2025 14:29:24.287,15 Sep 2025 14:40:31.692,667.405
712,15 Sep 2025 16:03:25.796,15 Sep 2025 16:13:43.964,618.168
713,16 Sep 2025 14:10:55.304,16 Sep 2025 14:21:21.937,626.633
714,16 Sep 2025 15:44:30.297,16 Sep 2025 15:55:29.576,659.279
715,16 Sep 2025 17:21:48.154,16 Sep 2025 17:23:24.347,96.194
716,17 Sep 2025 13:52:35.564,17 Sep 2025 14:01:57.011,561.446
717,17 Sep 2025 15:25:39.864,17 Sep 2025 15:37:04.240,684.376
718,17 Sep 2025 17:01:18.536,17 Sep 2025 17:07:09.638,351.102
719,18 Sep 2025 13:34:30.859,18 Sep 2025 13:42:10.844,459.985
720,18 Sep 2025 15:06:54.084,18 Sep 2025 15:18:28.503,694.419
721,18 Sep 2025 16:41:51.661,18 Sep 2025 16:49:45.497,473.836
722,19 Sep 2025 13:17:00.700,19 Sep 2025 13:21:43.544,282.844
723,19 Sep 2025 14:48:13.042,19 Sep 2025 14:59:42.322,689.280
724,19 Sep 2025 16:22:40.953,19 Sep 2025 16:31:58.707,557.753
725,20 Sep 2025 14:29:37.348,20 Sep 2025 14:40:45.114,667.766
726,20 Sep 2025 16:03:39.162,20 Sep 2025 16:13:56.742,617.580
727,21 Sep 2025 14:11:08.276,21 Sep 2025 14:21:35.517,627.241
728,21 Sep 2025 15:44:43.598,21 Sep 2025 15:55:42.489,658.891
729,21 Sep 2025 17:22:04.899,21 Sep 2025 17:23:33.440,88.542
730,22 Sep 2025 13:52:48.402,22 Sep 2025 14:02:10.794,562.392
731,22 Sep 2025 15:25:53.109,22 Sep 2025 15:37:17.278,684.169
732,22 Sep 2025 17:01:32.407,22 Sep 2025 17:07:21.687,349.279
733,23 Sep 2025 13:34:43.461,23 Sep 2025 13:42:24.939,461.477
734,23 Sep 2025 15:07:07.272,23 Sep 2025 15:18:41.662,694.391
735,23 Sep 2025 16:42:05.248,23 Sep 2025 16:49:57.903,472.655
736,24 Sep 2025 13:17:12.572,24 Sep 2025 13:21:58.445,285.873
737,24 Sep 2025 14:48:26.174,24 Sep 2025 14:59:55.607,689.433
738,24 Sep 2025 16:22:54.407,24 Sep 2025 16:32:11.325,556.918
739,25 Sep 2025 14:29:50.410,25 Sep 2025 14:40:58.535,668.125
740,25 Sep 2025 16:03:52.530,25 Sep 2025 16:14:09.515,616.985
741,26 Sep 2025 14:11:21.248,26 Sep 2025 14:21:49.095,627.847
742,26 Sep 2025 15:44:56.903,26 Sep 2025 15:55:55.396,658.493
743,26 Sep 2025 17:22:22.026,26 Sep 2025 17:23:42.152,80.127
744,27 Sep 2025 13:53:01.241,27 Sep 2025 14:02:24.575,563.334
745,27 Sep 2025 15:26:06.354,27 Sep 2025 15:37:30.313,683.959
746,27 Sep 2025 17:01:46.286,27 Sep 2025 17:07:33.727,347.441
747,28 Sep 2025 13:34:56.062,28 Sep 2025 13:42:39.031,462.970
748,28 Sep 2025 15:07:20.461,28 Sep 2025 15:18:54.819,694.358
749,28 Sep 2025 16:42:18.839,28 Sep 2025 16:50:10.311,471.472
750,29 Sep 2025 13:17:24.463,29 Sep 2025 13:22:13.327,288.864
751,29 Sep 2025 14:48:39.305,29 Sep 2025 15:00:08.887,689.582
752,29 Sep 2025 16:23:07.862,29 Sep 2025 16:32:23.941,556.079
753,30 Sep 2025 14:30:03.472,30 Sep 2025 14:41:11.953,668.481
754,30 Sep 2025 16:04:05.898,30 Sep 2025 16:14:22.289,616.391
755,1 Oct 2025 14:11:34.220,1 Oct 2025 14:22:02.670,628.450
756,1 Oct 2025 15:45:10.206,1 Oct 2025 15:56:08.306,658.099
757,1 Oct 2025 17:22:39.649,1 Oct 2025 17:23:50.371,70.722
758,2 Oct 2025 13:53:14.082,2 Oct 2025 14:02:38.353,564.271
759,2 Oct 2025 15:26:19.600,2 Oct 2025 15:37:43.347,683.747
760,2 Oct 2025 17:02:00.169,2 Oct 2025 17:07:45.762,345.593
761,3 Oct 2025 13:35:08.668,3 Oct 2025 13:42:53.119,464.451
762,3 Oct 2025 15:07:33.653,3 Oct 2025 15:19:07.975,694.323
763,3 Oct 2025 16:42:32.432,3 Oct 2025 16:50:22.715,470.283
764,4 Oct 2025 13:17:36.374,4 Oct 2025 13:22:28.189,291.815
765,4 Oct 2025 14:48:52.438,4 Oct 2025 15:00:22.169,689.731
766,4 Oct 2025 16:23:21.318,4 Oct 2025 16:32:36.556,555.238
767,5 Oct 2025 14:30:16.537,5 Oct 2025 14:41:25.371,668.834
768,5 Oct 2025 16:04:19.268,5 Oct 2025 16:14:35.062,615.795
769,6 Oct 2025 14:11:47.195,6 Oct 2025 14:22:16.244,629.049
770,6 Oct 2025 15:45:23.511,6 Oct 2025 15:56:21.215,657.704
771,6 Oct 2025 17:22:58.013,6 Oct 2025 17:23:57.844,59.831
772,7 Oct 2025 13:53:26.926,7 Oct 2025 14:02:52.129,565.203
773,7 Oct 2025 15:26:32.848,7 Oct 2025 15:37:56.381,683.533
774,7 Oct 2025 17:02:14.061,7 Oct 2025 17:07:57.791,343.730
775,8 Oct 2025 13:35:21.277,8 Oct 2025 13:43:07.204,465.927
776,8 Oct 2025 15:07:46.846,8 Oct 2025 15:19:21.131,694.286
777,8 Oct 2025 16:42:46.028,8 Oct 2025 16:50:35.116,469.088
778,9 Oct 2025 13:17:48.300,9 Oct 2025 13:22:43.036,294.736
779,9 Oct 2025 14:49:05.572,9 Oct 2025 15:00:35.450,689.879
780,9 Oct 2025 16:23:34.777,9 Oct 2025 16:32:49.169,554.391
781,10 Oct 2025 14:30:29.602,10 Oct 2025 14:41:38.787,669.185
782,10 Oct 2025 16:04:32.635,10 Oct 2025 16:14:47.834,615.198
783,11 Oct 2025 14:12:00.170,11 Oct 2025 14:22:29.817,629.647
784,11 Oct 2025 15:45:36.817,11 Oct 2025 15:56:34.122,657.305
785,11 Oct 2025 17:23:17.650,11 Oct 2025 17:24:04.046,46.396
786,12 Oct 2025 13:53:39.770,12 Oct 2025 14:03:05.903,566.133
787,12 Oct 2025 15:26:46.096,12 Oct 2025 15:38:09.413,683.317
788,12 Oct 2025 17:02:27.959,12 Oct 2025 17:08:09.810,341.851
789,13 Oct 2025 13:35:33.889,13 Oct 2025 13:43:21.283,467.394
790,13 Oct 2025 15:08:00.038,13 Oct 2025 15:19:34.285,694.246
791,13 Oct 2025 16:42:59.625,13 Oct 2025 16:50:47.513,467.888
792,14 Oct 2025 13:18:00.244,14 Oct 2025 13:22:57.864,297.620
793,14 Oct 2025 14:49:18.706,14 Oct 2025 15:00:48.727,690.021
794,14 Oct 2025 16:23:48.237,14 Oct 2025 16:33:01.779,553.542
795,15 Oct 2025 14:30:42.668,15 Oct 2025 14:41:52.201,669.533
796,15 Oct 2025 16:04:46.007,15 Oct 2025 16:15:00.603,614.596
797,16 Oct 2025 14:12:13.148,16 Oct 2025 14:22:43.388,630.240
798,16 Oct 2025 15:45:50.124,16 Oct 2025 15:56:47.028,656.904
799,16 Oct 2025 17:23:40.286,16 Oct 2025 17:24:07.250,26.965
800,17 Oct 2025 13:53:52.618,17 Oct 2025 14:03:19.674,567.056
801,17 Oct 2025 15:26:59.346,17 Oct 2025 15:38:22.448,683.102
802,17 Oct 2025 17:02:41.863,17 Oct 2025 17:08:21.825,339.962
803,18 Oct 2025 13:35:46.508,18 Oct 2025 13:43:35.359,468.852
804,18 Oct 2025 15:08:13.233,18 Oct 2025 15:19:47.438,694.205
805,18 Oct 2025 16:43:13.226,18 Oct 2025 16:50:59.913,466.687
806,19 Oct 2025 13:18:12.206,19 Oct 2025 13:23:12.676,300.470
807,19 Oct 2025 14:49:31.843,19 Oct 2025 15:01:02.007,690.164
808,19 Oct 2025 16:24:01.695,19 Oct 2025 16:33:14.388,552.694
809,20 Oct 2025 14:30:55.736,20 Oct 2025 14:42:05.615,669.879
810,20 Oct 2025 16:04:59.382,20 Oct 2025 16:15:13.373,613.991
811,21 Oct 2025 14:12:26.127,21 Oct 2025 14:22:56.958,630.831
812,21 Oct 2025 15:46:03.433,21 Oct 2025 15:56:59.934,656.501
813,22 Oct 2025 13:54:05.468,22 Oct 2025 14:03:33.445,567.977
814,22 Oct 2025 15:27:12.597,22 Oct 2025 15:38:35.479,682.882
815,22 Oct 2025 17:02:55.777,22 Oct 2025 17:08:33.832,338.055
816,23 Oct 2025 13:35:59.129,23 Oct 2025 13:43:49.432,470.303
817,23 Oct 2025 15:08:26.430,23 Oct 2025 15:20:00.591,694.161
818,23 Oct 2025 16:43:26.832,23 Oct 2025 16:51:12.305,465.474
819,24 Oct 2025 13:18:24.181,24 Oct 2025 13:23:27.473,303.291
820,24 Oct 2025 14:49:44.980,24 Oct 2025 15:01:15.286,690.306
821,24 Oct 2025 16:24:15.160,24 Oct 2025 16:33:26.995,551.835
822,25 Oct 2025 14:31:08.805,25 Oct 2025 14:42:19.023,670.218
823,25 Oct 2025 16:05:12.759,25 Oct 2025 16:15:26.140,613.382
824,26 Oct 2025 14:12:39.107,26 Oct 2025 14:23:10.527,631.420
825,26 Oct 2025 15:46:16.740,26 Oct 2025 15:57:12.838,656.097
826,27 Oct 2025 13:54:18.319,27 Oct 2025 14:03:47.212,568.893
827,27 Oct 2025 15:27:25.849,27 Oct 2025 15:38:48.508,682.659
828,27 Oct 2025 17:03:09.697,27 Oct 2025 17:08:45.831,336.133
829,28 Oct 2025 13:36:11.754,28 Oct 2025 13:44:03.500,471.746
830,28 Oct 2025 15:08:39.626,28 Oct 2025 15:20:13.742,694.116
831,28 Oct 2025 16:43:40.439,28 Oct 2025 16:51:24.694,464.256
832,29 Oct 2025 13:18:36.174,29 Oct 2025 13:23:42.252,306.078
833,29 Oct 2025 14:49:58.119,29 Oct 2025 15:01:28.561,690.442
834,29 Oct 2025 16:24:28.626,29 Oct 2025 16:33:39.600,550.975
835,30 Oct 2025 14:31:21.875,30 Oct 2025 14:42:32.435,670.560
836,30 Oct 2025 16:05:26.136,30 Oct 2025 16:15:38.906,612.771
837,31 Oct 2025 14:12:52.093,31 Oct 2025 14:23:24.091,631.998
838,31 Oct 2025 15:46:30.052,31 Oct 2025 15:57:25.741,655.689
839,1 Nov 2025 13:54:31.174,1 Nov 2025 14:04:00.977,569.803
840,1 Nov 2025 15:27:39.103,1 Nov 2025 15:39:01.537,682.434
841,1 Nov 2025 17:03:23.623,1 Nov 2025 17:08:57.824,334.201
842,2 Nov 2025 13:36:24.384,2 Nov 2025 13:44:17.563,473.179
843,2 Nov 2025 15:08:52.825,2 Nov 2025 15:20:26.893,694.068
844,2 Nov 2025 16:43:54.048,2 Nov 2025 16:51:37.082,463.034
845,3 Nov 2025 13:18:48.179,3 Nov 2025 13:23:57.020,308.842
846,3 Nov 2025 14:50:11.263,3 Nov 2025 15:01:41.835,690.572
847,3 Nov 2025 16:24:42.094,3 Nov 2025 16:33:52.202,550.108
848,4 Nov 2025 14:31:34.949,4 Nov 2025 14:42:45.849,670.900
849,4 Nov 2025 16:05:39.515,4 Nov 2025 16:15:51.672,612.156
850,5 Nov 2025 14:13:05.078,5 Nov 2025 14:23:37.658,632.580
851,5 Nov 2025 15:46:43.366,5 Nov 2025 15:57:38.644,655.278
852,6 Nov 2025 13:54:44.031,6 Nov 2025 14:04:14.742,570.711
853,6 Nov 2025 15:27:52.358,6 Nov 2025 15:39:14.565,682.207
854,6 Nov 2025 17:03:37.560,6 Nov 2025 17:09:09.809,332.249
855,7 Nov 2025 13:36:37.017,7 Nov 2025 13:44:31.624,474.607
856,7 Nov 2025 15:09:06.025,7 Nov 2025 15:20:40.043,694.018
857,7 Nov 2025 16:44:07.663,7 Nov 2025 16:51:49.465,461.803
858,8 Nov 2025 13:19:00.200,8 Nov 2025 13:24:11.771,311.571
859,8 Nov 2025 14:50:24.404,8 Nov 2025 15:01:55.109,690.705
860,8 Nov 2025 16:24:55.565,8 Nov 2025 16:34:04.804,549.238
861,9 Nov 2025 14:31:48.021,9 Nov 2025 14:42:59.257,671.236
862,9 Nov 2025 16:05:52.896,9 Nov 2025 16:16:04.435,611.539
863,10 Nov 2025 14:13:18.062,10 Nov 2025 14:23:51.221,633.159
864,10 Nov 2025 15:46:56.678,10 Nov 2025 15:57:51.544,654.866
865,11 Nov 2025 13:54:56.889,11 Nov 2025 14:04:28.502,571.613
866,11 Nov 2025 15:28:05.613,11 Nov 2025 15:39:27.591,681.978
867,11 Nov 2025 17:03:51.501,11 Nov 2025 17:09:21.786,330.286
868,12 Nov 2025 13:36:49.653,12 Nov 2025 13:44:45.682,476.030
869,12 Nov 2025 15:09:19.228,12 Nov 2025 15:20:53.187,693.959
870,12 Nov 2025 16:44:21.279,12 Nov 2025 16:52:01.843,460.563
871,13 Nov 2025 13:19:12.244,13 Nov 2025 13:24:26.500,314.256
872,13 Nov 2025 14:50:37.547,13 Nov 2025 15:02:08.386,690.839
873,13 Nov 2025 16:25:09.036,13 Nov 2025 16:34:17.406,548.370
874,14 Nov 2025 14:32:01.094,14 Nov 2025 14:43:12.660,671.566
875,14 Nov 2025 16:06:06.278,14 Nov 2025 16:16:17.198,610.920
876,15 Nov 2025 14:13:31.050,15 Nov 2025 14:24:04.782,633.732
877,15 Nov 2025 15:47:09.993,15 Nov 2025 15:58:04.445,654.451
878,16 Nov 2025 13:55:09.751,16 Nov 2025 14:04:42.262,572.511
879,16 Nov 2025 15:28:18.871,16 Nov 2025 15:39:40.618,681.747
880,16 Nov 2025 17:04:05.450,16 Nov 2025 17:09:33.759,328.308
881,17 Nov 2025 13:37:02.298,17 Nov 2025 13:44:59.736,477.438
882,17 Nov 2025 15:09:32.431,17 Nov 2025 15:21:06.335,693.904
883,17 Nov 2025 16:44:34.899,17 Nov 2025 16:52:14.225,459.326
884,18 Nov 2025 13:19:24.298,18 Nov 2025 13:24:41.222,316.924
885,18 Nov 2025 14:50:50.692,18 Nov 2025 15:02:21.660,690.968
886,18 Nov 2025 16:25:22.512,18 Nov 2025 16:34:30.006,547.494
887,19 Nov 2025 14:32:14.172,19 Nov 2025 14:43:26.068,671.897
888,19 Nov 2025 16:06:19.663,19 Nov 2025 16:16:29.960,610.297
889,20 Nov 2025 14:13:44.040,20 Nov 2025 14:24:18.345,634.304
890,20 Nov 2025 15:47:23.311,20 Nov 2025 15:58:17.344,654.034
891,21 Nov 2025 13:55:22.615,21 Nov 2025 14:04:56.020,573.405
892,21 Nov 2025 15:28:32.130,21 Nov 2025 15:39:53.644,681.513
893,21 Nov 2025 17:04:19.409,21 Nov 2025 17:09:45.722,326.313
894,22 Nov 2025 13:37:14.943,22 Nov 2025 13:45:13.785,478.842
895,22 Nov 2025 15:09:45.635,22 Nov 2025 15:21:19.485,693.849
896,22 Nov 2025 16:44:48.523,22 Nov 2025 16:52:26.601,458.078
897,23 Nov 2025 13:19:36.364,23 Nov 2025 13:24:55.929,319.565
898,23 Nov 2025 14:51:03.833,23 Nov 2025 15:02:34.928,691.095
899,23 Nov 2025 16:25:35.988,23 Nov 2025 16:34:42.603,546.615
900,24 Nov 2025 14:32:27.251,24 Nov 2025 14:43:39.474,672.223
901,24 Nov 2025 16:06:33.048,24 Nov 2025 16:16:42.720,609.672
902,25 Nov 2025 14:13:57.031,25 Nov 2025 14:24:31.905,634.874
903,25 Nov 2025 15:47:36.628,25 Nov 2025 15:58:30.242,653.614
904,26 Nov 2025 13:55:35.481,26 Nov 2025 14:05:09.775,574.294
905,26 Nov 2025 15:28:45.390,26 Nov 2025 15:40:06.668,681.278
906,26 Nov 2025 17:04:33.373,26 Nov 2025 17:09:57.678,324.305
907,27 Nov 2025 13:37:27.595,27 Nov 2025 13:45:27.826,480.232
908,27 Nov 2025 15:09:58.836,27 Nov 2025 15:21:32.633,693.797
909,27 Nov 2025 16:45:02.146,27 Nov 2025 16:52:38.974,456.828
910,28 Nov 2025 13:19:48.443,28 Nov 2025 13:25:10.624,322.182
911,28 Nov 2025 14:51:16.983,28 Nov 2025 15:02:48.198,691.215
912,28 Nov 2025 16:25:49.466,28 Nov 2025 16:34:55.196,545.730
913,29 Nov 2025 14:32:40.330,29 Nov 2025 14:43:52.884,672.554
914,29 Nov 2025 16:06:46.435,29 Nov 2025 16:16:55.481,609.047
915,30 Nov 2025 14:14:10.025,30 Nov 2025 14:24:45.464,635.439
916,30 Nov 2025 15:47:49.947,30 Nov 2025 15:58:43.140,653.193
917,1 Dec 2025 13:55:48.351,1 Dec 2025 14:05:23.529,575.178
918,1 Dec 2025 15:28:58.651,1 Dec 2025 15:40:19.692,681.040
919,1 Dec 2025 17:04:47.345,1 Dec 2025 17:10:09.628,322.283
920,2 Dec 2025 13:37:40.251,2 Dec 2025 13:45:41.868,481.617
921,2 Dec 2025 15:10:12.043,2 Dec 2025 15:21:45.780,693.736
922,2 Dec 2025 16:45:15.775,2 Dec 2025 16:52:51.345,455.570
923,3 Dec 2025 13:20:00.544,3 Dec 2025 13:25:25.300,324.756
924,3 Dec 2025 14:51:30.128,3 Dec 2025 15:03:01.473,691.345
925,3 Dec 2025 16:26:02.947,3 Dec 2025 16:35:07.793,544.847
926,4 Dec 2025 14:32:53.411,4 Dec 2025 14:44:06.289,672.878
927,4 Dec 2025 16:06:59.824,4 Dec 2025 16:17:08.238,608.414
928,5 Dec 2025 14:14:23.020,5 Dec 2025 14:24:59.023,636.003
929,5 Dec 2025 15:48:03.268,5 Dec 2025 15:58:56.037,652.768
930,6 Dec 2025 13:56:01.222,6 Dec 2025 14:05:37.281,576.059
931,6 Dec 2025 15:29:11.914,6 Dec 2025 15:40:32.714,680.800
932,6 Dec 2025 17:05:01.327,6 Dec 2025 17:10:21.568,320.241
933,7 Dec 2025 13:37:52.909,7 Dec 2025 13:45:55.906,482.997
934,7 Dec 2025 15:10:25.250,7 Dec 2025 15:21:58.924,693.674
935,7 Dec 2025 16:45:29.407,7 Dec 2025 16:53:03.712,454.305
936,8 Dec 2025 13:20:12.651,8 Dec 2025 13:25:39.966,327.315
937,8 Dec 2025 14:51:43.277,8 Dec 2025 15:03:14.742,691.465
938,8 Dec 2025 16:26:16.428,8 Dec 2025 16:35:20.385,543.957
939,9 Dec 2025 14:33:06.492,9 Dec 2025 14:44:19.691,673.198
940,9 Dec 2025 16:07:13.213,9 Dec 2025 16:17:20.995,607.781
941,10 Dec 2025 14:14:36.016,10 Dec 2025 14:25:12.578,636.562
942,10 Dec 2025 15:48:16.589,10 Dec 2025 15:59:08.931,652.343
943,11 Dec 2025 13:56:14.096,11 Dec 2025 14:05:51.030,576.933
944,11 Dec 2025 15:29:25.177,11 Dec 2025 15:40:45.736,680.559
945,11 Dec 2025 17:05:15.313,11 Dec 2025 17:10:33.502,318.189
946,12 Dec 2025 13:38:05.573,12 Dec 2025 13:46:09.938,484.365
947,12 Dec 2025 15:10:38.459,12 Dec 2025 15:22:12.068,693.609
948,12 Dec 2025 16:45:43.040,12 Dec 2025 16:53:16.078,453.038
949,13 Dec 2025 13:20:24.776,13 Dec 2025 13:25:54.619,329.842
950,13 Dec 2025 14:51:56.429,13 Dec 2025 15:03:28.010,691.582
951,13 Dec 2025 16:26:29.911,13 Dec 2025 16:35:32.977,543.065
952,14 Dec 2025 14:33:19.577,14 Dec 2025 14:44:33.093,673.515
953,14 Dec 2025 16:07:26.605,14 Dec 2025 16:17:33.751,607.146
954,15 Dec 2025 14:14:49.016,15 Dec 2025 14:25:26.134,637.118
955,15 Dec 2025 15:48:29.912,15 Dec 2025 15:59:21.827,651.914
956,16 Dec 2025 13:56:26.974,16 Dec 2025 14:06:04.778,577.804
957,16 Dec 2025 15:29:38.443,16 Dec 2025 15:40:58.758,680.315
958,16 Dec 2025 17:05:29.309,16 Dec 2025 17:10:45.430,316.120
959,17 Dec 2025 13:38:18.238,17 Dec 2025 13:46:23.969,485.731
960,17 Dec 2025 15:10:51.670,17 Dec 2025 15:22:25.212,693.542
961,17 Dec 2025 16:45:56.678,17 Dec 2025 16:53:28.441,451.764
962,18 Dec 2025 13:20:36.912,18 Dec 2025 13:26:09.260,332.348
963,18 Dec 2025 14:52:09.582,18 Dec 2025 15:03:41.279,691.697
964,18 Dec 2025 16:26:43.402,18 Dec 2025 16:35:45.567,542.164
965,19 Dec 2025 14:33:32.664,19 Dec 2025 14:44:46.494,673.830
966,19 Dec 2025 16:07:39.998,19 Dec 2025 16:17:46.506,606.508
967,20 Dec 2025 14:15:02.017,20 Dec 2025 14:25:39.688,637.671
968,20 Dec 2025 15:48:43.237,20 Dec 2025 15:59:34.721,651.484
969,21 Dec 2025 13:56:39.853,21 Dec 2025 14:06:18.523,578.670
970,21 Dec 2025 15:29:51.709,21 Dec 2025 15:41:11.778,680.069
971,21 Dec 2025 17:05:43.313,21 Dec 2025 17:10:57.346,314.033
972,22 Dec 2025 13:38:30.910,22 Dec 2025 13:46:37.995,487.085
973,22 Dec 2025 15:11:04.881,22 Dec 2025 15:22:38.354,693.473
974,22 Dec 2025 16:46:10.317,22 Dec 2025 16:53:40.801,450.484
975,23 Dec 2025 13:20:49.058,23 Dec 2025 13:26:23.888,334.830
976,23 Dec 2025 14:52:22.735,23 Dec 2025 15:03:54.544,691.809
977,23 Dec 2025 16:26:56.889,23 Dec 2025 16:35:58.154,541.265
978,24 Dec 2025 14:33:45.751,24 Dec 2025 14:44:59.893,674.142
