3UCubedIntegratedSim/Reports & Plots/Comms/UNH/Sat 9 Comms.csv

"Access","Start Time (UTCG)","Stop Time (UTCG)","Duration (sec)"
1,2 Jan 2025 14:36:16.178,2 Jan 2025 14:36:48.167,31.989
2,3 Jan 2025 14:17:27.784,3 Jan 2025 14:17:53.953,26.170
3,4 Jan 2025 13:58:44.031,4 Jan 2025 13:58:59.740,15.708
4,4 Jan 2025 15:33:27.911,4 Jan 2025 15:33:44.126,16.215
5,5 Jan 2025 13:40:05.214,5 Jan 2025 13:40:05.521,0.307
6,5 Jan 2025 15:14:21.581,5 Jan 2025 15:14:49.912,28.331
7,6 Jan 2025 14:55:22.713,6 Jan 2025 14:55:55.697,32.985
8,7 Jan 2025 14:36:29.456,7 Jan 2025 14:37:01.483,32.028
9,8 Jan 2025 14:17:41.008,8 Jan 2025 14:18:07.269,26.262
10,9 Jan 2025 13:58:57.200,9 Jan 2025 13:59:13.055,15.855
11,9 Jan 2025 15:33:41.431,9 Jan 2025 15:33:57.441,16.010
12,10 Jan 2025 13:40:18.321,10 Jan 2025 13:40:18.836,0.515
13,10 Jan 2025 15:14:34.993,10 Jan 2025 15:15:03.226,28.233
14,11 Jan 2025 14:55:36.057,11 Jan 2025 14:56:09.010,32.953
15,12 Jan 2025 14:36:42.735,12 Jan 2025 14:37:14.795,32.060
16,13 Jan 2025 14:17:54.232,13 Jan 2025 14:18:20.580,26.348
17,14 Jan 2025 13:59:10.369,14 Jan 2025 13:59:26.366,15.997
18,14 Jan 2025 15:33:54.953,14 Jan 2025 15:34:10.752,15.799
19,15 Jan 2025 13:40:31.427,15 Jan 2025 13:40:32.147,0.720
20,15 Jan 2025 15:14:48.407,15 Jan 2025 15:15:16.537,28.130
21,16 Jan 2025 14:55:49.396,16 Jan 2025 14:56:22.323,32.926
22,17 Jan 2025 14:36:56.014,17 Jan 2025 14:37:28.109,32.094
23,18 Jan 2025 14:18:07.456,18 Jan 2025 14:18:33.895,26.439
24,19 Jan 2025 13:59:23.538,19 Jan 2025 13:59:39.682,16.144
25,19 Jan 2025 15:34:08.476,19 Jan 2025 15:34:24.067,15.592
26,20 Jan 2025 13:40:44.531,20 Jan 2025 13:40:45.464,0.932
27,20 Jan 2025 15:15:01.826,20 Jan 2025 15:15:29.853,28.027
28,21 Jan 2025 14:56:02.737,21 Jan 2025 14:56:35.639,32.902
29,22 Jan 2025 14:37:09.295,22 Jan 2025 14:37:41.425,32.129
30,23 Jan 2025 14:18:20.683,23 Jan 2025 14:18:47.211,26.528
31,24 Jan 2025 13:59:36.709,24 Jan 2025 13:59:52.997,16.287
32,24 Jan 2025 15:34:22.002,24 Jan 2025 15:34:37.382,15.381
33,25 Jan 2025 13:40:57.641,25 Jan 2025 13:40:58.778,1.137
34,25 Jan 2025 15:15:15.244,25 Jan 2025 15:15:43.167,27.923
35,26 Jan 2025 14:56:16.080,26 Jan 2025 14:56:48.952,32.872
36,27 Jan 2025 14:37:22.578,27 Jan 2025 14:37:54.737,32.160
37,28 Jan 2025 14:18:33.910,28 Jan 2025 14:19:00.523,26.613
38,29 Jan 2025 13:59:49.881,29 Jan 2025 14:00:06.308,16.428
39,29 Jan 2025 15:34:35.528,29 Jan 2025 15:34:50.694,15.166
40,30 Jan 2025 13:41:10.750,30 Jan 2025 13:41:12.090,1.340
41,30 Jan 2025 15:15:28.662,30 Jan 2025 15:15:56.479,27.817
42,31 Jan 2025 14:56:29.422,31 Jan 2025 14:57:02.265,32.843
43,1 Feb 2025 14:37:35.859,1 Feb 2025 14:38:08.051,32.192
44,2 Feb 2025 14:18:47.137,2 Feb 2025 14:19:13.838,26.701
45,3 Feb 2025 14:00:03.053,3 Feb 2025 14:00:19.625,16.572
46,3 Feb 2025 15:34:49.056,3 Feb 2025 15:35:04.010,14.954
47,4 Feb 2025 13:41:23.862,4 Feb 2025 13:41:25.408,1.546
48,4 Feb 2025 15:15:42.081,4 Feb 2025 15:16:09.796,27.715
49,5 Feb 2025 14:56:42.767,5 Feb 2025 14:57:15.582,32.815
50,6 Feb 2025 14:37:49.139,6 Feb 2025 14:38:21.368,32.228
51,7 Feb 2025 14:19:00.370,7 Feb 2025 14:19:27.153,26.784
52,8 Feb 2025 14:00:16.227,8 Feb 2025 14:00:32.939,16.712
53,8 Feb 2025 15:35:02.588,8 Feb 2025 15:35:17.325,14.737
54,9 Feb 2025 13:41:36.974,9 Feb 2025 13:41:38.721,1.747
55,9 Feb 2025 15:15:55.503,9 Feb 2025 15:16:23.110,27.606
56,10 Feb 2025 14:56:56.112,10 Feb 2025 14:57:28.895,32.782
57,11 Feb 2025 14:38:02.424,11 Feb 2025 14:38:34.680,32.256
58,12 Feb 2025 14:19:13.598,12 Feb 2025 14:19:40.466,26.868
59,13 Feb 2025 14:00:29.401,13 Feb 2025 14:00:46.252,16.852
60,13 Feb 2025 15:35:16.120,13 Feb 2025 15:35:30.638,14.518
61,14 Feb 2025 13:41:50.087,14 Feb 2025 13:41:52.036,1.950
62,14 Feb 2025 15:16:08.924,14 Feb 2025 15:16:36.424,27.500
63,15 Feb 2025 14:57:09.457,15 Feb 2025 14:57:42.210,32.753
64,16 Feb 2025 14:38:15.708,16 Feb 2025 14:38:47.997,32.289
65,17 Feb 2025 14:19:26.828,17 Feb 2025 14:19:53.784,26.956
66,18 Feb 2025 14:00:42.576,18 Feb 2025 14:00:59.571,16.995
67,18 Feb 2025 15:35:29.654,18 Feb 2025 15:35:43.957,14.303
68,19 Feb 2025 13:42:03.202,19 Feb 2025 13:42:05.356,2.154
69,19 Feb 2025 15:16:22.348,19 Feb 2025 15:16:49.743,27.395
70,20 Feb 2025 14:57:22.805,20 Feb 2025 14:57:55.529,32.724
71,21 Feb 2025 14:38:28.995,21 Feb 2025 14:39:01.315,32.320
72,22 Feb 2025 14:19:40.058,22 Feb 2025 14:20:07.101,27.044
73,23 Feb 2025 14:00:55.753,23 Feb 2025 14:01:12.887,17.134
74,23 Feb 2025 15:35:43.193,23 Feb 2025 15:35:57.273,14.080
75,24 Feb 2025 13:42:16.317,24 Feb 2025 13:42:18.672,2.354
76,24 Feb 2025 15:16:35.768,24 Feb 2025 15:17:03.058,27.290
77,25 Feb 2025 14:57:36.150,25 Feb 2025 14:58:08.844,32.694
78,26 Feb 2025 14:38:42.282,26 Feb 2025 14:39:14.629,32.347
79,27 Feb 2025 14:19:53.293,27 Feb 2025 14:20:20.416,27.123
80,28 Feb 2025 14:01:08.929,28 Feb 2025 14:01:26.202,17.273
81,28 Feb 2025 15:35:56.729,28 Feb 2025 15:36:10.588,13.859
82,1 Mar 2025 13:42:29.433,1 Mar 2025 13:42:31.989,2.556
83,1 Mar 2025 15:16:49.196,1 Mar 2025 15:17:16.375,27.179
84,2 Mar 2025 14:57:49.500,2 Mar 2025 14:58:22.162,32.661
85,3 Mar 2025 14:38:55.569,3 Mar 2025 14:39:27.949,32.379
86,4 Mar 2025 14:20:06.526,4 Mar 2025 14:20:33.736,27.210
87,5 Mar 2025 14:01:22.108,5 Mar 2025 14:01:39.523,17.416
88,5 Mar 2025 15:36:10.269,5 Mar 2025 15:36:23.909,13.640
89,6 Mar 2025 13:42:42.551,6 Mar 2025 13:42:45.305,2.754
90,6 Mar 2025 15:17:02.625,6 Mar 2025 15:17:29.695,27.071
91,7 Mar 2025 14:58:02.852,7 Mar 2025 14:58:35.481,32.629
92,8 Mar 2025 14:39:08.859,8 Mar 2025 14:39:41.267,32.408
93,9 Mar 2025 14:20:19.760,9 Mar 2025 14:20:47.054,27.293
94,10 Mar 2025 14:01:35.287,10 Mar 2025 14:01:52.840,17.553
95,10 Mar 2025 15:36:23.815,10 Mar 2025 15:36:37.226,13.411
96,11 Mar 2025 13:42:55.669,11 Mar 2025 13:42:58.626,2.957
97,11 Mar 2025 15:17:16.049,11 Mar 2025 15:17:43.012,26.963
98,12 Mar 2025 14:58:16.198,12 Mar 2025 14:58:48.798,32.600
99,13 Mar 2025 14:39:22.148,13 Mar 2025 14:39:54.585,32.437
100,14 Mar 2025 14:20:32.994,14 Mar 2025 14:21:00.372,27.378
101,15 Mar 2025 14:01:48.466,15 Mar 2025 14:02:06.160,17.694
102,15 Mar 2025 15:36:37.354,15 Mar 2025 15:36:50.546,13.192
103,16 Mar 2025 13:43:08.788,16 Mar 2025 13:43:11.948,3.159
104,16 Mar 2025 15:17:29.477,16 Mar 2025 15:17:56.333,26.856
105,17 Mar 2025 14:58:29.549,17 Mar 2025 14:59:02.120,32.571
106,18 Mar 2025 14:39:35.438,18 Mar 2025 14:40:07.908,32.470
107,19 Mar 2025 14:20:46.230,19 Mar 2025 14:21:13.696,27.466
108,20 Mar 2025 14:02:01.647,20 Mar 2025 14:02:19.483,17.837
109,20 Mar 2025 15:36:50.898,20 Mar 2025 15:37:03.869,12.971
110,21 Mar 2025 13:43:21.909,21 Mar 2025 13:43:25.271,3.362
111,21 Mar 2025 15:17:42.907,21 Mar 2025 15:18:09.656,26.749
112,22 Mar 2025 14:58:42.903,22 Mar 2025 14:59:15.443,32.540
113,23 Mar 2025 14:39:48.730,23 Mar 2025 14:40:21.230,32.500
114,24 Mar 2025 14:20:59.466,24 Mar 2025 14:21:27.016,27.550
115,25 Mar 2025 14:02:14.828,25 Mar 2025 14:02:32.803,17.975
116,25 Mar 2025 15:37:04.445,25 Mar 2025 15:37:17.189,12.744
117,26 Mar 2025 13:43:35.030,26 Mar 2025 13:43:38.590,3.560
118,26 Mar 2025 15:17:56.339,26 Mar 2025 15:18:22.976,26.637
119,27 Mar 2025 14:58:56.257,27 Mar 2025 14:59:28.762,32.505
120,28 Mar 2025 14:40:02.021,28 Mar 2025 14:40:34.549,32.529
121,29 Mar 2025 14:21:12.702,29 Mar 2025 14:21:40.337,27.635
122,30 Mar 2025 14:02:28.010,30 Mar 2025 14:02:46.126,18.116
123,30 Mar 2025 15:37:17.996,30 Mar 2025 15:37:30.512,12.515
124,31 Mar 2025 13:43:48.152,31 Mar 2025 13:43:51.914,3.763
125,31 Mar 2025 15:18:09.770,31 Mar 2025 15:18:36.300,26.530
126,1 Apr 2025 14:59:09.611,1 Apr 2025 14:59:42.088,32.477
127,2 Apr 2025 14:40:15.313,2 Apr 2025 14:40:47.876,32.563
128,3 Apr 2025 14:21:25.940,3 Apr 2025 14:21:53.664,27.724
129,4 Apr 2025 14:02:41.193,4 Apr 2025 14:02:59.452,18.258
130,4 Apr 2025 15:37:31.544,4 Apr 2025 15:37:43.837,12.294
131,5 Apr 2025 13:44:01.276,5 Apr 2025 13:44:05.239,3.963
132,5 Apr 2025 15:18:23.205,5 Apr 2025 15:18:49.624,26.419
133,6 Apr 2025 14:59:22.967,6 Apr 2025 14:59:55.411,32.444
134,7 Apr 2025 14:40:28.607,7 Apr 2025 14:41:01.198,32.592
135,8 Apr 2025 14:21:39.178,8 Apr 2025 14:22:06.986,27.808
136,9 Apr 2025 14:02:54.376,9 Apr 2025 14:03:12.774,18.397
137,9 Apr 2025 15:37:45.095,9 Apr 2025 15:37:57.160,12.065
138,10 Apr 2025 13:44:14.399,10 Apr 2025 13:44:18.561,4.163
139,10 Apr 2025 15:18:36.639,10 Apr 2025 15:19:02.947,26.308
140,11 Apr 2025 14:59:36.323,11 Apr 2025 15:00:08.735,32.412
141,12 Apr 2025 14:40:41.899,12 Apr 2025 14:41:14.523,32.624
142,13 Apr 2025 14:21:52.416,13 Apr 2025 14:22:20.312,27.896
143,14 Apr 2025 14:03:07.560,14 Apr 2025 14:03:26.101,18.541
144,14 Apr 2025 15:37:58.646,14 Apr 2025 15:38:10.487,11.841
145,15 Apr 2025 13:44:27.523,15 Apr 2025 13:44:31.890,4.366
146,15 Apr 2025 15:18:50.074,15 Apr 2025 15:19:16.275,26.202
147,16 Apr 2025 14:59:49.676,16 Apr 2025 15:00:22.064,32.387
148,17 Apr 2025 14:40:55.193,17 Apr 2025 14:41:27.852,32.659
149,18 Apr 2025 14:22:05.655,18 Apr 2025 14:22:33.640,27.985
150,19 Apr 2025 14:03:20.745,19 Apr 2025 14:03:39.429,18.684
151,19 Apr 2025 15:38:12.205,19 Apr 2025 15:38:23.815,11.610
152,20 Apr 2025 13:44:40.649,20 Apr 2025 13:44:45.217,4.568
153,20 Apr 2025 15:19:03.511,20 Apr 2025 15:19:29.602,26.092
154,21 Apr 2025 15:00:03.034,21 Apr 2025 15:00:35.390,32.355
155,22 Apr 2025 14:41:08.489,22 Apr 2025 14:41:41.177,32.688
156,23 Apr 2025 14:22:18.895,23 Apr 2025 14:22:46.965,28.070
157,24 Apr 2025 14:03:33.930,24 Apr 2025 14:03:52.753,18.823
158,24 Apr 2025 15:38:25.760,24 Apr 2025 15:38:37.139,11.379
159,25 Apr 2025 13:44:53.774,25 Apr 2025 13:44:58.541,4.767
160,25 Apr 2025 15:19:16.947,25 Apr 2025 15:19:42.927,25.980
161,26 Apr 2025 15:00:16.391,26 Apr 2025 15:00:48.716,32.325
162,27 Apr 2025 14:41:21.783,27 Apr 2025 14:41:54.505,32.722
163,28 Apr 2025 14:22:32.134,28 Apr 2025 14:23:00.294,28.160
164,29 Apr 2025 14:03:47.116,29 Apr 2025 14:04:06.084,18.968
165,29 Apr 2025 15:38:39.316,29 Apr 2025 15:38:50.470,11.154
166,30 Apr 2025 13:45:06.901,30 Apr 2025 13:45:11.873,4.972
167,30 Apr 2025 15:19:30.382,30 Apr 2025 15:19:56.259,25.877
168,1 May 2025 15:00:29.749,1 May 2025 15:01:02.047,32.298
169,2 May 2025 14:41:35.079,2 May 2025 14:42:07.836,32.757
170,3 May 2025 14:22:45.376,3 May 2025 14:23:13.624,28.248
171,4 May 2025 14:04:00.303,4 May 2025 14:04:19.412,19.110
172,4 May 2025 15:38:52.875,4 May 2025 15:39:03.798,10.923
173,5 May 2025 13:45:20.029,5 May 2025 13:45:25.200,5.171
174,5 May 2025 15:19:43.821,5 May 2025 15:20:09.586,25.765
175,6 May 2025 15:00:43.106,6 May 2025 15:01:15.374,32.268
176,7 May 2025 14:41:48.375,7 May 2025 14:42:21.162,32.787
177,8 May 2025 14:22:58.614,8 May 2025 14:23:26.951,28.337
178,9 May 2025 14:04:13.489,9 May 2025 14:04:32.740,19.251
179,9 May 2025 15:39:06.434,9 May 2025 15:39:17.126,10.692
180,10 May 2025 13:45:33.156,10 May 2025 13:45:38.529,5.373
181,10 May 2025 15:19:57.259,10 May 2025 15:20:22.915,25.655
182,11 May 2025 15:00:56.465,11 May 2025 15:01:28.704,32.238
183,12 May 2025 14:42:01.670,12 May 2025 14:42:34.493,32.823
184,13 May 2025 14:23:11.854,13 May 2025 14:23:40.282,28.428
185,14 May 2025 14:04:26.676,14 May 2025 14:04:46.072,19.396
186,14 May 2025 15:39:19.994,14 May 2025 15:39:30.458,10.464
187,15 May 2025 13:45:46.285,15 May 2025 13:45:51.861,5.577
188,15 May 2025 15:20:10.698,15 May 2025 15:20:36.247,25.549
189,16 May 2025 15:01:09.824,16 May 2025 15:01:42.036,32.211
190,17 May 2025 14:42:14.967,17 May 2025 14:42:47.824,32.857
191,18 May 2025 14:23:25.096,18 May 2025 14:23:53.613,28.517
192,19 May 2025 14:04:39.864,19 May 2025 14:04:59.402,19.538
193,19 May 2025 15:39:33.557,19 May 2025 15:39:43.788,10.230
194,20 May 2025 13:45:59.414,20 May 2025 13:46:05.190,5.776
195,20 May 2025 15:20:24.140,20 May 2025 15:20:49.576,25.436
196,21 May 2025 15:01:23.184,21 May 2025 15:01:55.364,32.179
197,22 May 2025 14:42:28.264,22 May 2025 14:43:01.152,32.888
198,23 May 2025 14:23:38.337,23 May 2025 14:24:06.941,28.604
199,24 May 2025 14:04:53.051,24 May 2025 14:05:12.730,19.680
200,24 May 2025 15:39:47.119,24 May 2025 15:39:57.116,9.997
201,25 May 2025 13:46:12.542,25 May 2025 13:46:18.520,5.978
202,25 May 2025 15:20:37.580,25 May 2025 15:21:02.906,25.326
203,26 May 2025 15:01:36.543,26 May 2025 15:02:08.695,32.152
204,27 May 2025 14:42:41.560,27 May 2025 14:43:14.485,32.925
205,28 May 2025 14:23:51.579,28 May 2025 14:24:20.275,28.696
206,29 May 2025 14:05:06.240,29 May 2025 14:05:26.065,19.825
207,29 May 2025 15:40:00.682,29 May 2025 15:40:10.451,9.768
208,30 May 2025 13:46:25.673,30 May 2025 13:46:31.854,6.181
209,30 May 2025 15:20:51.019,30 May 2025 15:21:16.239,25.220
210,31 May 2025 15:01:49.904,31 May 2025 15:02:22.028,32.124
211,1 Jun 2025 14:42:54.858,1 Jun 2025 14:43:27.816,32.957
212,2 Jun 2025 14:24:04.822,2 Jun 2025 14:24:33.604,28.782
213,3 Jun 2025 14:05:19.429,3 Jun 2025 14:05:39.393,19.964
214,3 Jun 2025 15:40:14.250,3 Jun 2025 15:40:23.779,9.529
215,4 Jun 2025 13:46:38.803,4 Jun 2025 13:46:45.182,6.379
216,4 Jun 2025 15:21:04.462,4 Jun 2025 15:21:29.567,25.106
217,5 Jun 2025 15:02:03.264,5 Jun 2025 15:02:35.356,32.091
218,6 Jun 2025 14:43:08.156,6 Jun 2025 14:43:41.144,32.989
219,7 Jun 2025 14:24:18.064,7 Jun 2025 14:24:46.934,28.870
220,8 Jun 2025 14:05:32.617,8 Jun 2025 14:05:52.723,20.107
221,8 Jun 2025 15:40:27.817,8 Jun 2025 15:40:37.109,9.292
222,9 Jun 2025 13:46:51.933,9 Jun 2025 13:46:58.513,6.580
223,9 Jun 2025 15:21:17.903,9 Jun 2025 15:21:42.898,24.995
224,10 Jun 2025 15:02:16.624,10 Jun 2025 15:02:48.688,32.063
225,11 Jun 2025 14:43:21.453,11 Jun 2025 14:43:54.477,33.024
226,12 Jun 2025 14:24:31.306,12 Jun 2025 14:25:00.266,28.960
227,13 Jun 2025 14:05:45.805,13 Jun 2025 14:06:06.056,20.250
228,13 Jun 2025 15:40:41.390,13 Jun 2025 15:40:50.442,9.052
229,14 Jun 2025 13:47:05.064,14 Jun 2025 13:47:11.845,6.780
230,14 Jun 2025 15:21:31.347,14 Jun 2025 15:21:56.230,24.883
231,15 Jun 2025 15:02:29.986,15 Jun 2025 15:03:02.018,32.032
232,16 Jun 2025 14:43:34.752,16 Jun 2025 14:44:07.807,33.054
233,17 Jun 2025 14:24:44.550,17 Jun 2025 14:25:13.595,29.045
234,18 Jun 2025 14:05:58.995,18 Jun 2025 14:06:19.383,20.388
235,18 Jun 2025 15:40:54.962,18 Jun 2025 15:41:03.769,8.808
236,19 Jun 2025 13:47:18.195,19 Jun 2025 13:47:25.172,6.977
237,19 Jun 2025 15:21:44.792,19 Jun 2025 15:22:09.558,24.766
238,20 Jun 2025 15:02:43.348,20 Jun 2025 15:03:15.346,31.998
239,21 Jun 2025 14:43:48.050,21 Jun 2025 14:44:21.135,33.084
240,22 Jun 2025 14:24:57.793,22 Jun 2025 14:25:26.924,29.131
241,23 Jun 2025 14:06:12.184,23 Jun 2025 14:06:32.714,20.530
242,23 Jun 2025 15:41:08.533,23 Jun 2025 15:41:17.100,8.567
243,24 Jun 2025 13:47:31.326,24 Jun 2025 13:47:38.503,7.177
244,24 Jun 2025 15:21:58.236,24 Jun 2025 15:22:22.889,24.653
245,25 Jun 2025 15:02:56.710,25 Jun 2025 15:03:28.678,31.969
246,26 Jun 2025 14:44:01.349,26 Jun 2025 14:44:34.467,33.118
247,27 Jun 2025 14:25:11.037,27 Jun 2025 14:25:40.256,29.219
248,28 Jun 2025 14:06:25.375,28 Jun 2025 14:06:46.045,20.670
249,28 Jun 2025 15:41:22.108,28 Jun 2025 15:41:30.431,8.323
250,29 Jun 2025 13:47:44.459,29 Jun 2025 13:47:51.833,7.374
251,29 Jun 2025 15:22:11.683,29 Jun 2025 15:22:36.219,24.536
252,30 Jun 2025 15:03:10.073,30 Jun 2025 15:03:42.006,31.933
253,1 Jul 2025 14:44:14.649,1 Jul 2025 14:44:47.794,33.145
254,2 Jul 2025 14:25:24.281,2 Jul 2025 14:25:53.582,29.301
255,3 Jul 2025 14:06:38.564,3 Jul 2025 14:06:59.370,20.806
256,3 Jul 2025 15:41:35.684,3 Jul 2025 15:41:43.756,8.072
257,4 Jul 2025 13:47:57.591,4 Jul 2025 13:48:05.159,7.568
258,4 Jul 2025 15:22:25.129,4 Jul 2025 15:22:49.544,24.415
259,5 Jul 2025 15:03:23.436,5 Jul 2025 15:03:55.332,31.896
260,6 Jul 2025 14:44:27.948,6 Jul 2025 14:45:01.121,33.173
261,7 Jul 2025 14:25:37.524,7 Jul 2025 14:26:06.909,29.385
262,8 Jul 2025 14:06:51.754,8 Jul 2025 14:07:12.698,20.944
263,8 Jul 2025 15:41:49.260,8 Jul 2025 15:41:57.084,7.824
264,9 Jul 2025 13:48:10.723,9 Jul 2025 13:48:18.487,7.764
265,9 Jul 2025 15:22:38.576,9 Jul 2025 15:23:02.873,24.297
266,10 Jul 2025 15:03:36.799,10 Jul 2025 15:04:08.661,31.862
267,11 Jul 2025 14:44:41.248,11 Jul 2025 14:45:14.449,33.202
268,12 Jul 2025 14:25:50.769,12 Jul 2025 14:26:20.238,29.469
269,13 Jul 2025 14:07:04.945,13 Jul 2025 14:07:26.026,21.081
270,13 Jul 2025 15:42:02.841,13 Jul 2025 15:42:10.412,7.571
271,14 Jul 2025 13:48:23.857,14 Jul 2025 13:48:31.814,7.957
272,14 Jul 2025 15:22:52.025,14 Jul 2025 15:23:16.199,24.174
273,15 Jul 2025 15:03:50.164,15 Jul 2025 15:04:21.986,31.822
274,16 Jul 2025 14:44:54.548,16 Jul 2025 14:45:27.773,33.225
275,17 Jul 2025 14:26:04.014,17 Jul 2025 14:26:33.561,29.547
276,18 Jul 2025 14:07:18.133,18 Jul 2025 14:07:39.349,21.216
277,18 Jul 2025 15:42:16.426,18 Jul 2025 15:42:23.735,7.309
278,19 Jul 2025 13:48:36.989,19 Jul 2025 13:48:45.137,8.148
279,19 Jul 2025 15:23:05.474,19 Jul 2025 15:23:29.522,24.048
280,20 Jul 2025 15:04:03.528,20 Jul 2025 15:04:35.310,31.782
281,21 Jul 2025 14:45:07.851,21 Jul 2025 14:45:41.098,33.247
282,22 Jul 2025 14:26:17.258,22 Jul 2025 14:26:46.887,29.629
283,23 Jul 2025 14:07:31.324,23 Jul 2025 14:07:52.676,21.352
284,23 Jul 2025 15:42:30.008,23 Jul 2025 15:42:37.062,7.054
285,24 Jul 2025 13:48:50.123,24 Jul 2025 13:48:58.464,8.341
286,24 Jul 2025 15:23:18.924,24 Jul 2025 15:23:42.849,23.925
287,25 Jul 2025 15:04:16.894,25 Jul 2025 15:04:48.637,31.743
288,26 Jul 2025 14:45:21.153,26 Jul 2025 14:45:54.424,33.271
289,27 Jul 2025 14:26:30.504,27 Jul 2025 14:27:00.211,29.707
290,28 Jul 2025 14:07:44.516,28 Jul 2025 14:08:05.998,21.482
291,28 Jul 2025 15:42:43.595,28 Jul 2025 15:42:50.384,6.789
292,29 Jul 2025 13:49:03.257,29 Jul 2025 13:49:11.785,8.528
293,29 Jul 2025 15:23:32.377,29 Jul 2025 15:23:56.171,23.794
294,30 Jul 2025 15:04:30.256,30 Jul 2025 15:05:01.957,31.701
295,31 Jul 2025 14:45:34.455,31 Jul 2025 14:46:07.743,33.288
296,1 Aug 2025 14:26:43.750,1 Aug 2025 14:27:13.530,29.781
297,2 Aug 2025 14:07:57.707,2 Aug 2025 14:08:19.318,21.611
298,2 Aug 2025 15:42:57.182,2 Aug 2025 15:43:03.704,6.521
299,3 Aug 2025 13:49:16.390,3 Aug 2025 13:49:25.105,8.714
300,3 Aug 2025 15:23:45.829,3 Aug 2025 15:24:09.490,23.662
301,4 Aug 2025 15:04:43.623,4 Aug 2025 15:05:15.277,31.655
302,5 Aug 2025 14:45:47.757,5 Aug 2025 14:46:21.064,33.307
303,6 Aug 2025 14:26:56.995,6 Aug 2025 14:27:26.852,29.856
304,7 Aug 2025 14:08:10.899,7 Aug 2025 14:08:32.639,21.740
305,7 Aug 2025 15:43:10.772,7 Aug 2025 15:43:17.025,6.254
306,8 Aug 2025 13:49:29.525,8 Aug 2025 13:49:38.427,8.901
307,8 Aug 2025 15:23:59.283,8 Aug 2025 15:24:22.812,23.530
308,9 Aug 2025 15:04:56.990,9 Aug 2025 15:05:28.599,31.609
309,10 Aug 2025 14:46:01.061,10 Aug 2025 14:46:34.385,33.324
310,11 Aug 2025 14:27:10.243,11 Aug 2025 14:27:40.172,29.929
311,12 Aug 2025 14:08:24.092,12 Aug 2025 14:08:45.958,21.866
312,12 Aug 2025 15:43:24.365,12 Aug 2025 15:43:30.344,5.979
313,13 Aug 2025 13:49:42.661,13 Aug 2025 13:49:51.744,9.083
314,13 Aug 2025 15:24:12.734,13 Aug 2025 15:24:36.129,23.395
315,14 Aug 2025 15:05:10.359,14 Aug 2025 15:05:41.915,31.555
316,15 Aug 2025 14:46:14.362,15 Aug 2025 14:46:47.700,33.339
317,16 Aug 2025 14:27:23.489,16 Aug 2025 14:27:53.487,29.997
318,17 Aug 2025 14:08:37.284,17 Aug 2025 14:08:59.273,21.989
319,17 Aug 2025 15:43:37.959,17 Aug 2025 15:43:43.659,5.700
320,18 Aug 2025 13:49:55.795,18 Aug 2025 13:50:05.060,9.265
321,18 Aug 2025 15:24:26.189,18 Aug 2025 15:24:49.446,23.257
322,19 Aug 2025 15:05:23.728,19 Aug 2025 15:05:55.232,31.504
323,20 Aug 2025 14:46:27.667,20 Aug 2025 14:47:01.019,33.352
324,21 Aug 2025 14:27:36.737,21 Aug 2025 14:28:06.805,30.069
325,22 Aug 2025 14:08:50.478,22 Aug 2025 14:09:12.592,22.113
326,22 Aug 2025 15:43:51.555,22 Aug 2025 15:43:56.978,5.422
327,23 Aug 2025 13:50:08.932,23 Aug 2025 13:50:18.378,9.446
328,23 Aug 2025 15:24:39.647,23 Aug 2025 15:25:02.763,23.116
329,24 Aug 2025 15:05:37.099,24 Aug 2025 15:06:08.548,31.450
330,25 Aug 2025 14:46:40.972,25 Aug 2025 14:47:14.333,33.361
331,26 Aug 2025 14:27:49.986,26 Aug 2025 14:28:20.118,30.133
332,27 Aug 2025 14:09:03.673,27 Aug 2025 14:09:25.904,22.231
333,27 Aug 2025 15:44:05.156,27 Aug 2025 15:44:10.289,5.133
334,28 Aug 2025 13:50:22.069,28 Aug 2025 13:50:31.689,9.620
335,28 Aug 2025 15:24:53.107,28 Aug 2025 15:25:16.074,22.967
336,29 Aug 2025 15:05:50.470,29 Aug 2025 15:06:21.859,31.388
337,30 Aug 2025 14:46:54.277,30 Aug 2025 14:47:27.644,33.366
338,31 Aug 2025 14:28:03.234,31 Aug 2025 14:28:33.429,30.195
339,1 Sep 2025 14:09:16.867,1 Sep 2025 14:09:39.215,22.348
340,1 Sep 2025 15:44:18.758,1 Sep 2025 15:44:23.600,4.842
341,2 Sep 2025 13:50:35.205,2 Sep 2025 13:50:45.000,9.795
342,2 Sep 2025 15:25:06.567,2 Sep 2025 15:25:29.386,22.819
343,3 Sep 2025 15:06:03.842,3 Sep 2025 15:06:35.171,31.329
344,4 Sep 2025 14:47:07.583,4 Sep 2025 14:47:40.956,33.373
345,5 Sep 2025 14:28:16.483,5 Sep 2025 14:28:46.742,30.259
346,6 Sep 2025 14:09:30.065,6 Sep 2025 14:09:52.528,22.463
347,6 Sep 2025 15:44:32.364,6 Sep 2025 15:44:36.914,4.549
348,7 Sep 2025 13:50:48.348,7 Sep 2025 13:50:58.313,9.964
349,7 Sep 2025 15:25:20.030,7 Sep 2025 15:25:42.698,22.668
350,8 Sep 2025 15:06:17.216,8 Sep 2025 15:06:48.482,31.266
351,9 Sep 2025 14:47:20.891,9 Sep 2025 14:47:54.266,33.375
352,10 Sep 2025 14:28:29.734,10 Sep 2025 14:29:00.050,30.316
353,11 Sep 2025 14:09:43.261,11 Sep 2025 14:10:05.834,22.573
354,11 Sep 2025 15:44:45.974,11 Sep 2025 15:44:50.220,4.247
355,12 Sep 2025 13:51:01.486,12 Sep 2025 13:51:11.619,10.132
356,12 Sep 2025 15:25:33.494,12 Sep 2025 15:25:56.004,22.510
357,13 Sep 2025 15:06:30.591,13 Sep 2025 15:07:01.788,31.197
358,14 Sep 2025 14:47:34.198,14 Sep 2025 14:48:07.572,33.374
359,15 Sep 2025 14:28:42.984,15 Sep 2025 14:29:13.357,30.373
360,16 Sep 2025 14:09:56.457,16 Sep 2025 14:10:19.142,22.685
361,16 Sep 2025 15:44:59.583,16 Sep 2025 15:45:03.528,3.945
362,17 Sep 2025 13:51:14.620,17 Sep 2025 13:51:24.927,10.307
363,17 Sep 2025 15:25:46.959,17 Sep 2025 15:26:09.313,22.354
364,18 Sep 2025 15:06:43.966,18 Sep 2025 15:07:15.097,31.131
365,19 Sep 2025 14:47:47.507,19 Sep 2025 14:48:20.881,33.374
366,20 Sep 2025 14:28:56.236,20 Sep 2025 14:29:26.665,30.429
367,21 Sep 2025 14:10:09.652,21 Sep 2025 14:10:32.450,22.798
368,21 Sep 2025 15:45:13.197,21 Sep 2025 15:45:16.835,3.639
369,22 Sep 2025 13:51:27.761,22 Sep 2025 13:51:38.233,10.472
370,22 Sep 2025 15:26:00.428,22 Sep 2025 15:26:22.619,22.191
371,23 Sep 2025 15:06:57.344,23 Sep 2025 15:07:28.402,31.058
372,24 Sep 2025 14:48:00.818,24 Sep 2025 14:48:34.184,33.367
373,25 Sep 2025 14:29:09.489,25 Sep 2025 14:29:39.968,30.478
374,26 Sep 2025 14:10:22.850,26 Sep 2025 14:10:45.751,22.901
375,26 Sep 2025 15:45:26.815,26 Sep 2025 15:45:30.137,3.322
376,27 Sep 2025 13:51:40.901,27 Sep 2025 13:51:51.534,10.633
377,27 Sep 2025 15:26:13.898,27 Sep 2025 15:26:35.920,22.022
378,28 Sep 2025 15:07:10.722,28 Sep 2025 15:07:41.703,30.980
379,29 Sep 2025 14:48:14.128,29 Sep 2025 14:48:47.486,33.358
380,30 Sep 2025 14:29:22.742,30 Sep 2025 14:29:53.270,30.528
381,1 Oct 2025 14:10:36.048,1 Oct 2025 14:10:59.054,23.006
382,1 Oct 2025 15:45:40.434,1 Oct 2025 15:45:43.439,3.005
383,2 Oct 2025 13:51:54.043,2 Oct 2025 13:52:04.839,10.796
384,2 Oct 2025 15:26:27.368,2 Oct 2025 15:26:49.224,21.856
385,3 Oct 2025 15:07:24.102,3 Oct 2025 15:07:55.008,30.906
386,4 Oct 2025 14:48:27.440,4 Oct 2025 14:49:00.791,33.351
387,5 Oct 2025 14:29:35.997,5 Oct 2025 14:30:06.574,30.577
388,6 Oct 2025 14:10:49.249,6 Oct 2025 14:11:12.358,23.109
389,6 Oct 2025 15:45:54.058,6 Oct 2025 15:45:56.742,2.684
390,7 Oct 2025 13:52:07.186,7 Oct 2025 13:52:18.140,10.954
391,7 Oct 2025 15:26:40.847,7 Oct 2025 15:27:02.526,21.679
392,8 Oct 2025 15:07:37.484,8 Oct 2025 15:08:08.308,30.823
393,9 Oct 2025 14:48:40.754,9 Oct 2025 14:49:14.090,33.335
394,10 Oct 2025 14:29:49.253,10 Oct 2025 14:30:19.872,30.619
395,11 Oct 2025 14:11:02.449,11 Oct 2025 14:11:25.655,23.205
396,11 Oct 2025 15:46:07.685,11 Oct 2025 15:46:10.038,2.353
397,12 Oct 2025 13:52:20.329,12 Oct 2025 13:52:31.438,11.109
398,12 Oct 2025 15:26:54.322,12 Oct 2025 15:27:15.823,21.501
399,13 Oct 2025 15:07:50.866,13 Oct 2025 15:08:21.606,30.740
400,14 Oct 2025 14:48:54.068,14 Oct 2025 14:49:27.389,33.321
401,15 Oct 2025 14:30:02.509,15 Oct 2025 14:30:33.173,30.664
402,16 Oct 2025 14:11:15.651,16 Oct 2025 14:11:38.956,23.305
403,16 Oct 2025 15:46:21.315,16 Oct 2025 15:46:23.339,2.025
404,17 Oct 2025 13:52:33.474,17 Oct 2025 13:52:44.740,11.265
405,17 Oct 2025 15:27:07.799,17 Oct 2025 15:27:29.125,21.326
406,18 Oct 2025 15:08:04.251,18 Oct 2025 15:08:34.908,30.657
407,19 Oct 2025 14:49:07.385,19 Oct 2025 14:49:40.690,33.305
408,20 Oct 2025 14:30:15.769,20 Oct 2025 14:30:46.472,30.704
409,21 Oct 2025 14:11:28.856,21 Oct 2025 14:11:52.254,23.399
410,21 Oct 2025 15:46:34.951,21 Oct 2025 15:46:36.637,1.685
411,22 Oct 2025 13:52:46.620,22 Oct 2025 13:52:58.037,11.417
412,22 Oct 2025 15:27:21.280,22 Oct 2025 15:27:42.422,21.142
413,23 Oct 2025 15:08:17.638,23 Oct 2025 15:08:48.203,30.565
414,24 Oct 2025 14:49:20.702,24 Oct 2025 14:49:53.985,33.283
415,25 Oct 2025 14:30:29.028,25 Oct 2025 14:30:59.767,30.739
416,26 Oct 2025 14:11:42.059,26 Oct 2025 14:12:05.550,23.490
417,26 Oct 2025 15:46:48.589,26 Oct 2025 15:46:49.931,1.342
418,27 Oct 2025 13:52:59.766,27 Oct 2025 13:53:11.332,11.566
419,27 Oct 2025 15:27:34.762,27 Oct 2025 15:27:55.718,20.956
420,28 Oct 2025 15:08:31.025,28 Oct 2025 15:09:01.500,30.475
421,29 Oct 2025 14:49:34.020,29 Oct 2025 14:50:07.282,33.262
422,30 Oct 2025 14:30:42.288,30 Oct 2025 14:31:13.065,30.778
423,31 Oct 2025 14:11:55.265,31 Oct 2025 14:12:18.849,23.584
424,31 Oct 2025 15:47:02.229,31 Oct 2025 15:47:03.230,1.001
425,1 Nov 2025 13:53:12.915,1 Nov 2025 13:53:24.632,11.717
426,1 Nov 2025 15:27:48.245,1 Nov 2025 15:28:09.017,20.772
427,2 Nov 2025 15:08:44.415,2 Nov 2025 15:09:14.799,30.385
428,3 Nov 2025 14:49:47.341,3 Nov 2025 14:50:20.581,33.240
429,4 Nov 2025 14:30:55.550,4 Nov 2025 14:31:26.363,30.813
430,5 Nov 2025 14:12:08.472,5 Nov 2025 14:12:32.144,23.673
431,5 Nov 2025 15:47:15.874,5 Nov 2025 15:47:16.526,0.651
432,6 Nov 2025 13:53:26.064,6 Nov 2025 13:53:37.926,11.862
433,6 Nov 2025 15:28:01.733,6 Nov 2025 15:28:22.311,20.579
434,7 Nov 2025 15:08:57.806,7 Nov 2025 15:09:28.092,30.286
435,8 Nov 2025 14:50:00.662,8 Nov 2025 14:50:33.874,33.211
436,9 Nov 2025 14:31:08.812,9 Nov 2025 14:31:39.656,30.844
437,10 Nov 2025 14:12:21.679,10 Nov 2025 14:12:45.439,23.760
438,10 Nov 2025 15:47:29.520,10 Nov 2025 15:47:29.820,0.299
439,11 Nov 2025 13:53:39.214,11 Nov 2025 13:53:51.221,12.008
440,11 Nov 2025 15:28:15.220,11 Nov 2025 15:28:35.607,20.387
441,12 Nov 2025 15:09:11.203,12 Nov 2025 15:09:41.389,30.187
442,13 Nov 2025 14:50:13.984,13 Nov 2025 14:50:47.172,33.188
443,14 Nov 2025 14:31:22.076,14 Nov 2025 14:31:52.955,30.878
444,15 Nov 2025 14:12:34.888,15 Nov 2025 14:12:58.737,23.849
445,16 Nov 2025 13:53:52.367,16 Nov 2025 13:54:04.520,12.153
446,16 Nov 2025 15:28:28.707,16 Nov 2025 15:28:48.905,20.198
447,17 Nov 2025 15:09:24.598,17 Nov 2025 15:09:54.687,30.089
448,18 Nov 2025 14:50:27.309,18 Nov 2025 14:51:00.468,33.159
449,19 Nov 2025 14:31:35.342,19 Nov 2025 14:32:06.250,30.907
450,20 Nov 2025 14:12:48.099,20 Nov 2025 14:13:12.032,23.933
451,21 Nov 2025 13:54:05.521,21 Nov 2025 13:54:17.814,12.293
452,21 Nov 2025 15:28:42.202,21 Nov 2025 15:29:02.199,19.997
453,22 Nov 2025 15:09:37.994,22 Nov 2025 15:10:07.981,29.987
454,23 Nov 2025 14:50:40.635,23 Nov 2025 14:51:13.763,33.128
455,24 Nov 2025 14:31:48.609,24 Nov 2025 14:32:19.545,30.936
456,25 Nov 2025 14:13:01.310,25 Nov 2025 14:13:25.328,24.018
457,26 Nov 2025 13:54:18.675,26 Nov 2025 13:54:31.111,12.435
458,26 Nov 2025 15:28:55.698,26 Nov 2025 15:29:15.496,19.798
459,27 Nov 2025 15:09:51.391,27 Nov 2025 15:10:21.279,29.888
460,28 Nov 2025 14:50:53.962,28 Nov 2025 14:51:27.061,33.100
461,29 Nov 2025 14:32:01.877,29 Nov 2025 14:32:32.844,30.967
462,30 Nov 2025 14:13:14.523,30 Nov 2025 14:13:38.627,24.104
463,1 Dec 2025 13:54:31.833,1 Dec 2025 13:54:44.410,12.577
464,1 Dec 2025 15:29:09.194,1 Dec 2025 15:29:28.795,19.601
465,2 Dec 2025 15:10:04.791,2 Dec 2025 15:10:34.577,29.786
466,3 Dec 2025 14:51:07.291,3 Dec 2025 14:51:40.359,33.068
467,4 Dec 2025 14:32:15.147,4 Dec 2025 14:32:46.140,30.993
468,5 Dec 2025 14:13:27.738,5 Dec 2025 14:13:51.922,24.184
469,6 Dec 2025 13:54:44.990,6 Dec 2025 13:54:57.704,12.714
470,6 Dec 2025 15:29:22.691,6 Dec 2025 15:29:42.090,19.398
471,7 Dec 2025 15:10:18.192,7 Dec 2025 15:10:47.872,29.680
472,8 Dec 2025 14:51:20.620,8 Dec 2025 14:51:53.654,33.034
473,9 Dec 2025 14:32:28.417,9 Dec 2025 14:32:59.438,31.021
474,10 Dec 2025 14:13:40.953,10 Dec 2025 14:14:05.221,24.269
475,11 Dec 2025 13:54:58.148,11 Dec 2025 13:55:11.005,12.857
476,11 Dec 2025 15:29:36.192,11 Dec 2025 15:29:55.390,19.199
477,12 Dec 2025 15:10:31.594,12 Dec 2025 15:11:01.174,29.580
478,13 Dec 2025 14:51:33.952,13 Dec 2025 14:52:06.957,33.005
479,14 Dec 2025 14:32:41.690,14 Dec 2025 14:33:12.740,31.050
480,15 Dec 2025 14:13:54.171,15 Dec 2025 14:14:18.523,24.352
481,16 Dec 2025 13:55:11.305,16 Dec 2025 13:55:24.306,13.001
482,16 Dec 2025 15:29:49.700,16 Dec 2025 15:30:08.691,18.992
483,17 Dec 2025 15:10:44.999,17 Dec 2025 15:11:14.474,29.475
484,18 Dec 2025 14:51:47.282,18 Dec 2025 14:52:20.256,32.975
485,19 Dec 2025 14:32:54.964,19 Dec 2025 14:33:26.039,31.075
486,20 Dec 2025 14:14:07.389,20 Dec 2025 14:14:31.822,24.434
487,21 Dec 2025 13:55:24.468,21 Dec 2025 13:55:37.606,13.137
488,21 Dec 2025 15:30:03.205,21 Dec 2025 15:30:21.991,18.786
489,22 Dec 2025 15:10:58.405,22 Dec 2025 15:11:27.774,29.370
490,23 Dec 2025 14:52:00.619,23 Dec 2025 14:52:33.557,32.939
491,24 Dec 2025 14:33:08.238,24 Dec 2025 14:33:39.341,31.104
492,25 Dec 2025 14:14:20.607,25 Dec 2025 14:14:45.126,24.518
493,26 Dec 2025 13:55:37.631,26 Dec 2025 13:55:50.910,13.279
494,26 Dec 2025 15:30:16.710,26 Dec 2025 15:30:35.296,18.586
495,27 Dec 2025 15:11:11.811,27 Dec 2025 15:11:41.080,29.269
496,28 Dec 2025 14:52:13.954,28 Dec 2025 14:52:46.864,32.910
497,29 Dec 2025 14:33:21.514,29 Dec 2025 14:33:52.648,31.134
498,30 Dec 2025 14:14:33.829,30 Dec 2025 14:14:58.432,24.603
499,31 Dec 2025 13:55:50.798,31 Dec 2025 13:56:04.215,13.418
500,31 Dec 2025 15:30:30.217,31 Dec 2025 15:30:48.601,18.384
501,1 Jan 2026 15:11:25.221,1 Jan 2026 15:11:54.384,29.163

Global Statistics
"Min Duration",438,10 Nov 2025 15:47:29.520,10 Nov 2025 15:47:29.820,0.299
"Max Duration",351,9 Sep 2025 14:47:20.891,9 Sep 2025 14:47:54.266,33.375
"Mean Duration",,,,22.327
"Total Duration",,,,11185.878


