3UCubedIntegratedSim/Reports & Plots/Comms/UNH/Sat 12 Comms.csv

"Access","Start Time (UTCG)","Stop Time (UTCG)","Duration (sec)"
1,1 Jan 2025 16:30:36.462,1 Jan 2025 16:41:45.833,669.371
2,1 Jan 2025 18:04:39.663,1 Jan 2025 18:14:54.542,614.879
3,2 Jan 2025 16:12:06.982,2 Jan 2025 16:22:36.945,629.964
4,2 Jan 2025 17:45:43.809,2 Jan 2025 17:56:40.905,657.096
5,2 Jan 2025 19:23:29.029,2 Jan 2025 19:24:06.253,37.224
6,3 Jan 2025 15:53:46.513,3 Jan 2025 16:03:13.137,566.624
7,3 Jan 2025 17:26:53.057,3 Jan 2025 17:38:16.262,683.205
8,3 Jan 2025 19:02:35.275,3 Jan 2025 19:08:16.116,340.841
9,4 Jan 2025 15:35:40.510,4 Jan 2025 15:43:28.678,468.168
10,4 Jan 2025 17:08:06.969,4 Jan 2025 17:19:41.194,694.225
11,4 Jan 2025 18:43:06.777,4 Jan 2025 18:50:54.027,467.250
12,5 Jan 2025 15:18:06.516,5 Jan 2025 15:23:05.648,299.132
13,5 Jan 2025 16:49:25.606,5 Jan 2025 17:00:55.703,690.098
14,5 Jan 2025 18:23:55.313,5 Jan 2025 18:33:08.403,553.090
15,6 Jan 2025 16:30:49.531,6 Jan 2025 16:41:59.247,669.716
16,6 Jan 2025 18:04:53.036,6 Jan 2025 18:15:07.312,614.276
17,7 Jan 2025 16:12:19.964,7 Jan 2025 16:22:50.516,630.552
18,7 Jan 2025 17:45:57.117,7 Jan 2025 17:56:53.809,656.692
19,8 Jan 2025 15:53:59.367,8 Jan 2025 16:03:26.908,567.541
20,8 Jan 2025 17:27:06.308,8 Jan 2025 17:38:29.295,682.987
21,8 Jan 2025 19:02:49.178,8 Jan 2025 19:08:28.135,338.957
22,9 Jan 2025 15:35:53.137,9 Jan 2025 15:43:42.752,469.614
23,9 Jan 2025 17:08:20.167,9 Jan 2025 17:19:54.350,694.182
24,9 Jan 2025 18:43:20.377,9 Jan 2025 18:51:06.427,466.050
25,10 Jan 2025 15:18:18.497,10 Jan 2025 15:23:20.448,301.951
26,10 Jan 2025 16:49:38.746,10 Jan 2025 17:01:08.985,690.239
27,10 Jan 2025 18:24:08.771,10 Jan 2025 18:33:21.015,552.244
28,11 Jan 2025 16:31:02.604,11 Jan 2025 16:42:12.663,670.059
29,11 Jan 2025 18:05:06.412,11 Jan 2025 18:15:20.085,613.673
30,12 Jan 2025 16:12:32.949,12 Jan 2025 16:23:04.088,631.139
31,12 Jan 2025 17:46:10.425,12 Jan 2025 17:57:06.717,656.292
32,13 Jan 2025 15:54:12.223,13 Jan 2025 16:03:40.678,568.454
33,13 Jan 2025 17:27:19.562,13 Jan 2025 17:38:42.328,682.766
34,13 Jan 2025 19:03:03.090,13 Jan 2025 19:08:40.145,337.055
35,14 Jan 2025 15:36:05.767,14 Jan 2025 15:43:56.822,471.055
36,14 Jan 2025 17:08:33.366,14 Jan 2025 17:20:07.504,694.138
37,14 Jan 2025 18:43:33.981,14 Jan 2025 18:51:18.822,464.841
38,15 Jan 2025 15:18:30.491,15 Jan 2025 15:23:35.233,304.741
39,15 Jan 2025 16:49:51.886,15 Jan 2025 17:01:22.264,690.378
40,15 Jan 2025 18:24:22.235,15 Jan 2025 18:33:33.625,551.390
41,16 Jan 2025 16:31:15.676,16 Jan 2025 16:42:26.072,670.395
42,16 Jan 2025 18:05:19.788,16 Jan 2025 18:15:32.854,613.066
43,17 Jan 2025 16:12:45.937,17 Jan 2025 16:23:17.653,631.716
44,17 Jan 2025 17:46:23.737,17 Jan 2025 17:57:19.623,655.886
45,18 Jan 2025 15:54:25.081,18 Jan 2025 16:03:54.443,569.362
46,18 Jan 2025 17:27:32.815,18 Jan 2025 17:38:55.358,682.543
47,18 Jan 2025 19:03:17.006,18 Jan 2025 19:08:52.148,335.143
48,19 Jan 2025 15:36:18.401,19 Jan 2025 15:44:10.885,472.484
49,19 Jan 2025 17:08:46.564,19 Jan 2025 17:20:20.655,694.091
50,19 Jan 2025 18:43:47.585,19 Jan 2025 18:51:31.214,463.630
51,20 Jan 2025 15:18:42.503,20 Jan 2025 15:23:49.998,307.495
52,20 Jan 2025 16:50:05.027,20 Jan 2025 17:01:35.539,690.512
53,20 Jan 2025 18:24:35.699,20 Jan 2025 18:33:46.233,550.533
54,21 Jan 2025 16:31:28.750,21 Jan 2025 16:42:39.486,670.736
55,21 Jan 2025 18:05:33.164,21 Jan 2025 18:15:45.622,612.458
56,22 Jan 2025 16:12:58.925,22 Jan 2025 16:23:31.219,632.295
57,22 Jan 2025 17:46:37.048,22 Jan 2025 17:57:32.527,655.480
58,23 Jan 2025 15:54:37.942,23 Jan 2025 16:04:08.207,570.265
59,23 Jan 2025 17:27:46.069,23 Jan 2025 17:39:08.388,682.319
60,23 Jan 2025 19:03:30.927,23 Jan 2025 19:09:04.146,333.219
61,24 Jan 2025 15:36:31.041,24 Jan 2025 15:44:24.945,473.904
62,24 Jan 2025 17:08:59.765,24 Jan 2025 17:20:33.807,694.042
63,24 Jan 2025 18:44:01.191,24 Jan 2025 18:51:43.605,462.414
64,25 Jan 2025 15:18:54.527,25 Jan 2025 15:24:04.754,310.226
65,25 Jan 2025 16:50:18.175,25 Jan 2025 17:01:48.813,690.639
66,25 Jan 2025 18:24:49.166,25 Jan 2025 18:33:58.837,549.671
67,26 Jan 2025 16:31:41.827,26 Jan 2025 16:42:52.896,671.070
68,26 Jan 2025 18:05:46.543,26 Jan 2025 18:15:58.389,611.846
69,27 Jan 2025 16:13:11.914,27 Jan 2025 16:23:44.785,632.871
70,27 Jan 2025 17:46:50.360,27 Jan 2025 17:57:45.431,655.071
71,28 Jan 2025 15:54:50.805,28 Jan 2025 16:04:21.969,571.165
72,28 Jan 2025 17:27:59.325,28 Jan 2025 17:39:21.417,682.092
73,28 Jan 2025 19:03:44.858,28 Jan 2025 19:09:16.136,331.278
74,29 Jan 2025 15:36:43.683,29 Jan 2025 15:44:39.001,475.319
75,29 Jan 2025 17:09:12.966,29 Jan 2025 17:20:46.957,693.991
76,29 Jan 2025 18:44:14.801,29 Jan 2025 18:51:55.992,461.191
77,30 Jan 2025 15:19:06.568,30 Jan 2025 15:24:19.490,312.922
78,30 Jan 2025 16:50:31.318,30 Jan 2025 17:02:02.087,690.770
79,30 Jan 2025 18:25:02.634,30 Jan 2025 18:34:11.440,548.806
80,31 Jan 2025 16:31:54.902,31 Jan 2025 16:43:06.304,671.402
81,31 Jan 2025 18:05:59.922,31 Jan 2025 18:16:11.153,611.231
82,1 Feb 2025 16:13:24.902,1 Feb 2025 16:23:58.345,633.442
83,1 Feb 2025 17:47:03.672,1 Feb 2025 17:57:58.332,654.660
84,2 Feb 2025 15:55:03.669,2 Feb 2025 16:04:35.727,572.059
85,2 Feb 2025 17:28:12.580,2 Feb 2025 17:39:34.443,681.863
86,2 Feb 2025 19:03:58.793,2 Feb 2025 19:09:28.118,329.325
87,3 Feb 2025 15:36:56.327,3 Feb 2025 15:44:53.054,476.728
88,3 Feb 2025 17:09:26.170,3 Feb 2025 17:21:00.101,693.931
89,3 Feb 2025 18:44:28.413,3 Feb 2025 18:52:08.374,459.961
90,4 Feb 2025 15:19:18.630,4 Feb 2025 15:24:34.205,315.575
91,4 Feb 2025 16:50:44.462,4 Feb 2025 17:02:15.364,690.902
92,4 Feb 2025 18:25:16.102,4 Feb 2025 18:34:24.045,547.943
93,5 Feb 2025 16:32:07.978,5 Feb 2025 16:43:19.706,671.728
94,5 Feb 2025 18:06:13.302,5 Feb 2025 18:16:23.918,610.616
95,6 Feb 2025 16:13:37.894,6 Feb 2025 16:24:11.906,634.011
96,6 Feb 2025 17:47:16.986,6 Feb 2025 17:58:11.233,654.247
97,7 Feb 2025 15:55:16.537,7 Feb 2025 16:04:49.484,572.947
98,7 Feb 2025 17:28:25.838,7 Feb 2025 17:39:47.470,681.632
99,7 Feb 2025 19:04:12.735,7 Feb 2025 19:09:40.094,327.360
100,8 Feb 2025 15:37:08.980,8 Feb 2025 15:45:07.102,478.122
101,8 Feb 2025 17:09:39.373,8 Feb 2025 17:21:13.251,693.877
102,8 Feb 2025 18:44:42.028,8 Feb 2025 18:52:20.758,458.730
103,9 Feb 2025 15:19:30.702,9 Feb 2025 15:24:48.911,318.210
104,9 Feb 2025 16:50:57.608,9 Feb 2025 17:02:28.636,691.028
105,9 Feb 2025 18:25:29.573,9 Feb 2025 18:34:36.646,547.073
106,10 Feb 2025 16:32:21.057,10 Feb 2025 16:43:33.112,672.055
107,10 Feb 2025 18:06:26.683,10 Feb 2025 18:16:36.680,609.997
108,11 Feb 2025 16:13:50.887,11 Feb 2025 16:24:25.466,634.579
109,11 Feb 2025 17:47:30.301,11 Feb 2025 17:58:24.133,653.832
110,12 Feb 2025 15:55:29.405,12 Feb 2025 16:05:03.238,573.833
111,12 Feb 2025 17:28:39.095,12 Feb 2025 17:40:00.494,681.399
112,12 Feb 2025 19:04:26.685,12 Feb 2025 19:09:52.061,325.376
113,13 Feb 2025 15:37:21.634,13 Feb 2025 15:45:21.142,479.508
114,13 Feb 2025 17:09:52.573,13 Feb 2025 17:21:26.399,693.826
115,13 Feb 2025 18:44:55.643,13 Feb 2025 18:52:33.136,457.493
116,14 Feb 2025 15:19:42.781,14 Feb 2025 15:25:03.602,320.821
117,14 Feb 2025 16:51:10.749,14 Feb 2025 17:02:41.906,691.157
118,14 Feb 2025 18:25:43.044,14 Feb 2025 18:34:49.244,546.200
119,15 Feb 2025 16:32:34.136,15 Feb 2025 16:43:46.515,672.379
120,15 Feb 2025 18:06:40.064,15 Feb 2025 18:16:49.440,609.376
121,16 Feb 2025 16:14:03.880,16 Feb 2025 16:24:39.022,635.142
122,16 Feb 2025 17:47:43.615,16 Feb 2025 17:58:37.029,653.414
123,17 Feb 2025 15:55:42.276,17 Feb 2025 16:05:16.988,574.712
124,17 Feb 2025 17:28:52.353,17 Feb 2025 17:40:13.517,681.164
125,17 Feb 2025 19:04:40.639,17 Feb 2025 19:10:04.022,323.384
126,18 Feb 2025 15:37:34.292,18 Feb 2025 15:45:35.179,480.886
127,18 Feb 2025 17:10:05.777,18 Feb 2025 17:21:39.543,693.766
128,18 Feb 2025 18:45:09.260,18 Feb 2025 18:52:45.511,456.251
129,19 Feb 2025 15:19:54.885,19 Feb 2025 15:25:18.277,323.392
130,19 Feb 2025 16:51:23.895,19 Feb 2025 17:02:55.174,691.279
131,19 Feb 2025 18:25:56.516,19 Feb 2025 18:35:01.840,545.325
132,20 Feb 2025 16:32:47.217,20 Feb 2025 16:43:59.917,672.700
133,20 Feb 2025 18:06:53.447,20 Feb 2025 18:17:02.199,608.753
134,21 Feb 2025 16:14:16.876,21 Feb 2025 16:24:52.577,635.701
135,21 Feb 2025 17:47:56.931,21 Feb 2025 17:58:49.926,652.995
136,22 Feb 2025 15:55:55.150,22 Feb 2025 16:05:30.737,575.587
137,22 Feb 2025 17:29:05.612,22 Feb 2025 17:40:26.539,680.928
138,22 Feb 2025 19:04:54.600,22 Feb 2025 19:10:15.977,321.376
139,23 Feb 2025 15:37:46.955,23 Feb 2025 15:45:49.213,482.257
140,23 Feb 2025 17:10:18.982,23 Feb 2025 17:21:52.687,693.705
141,23 Feb 2025 18:45:22.881,23 Feb 2025 18:52:57.885,455.004
142,24 Feb 2025 15:20:06.998,24 Feb 2025 15:25:32.941,325.942
143,24 Feb 2025 16:51:37.044,24 Feb 2025 17:03:08.442,691.398
144,24 Feb 2025 18:26:09.990,24 Feb 2025 18:35:14.435,544.445
145,25 Feb 2025 16:33:00.299,25 Feb 2025 16:44:13.323,673.023
146,25 Feb 2025 18:07:06.831,25 Feb 2025 18:17:14.957,608.126
147,26 Feb 2025 16:14:29.873,26 Feb 2025 16:25:06.131,636.258
148,26 Feb 2025 17:48:10.248,26 Feb 2025 17:59:02.821,652.573
149,27 Feb 2025 15:56:08.024,27 Feb 2025 16:05:44.483,576.458
150,27 Feb 2025 17:29:18.871,27 Feb 2025 17:40:39.560,680.688
151,27 Feb 2025 19:05:08.571,27 Feb 2025 19:10:27.921,319.350
152,28 Feb 2025 15:37:59.620,28 Feb 2025 15:46:03.242,483.622
153,28 Feb 2025 17:10:32.187,28 Feb 2025 17:22:05.829,693.642
154,28 Feb 2025 18:45:36.504,28 Feb 2025 18:53:10.253,453.749
155,1 Mar 2025 15:20:19.120,1 Mar 2025 15:25:47.589,328.469
156,1 Mar 2025 16:51:50.192,1 Mar 2025 17:03:21.707,691.515
157,1 Mar 2025 18:26:23.465,1 Mar 2025 18:35:27.027,543.562
158,2 Mar 2025 16:33:13.381,2 Mar 2025 16:44:26.720,673.339
159,2 Mar 2025 18:07:20.214,2 Mar 2025 18:17:27.712,607.498
160,3 Mar 2025 16:14:42.871,3 Mar 2025 16:25:19.682,636.811
161,3 Mar 2025 17:48:23.564,3 Mar 2025 17:59:15.714,652.150
162,4 Mar 2025 15:56:20.901,4 Mar 2025 16:05:58.225,577.324
163,4 Mar 2025 17:29:32.131,4 Mar 2025 17:40:52.578,680.447
164,4 Mar 2025 19:05:22.545,4 Mar 2025 19:10:39.859,317.314
165,5 Mar 2025 15:38:12.290,5 Mar 2025 15:46:17.265,484.975
166,5 Mar 2025 17:10:45.393,5 Mar 2025 17:22:18.969,693.576
167,5 Mar 2025 18:45:50.127,5 Mar 2025 18:53:22.620,452.493
168,6 Mar 2025 15:20:31.260,6 Mar 2025 15:26:02.225,330.966
169,6 Mar 2025 16:52:03.342,6 Mar 2025 17:03:34.971,691.630
170,6 Mar 2025 18:26:36.945,6 Mar 2025 18:35:39.618,542.673
171,7 Mar 2025 16:33:26.466,7 Mar 2025 16:44:40.118,673.652
172,7 Mar 2025 18:07:33.599,7 Mar 2025 18:17:40.467,606.868
173,8 Mar 2025 16:14:55.871,8 Mar 2025 16:25:33.232,637.361
174,8 Mar 2025 17:48:36.882,8 Mar 2025 17:59:28.607,651.724
175,9 Mar 2025 15:56:33.781,9 Mar 2025 16:06:11.966,578.185
176,9 Mar 2025 17:29:45.393,9 Mar 2025 17:41:05.597,680.204
177,9 Mar 2025 19:05:36.528,9 Mar 2025 19:10:51.789,315.261
178,10 Mar 2025 15:38:24.959,10 Mar 2025 15:46:31.286,486.327
179,10 Mar 2025 17:10:58.600,10 Mar 2025 17:22:32.109,693.509
180,10 Mar 2025 18:46:03.755,10 Mar 2025 18:53:34.984,451.228
181,11 Mar 2025 15:20:43.408,11 Mar 2025 15:26:16.849,333.441
182,11 Mar 2025 16:52:16.492,11 Mar 2025 17:03:48.235,691.743
183,11 Mar 2025 18:26:50.423,11 Mar 2025 18:35:52.206,541.783
184,12 Mar 2025 16:33:39.550,12 Mar 2025 16:44:53.514,673.964
185,12 Mar 2025 18:07:46.986,12 Mar 2025 18:17:53.219,606.234
186,13 Mar 2025 16:15:08.871,13 Mar 2025 16:25:46.779,637.908
187,13 Mar 2025 17:48:50.201,13 Mar 2025 17:59:41.497,651.296
188,14 Mar 2025 15:56:46.661,14 Mar 2025 16:06:25.703,579.042
189,14 Mar 2025 17:29:58.653,14 Mar 2025 17:41:18.612,679.959
190,14 Mar 2025 19:05:50.518,14 Mar 2025 19:11:03.708,313.190
191,15 Mar 2025 15:38:37.635,15 Mar 2025 15:46:45.301,487.666
192,15 Mar 2025 17:11:11.806,15 Mar 2025 17:22:45.246,693.439
193,15 Mar 2025 18:46:17.383,15 Mar 2025 18:53:47.343,449.959
194,16 Mar 2025 15:20:55.573,16 Mar 2025 15:26:31.458,335.885
195,16 Mar 2025 16:52:29.642,16 Mar 2025 17:04:01.495,691.853
196,16 Mar 2025 18:27:03.900,16 Mar 2025 18:36:04.792,540.892
197,17 Mar 2025 16:33:52.635,17 Mar 2025 16:45:06.906,674.272
198,17 Mar 2025 18:08:00.371,17 Mar 2025 18:18:05.969,605.599
199,18 Mar 2025 16:15:21.872,18 Mar 2025 16:26:00.324,638.451
200,18 Mar 2025 17:49:03.518,18 Mar 2025 17:59:54.385,650.867
201,19 Mar 2025 15:56:59.542,19 Mar 2025 16:06:39.433,579.891
202,19 Mar 2025 17:30:11.915,19 Mar 2025 17:41:31.622,679.707
203,19 Mar 2025 19:06:04.512,19 Mar 2025 19:11:15.625,311.113
204,20 Mar 2025 15:38:50.316,20 Mar 2025 15:46:59.310,488.994
205,20 Mar 2025 17:11:25.014,20 Mar 2025 17:22:58.382,693.367
206,20 Mar 2025 18:46:31.014,20 Mar 2025 18:53:59.700,448.685
207,21 Mar 2025 15:21:07.747,21 Mar 2025 15:26:46.051,338.304
208,21 Mar 2025 16:52:42.796,21 Mar 2025 17:04:14.753,691.957
209,21 Mar 2025 18:27:17.378,21 Mar 2025 18:36:17.376,539.998
210,22 Mar 2025 16:34:05.721,22 Mar 2025 16:45:20.298,674.577
211,22 Mar 2025 18:08:13.758,22 Mar 2025 18:18:18.719,604.962
212,23 Mar 2025 16:15:34.876,23 Mar 2025 16:26:13.867,638.991
213,23 Mar 2025 17:49:16.838,23 Mar 2025 18:00:07.273,650.435
214,24 Mar 2025 15:57:12.427,24 Mar 2025 16:06:53.166,580.739
215,24 Mar 2025 17:30:25.178,24 Mar 2025 17:41:44.636,679.458
216,24 Mar 2025 19:06:18.517,24 Mar 2025 19:11:27.530,309.013
217,25 Mar 2025 15:39:03.000,25 Mar 2025 15:47:13.317,490.317
218,25 Mar 2025 17:11:38.223,25 Mar 2025 17:23:11.517,693.293
219,25 Mar 2025 18:46:44.648,25 Mar 2025 18:54:12.054,447.405
220,26 Mar 2025 15:21:19.931,26 Mar 2025 15:27:00.635,340.704
221,26 Mar 2025 16:52:55.945,26 Mar 2025 17:04:28.013,692.068
222,26 Mar 2025 18:27:30.859,26 Mar 2025 18:36:29.958,539.099
223,27 Mar 2025 16:34:18.808,27 Mar 2025 16:45:33.688,674.880
224,27 Mar 2025 18:08:27.146,27 Mar 2025 18:18:31.466,604.320
225,28 Mar 2025 16:15:47.882,28 Mar 2025 16:26:27.408,639.526
226,28 Mar 2025 17:49:30.158,28 Mar 2025 18:00:20.158,650.000
227,29 Mar 2025 15:57:25.313,29 Mar 2025 16:07:06.895,581.582
228,29 Mar 2025 17:30:38.440,29 Mar 2025 17:41:57.647,679.207
229,29 Mar 2025 19:06:32.529,29 Mar 2025 19:11:39.424,306.895
230,30 Mar 2025 15:39:15.687,30 Mar 2025 15:47:27.319,491.632
231,30 Mar 2025 17:11:51.431,30 Mar 2025 17:23:24.649,693.218
232,30 Mar 2025 18:46:58.283,30 Mar 2025 18:54:24.403,446.121
233,31 Mar 2025 15:21:32.126,31 Mar 2025 15:27:15.206,343.080
234,31 Mar 2025 16:53:09.097,31 Mar 2025 17:04:41.268,692.171
235,31 Mar 2025 18:27:44.339,31 Mar 2025 18:36:42.537,538.198
236,1 Apr 2025 16:34:31.893,1 Apr 2025 16:45:47.076,675.183
237,1 Apr 2025 18:08:40.533,1 Apr 2025 18:18:44.211,603.678
238,2 Apr 2025 16:16:00.885,2 Apr 2025 16:26:40.946,640.061
239,2 Apr 2025 17:49:43.478,2 Apr 2025 18:00:33.042,649.565
240,3 Apr 2025 15:57:38.201,3 Apr 2025 16:07:20.620,582.419
241,3 Apr 2025 17:30:51.703,3 Apr 2025 17:42:10.657,678.954
242,3 Apr 2025 19:06:46.546,3 Apr 2025 19:11:51.310,304.764
243,4 Apr 2025 15:39:28.378,4 Apr 2025 15:47:41.316,492.938
244,4 Apr 2025 17:12:04.641,4 Apr 2025 17:23:37.781,693.140
245,4 Apr 2025 18:47:11.919,4 Apr 2025 18:54:36.751,444.832
246,5 Apr 2025 15:21:44.334,5 Apr 2025 15:27:29.766,345.433
247,5 Apr 2025 16:53:22.250,5 Apr 2025 17:04:54.523,692.273
248,5 Apr 2025 18:27:57.822,5 Apr 2025 18:36:55.115,537.294
249,6 Apr 2025 16:34:44.982,6 Apr 2025 16:46:00.463,675.481
250,6 Apr 2025 18:08:53.923,6 Apr 2025 18:18:56.955,603.032
251,7 Apr 2025 16:16:13.889,7 Apr 2025 16:26:54.487,640.597
252,7 Apr 2025 17:49:56.799,7 Apr 2025 18:00:45.928,649.129
253,8 Apr 2025 15:57:51.092,8 Apr 2025 16:07:34.344,583.252
254,8 Apr 2025 17:31:04.967,8 Apr 2025 17:42:23.666,678.699
255,8 Apr 2025 19:07:00.575,8 Apr 2025 19:12:03.189,302.614
256,9 Apr 2025 15:39:41.076,9 Apr 2025 15:47:55.310,494.234
257,9 Apr 2025 17:12:17.850,9 Apr 2025 17:23:50.911,693.060
258,9 Apr 2025 18:47:25.559,9 Apr 2025 18:54:49.094,443.535
259,10 Apr 2025 15:21:56.550,10 Apr 2025 15:27:44.316,347.765
260,10 Apr 2025 16:53:35.404,10 Apr 2025 17:05:07.771,692.367
261,10 Apr 2025 18:28:11.305,10 Apr 2025 18:37:07.690,536.385
262,11 Apr 2025 16:34:58.070,11 Apr 2025 16:46:13.847,675.777
263,11 Apr 2025 18:09:07.312,11 Apr 2025 18:19:09.696,602.384
264,12 Apr 2025 16:16:26.895,12 Apr 2025 16:27:08.020,641.125
265,12 Apr 2025 17:50:10.120,12 Apr 2025 18:00:58.808,648.688
266,13 Apr 2025 15:58:03.982,13 Apr 2025 16:07:48.064,584.082
267,13 Apr 2025 17:31:18.230,13 Apr 2025 17:42:36.676,678.447
268,13 Apr 2025 19:07:14.608,13 Apr 2025 19:12:15.053,300.445
269,14 Apr 2025 15:39:53.771,14 Apr 2025 15:48:09.297,495.526
270,14 Apr 2025 17:12:31.059,14 Apr 2025 17:24:04.038,692.978
271,14 Apr 2025 18:47:39.198,14 Apr 2025 18:55:01.433,442.235
272,15 Apr 2025 15:22:08.779,15 Apr 2025 15:27:58.852,350.073
273,15 Apr 2025 16:53:48.557,15 Apr 2025 17:05:21.025,692.468
274,15 Apr 2025 18:28:24.783,15 Apr 2025 18:37:20.262,535.479
275,16 Apr 2025 16:35:11.161,16 Apr 2025 16:46:27.228,676.068
276,16 Apr 2025 18:09:20.705,16 Apr 2025 18:19:22.436,601.730
277,17 Apr 2025 16:16:39.906,17 Apr 2025 16:27:21.548,641.643
278,17 Apr 2025 17:50:23.440,17 Apr 2025 18:01:11.684,648.244
279,18 Apr 2025 15:58:16.876,18 Apr 2025 16:08:01.781,584.905
280,18 Apr 2025 17:31:31.494,18 Apr 2025 17:42:49.677,678.183
281,18 Apr 2025 19:07:28.650,18 Apr 2025 19:12:26.911,298.261
282,19 Apr 2025 15:40:06.471,19 Apr 2025 15:48:23.281,496.810
283,19 Apr 2025 17:12:44.270,19 Apr 2025 17:24:17.164,692.895
284,19 Apr 2025 18:47:52.841,19 Apr 2025 18:55:13.770,440.929
285,20 Apr 2025 15:22:21.018,20 Apr 2025 15:28:13.378,352.360
286,20 Apr 2025 16:54:01.713,20 Apr 2025 17:05:34.275,692.562
287,20 Apr 2025 18:28:38.269,20 Apr 2025 18:37:32.833,534.563
288,21 Apr 2025 16:35:24.251,21 Apr 2025 16:46:40.609,676.358
289,21 Apr 2025 18:09:34.096,21 Apr 2025 18:19:35.174,601.078
290,22 Apr 2025 16:16:52.918,22 Apr 2025 16:27:35.079,642.161
291,22 Apr 2025 17:50:36.763,22 Apr 2025 18:01:24.565,647.802
292,23 Apr 2025 15:58:29.770,23 Apr 2025 16:08:15.497,585.727
293,23 Apr 2025 17:31:44.759,23 Apr 2025 17:43:02.685,677.927
294,23 Apr 2025 19:07:42.703,23 Apr 2025 19:12:38.759,296.056
295,24 Apr 2025 15:40:19.173,24 Apr 2025 15:48:37.263,498.090
296,24 Apr 2025 17:12:57.481,24 Apr 2025 17:24:30.289,692.809
297,24 Apr 2025 18:48:06.487,24 Apr 2025 18:55:26.103,439.615
298,25 Apr 2025 15:22:33.264,25 Apr 2025 15:28:27.892,354.628
299,25 Apr 2025 16:54:14.868,25 Apr 2025 17:05:47.519,692.651
300,25 Apr 2025 18:28:51.757,25 Apr 2025 18:37:45.400,533.643
301,26 Apr 2025 16:35:37.341,26 Apr 2025 16:46:53.988,676.646
302,26 Apr 2025 18:09:47.487,26 Apr 2025 18:19:47.909,600.422
303,27 Apr 2025 16:17:05.926,27 Apr 2025 16:27:48.606,642.680
304,27 Apr 2025 17:50:50.084,27 Apr 2025 18:01:37.439,647.355
305,28 Apr 2025 15:58:42.665,28 Apr 2025 16:08:29.208,586.543
306,28 Apr 2025 17:31:58.022,28 Apr 2025 17:43:15.686,677.664
307,28 Apr 2025 19:07:56.762,28 Apr 2025 19:12:50.596,293.835
308,29 Apr 2025 15:40:31.879,29 Apr 2025 15:48:51.239,499.360
309,29 Apr 2025 17:13:10.691,29 Apr 2025 17:24:43.410,692.719
310,29 Apr 2025 18:48:20.133,29 Apr 2025 18:55:38.431,438.298
311,30 Apr 2025 15:22:45.522,30 Apr 2025 15:28:42.393,356.870
312,30 Apr 2025 16:54:28.023,30 Apr 2025 17:06:00.764,692.741
313,30 Apr 2025 18:29:05.242,30 Apr 2025 18:37:57.966,532.724
314,1 May 2025 16:35:50.433,1 May 2025 16:47:07.364,676.931
315,1 May 2025 18:10:00.878,1 May 2025 18:20:00.643,599.765
316,2 May 2025 16:17:18.937,2 May 2025 16:28:02.131,643.194
317,2 May 2025 17:51:03.407,2 May 2025 18:01:50.313,646.907
318,3 May 2025 15:58:55.563,3 May 2025 16:08:42.917,587.354
319,3 May 2025 17:32:11.288,3 May 2025 17:43:28.686,677.399
320,3 May 2025 19:08:10.830,3 May 2025 19:13:02.426,291.596
321,4 May 2025 15:40:44.588,4 May 2025 15:49:05.213,500.625
322,4 May 2025 17:13:23.903,4 May 2025 17:24:56.529,692.626
323,4 May 2025 18:48:33.783,4 May 2025 18:55:50.755,436.972
324,5 May 2025 15:22:57.793,5 May 2025 15:28:56.885,359.092
325,5 May 2025 16:54:41.180,5 May 2025 17:06:14.009,692.829
326,5 May 2025 18:29:18.728,5 May 2025 18:38:10.529,531.801
327,6 May 2025 16:36:03.525,6 May 2025 16:47:20.739,677.214
328,6 May 2025 18:10:14.271,6 May 2025 18:20:13.375,599.105
329,7 May 2025 16:17:31.949,7 May 2025 16:28:15.653,643.704
330,7 May 2025 17:51:16.730,7 May 2025 18:02:03.185,646.455
331,8 May 2025 15:59:08.461,8 May 2025 16:08:56.624,588.163
332,8 May 2025 17:32:24.553,8 May 2025 17:43:41.684,677.131
333,8 May 2025 19:08:24.909,8 May 2025 19:13:14.241,289.332
334,9 May 2025 15:40:57.298,9 May 2025 15:49:19.180,501.882
335,9 May 2025 17:13:37.114,9 May 2025 17:25:09.652,692.539
336,9 May 2025 18:48:47.435,9 May 2025 18:56:03.075,435.640
337,10 May 2025 15:23:10.067,10 May 2025 15:29:11.366,361.299
338,10 May 2025 16:54:54.335,10 May 2025 17:06:27.251,692.916
339,10 May 2025 18:29:32.217,10 May 2025 18:38:23.089,530.872
340,11 May 2025 16:36:16.616,11 May 2025 16:47:34.111,677.495
341,11 May 2025 18:10:27.662,11 May 2025 18:20:26.104,598.441
342,12 May 2025 16:17:44.960,12 May 2025 16:28:29.173,644.213
343,12 May 2025 17:51:30.052,12 May 2025 18:02:16.054,646.002
344,13 May 2025 15:59:21.359,13 May 2025 16:09:10.326,588.967
345,13 May 2025 17:32:37.818,13 May 2025 17:43:54.680,676.862
346,13 May 2025 19:08:38.995,13 May 2025 19:13:26.047,287.052
347,14 May 2025 15:41:10.011,14 May 2025 15:49:33.141,503.130
348,14 May 2025 17:13:50.325,14 May 2025 17:25:22.769,692.444
349,14 May 2025 18:49:01.088,14 May 2025 18:56:15.391,434.303
350,15 May 2025 15:23:22.348,15 May 2025 15:29:25.831,363.483
351,15 May 2025 16:55:07.486,15 May 2025 17:06:40.494,693.008
352,15 May 2025 18:29:45.709,15 May 2025 18:38:35.646,529.937
353,16 May 2025 16:36:29.709,16 May 2025 16:47:47.482,677.773
354,16 May 2025 18:10:41.055,16 May 2025 18:20:38.831,597.776
355,17 May 2025 16:17:57.969,17 May 2025 16:28:42.696,644.726
356,17 May 2025 17:51:43.372,17 May 2025 18:02:28.919,645.547
357,18 May 2025 15:59:34.263,18 May 2025 16:09:24.027,589.764
358,18 May 2025 17:32:51.084,18 May 2025 17:44:07.675,676.591
359,18 May 2025 19:08:53.092,18 May 2025 19:13:37.843,284.751
360,19 May 2025 15:41:22.727,19 May 2025 15:49:47.096,504.369
361,19 May 2025 17:14:03.537,19 May 2025 17:25:35.886,692.349
362,19 May 2025 18:49:14.741,19 May 2025 18:56:27.710,432.969
363,20 May 2025 15:23:34.640,20 May 2025 15:29:40.298,365.657
364,20 May 2025 16:55:20.648,20 May 2025 17:06:53.730,693.081
365,20 May 2025 18:29:59.200,20 May 2025 18:38:48.202,529.002
366,21 May 2025 16:36:42.802,21 May 2025 16:48:00.851,678.049
367,21 May 2025 18:10:54.450,21 May 2025 18:20:51.557,597.107
368,22 May 2025 16:18:10.986,22 May 2025 16:28:56.209,645.223
369,22 May 2025 17:51:56.701,22 May 2025 18:02:41.788,645.088
370,23 May 2025 15:59:47.162,23 May 2025 16:09:37.723,590.560
371,23 May 2025 17:33:04.351,23 May 2025 17:44:20.668,676.317
372,23 May 2025 19:09:07.201,23 May 2025 19:13:49.625,282.424
373,24 May 2025 15:41:35.445,24 May 2025 15:50:01.051,505.605
374,24 May 2025 17:14:16.749,24 May 2025 17:25:49.000,692.251
375,24 May 2025 18:49:28.400,24 May 2025 18:56:40.018,431.618
376,25 May 2025 15:23:46.940,25 May 2025 15:29:54.748,367.808
377,25 May 2025 16:55:33.802,25 May 2025 17:07:06.966,693.163
378,25 May 2025 18:30:12.691,25 May 2025 18:39:00.754,528.063
379,26 May 2025 16:36:55.895,26 May 2025 16:48:14.217,678.322
380,26 May 2025 18:11:07.843,26 May 2025 18:21:04.279,596.436
381,27 May 2025 16:18:24.000,27 May 2025 16:29:09.722,645.723
382,27 May 2025 17:52:10.024,27 May 2025 18:02:54.652,644.628
383,28 May 2025 16:00:00.068,28 May 2025 16:09:51.417,591.349
384,28 May 2025 17:33:17.616,28 May 2025 17:44:33.658,676.042
385,28 May 2025 19:09:21.316,28 May 2025 19:14:01.397,280.080
386,29 May 2025 15:41:48.168,29 May 2025 15:50:15.000,506.832
387,29 May 2025 17:14:29.962,29 May 2025 17:26:02.112,692.151
388,29 May 2025 18:49:42.064,29 May 2025 18:56:52.324,430.259
389,30 May 2025 15:23:59.250,30 May 2025 15:30:09.188,369.938
390,30 May 2025 16:55:46.961,30 May 2025 17:07:20.200,693.239
391,30 May 2025 18:30:26.180,30 May 2025 18:39:13.304,527.124
392,31 May 2025 16:37:08.990,31 May 2025 16:48:27.582,678.593
393,31 May 2025 18:11:21.238,31 May 2025 18:21:17.001,595.763
394,1 Jun 2025 16:18:37.016,1 Jun 2025 16:29:23.235,646.220
395,1 Jun 2025 17:52:23.349,1 Jun 2025 18:03:07.515,644.165
396,2 Jun 2025 16:00:12.973,2 Jun 2025 16:10:05.110,592.137
397,2 Jun 2025 17:33:30.884,2 Jun 2025 17:44:46.648,675.764
398,2 Jun 2025 19:09:35.446,2 Jun 2025 19:14:13.156,277.710
399,3 Jun 2025 15:42:00.892,3 Jun 2025 15:50:28.947,508.055
400,3 Jun 2025 17:14:43.175,3 Jun 2025 17:26:15.224,692.048
401,3 Jun 2025 18:49:55.730,3 Jun 2025 18:57:04.625,428.895
402,4 Jun 2025 15:24:11.566,4 Jun 2025 15:30:23.621,372.055
403,4 Jun 2025 16:56:00.119,4 Jun 2025 17:07:33.434,693.315
404,4 Jun 2025 18:30:39.676,4 Jun 2025 18:39:25.852,526.176
405,5 Jun 2025 16:37:22.084,5 Jun 2025 16:48:40.946,678.861
406,5 Jun 2025 18:11:34.635,5 Jun 2025 18:21:29.720,595.085
407,6 Jun 2025 16:18:50.032,6 Jun 2025 16:29:36.747,646.716
408,6 Jun 2025 17:52:36.670,6 Jun 2025 18:03:20.372,643.702
409,7 Jun 2025 16:00:25.878,7 Jun 2025 16:10:18.799,592.920
410,7 Jun 2025 17:33:44.155,7 Jun 2025 17:44:59.635,675.480
411,7 Jun 2025 19:09:49.591,7 Jun 2025 19:14:24.904,275.314
412,8 Jun 2025 15:42:13.618,8 Jun 2025 15:50:42.888,509.270
413,8 Jun 2025 17:14:56.388,8 Jun 2025 17:26:28.332,691.944
414,8 Jun 2025 18:50:09.391,8 Jun 2025 18:57:16.921,427.530
415,9 Jun 2025 15:24:23.889,9 Jun 2025 15:30:38.042,374.153
416,9 Jun 2025 16:56:13.276,9 Jun 2025 17:07:46.665,693.388
417,9 Jun 2025 18:30:53.171,9 Jun 2025 18:39:38.396,525.225
418,10 Jun 2025 16:37:35.178,10 Jun 2025 16:48:54.306,679.127
419,10 Jun 2025 18:11:48.030,10 Jun 2025 18:21:42.436,594.406
420,11 Jun 2025 16:19:03.047,11 Jun 2025 16:29:50.254,647.207
421,11 Jun 2025 17:52:49.995,11 Jun 2025 18:03:33.230,643.234
422,12 Jun 2025 16:00:38.785,12 Jun 2025 16:10:32.485,593.700
423,12 Jun 2025 17:33:57.422,12 Jun 2025 17:45:12.620,675.198
424,12 Jun 2025 19:10:03.738,12 Jun 2025 19:14:36.638,272.900
425,13 Jun 2025 15:42:26.348,13 Jun 2025 15:50:56.827,510.479
426,13 Jun 2025 17:15:09.601,13 Jun 2025 17:26:41.439,691.838
427,13 Jun 2025 18:50:23.065,13 Jun 2025 18:57:29.212,426.147
428,14 Jun 2025 15:24:36.222,14 Jun 2025 15:30:52.455,376.233
429,14 Jun 2025 16:56:26.430,14 Jun 2025 17:07:59.898,693.468
430,14 Jun 2025 18:31:06.671,14 Jun 2025 18:39:50.937,524.266
431,15 Jun 2025 16:37:48.274,15 Jun 2025 16:49:07.665,679.391
432,15 Jun 2025 18:12:01.428,15 Jun 2025 18:21:55.151,593.724
433,16 Jun 2025 16:19:16.065,16 Jun 2025 16:30:03.760,647.695
434,16 Jun 2025 17:53:03.323,16 Jun 2025 18:03:46.087,642.765
435,17 Jun 2025 16:00:51.693,17 Jun 2025 16:10:46.171,594.478
436,17 Jun 2025 17:34:10.687,17 Jun 2025 17:45:25.604,674.917
437,17 Jun 2025 19:10:17.901,17 Jun 2025 19:14:48.356,270.455
438,18 Jun 2025 15:42:39.077,18 Jun 2025 15:51:10.761,511.684
439,18 Jun 2025 17:15:22.820,18 Jun 2025 17:26:54.541,691.721
440,18 Jun 2025 18:50:36.734,18 Jun 2025 18:57:41.506,424.772
441,19 Jun 2025 15:24:48.560,19 Jun 2025 15:31:06.860,378.300
442,19 Jun 2025 16:56:39.594,19 Jun 2025 17:08:13.123,693.529
443,19 Jun 2025 18:31:20.166,19 Jun 2025 18:40:03.477,523.311
444,20 Jun 2025 16:38:01.370,20 Jun 2025 16:49:21.023,679.653
445,20 Jun 2025 18:12:14.822,20 Jun 2025 18:22:07.864,593.042
446,21 Jun 2025 16:19:29.082,21 Jun 2025 16:30:17.263,648.181
447,21 Jun 2025 17:53:16.649,21 Jun 2025 18:03:58.942,642.292
448,22 Jun 2025 16:01:04.601,22 Jun 2025 16:10:59.852,595.251
449,22 Jun 2025 17:34:23.955,22 Jun 2025 17:45:38.585,674.630
450,22 Jun 2025 19:10:32.077,22 Jun 2025 19:15:00.061,267.983
451,23 Jun 2025 15:42:51.809,23 Jun 2025 15:51:24.690,512.881
452,23 Jun 2025 17:15:36.033,23 Jun 2025 17:27:07.644,691.611
453,23 Jun 2025 18:50:50.409,23 Jun 2025 18:57:53.790,423.381
454,24 Jun 2025 15:25:00.905,24 Jun 2025 15:31:21.254,380.349
455,24 Jun 2025 16:56:52.752,24 Jun 2025 17:08:26.348,693.596
456,24 Jun 2025 18:31:33.665,24 Jun 2025 18:40:16.012,522.348
457,25 Jun 2025 16:38:14.466,25 Jun 2025 16:49:34.374,679.908
458,25 Jun 2025 18:12:28.223,25 Jun 2025 18:22:20.574,592.351
459,26 Jun 2025 16:19:42.100,26 Jun 2025 16:30:30.764,648.663
460,26 Jun 2025 17:53:29.976,26 Jun 2025 18:04:11.794,641.818
461,27 Jun 2025 16:01:17.511,27 Jun 2025 16:11:13.531,596.020
462,27 Jun 2025 17:34:37.223,27 Jun 2025 17:45:51.565,674.342
463,27 Jun 2025 19:10:46.264,27 Jun 2025 19:15:11.755,265.491
464,28 Jun 2025 15:43:04.545,28 Jun 2025 15:51:38.617,514.072
465,28 Jun 2025 17:15:49.249,28 Jun 2025 17:27:20.747,691.498
466,28 Jun 2025 18:51:04.087,28 Jun 2025 18:58:06.072,421.985
467,29 Jun 2025 15:25:13.259,29 Jun 2025 15:31:35.641,382.382
468,29 Jun 2025 16:57:05.912,29 Jun 2025 17:08:39.573,693.661
469,29 Jun 2025 18:31:47.166,29 Jun 2025 18:40:28.547,521.380
470,30 Jun 2025 16:38:27.563,30 Jun 2025 16:49:47.728,680.165
471,30 Jun 2025 18:12:41.625,30 Jun 2025 18:22:33.283,591.658
472,1 Jul 2025 16:19:55.120,1 Jul 2025 16:30:44.264,649.144
473,1 Jul 2025 17:53:43.305,1 Jul 2025 18:04:24.646,641.341
474,2 Jul 2025 16:01:30.423,2 Jul 2025 16:11:27.208,596.786
475,2 Jul 2025 17:34:50.494,2 Jul 2025 17:46:04.544,674.050
476,2 Jul 2025 19:11:00.469,2 Jul 2025 19:15:23.432,262.963
477,3 Jul 2025 15:43:17.282,3 Jul 2025 15:51:52.541,515.259
478,3 Jul 2025 17:16:02.464,3 Jul 2025 17:27:33.851,691.387
479,3 Jul 2025 18:51:17.775,3 Jul 2025 18:58:18.347,420.572
480,4 Jul 2025 15:25:25.618,4 Jul 2025 15:31:50.020,384.403
481,4 Jul 2025 16:57:19.072,4 Jul 2025 17:08:52.796,693.724
482,4 Jul 2025 18:32:00.670,4 Jul 2025 18:40:41.077,520.407
483,5 Jul 2025 15:09:20.585,5 Jul 2025 15:09:54.016,33.431
484,5 Jul 2025 16:38:40.660,5 Jul 2025 16:50:01.080,680.420
485,5 Jul 2025 18:12:55.021,5 Jul 2025 18:22:45.989,590.968
486,6 Jul 2025 16:20:08.139,6 Jul 2025 16:30:57.761,649.622
487,6 Jul 2025 17:53:56.634,6 Jul 2025 18:04:37.495,640.861
488,7 Jul 2025 16:01:43.336,7 Jul 2025 16:11:40.880,597.544
489,7 Jul 2025 17:35:03.767,7 Jul 2025 17:46:17.523,673.757
490,7 Jul 2025 19:11:14.689,7 Jul 2025 19:15:35.092,260.403
491,8 Jul 2025 15:43:30.021,8 Jul 2025 15:52:06.463,516.442
492,8 Jul 2025 17:16:15.675,8 Jul 2025 17:27:46.950,691.275
493,8 Jul 2025 18:51:31.459,8 Jul 2025 18:58:30.613,419.154
494,9 Jul 2025 15:25:37.985,9 Jul 2025 15:32:04.389,386.404
495,9 Jul 2025 16:57:32.231,9 Jul 2025 17:09:06.016,693.785
496,9 Jul 2025 18:32:14.175,9 Jul 2025 18:40:53.606,519.431
497,10 Jul 2025 15:09:23.271,10 Jul 2025 15:10:18.148,54.877
498,10 Jul 2025 16:38:53.758,10 Jul 2025 16:50:14.430,680.672
499,10 Jul 2025 18:13:08.427,10 Jul 2025 18:22:58.694,590.267
500,11 Jul 2025 16:20:21.158,11 Jul 2025 16:31:11.255,650.097
501,11 Jul 2025 17:54:09.964,11 Jul 2025 18:04:50.345,640.382
502,12 Jul 2025 16:01:56.251,12 Jul 2025 16:11:54.552,598.301
503,12 Jul 2025 17:35:17.037,12 Jul 2025 17:46:30.499,673.462
504,12 Jul 2025 19:11:28.919,12 Jul 2025 19:15:46.736,257.817
505,13 Jul 2025 15:43:42.764,13 Jul 2025 15:52:20.379,517.615
506,13 Jul 2025 17:16:28.892,13 Jul 2025 17:28:00.048,691.156
507,13 Jul 2025 18:51:45.148,13 Jul 2025 18:58:42.882,417.734
508,14 Jul 2025 15:25:50.358,14 Jul 2025 15:32:18.752,388.394
509,14 Jul 2025 16:57:45.393,14 Jul 2025 17:09:19.237,693.844
510,14 Jul 2025 18:32:27.682,14 Jul 2025 18:41:06.133,518.451
511,15 Jul 2025 15:09:29.106,15 Jul 2025 15:10:39.133,70.027
512,15 Jul 2025 16:39:06.857,15 Jul 2025 16:50:27.780,680.922
513,15 Jul 2025 18:13:21.829,15 Jul 2025 18:23:11.397,589.568
514,16 Jul 2025 16:20:34.180,16 Jul 2025 16:31:24.750,650.570
515,16 Jul 2025 17:54:23.295,16 Jul 2025 18:05:03.192,639.897
516,17 Jul 2025 16:02:09.166,17 Jul 2025 16:12:08.222,599.056
517,17 Jul 2025 17:35:30.309,17 Jul 2025 17:46:43.474,673.164
518,17 Jul 2025 19:11:43.167,17 Jul 2025 19:15:58.367,255.200
519,18 Jul 2025 15:43:55.509,18 Jul 2025 15:52:34.292,518.783
520,18 Jul 2025 17:16:42.109,18 Jul 2025 17:28:13.144,691.035
521,18 Jul 2025 18:51:58.841,18 Jul 2025 18:58:55.144,416.303
522,19 Jul 2025 15:26:02.736,19 Jul 2025 15:32:33.107,390.371
523,19 Jul 2025 16:57:58.554,19 Jul 2025 17:09:32.455,693.901
524,19 Jul 2025 18:32:41.190,19 Jul 2025 18:41:18.656,517.465
525,20 Jul 2025 15:09:36.319,20 Jul 2025 15:10:58.740,82.421
526,20 Jul 2025 16:39:19.956,20 Jul 2025 16:50:41.126,681.170
527,20 Jul 2025 18:13:35.234,20 Jul 2025 18:23:24.097,588.863
528,21 Jul 2025 16:20:47.201,21 Jul 2025 16:31:38.241,651.040
529,21 Jul 2025 17:54:36.626,21 Jul 2025 18:05:16.035,639.410
530,22 Jul 2025 16:02:22.081,22 Jul 2025 16:12:21.888,599.806
531,22 Jul 2025 17:35:43.580,22 Jul 2025 17:46:56.445,672.865
532,22 Jul 2025 19:11:57.427,22 Jul 2025 19:16:09.980,252.554
533,23 Jul 2025 15:44:08.255,23 Jul 2025 15:52:48.200,519.945
534,23 Jul 2025 17:16:55.326,23 Jul 2025 17:28:26.237,690.911
535,23 Jul 2025 18:52:12.531,23 Jul 2025 18:59:07.402,414.871
536,24 Jul 2025 15:26:15.122,24 Jul 2025 15:32:47.453,392.330
537,24 Jul 2025 16:58:11.715,24 Jul 2025 17:09:45.671,693.955
538,24 Jul 2025 18:32:54.699,24 Jul 2025 18:41:31.172,516.474
539,25 Jul 2025 15:09:44.361,25 Jul 2025 15:11:17.511,93.151
540,25 Jul 2025 16:39:33.056,25 Jul 2025 16:50:54.471,681.416
541,25 Jul 2025 18:13:48.639,25 Jul 2025 18:23:36.795,588.156
542,26 Jul 2025 16:21:00.224,26 Jul 2025 16:31:51.726,651.501
543,26 Jul 2025 17:54:49.958,26 Jul 2025 18:05:28.878,638.920
544,27 Jul 2025 16:02:35.000,27 Jul 2025 16:12:35.553,600.553
545,27 Jul 2025 17:35:56.854,27 Jul 2025 17:47:09.417,672.564
546,27 Jul 2025 19:12:11.704,27 Jul 2025 19:16:21.580,249.876
547,28 Jul 2025 15:44:21.005,28 Jul 2025 15:53:02.106,521.101
548,28 Jul 2025 17:17:08.545,28 Jul 2025 17:28:39.331,690.786
549,28 Jul 2025 18:52:26.231,28 Jul 2025 18:59:19.657,413.426
550,29 Jul 2025 15:26:27.515,29 Jul 2025 15:33:01.793,394.278
551,29 Jul 2025 16:58:24.879,29 Jul 2025 17:09:58.887,694.008
552,29 Jul 2025 18:33:08.212,29 Jul 2025 18:41:43.690,515.478
553,30 Jul 2025 15:09:52.963,30 Jul 2025 15:11:35.725,102.762
554,30 Jul 2025 16:39:46.157,30 Jul 2025 16:51:07.816,681.659
555,30 Jul 2025 18:14:02.047,30 Jul 2025 18:23:49.492,587.445
556,31 Jul 2025 16:21:13.248,31 Jul 2025 16:32:05.216,651.967
557,31 Jul 2025 17:55:03.292,31 Jul 2025 18:05:41.719,638.428
558,1 Aug 2025 16:02:47.918,1 Aug 2025 16:12:49.216,601.298
559,1 Aug 2025 17:36:10.128,1 Aug 2025 17:47:22.387,672.259
560,1 Aug 2025 19:12:26.001,1 Aug 2025 19:16:33.158,247.157
561,2 Aug 2025 15:44:33.756,2 Aug 2025 15:53:16.008,522.253
562,2 Aug 2025 17:17:21.764,2 Aug 2025 17:28:52.422,690.658
563,2 Aug 2025 18:52:39.935,2 Aug 2025 18:59:31.905,411.970
564,3 Aug 2025 15:26:39.912,3 Aug 2025 15:33:16.125,396.213
565,3 Aug 2025 16:58:38.042,3 Aug 2025 17:10:12.100,694.058
566,3 Aug 2025 18:33:21.726,3 Aug 2025 18:41:56.205,514.479
567,4 Aug 2025 15:10:01.985,4 Aug 2025 15:11:53.517,111.532
568,4 Aug 2025 16:39:59.257,4 Aug 2025 16:51:21.158,681.901
569,4 Aug 2025 18:14:15.456,4 Aug 2025 18:24:02.186,586.730
570,5 Aug 2025 16:21:26.272,5 Aug 2025 16:32:18.704,652.432
571,5 Aug 2025 17:55:16.625,5 Aug 2025 18:05:54.558,637.932
572,6 Aug 2025 16:03:00.837,6 Aug 2025 16:13:02.876,602.039
573,6 Aug 2025 17:36:23.401,6 Aug 2025 17:47:35.354,671.953
574,6 Aug 2025 19:12:40.312,6 Aug 2025 19:16:44.719,244.408
575,7 Aug 2025 15:44:46.509,7 Aug 2025 15:53:29.907,523.397
576,7 Aug 2025 17:17:34.983,7 Aug 2025 17:29:05.511,690.528
577,7 Aug 2025 18:52:53.642,7 Aug 2025 18:59:44.150,410.508
578,8 Aug 2025 15:26:52.318,8 Aug 2025 15:33:30.449,398.132
579,8 Aug 2025 16:58:51.206,8 Aug 2025 17:10:25.313,694.107
580,8 Aug 2025 18:33:35.241,8 Aug 2025 18:42:08.717,513.476
581,9 Aug 2025 15:10:11.339,9 Aug 2025 15:12:10.976,119.636
582,9 Aug 2025 16:40:12.360,9 Aug 2025 16:51:34.499,682.139
583,9 Aug 2025 18:14:28.863,9 Aug 2025 18:24:14.878,586.016
584,10 Aug 2025 16:21:39.299,10 Aug 2025 16:32:32.190,652.891
585,10 Aug 2025 17:55:29.961,10 Aug 2025 18:06:07.396,637.435
586,11 Aug 2025 16:03:13.760,11 Aug 2025 16:13:16.535,602.776
587,11 Aug 2025 17:36:36.677,11 Aug 2025 17:47:48.322,671.645
588,11 Aug 2025 19:12:54.641,11 Aug 2025 19:16:56.264,241.623
589,12 Aug 2025 15:44:59.266,12 Aug 2025 15:53:43.804,524.537
590,12 Aug 2025 17:17:48.204,12 Aug 2025 17:29:18.600,690.396
591,12 Aug 2025 18:53:07.354,12 Aug 2025 18:59:56.391,409.037
592,13 Aug 2025 15:27:04.729,13 Aug 2025 15:33:44.768,400.039
593,13 Aug 2025 16:59:04.372,13 Aug 2025 17:10:38.524,694.153
594,13 Aug 2025 18:33:48.760,13 Aug 2025 18:42:21.228,512.468
595,14 Aug 2025 15:10:20.952,14 Aug 2025 15:12:28.174,127.222
596,14 Aug 2025 16:40:25.463,14 Aug 2025 16:51:47.840,682.376
597,14 Aug 2025 18:14:42.272,14 Aug 2025 18:24:27.572,585.300
598,15 Aug 2025 16:21:52.328,15 Aug 2025 16:32:45.674,653.346
599,15 Aug 2025 17:55:43.302,15 Aug 2025 18:06:20.229,636.927
600,16 Aug 2025 16:03:26.682,16 Aug 2025 16:13:30.192,603.510
601,16 Aug 2025 17:36:49.953,16 Aug 2025 17:48:01.287,671.334
602,16 Aug 2025 19:13:08.992,16 Aug 2025 19:17:07.787,238.794
603,17 Aug 2025 15:45:12.023,17 Aug 2025 15:53:57.696,525.673
604,17 Aug 2025 17:18:01.425,17 Aug 2025 17:29:31.686,690.261
605,17 Aug 2025 18:53:21.070,17 Aug 2025 19:00:08.626,407.556
606,18 Aug 2025 15:27:17.144,18 Aug 2025 15:33:59.078,401.934
607,18 Aug 2025 16:59:17.536,18 Aug 2025 17:10:51.734,694.198
608,18 Aug 2025 18:34:02.279,18 Aug 2025 18:42:33.735,511.455
609,19 Aug 2025 15:10:30.783,19 Aug 2025 15:12:45.155,134.372
610,19 Aug 2025 16:40:38.562,19 Aug 2025 16:52:01.181,682.619
611,19 Aug 2025 18:14:55.688,19 Aug 2025 18:24:40.260,584.572
612,20 Aug 2025 16:22:05.353,20 Aug 2025 16:32:59.154,653.801
613,20 Aug 2025 17:55:56.639,20 Aug 2025 18:06:33.063,636.424
614,21 Aug 2025 16:03:39.606,21 Aug 2025 16:13:43.845,604.240
615,21 Aug 2025 17:37:03.230,21 Aug 2025 17:48:14.251,671.021
616,21 Aug 2025 19:13:23.358,21 Aug 2025 19:17:19.292,235.933
617,22 Aug 2025 15:45:24.785,22 Aug 2025 15:54:11.586,526.800
618,22 Aug 2025 17:18:14.647,22 Aug 2025 17:29:44.773,690.126
619,22 Aug 2025 18:53:34.788,22 Aug 2025 19:00:20.862,406.074
620,23 Aug 2025 15:27:29.569,23 Aug 2025 15:34:13.378,403.809
621,23 Aug 2025 16:59:30.703,23 Aug 2025 17:11:04.943,694.240
622,23 Aug 2025 18:34:15.801,23 Aug 2025 18:42:46.240,510.439
623,24 Aug 2025 15:10:40.806,24 Aug 2025 15:13:01.943,141.137
624,24 Aug 2025 16:40:51.667,24 Aug 2025 16:52:14.519,682.851
625,24 Aug 2025 18:15:09.102,24 Aug 2025 18:24:52.948,583.846
626,25 Aug 2025 16:22:18.383,25 Aug 2025 16:33:12.635,654.252
627,25 Aug 2025 17:56:09.978,25 Aug 2025 18:06:45.897,635.918
628,26 Aug 2025 16:03:52.532,26 Aug 2025 16:13:57.499,604.967
629,26 Aug 2025 17:37:16.509,26 Aug 2025 17:48:27.214,670.705
630,26 Aug 2025 19:13:37.748,26 Aug 2025 19:17:30.776,233.028
631,27 Aug 2025 15:45:37.549,27 Aug 2025 15:54:25.474,527.925
632,27 Aug 2025 17:18:27.871,27 Aug 2025 17:29:57.861,689.990
633,27 Aug 2025 18:53:48.514,27 Aug 2025 19:00:33.089,404.575
634,28 Aug 2025 15:27:41.997,28 Aug 2025 15:34:27.677,405.679
635,28 Aug 2025 16:59:43.871,28 Aug 2025 17:11:18.152,694.281
636,28 Aug 2025 18:34:29.326,28 Aug 2025 18:42:58.743,509.417
637,29 Aug 2025 15:10:50.983,29 Aug 2025 15:13:18.577,147.594
638,29 Aug 2025 16:41:04.773,29 Aug 2025 16:52:27.855,683.082
639,29 Aug 2025 18:15:22.519,29 Aug 2025 18:25:05.633,583.115
640,30 Aug 2025 16:22:31.413,30 Aug 2025 16:33:26.114,654.702
641,30 Aug 2025 17:56:23.319,30 Aug 2025 18:06:58.729,635.410
642,31 Aug 2025 16:04:05.459,31 Aug 2025 16:14:11.150,605.691
643,31 Aug 2025 17:37:29.788,31 Aug 2025 17:48:40.176,670.387
644,31 Aug 2025 19:13:52.159,31 Aug 2025 19:17:42.236,230.076
645,1 Sep 2025 15:45:50.314,1 Sep 2025 15:54:39.358,529.044
646,1 Sep 2025 17:18:41.095,1 Sep 2025 17:30:10.944,689.849
647,1 Sep 2025 18:54:02.243,1 Sep 2025 19:00:45.310,403.067
648,2 Sep 2025 15:27:54.431,2 Sep 2025 15:34:41.967,407.536
649,2 Sep 2025 16:59:57.039,2 Sep 2025 17:11:31.358,694.319
650,2 Sep 2025 18:34:42.853,2 Sep 2025 18:43:11.242,508.389
651,3 Sep 2025 15:11:01.302,3 Sep 2025 15:13:35.062,153.760
652,3 Sep 2025 16:41:17.880,3 Sep 2025 16:52:41.189,683.310
653,3 Sep 2025 18:15:35.935,3 Sep 2025 18:25:18.316,582.381
654,4 Sep 2025 16:22:44.443,4 Sep 2025 16:33:39.591,655.148
655,4 Sep 2025 17:56:36.660,4 Sep 2025 18:07:11.559,634.899
656,5 Sep 2025 16:04:18.386,5 Sep 2025 16:14:24.802,606.416
657,5 Sep 2025 17:37:43.064,5 Sep 2025 17:48:53.133,670.069
658,5 Sep 2025 19:14:06.586,5 Sep 2025 19:17:53.677,227.090
659,6 Sep 2025 15:46:03.083,6 Sep 2025 15:54:53.236,530.153
660,6 Sep 2025 17:18:54.323,6 Sep 2025 17:30:24.030,689.707
661,6 Sep 2025 18:54:15.979,6 Sep 2025 19:00:57.529,401.549
662,7 Sep 2025 15:28:06.874,7 Sep 2025 15:34:56.252,409.378
663,7 Sep 2025 17:00:10.209,7 Sep 2025 17:11:44.562,694.353
664,7 Sep 2025 18:34:56.381,7 Sep 2025 18:43:23.740,507.359
665,8 Sep 2025 15:11:11.748,8 Sep 2025 15:13:51.427,159.679
666,8 Sep 2025 16:41:30.988,8 Sep 2025 16:52:54.523,683.535
667,8 Sep 2025 18:15:49.354,8 Sep 2025 18:25:30.999,581.645
668,9 Sep 2025 16:22:57.477,9 Sep 2025 16:33:53.068,655.591
669,9 Sep 2025 17:56:50.003,9 Sep 2025 18:07:24.388,634.386
670,10 Sep 2025 16:04:31.317,10 Sep 2025 16:14:38.450,607.133
671,10 Sep 2025 17:37:56.346,10 Sep 2025 17:49:06.093,669.746
672,10 Sep 2025 19:14:21.042,10 Sep 2025 19:18:05.094,224.052
673,11 Sep 2025 15:46:15.854,11 Sep 2025 15:55:07.116,531.262
674,11 Sep 2025 17:19:07.550,11 Sep 2025 17:30:37.112,689.563
675,11 Sep 2025 18:54:29.718,11 Sep 2025 19:01:09.742,400.024
676,12 Sep 2025 15:28:19.320,12 Sep 2025 15:35:10.531,411.211
677,12 Sep 2025 17:00:23.380,12 Sep 2025 17:11:57.767,694.387
678,12 Sep 2025 18:35:09.914,12 Sep 2025 18:43:36.235,506.322
679,13 Sep 2025 15:11:22.299,13 Sep 2025 15:14:07.683,165.384
680,13 Sep 2025 16:41:44.097,13 Sep 2025 16:53:07.856,683.759
681,13 Sep 2025 18:16:02.775,13 Sep 2025 18:25:43.678,580.903
682,14 Sep 2025 16:23:10.510,14 Sep 2025 16:34:06.542,656.032
683,14 Sep 2025 17:57:03.342,14 Sep 2025 18:07:37.216,633.874
684,15 Sep 2025 16:04:44.248,15 Sep 2025 16:14:52.095,607.847
685,15 Sep 2025 17:38:09.629,15 Sep 2025 17:49:19.049,669.421
686,15 Sep 2025 19:14:35.521,15 Sep 2025 19:18:16.486,220.965
687,16 Sep 2025 15:46:28.626,16 Sep 2025 15:55:20.991,532.365
688,16 Sep 2025 17:19:20.776,16 Sep 2025 17:30:50.193,689.417
689,16 Sep 2025 18:54:43.457,16 Sep 2025 19:01:21.946,398.488
690,17 Sep 2025 15:28:31.772,17 Sep 2025 15:35:24.802,413.030
691,17 Sep 2025 17:00:36.551,17 Sep 2025 17:12:10.971,694.419
692,17 Sep 2025 18:35:23.447,17 Sep 2025 18:43:48.728,505.281
693,18 Sep 2025 15:11:32.955,18 Sep 2025 15:14:23.833,170.878
694,18 Sep 2025 16:41:57.207,18 Sep 2025 16:53:21.186,683.980
695,18 Sep 2025 18:16:16.196,18 Sep 2025 18:25:56.356,580.160
696,19 Sep 2025 16:23:23.545,19 Sep 2025 16:34:20.015,656.470
697,19 Sep 2025 17:57:16.692,19 Sep 2025 18:07:50.045,633.354
698,20 Sep 2025 16:04:57.182,20 Sep 2025 16:15:05.738,608.556
699,20 Sep 2025 17:38:22.912,20 Sep 2025 17:49:32.006,669.093
700,20 Sep 2025 19:14:50.022,20 Sep 2025 19:18:27.857,217.835
701,21 Sep 2025 15:46:41.402,21 Sep 2025 15:55:34.864,533.462
702,21 Sep 2025 17:19:34.005,21 Sep 2025 17:31:03.274,689.269
703,21 Sep 2025 18:54:57.205,21 Sep 2025 19:01:34.151,396.946
704,22 Sep 2025 15:28:44.233,22 Sep 2025 15:35:39.069,414.836
705,22 Sep 2025 17:00:49.725,22 Sep 2025 17:12:24.174,694.449
706,22 Sep 2025 18:35:36.984,22 Sep 2025 18:44:01.219,504.235
707,23 Sep 2025 15:11:43.701,23 Sep 2025 15:14:39.894,176.193
708,23 Sep 2025 16:42:10.319,23 Sep 2025 16:53:34.517,684.198
709,23 Sep 2025 18:16:29.621,23 Sep 2025 18:26:09.034,579.413
710,24 Sep 2025 16:23:36.582,24 Sep 2025 16:34:33.488,656.906
711,24 Sep 2025 17:57:30.035,24 Sep 2025 18:08:02.871,632.837
712,25 Sep 2025 16:05:10.118,25 Sep 2025 16:15:19.381,609.263
713,25 Sep 2025 17:38:36.199,25 Sep 2025 17:49:44.965,668.766
714,25 Sep 2025 19:15:04.553,25 Sep 2025 19:18:39.199,214.647
715,26 Sep 2025 15:46:54.181,26 Sep 2025 15:55:48.736,534.555
716,26 Sep 2025 17:19:47.236,26 Sep 2025 17:31:16.353,689.117
717,26 Sep 2025 18:55:10.957,26 Sep 2025 19:01:46.350,395.393
718,27 Sep 2025 15:28:56.697,27 Sep 2025 15:35:53.330,416.633
719,27 Sep 2025 17:01:02.899,27 Sep 2025 17:12:37.376,694.477
720,27 Sep 2025 18:35:50.524,27 Sep 2025 18:44:13.707,503.183
721,28 Sep 2025 15:11:54.526,28 Sep 2025 15:14:55.873,181.347
722,28 Sep 2025 16:42:23.431,28 Sep 2025 16:53:47.847,684.415
723,28 Sep 2025 18:16:43.044,28 Sep 2025 18:26:21.709,578.665
724,29 Sep 2025 16:23:49.620,29 Sep 2025 16:34:46.959,657.339
725,29 Sep 2025 17:57:43.386,29 Sep 2025 18:08:15.695,632.309
726,30 Sep 2025 16:05:23.054,30 Sep 2025 16:15:33.021,609.967
727,30 Sep 2025 17:38:49.485,30 Sep 2025 17:49:57.919,668.434
728,30 Sep 2025 19:15:19.109,30 Sep 2025 19:18:50.515,211.406
729,1 Oct 2025 15:47:06.963,1 Oct 2025 15:56:02.608,535.645
730,1 Oct 2025 17:20:00.467,1 Oct 2025 17:31:29.427,688.960
731,1 Oct 2025 18:55:24.710,1 Oct 2025 19:01:58.548,393.838
732,2 Oct 2025 15:29:09.167,2 Oct 2025 15:36:07.584,418.416
733,2 Oct 2025 17:01:16.074,2 Oct 2025 17:12:50.575,694.501
734,2 Oct 2025 18:36:04.065,2 Oct 2025 18:44:26.192,502.127
735,3 Oct 2025 15:12:05.433,3 Oct 2025 15:15:11.779,186.346
736,3 Oct 2025 16:42:36.545,3 Oct 2025 16:54:01.170,684.626
737,3 Oct 2025 18:16:56.473,3 Oct 2025 18:26:34.383,577.910
738,4 Oct 2025 16:24:02.659,4 Oct 2025 16:35:00.428,657.769
739,4 Oct 2025 17:57:56.737,4 Oct 2025 18:08:28.518,631.781
740,5 Oct 2025 16:05:35.996,5 Oct 2025 16:15:46.660,610.664
741,5 Oct 2025 17:39:02.772,5 Oct 2025 17:50:10.873,668.100
742,5 Oct 2025 19:15:33.690,5 Oct 2025 19:19:01.806,208.117
743,6 Oct 2025 15:47:19.747,6 Oct 2025 15:56:16.469,536.723
744,6 Oct 2025 17:20:13.699,6 Oct 2025 17:31:42.509,688.810
745,6 Oct 2025 18:55:38.473,6 Oct 2025 19:02:10.735,392.262
746,7 Oct 2025 15:29:21.645,7 Oct 2025 15:36:21.833,420.187
747,7 Oct 2025 17:01:29.251,7 Oct 2025 17:13:03.776,694.525
748,7 Oct 2025 18:36:17.609,7 Oct 2025 18:44:38.677,501.068
749,8 Oct 2025 15:12:16.408,8 Oct 2025 15:15:27.613,191.205
750,8 Oct 2025 16:42:49.661,8 Oct 2025 16:54:14.499,684.838
751,8 Oct 2025 18:17:09.904,8 Oct 2025 18:26:47.056,577.152
752,9 Oct 2025 16:24:15.701,9 Oct 2025 16:35:13.898,658.197
753,9 Oct 2025 17:58:10.084,9 Oct 2025 18:08:41.340,631.256
754,10 Oct 2025 16:05:48.937,10 Oct 2025 16:16:00.298,611.361
755,10 Oct 2025 17:39:16.062,10 Oct 2025 17:50:23.826,667.764
756,10 Oct 2025 19:15:48.305,10 Oct 2025 19:19:13.065,204.760
757,11 Oct 2025 15:47:32.529,11 Oct 2025 15:56:30.337,537.808
758,11 Oct 2025 17:20:26.933,11 Oct 2025 17:31:55.584,688.651
759,11 Oct 2025 18:55:52.237,11 Oct 2025 19:02:22.924,390.687
760,12 Oct 2025 15:29:34.127,12 Oct 2025 15:36:36.076,421.949
761,12 Oct 2025 17:01:42.428,12 Oct 2025 17:13:16.974,694.546
762,12 Oct 2025 18:36:31.156,12 Oct 2025 18:44:51.158,500.001
763,13 Oct 2025 15:12:27.445,13 Oct 2025 15:15:43.382,195.937
764,13 Oct 2025 16:43:02.777,13 Oct 2025 16:54:27.824,685.048
765,13 Oct 2025 18:17:23.330,13 Oct 2025 18:26:59.726,576.396
766,14 Oct 2025 16:24:28.747,14 Oct 2025 16:35:27.364,658.617
767,14 Oct 2025 17:58:23.436,14 Oct 2025 18:08:54.160,630.724
768,15 Oct 2025 16:06:01.879,15 Oct 2025 16:16:13.933,612.053
769,15 Oct 2025 17:39:29.352,15 Oct 2025 17:50:36.777,667.425
770,15 Oct 2025 19:16:02.946,15 Oct 2025 19:19:24.294,201.348
771,16 Oct 2025 15:47:45.319,16 Oct 2025 15:56:44.197,538.879
772,16 Oct 2025 17:20:40.167,16 Oct 2025 17:32:08.659,688.492
773,16 Oct 2025 18:56:06.006,16 Oct 2025 19:02:35.106,389.100
774,17 Oct 2025 15:29:46.616,17 Oct 2025 15:36:50.312,423.696
775,17 Oct 2025 17:01:55.607,17 Oct 2025 17:13:30.172,694.565
776,17 Oct 2025 18:36:44.704,17 Oct 2025 18:45:03.637,498.933
777,18 Oct 2025 15:12:38.547,18 Oct 2025 15:15:59.087,200.540
778,18 Oct 2025 16:43:15.895,18 Oct 2025 16:54:41.149,685.255
779,18 Oct 2025 18:17:36.762,18 Oct 2025 18:27:12.395,575.633
780,19 Oct 2025 16:24:41.787,19 Oct 2025 16:35:40.831,659.044
781,19 Oct 2025 17:58:36.791,19 Oct 2025 18:09:06.980,630.189
782,20 Oct 2025 16:06:14.825,20 Oct 2025 16:16:27.567,612.742
783,20 Oct 2025 17:39:42.644,20 Oct 2025 17:50:49.728,667.085
784,20 Oct 2025 19:16:17.620,20 Oct 2025 19:19:35.495,197.875
785,21 Oct 2025 15:47:58.112,21 Oct 2025 15:56:58.056,539.944
786,21 Oct 2025 17:20:53.404,21 Oct 2025 17:32:21.735,688.331
787,21 Oct 2025 18:56:19.781,21 Oct 2025 19:02:47.284,387.503
788,22 Oct 2025 15:29:59.112,22 Oct 2025 15:37:04.545,425.433
789,22 Oct 2025 17:02:08.788,22 Oct 2025 17:13:43.370,694.582
790,22 Oct 2025 18:36:58.256,22 Oct 2025 18:45:16.115,497.859
791,23 Oct 2025 15:12:49.703,23 Oct 2025 15:16:14.740,205.037
792,23 Oct 2025 16:43:29.015,23 Oct 2025 16:54:54.475,685.460
793,23 Oct 2025 18:17:50.198,23 Oct 2025 18:27:25.064,574.866
794,24 Oct 2025 16:24:54.833,24 Oct 2025 16:35:54.293,659.460
795,24 Oct 2025 17:58:50.148,24 Oct 2025 18:09:19.799,629.651
796,25 Oct 2025 16:06:27.772,25 Oct 2025 16:16:41.200,613.429
797,25 Oct 2025 17:39:55.938,25 Oct 2025 17:51:02.679,666.741
798,25 Oct 2025 19:16:32.330,25 Oct 2025 19:19:46.658,194.328
799,26 Oct 2025 15:48:10.907,26 Oct 2025 15:57:11.912,541.005
800,26 Oct 2025 17:21:06.641,26 Oct 2025 17:32:34.809,688.168
801,26 Oct 2025 18:56:33.562,26 Oct 2025 19:02:59.456,385.894
802,27 Oct 2025 15:30:11.612,27 Oct 2025 15:37:18.771,427.159
803,27 Oct 2025 17:02:21.970,27 Oct 2025 17:13:56.566,694.596
804,27 Oct 2025 18:37:11.813,27 Oct 2025 18:45:28.589,496.777
805,28 Oct 2025 15:13:00.912,28 Oct 2025 15:16:30.338,209.426
806,28 Oct 2025 16:43:42.135,28 Oct 2025 16:55:07.798,685.663
807,28 Oct 2025 18:18:03.635,28 Oct 2025 18:27:37.730,574.096
808,29 Oct 2025 16:25:07.880,29 Oct 2025 16:36:07.757,659.877
809,29 Oct 2025 17:59:03.505,29 Oct 2025 18:09:32.616,629.111
810,30 Oct 2025 16:06:40.720,30 Oct 2025 16:16:54.831,614.111
811,30 Oct 2025 17:40:09.231,30 Oct 2025 17:51:15.627,666.396
812,30 Oct 2025 19:16:47.072,30 Oct 2025 19:19:57.789,190.717
813,31 Oct 2025 15:48:23.710,31 Oct 2025 15:57:25.764,542.054
814,31 Oct 2025 17:21:19.879,31 Oct 2025 17:32:47.878,687.999
815,31 Oct 2025 18:56:47.345,31 Oct 2025 19:03:11.624,384.279
816,1 Nov 2025 15:30:24.119,1 Nov 2025 15:37:32.990,428.871
817,1 Nov 2025 17:02:35.152,1 Nov 2025 17:14:09.761,694.609
818,1 Nov 2025 18:37:25.366,1 Nov 2025 18:45:41.062,495.696
819,2 Nov 2025 15:13:12.176,2 Nov 2025 15:16:45.884,213.707
820,2 Nov 2025 16:43:55.257,2 Nov 2025 16:55:21.120,685.863
821,2 Nov 2025 18:18:17.072,2 Nov 2025 18:27:50.396,573.323
822,3 Nov 2025 16:25:20.929,3 Nov 2025 16:36:21.220,660.291
823,3 Nov 2025 17:59:16.864,3 Nov 2025 18:09:45.433,628.568
824,4 Nov 2025 16:06:53.672,4 Nov 2025 16:17:08.460,614.789
825,4 Nov 2025 17:40:22.527,4 Nov 2025 17:51:28.579,666.052
826,4 Nov 2025 19:17:01.848,4 Nov 2025 19:20:08.885,187.037
827,5 Nov 2025 15:48:36.513,5 Nov 2025 15:57:39.615,543.103
828,5 Nov 2025 17:21:33.119,5 Nov 2025 17:33:00.951,687.832
829,5 Nov 2025 18:57:01.134,5 Nov 2025 19:03:23.788,382.654
830,6 Nov 2025 15:30:36.632,6 Nov 2025 15:37:47.206,430.574
831,6 Nov 2025 17:02:48.337,6 Nov 2025 17:14:22.957,694.620
832,6 Nov 2025 18:37:38.925,6 Nov 2025 18:45:53.533,494.608
833,7 Nov 2025 15:13:23.482,7 Nov 2025 15:17:01.387,217.905
834,7 Nov 2025 16:44:08.381,7 Nov 2025 16:55:34.443,686.061
835,7 Nov 2025 18:18:30.514,7 Nov 2025 18:28:03.060,572.546
836,8 Nov 2025 16:25:33.979,8 Nov 2025 16:36:34.682,660.702
837,8 Nov 2025 17:59:30.226,8 Nov 2025 18:09:58.248,628.022
838,9 Nov 2025 16:07:06.624,9 Nov 2025 16:17:22.088,615.465
839,9 Nov 2025 17:40:35.824,9 Nov 2025 17:51:41.526,665.702
840,9 Nov 2025 19:17:16.670,9 Nov 2025 19:20:19.936,183.267
841,10 Nov 2025 15:48:49.316,10 Nov 2025 15:57:53.463,544.147
842,10 Nov 2025 17:21:46.360,10 Nov 2025 17:33:14.022,687.662
843,10 Nov 2025 18:57:14.928,10 Nov 2025 19:03:35.946,381.018
844,11 Nov 2025 15:30:49.149,11 Nov 2025 15:38:01.415,432.265
845,11 Nov 2025 17:03:01.522,11 Nov 2025 17:14:36.150,694.628
846,11 Nov 2025 18:37:52.485,11 Nov 2025 18:46:06.001,493.515
847,12 Nov 2025 15:13:34.834,12 Nov 2025 15:17:16.843,222.009
848,12 Nov 2025 16:44:21.505,12 Nov 2025 16:55:47.762,686.257
849,12 Nov 2025 18:18:43.955,12 Nov 2025 18:28:15.722,571.767
850,13 Nov 2025 16:25:47.031,13 Nov 2025 16:36:48.141,661.111
851,13 Nov 2025 17:59:43.584,13 Nov 2025 18:10:11.062,627.478
852,14 Nov 2025 16:07:19.579,14 Nov 2025 16:17:35.714,616.135
853,14 Nov 2025 17:40:49.122,14 Nov 2025 17:51:54.472,665.351
854,14 Nov 2025 19:17:31.526,14 Nov 2025 19:20:30.952,179.426
855,15 Nov 2025 15:49:02.124,15 Nov 2025 15:58:07.308,545.184
856,15 Nov 2025 17:21:59.601,15 Nov 2025 17:33:27.092,687.491
857,15 Nov 2025 18:57:28.725,15 Nov 2025 19:03:48.101,379.377
858,16 Nov 2025 15:31:01.675,16 Nov 2025 15:38:15.618,433.943
859,16 Nov 2025 17:03:14.709,16 Nov 2025 17:14:49.343,694.634
860,16 Nov 2025 18:38:06.048,16 Nov 2025 18:46:18.468,492.420
861,17 Nov 2025 15:13:46.231,17 Nov 2025 15:17:32.256,226.025
862,17 Nov 2025 16:44:34.632,17 Nov 2025 16:56:01.082,686.450
863,17 Nov 2025 18:18:57.398,17 Nov 2025 18:28:28.383,570.985
864,18 Nov 2025 16:26:00.086,18 Nov 2025 16:37:01.601,661.516
865,18 Nov 2025 17:59:56.948,18 Nov 2025 18:10:23.876,626.928
866,19 Nov 2025 16:07:32.533,19 Nov 2025 16:17:49.337,616.803
867,19 Nov 2025 17:41:02.422,19 Nov 2025 17:52:07.422,664.999
868,19 Nov 2025 19:17:46.427,19 Nov 2025 19:20:41.921,175.495
869,20 Nov 2025 15:49:14.935,20 Nov 2025 15:58:21.151,546.216
870,20 Nov 2025 17:22:12.846,20 Nov 2025 17:33:40.163,687.317
871,20 Nov 2025 18:57:42.528,20 Nov 2025 19:04:00.252,377.724
872,21 Nov 2025 15:31:14.211,21 Nov 2025 15:38:29.817,435.606
873,21 Nov 2025 17:03:27.898,21 Nov 2025 17:15:02.536,694.638
874,21 Nov 2025 18:38:19.618,21 Nov 2025 18:46:30.933,491.315
875,22 Nov 2025 15:13:57.666,22 Nov 2025 15:17:47.632,229.967
876,22 Nov 2025 16:44:47.760,22 Nov 2025 16:56:14.402,686.641
877,22 Nov 2025 18:19:10.844,22 Nov 2025 18:28:41.044,570.200
878,23 Nov 2025 16:26:13.141,23 Nov 2025 16:37:15.060,661.919
879,23 Nov 2025 18:00:10.312,23 Nov 2025 18:10:36.688,626.376
880,24 Nov 2025 16:07:45.492,24 Nov 2025 16:18:02.960,617.467
881,24 Nov 2025 17:41:15.722,24 Nov 2025 17:52:20.366,664.644
882,24 Nov 2025 19:18:01.377,24 Nov 2025 19:20:52.844,171.466
883,25 Nov 2025 15:49:27.748,25 Nov 2025 15:58:34.991,547.243
884,25 Nov 2025 17:22:26.090,25 Nov 2025 17:33:53.234,687.144
885,25 Nov 2025 18:57:56.335,25 Nov 2025 19:04:12.395,376.060
886,26 Nov 2025 15:31:26.747,26 Nov 2025 15:38:44.009,437.263
887,26 Nov 2025 17:03:41.086,26 Nov 2025 17:15:15.726,694.640
888,26 Nov 2025 18:38:33.184,26 Nov 2025 18:46:43.394,490.210
889,27 Nov 2025 15:14:09.139,27 Nov 2025 15:18:02.967,233.828
890,27 Nov 2025 16:45:00.889,27 Nov 2025 16:56:27.718,686.829
891,27 Nov 2025 18:19:24.287,27 Nov 2025 18:28:53.701,569.415
892,28 Nov 2025 16:26:26.197,28 Nov 2025 16:37:28.516,662.318
893,28 Nov 2025 18:00:23.676,28 Nov 2025 18:10:49.498,625.822
894,29 Nov 2025 16:07:58.454,29 Nov 2025 16:18:16.580,618.127
895,29 Nov 2025 17:41:29.023,29 Nov 2025 17:52:33.310,664.286
896,29 Nov 2025 19:18:16.373,29 Nov 2025 19:21:03.720,167.347
897,30 Nov 2025 15:49:40.565,30 Nov 2025 15:58:48.828,548.263
898,30 Nov 2025 17:22:39.335,30 Nov 2025 17:34:06.298,686.963
899,30 Nov 2025 18:58:10.145,30 Nov 2025 19:04:24.537,374.392
900,1 Dec 2025 15:31:39.290,1 Dec 2025 15:38:58.196,438.906
901,1 Dec 2025 17:03:54.277,1 Dec 2025 17:15:28.916,694.639
902,1 Dec 2025 18:38:46.753,1 Dec 2025 18:46:55.855,489.103
903,2 Dec 2025 15:14:20.652,2 Dec 2025 15:18:18.266,237.614
904,2 Dec 2025 16:45:14.020,2 Dec 2025 16:56:41.035,687.015
905,2 Dec 2025 18:19:37.734,2 Dec 2025 18:29:06.359,568.625
906,3 Dec 2025 16:26:39.262,3 Dec 2025 16:37:41.972,662.710
907,3 Dec 2025 18:00:37.041,3 Dec 2025 18:11:02.309,625.268
908,4 Dec 2025 16:08:11.418,4 Dec 2025 16:18:30.201,618.783
909,4 Dec 2025 17:41:42.327,4 Dec 2025 17:52:46.253,663.927
910,4 Dec 2025 19:18:31.426,4 Dec 2025 19:21:14.542,163.116
911,5 Dec 2025 15:49:53.385,5 Dec 2025 15:59:02.664,549.278
912,5 Dec 2025 17:22:52.580,5 Dec 2025 17:34:19.366,686.786
913,5 Dec 2025 18:58:23.963,5 Dec 2025 19:04:36.672,372.710
914,6 Dec 2025 15:31:51.838,6 Dec 2025 15:39:12.379,440.541
915,6 Dec 2025 17:04:07.469,6 Dec 2025 17:15:42.106,694.637
916,6 Dec 2025 18:39:00.325,6 Dec 2025 18:47:08.313,487.988
917,7 Dec 2025 15:14:32.196,7 Dec 2025 15:18:33.533,241.337
918,7 Dec 2025 16:45:27.151,7 Dec 2025 16:56:54.351,687.199
919,7 Dec 2025 18:19:51.183,7 Dec 2025 18:29:19.014,567.831
920,8 Dec 2025 16:26:52.321,8 Dec 2025 16:37:55.426,663.105
921,8 Dec 2025 18:00:50.408,8 Dec 2025 18:11:15.117,624.709
922,9 Dec 2025 16:08:24.382,9 Dec 2025 16:18:43.818,619.436
923,9 Dec 2025 17:41:55.629,9 Dec 2025 17:52:59.194,663.565
924,9 Dec 2025 19:18:46.536,9 Dec 2025 19:21:25.303,158.766
925,10 Dec 2025 15:50:06.207,10 Dec 2025 15:59:16.494,550.288
926,10 Dec 2025 17:23:05.826,10 Dec 2025 17:34:32.434,686.608
927,10 Dec 2025 18:58:37.782,10 Dec 2025 19:04:48.802,371.021
928,11 Dec 2025 15:32:04.391,11 Dec 2025 15:39:26.553,442.162
929,11 Dec 2025 17:04:20.660,11 Dec 2025 17:15:55.293,694.632
930,11 Dec 2025 18:39:13.896,11 Dec 2025 18:47:20.768,486.872
931,12 Dec 2025 15:14:43.775,12 Dec 2025 15:18:48.762,244.987
932,12 Dec 2025 16:45:40.284,12 Dec 2025 16:57:07.664,687.380
933,12 Dec 2025 18:20:04.632,12 Dec 2025 18:29:31.668,567.036
934,13 Dec 2025 16:27:05.382,13 Dec 2025 16:38:08.878,663.496
935,13 Dec 2025 18:01:03.777,13 Dec 2025 18:11:27.925,624.148
936,14 Dec 2025 16:08:37.353,14 Dec 2025 16:18:57.435,620.082
937,14 Dec 2025 17:42:08.933,14 Dec 2025 17:53:12.132,663.198
938,14 Dec 2025 19:19:01.705,14 Dec 2025 19:21:36.009,154.304
939,15 Dec 2025 15:50:19.033,15 Dec 2025 15:59:30.323,551.290
940,15 Dec 2025 17:23:19.075,15 Dec 2025 17:34:45.499,686.424
941,15 Dec 2025 18:58:51.605,15 Dec 2025 19:05:00.930,369.325
942,16 Dec 2025 15:32:16.952,16 Dec 2025 15:39:40.724,443.772
943,16 Dec 2025 17:04:33.855,16 Dec 2025 17:16:08.480,694.625
944,16 Dec 2025 18:39:27.470,16 Dec 2025 18:47:33.223,485.752
945,17 Dec 2025 15:14:55.388,17 Dec 2025 15:19:03.962,248.573
946,17 Dec 2025 16:45:53.419,17 Dec 2025 16:57:20.977,687.559
947,17 Dec 2025 18:20:18.083,17 Dec 2025 18:29:44.321,566.238
948,18 Dec 2025 16:27:18.446,18 Dec 2025 16:38:22.330,663.884
949,18 Dec 2025 18:01:17.146,18 Dec 2025 18:11:40.732,623.585
950,19 Dec 2025 16:08:50.323,19 Dec 2025 16:19:11.049,620.727
951,19 Dec 2025 17:42:22.240,19 Dec 2025 17:53:25.072,662.832
952,19 Dec 2025 19:19:16.942,19 Dec 2025 19:21:46.642,149.699
953,20 Dec 2025 15:50:31.862,20 Dec 2025 15:59:44.150,552.289
954,20 Dec 2025 17:23:32.325,20 Dec 2025 17:34:58.563,686.238
955,20 Dec 2025 18:59:05.434,20 Dec 2025 19:05:13.052,367.618
956,21 Dec 2025 15:32:29.517,21 Dec 2025 15:39:54.890,445.373
957,21 Dec 2025 17:04:47.049,21 Dec 2025 17:16:21.666,694.616
958,21 Dec 2025 18:39:41.047,21 Dec 2025 18:47:45.679,484.632
959,22 Dec 2025 15:15:07.030,22 Dec 2025 15:19:19.131,252.101
960,22 Dec 2025 16:46:06.554,22 Dec 2025 16:57:34.289,687.735
961,22 Dec 2025 18:20:31.535,22 Dec 2025 18:29:56.972,565.437
962,23 Dec 2025 16:27:31.510,23 Dec 2025 16:38:35.780,664.270
963,23 Dec 2025 18:01:30.515,23 Dec 2025 18:11:53.536,623.021
964,24 Dec 2025 16:09:03.290,24 Dec 2025 16:19:24.660,621.370
965,24 Dec 2025 17:42:35.544,24 Dec 2025 17:53:38.009,662.464
966,24 Dec 2025 19:19:32.252,24 Dec 2025 19:21:57.203,144.951
967,25 Dec 2025 15:50:44.692,25 Dec 2025 15:59:57.969,553.278
968,25 Dec 2025 17:23:45.573,25 Dec 2025 17:35:11.621,686.048
969,25 Dec 2025 18:59:19.265,25 Dec 2025 19:05:25.174,365.909
970,26 Dec 2025 15:32:42.087,26 Dec 2025 15:40:09.047,446.960
971,26 Dec 2025 17:05:00.244,26 Dec 2025 17:16:34.845,694.601
972,26 Dec 2025 18:39:54.620,26 Dec 2025 18:47:58.127,483.507
973,27 Dec 2025 15:15:18.703,27 Dec 2025 15:19:34.267,255.564
974,27 Dec 2025 16:46:19.689,27 Dec 2025 16:57:47.598,687.909
975,27 Dec 2025 18:20:44.984,27 Dec 2025 18:30:09.621,564.637
976,28 Dec 2025 16:27:44.576,28 Dec 2025 16:38:49.227,664.651
977,28 Dec 2025 18:01:43.884,28 Dec 2025 18:12:06.340,622.455
