3UCubedIntegratedSim/Reports & Plots/Comms/UNH/Sat 7 Comms.csv

"Access","Start Time (UTCG)","Stop Time (UTCG)","Duration (sec)"
1,1 Jan 2025 22:25:39.289,1 Jan 2025 22:36:26.188,646.899
2,1 Jan 2025 23:59:27.463,1 Jan 2025 23:59:59.992,32.529
3,1 Jan 2025 23:59:59.992,2 Jan 2025 00:10:10.672,610.679
4,2 Jan 2025 11:27:32.681,2 Jan 2025 11:38:36.935,664.254
5,2 Jan 2025 13:01:31.629,2 Jan 2025 13:11:54.680,623.051
6,2 Jan 2025 22:07:28.957,2 Jan 2025 22:17:28.718,599.761
7,2 Jan 2025 23:40:22.234,2 Jan 2025 23:51:39.175,676.942
8,3 Jan 2025 11:09:04.474,3 Jan 2025 11:19:25.813,621.339
9,3 Jan 2025 12:42:36.673,3 Jan 2025 12:53:39.151,662.478
10,3 Jan 2025 14:19:33.160,3 Jan 2025 14:21:58.515,145.355
11,3 Jan 2025 21:49:31.640,3 Jan 2025 21:58:24.348,532.707
12,3 Jan 2025 23:21:28.830,3 Jan 2025 23:33:01.581,692.751
13,4 Jan 2025 00:58:47.194,4 Jan 2025 01:04:44.100,356.906
14,4 Jan 2025 10:50:45.878,4 Jan 2025 10:59:59.124,553.246
15,4 Jan 2025 12:23:46.711,4 Jan 2025 12:35:12.766,686.054
16,4 Jan 2025 13:59:20.315,4 Jan 2025 14:05:26.349,366.034
17,4 Jan 2025 21:31:51.178,4 Jan 2025 21:39:09.449,438.271
18,4 Jan 2025 23:02:46.188,4 Jan 2025 23:14:18.908,692.721
19,5 Jan 2025 00:38:38.351,5 Jan 2025 00:46:57.737,499.385
20,5 Jan 2025 10:32:43.294,5 Jan 2025 10:40:10.198,446.905
21,5 Jan 2025 12:05:01.389,5 Jan 2025 12:16:35.986,694.597
22,5 Jan 2025 13:39:55.700,5 Jan 2025 13:47:59.279,483.579
23,5 Jan 2025 21:14:39.018,5 Jan 2025 21:19:32.806,293.787
24,5 Jan 2025 22:44:13.914,5 Jan 2025 22:55:31.574,677.660
25,6 Jan 2025 00:19:00.384,6 Jan 2025 00:28:46.946,586.562
26,6 Jan 2025 10:15:19.952,6 Jan 2025 10:19:35.384,255.432
27,6 Jan 2025 11:46:20.845,6 Jan 2025 11:57:48.741,687.896
28,6 Jan 2025 13:20:46.082,6 Jan 2025 13:30:10.762,564.680
29,6 Jan 2025 22:25:52.166,6 Jan 2025 22:36:39.515,647.348
30,6 Jan 2025 23:59:40.988,6 Jan 2025 23:59:59.992,19.004
31,6 Jan 2025 23:59:59.992,7 Jan 2025 00:10:23.678,623.686
32,7 Jan 2025 11:27:45.733,7 Jan 2025 11:38:50.373,664.639
33,7 Jan 2025 13:01:44.989,7 Jan 2025 13:12:07.475,622.486
34,7 Jan 2025 22:07:41.689,7 Jan 2025 22:17:42.108,600.418
35,7 Jan 2025 23:40:35.614,7 Jan 2025 23:51:52.265,676.651
36,8 Jan 2025 11:09:17.438,8 Jan 2025 11:19:39.413,621.975
37,8 Jan 2025 12:42:49.973,8 Jan 2025 12:53:52.080,662.107
38,8 Jan 2025 14:19:48.525,8 Jan 2025 14:22:09.000,140.476
39,8 Jan 2025 21:49:44.204,8 Jan 2025 21:58:37.836,533.632
40,8 Jan 2025 23:21:42.077,8 Jan 2025 23:33:14.736,692.659
41,9 Jan 2025 00:59:01.696,9 Jan 2025 01:04:56.353,354.658
42,9 Jan 2025 10:50:58.704,9 Jan 2025 11:00:12.931,554.227
43,9 Jan 2025 12:23:59.953,9 Jan 2025 12:35:25.818,685.865
44,9 Jan 2025 13:59:34.141,9 Jan 2025 14:05:38.455,364.314
45,9 Jan 2025 21:32:03.505,9 Jan 2025 21:39:23.098,439.593
46,9 Jan 2025 23:02:59.310,9 Jan 2025 23:14:32.119,692.809
47,10 Jan 2025 00:38:52.328,10 Jan 2025 00:47:10.440,498.113
48,10 Jan 2025 10:32:55.862,10 Jan 2025 10:40:24.337,448.474
49,10 Jan 2025 12:05:14.577,10 Jan 2025 12:16:49.160,694.583
50,10 Jan 2025 13:40:09.275,10 Jan 2025 13:48:11.718,482.444
51,10 Jan 2025 21:14:50.854,10 Jan 2025 21:19:46.868,296.014
52,10 Jan 2025 22:44:26.915,10 Jan 2025 22:55:44.839,677.924
53,11 Jan 2025 00:19:14.095,11 Jan 2025 00:28:59.841,585.745
54,11 Jan 2025 10:15:31.643,11 Jan 2025 10:19:50.484,258.841
55,11 Jan 2025 11:46:33.973,11 Jan 2025 11:58:02.041,688.068
56,11 Jan 2025 13:20:59.526,11 Jan 2025 13:30:23.401,563.875
57,11 Jan 2025 22:26:05.038,11 Jan 2025 22:36:52.836,647.798
58,11 Jan 2025 23:59:54.514,11 Jan 2025 23:59:59.992,5.477
59,11 Jan 2025 23:59:59.992,12 Jan 2025 00:10:36.687,636.695
60,12 Jan 2025 11:27:58.795,12 Jan 2025 11:39:03.806,665.011
61,12 Jan 2025 13:01:58.351,12 Jan 2025 13:12:20.268,621.917
62,12 Jan 2025 22:07:54.424,12 Jan 2025 22:17:55.500,601.077
63,12 Jan 2025 23:40:48.987,12 Jan 2025 23:52:05.354,676.367
64,13 Jan 2025 11:09:30.403,13 Jan 2025 11:19:53.009,622.606
65,13 Jan 2025 12:43:03.270,13 Jan 2025 12:54:05.006,661.736
66,13 Jan 2025 14:20:03.987,13 Jan 2025 14:22:19.390,135.403
67,13 Jan 2025 21:49:56.770,13 Jan 2025 21:58:51.321,534.551
68,13 Jan 2025 23:21:55.324,13 Jan 2025 23:33:27.888,692.564
69,14 Jan 2025 00:59:16.212,14 Jan 2025 01:05:08.598,352.386
70,14 Jan 2025 10:51:11.530,14 Jan 2025 11:00:26.737,555.207
71,14 Jan 2025 12:24:13.194,14 Jan 2025 12:35:38.864,685.671
72,14 Jan 2025 13:59:47.971,14 Jan 2025 14:05:50.553,362.583
73,14 Jan 2025 21:32:15.835,14 Jan 2025 21:39:36.743,440.907
74,14 Jan 2025 23:03:12.433,14 Jan 2025 23:14:45.327,692.895
75,15 Jan 2025 00:39:06.306,15 Jan 2025 00:47:23.140,496.834
76,15 Jan 2025 10:33:08.433,15 Jan 2025 10:40:38.472,450.039
77,15 Jan 2025 12:05:27.764,15 Jan 2025 12:17:02.331,694.567
78,15 Jan 2025 13:40:22.840,15 Jan 2025 13:48:24.154,481.313
79,15 Jan 2025 21:15:02.698,15 Jan 2025 21:20:00.921,298.224
80,15 Jan 2025 22:44:39.916,15 Jan 2025 22:55:58.101,678.185
81,16 Jan 2025 00:19:27.808,16 Jan 2025 00:29:12.731,584.923
82,16 Jan 2025 10:15:43.360,16 Jan 2025 10:20:05.553,262.194
83,16 Jan 2025 11:46:47.103,16 Jan 2025 11:58:15.337,688.234
84,16 Jan 2025 13:21:12.970,16 Jan 2025 13:30:36.038,563.068
85,16 Jan 2025 22:26:17.913,16 Jan 2025 22:37:06.156,648.243
86,17 Jan 2025 00:00:08.043,17 Jan 2025 00:10:49.693,641.650
87,17 Jan 2025 11:28:11.853,17 Jan 2025 11:39:17.243,665.390
88,17 Jan 2025 13:02:11.712,17 Jan 2025 13:12:33.060,621.348
89,17 Jan 2025 22:08:07.159,17 Jan 2025 22:18:08.890,601.731
90,17 Jan 2025 23:41:02.366,17 Jan 2025 23:52:18.442,676.076
91,18 Jan 2025 11:09:43.368,18 Jan 2025 11:20:06.604,623.236
92,18 Jan 2025 12:43:16.568,18 Jan 2025 12:54:17.931,661.364
93,18 Jan 2025 14:20:19.541,18 Jan 2025 14:22:29.683,130.142
94,18 Jan 2025 21:50:09.338,18 Jan 2025 21:59:04.805,535.468
95,18 Jan 2025 23:22:08.574,18 Jan 2025 23:33:41.041,692.467
96,19 Jan 2025 00:59:30.737,19 Jan 2025 01:05:20.831,350.094
97,19 Jan 2025 10:51:24.359,19 Jan 2025 11:00:40.541,556.181
98,19 Jan 2025 12:24:26.436,19 Jan 2025 12:35:51.914,685.478
99,19 Jan 2025 14:00:01.805,19 Jan 2025 14:06:02.648,360.843
100,19 Jan 2025 21:32:28.169,19 Jan 2025 21:39:50.387,442.218
101,19 Jan 2025 23:03:25.557,19 Jan 2025 23:14:58.536,692.979
102,20 Jan 2025 00:39:20.290,20 Jan 2025 00:47:35.836,495.546
103,20 Jan 2025 10:33:21.010,20 Jan 2025 10:40:52.604,451.594
104,20 Jan 2025 12:05:40.952,20 Jan 2025 12:17:15.502,694.550
105,20 Jan 2025 13:40:36.413,20 Jan 2025 13:48:36.588,480.175
106,20 Jan 2025 21:15:14.552,20 Jan 2025 21:20:14.966,300.415
107,20 Jan 2025 22:44:52.919,20 Jan 2025 22:56:11.364,678.445
108,21 Jan 2025 00:19:41.525,21 Jan 2025 00:29:25.622,584.097
109,21 Jan 2025 10:15:55.103,21 Jan 2025 10:20:20.598,265.495
110,21 Jan 2025 11:47:00.232,21 Jan 2025 11:58:28.633,688.402
111,21 Jan 2025 13:21:26.416,21 Jan 2025 13:30:48.674,562.258
112,21 Jan 2025 22:26:30.791,21 Jan 2025 22:37:19.477,648.686
113,22 Jan 2025 00:00:21.576,22 Jan 2025 00:11:02.700,641.124
114,22 Jan 2025 11:28:24.909,22 Jan 2025 11:39:30.673,665.764
115,22 Jan 2025 13:02:25.078,22 Jan 2025 13:12:45.851,620.773
116,22 Jan 2025 22:08:19.897,22 Jan 2025 22:18:22.276,602.379
117,22 Jan 2025 23:41:15.752,22 Jan 2025 23:52:31.530,675.778
118,23 Jan 2025 11:09:56.338,23 Jan 2025 11:20:20.198,623.861
119,23 Jan 2025 12:43:29.868,23 Jan 2025 12:54:30.856,660.988
120,23 Jan 2025 14:20:35.215,23 Jan 2025 14:22:39.854,124.639
121,23 Jan 2025 21:50:21.909,23 Jan 2025 21:59:18.289,536.380
122,23 Jan 2025 23:22:21.822,23 Jan 2025 23:33:54.194,692.372
123,24 Jan 2025 00:59:45.273,24 Jan 2025 01:05:33.057,347.783
124,24 Jan 2025 10:51:37.191,24 Jan 2025 11:00:54.341,557.150
125,24 Jan 2025 12:24:39.680,24 Jan 2025 12:36:04.962,685.282
126,24 Jan 2025 14:00:15.647,24 Jan 2025 14:06:14.736,359.089
127,24 Jan 2025 21:32:40.507,24 Jan 2025 21:40:04.028,443.521
128,24 Jan 2025 23:03:38.685,24 Jan 2025 23:15:11.745,693.061
129,25 Jan 2025 00:39:34.278,25 Jan 2025 00:47:48.531,494.253
130,25 Jan 2025 10:33:33.591,25 Jan 2025 10:41:06.732,453.141
131,25 Jan 2025 12:05:54.141,25 Jan 2025 12:17:28.674,694.532
132,25 Jan 2025 13:40:49.990,25 Jan 2025 13:48:49.019,479.029
133,25 Jan 2025 21:15:26.418,25 Jan 2025 21:20:29.003,302.586
134,25 Jan 2025 22:45:05.925,25 Jan 2025 22:56:24.627,678.702
135,26 Jan 2025 00:19:55.245,26 Jan 2025 00:29:38.512,583.267
136,26 Jan 2025 10:16:06.868,26 Jan 2025 10:20:35.621,268.753
137,26 Jan 2025 11:47:13.363,26 Jan 2025 11:58:41.931,688.568
138,26 Jan 2025 13:21:39.860,26 Jan 2025 13:31:01.307,561.448
139,26 Jan 2025 22:26:43.671,26 Jan 2025 22:37:32.797,649.126
140,27 Jan 2025 00:00:35.109,27 Jan 2025 00:11:15.704,640.595
141,27 Jan 2025 11:28:37.969,27 Jan 2025 11:39:44.104,666.135
142,27 Jan 2025 13:02:38.443,27 Jan 2025 13:12:58.640,620.197
143,27 Jan 2025 22:08:32.637,27 Jan 2025 22:18:35.664,603.027
144,27 Jan 2025 23:41:29.134,27 Jan 2025 23:52:44.617,675.482
145,28 Jan 2025 11:10:09.307,28 Jan 2025 11:20:33.789,624.482
146,28 Jan 2025 12:43:43.169,28 Jan 2025 12:54:43.778,660.609
147,28 Jan 2025 14:20:51.022,28 Jan 2025 14:22:49.899,118.877
148,28 Jan 2025 21:50:34.482,28 Jan 2025 21:59:31.770,537.288
149,28 Jan 2025 23:22:35.074,28 Jan 2025 23:34:07.344,692.270
150,29 Jan 2025 00:59:59.818,29 Jan 2025 01:05:45.272,345.454
151,29 Jan 2025 10:51:50.024,29 Jan 2025 11:01:08.140,558.116
152,29 Jan 2025 12:24:52.924,29 Jan 2025 12:36:18.008,685.085
153,29 Jan 2025 14:00:29.493,29 Jan 2025 14:06:26.816,357.323
154,29 Jan 2025 21:32:52.848,29 Jan 2025 21:40:17.665,444.817
155,29 Jan 2025 23:03:51.812,29 Jan 2025 23:15:24.952,693.140
156,30 Jan 2025 00:39:48.269,30 Jan 2025 00:48:01.218,492.949
157,30 Jan 2025 10:33:46.175,30 Jan 2025 10:41:20.854,454.679
158,30 Jan 2025 12:06:07.330,30 Jan 2025 12:17:41.841,694.511
159,30 Jan 2025 13:41:03.567,30 Jan 2025 13:49:01.446,477.879
160,30 Jan 2025 21:15:38.294,30 Jan 2025 21:20:43.027,304.733
161,30 Jan 2025 22:45:18.931,30 Jan 2025 22:56:37.888,678.957
162,31 Jan 2025 00:20:08.965,31 Jan 2025 00:29:51.398,582.433
163,31 Jan 2025 10:16:18.656,31 Jan 2025 10:20:50.618,271.962
164,31 Jan 2025 11:47:26.494,31 Jan 2025 11:58:55.225,688.731
165,31 Jan 2025 13:21:53.307,31 Jan 2025 13:31:13.938,560.631
166,31 Jan 2025 22:26:56.551,31 Jan 2025 22:37:46.116,649.565
167,1 Feb 2025 00:00:48.644,1 Feb 2025 00:11:28.709,640.065
168,1 Feb 2025 11:28:51.030,1 Feb 2025 11:39:57.534,666.504
169,1 Feb 2025 13:02:51.808,1 Feb 2025 13:13:11.426,619.618
170,1 Feb 2025 22:08:45.379,1 Feb 2025 22:18:49.054,603.675
171,1 Feb 2025 23:41:42.515,1 Feb 2025 23:52:57.699,675.184
172,2 Feb 2025 11:10:22.278,2 Feb 2025 11:20:47.376,625.098
173,2 Feb 2025 12:43:56.470,2 Feb 2025 12:54:56.700,660.230
174,2 Feb 2025 14:21:06.972,2 Feb 2025 14:22:59.795,112.823
175,2 Feb 2025 21:50:47.057,2 Feb 2025 21:59:45.251,538.194
176,2 Feb 2025 23:22:48.325,2 Feb 2025 23:34:20.495,692.170
177,3 Feb 2025 01:00:14.376,3 Feb 2025 01:05:57.476,343.099
178,3 Feb 2025 10:52:02.860,3 Feb 2025 11:01:21.936,559.076
179,3 Feb 2025 12:25:06.169,3 Feb 2025 12:36:31.054,684.885
180,3 Feb 2025 14:00:43.343,3 Feb 2025 14:06:38.892,355.549
181,3 Feb 2025 21:33:05.193,3 Feb 2025 21:40:31.302,446.109
182,3 Feb 2025 23:04:04.942,3 Feb 2025 23:15:38.160,693.218
183,4 Feb 2025 00:40:02.265,4 Feb 2025 00:48:13.906,491.640
184,4 Feb 2025 10:33:58.761,4 Feb 2025 10:41:34.970,456.210
185,4 Feb 2025 12:06:20.521,4 Feb 2025 12:17:55.009,694.488
186,4 Feb 2025 13:41:17.147,4 Feb 2025 13:49:13.872,476.725
187,4 Feb 2025 21:15:50.177,4 Feb 2025 21:20:57.047,306.870
188,4 Feb 2025 22:45:31.940,4 Feb 2025 22:56:51.151,679.211
189,5 Feb 2025 00:20:22.691,5 Feb 2025 00:30:04.285,581.594
190,5 Feb 2025 10:16:30.467,5 Feb 2025 10:21:05.595,275.128
191,5 Feb 2025 11:47:39.626,5 Feb 2025 11:59:08.518,688.891
192,5 Feb 2025 13:22:06.758,5 Feb 2025 13:31:26.566,559.808
193,5 Feb 2025 22:27:09.434,5 Feb 2025 22:37:59.432,649.998
194,6 Feb 2025 00:01:02.183,6 Feb 2025 00:11:41.716,639.534
195,6 Feb 2025 11:29:04.098,6 Feb 2025 11:40:10.962,666.864
196,6 Feb 2025 13:03:05.176,6 Feb 2025 13:13:24.213,619.037
197,6 Feb 2025 22:08:58.125,6 Feb 2025 22:19:02.442,604.318
198,6 Feb 2025 23:41:55.902,6 Feb 2025 23:53:10.786,674.884
199,7 Feb 2025 11:10:35.251,7 Feb 2025 11:21:00.965,625.714
200,7 Feb 2025 12:44:09.773,7 Feb 2025 12:55:09.619,659.846
201,7 Feb 2025 14:21:23.107,7 Feb 2025 14:23:09.509,106.401
202,7 Feb 2025 21:50:59.636,7 Feb 2025 21:59:58.732,539.096
203,7 Feb 2025 23:23:01.581,7 Feb 2025 23:34:33.643,692.062
204,8 Feb 2025 01:00:28.946,8 Feb 2025 01:06:09.672,340.726
205,8 Feb 2025 10:52:15.700,8 Feb 2025 11:01:35.731,560.031
206,8 Feb 2025 12:25:19.415,8 Feb 2025 12:36:44.098,684.683
207,8 Feb 2025 14:00:57.203,8 Feb 2025 14:06:50.961,353.758
208,8 Feb 2025 21:33:17.542,8 Feb 2025 21:40:44.936,447.393
209,8 Feb 2025 23:04:18.074,8 Feb 2025 23:15:51.368,693.294
210,9 Feb 2025 00:40:16.265,9 Feb 2025 00:48:26.593,490.328
211,9 Feb 2025 10:34:11.353,9 Feb 2025 10:41:49.083,457.730
212,9 Feb 2025 12:06:33.713,9 Feb 2025 12:18:08.177,694.464
213,9 Feb 2025 13:41:30.730,9 Feb 2025 13:49:26.294,475.563
214,9 Feb 2025 21:16:02.072,9 Feb 2025 21:21:11.056,308.984
215,9 Feb 2025 22:45:44.950,9 Feb 2025 22:57:04.412,679.461
216,10 Feb 2025 00:20:36.421,10 Feb 2025 00:30:17.170,580.749
217,10 Feb 2025 10:16:42.296,10 Feb 2025 10:21:20.550,278.254
218,10 Feb 2025 11:47:52.759,10 Feb 2025 11:59:21.809,689.049
219,10 Feb 2025 13:22:20.210,10 Feb 2025 13:31:39.193,558.983
220,10 Feb 2025 22:27:22.318,10 Feb 2025 22:38:12.750,650.432
221,11 Feb 2025 00:01:15.721,11 Feb 2025 00:11:54.719,638.998
222,11 Feb 2025 11:29:17.158,11 Feb 2025 11:40:24.390,667.232
223,11 Feb 2025 13:03:18.543,11 Feb 2025 13:13:36.996,618.454
224,11 Feb 2025 22:09:10.868,11 Feb 2025 22:19:15.823,604.955
225,11 Feb 2025 23:42:09.294,11 Feb 2025 23:53:23.874,674.580
226,12 Feb 2025 11:10:48.224,12 Feb 2025 11:21:14.552,626.328
227,12 Feb 2025 12:44:23.071,12 Feb 2025 12:55:22.536,659.465
228,12 Feb 2025 14:21:39.450,12 Feb 2025 14:23:19.009,99.559
229,12 Feb 2025 21:51:12.219,12 Feb 2025 22:00:12.209,539.990
230,12 Feb 2025 23:23:14.834,12 Feb 2025 23:34:46.797,691.963
231,13 Feb 2025 01:00:43.526,13 Feb 2025 01:06:21.856,338.329
232,13 Feb 2025 10:52:28.541,13 Feb 2025 11:01:49.521,560.980
233,13 Feb 2025 12:25:32.661,13 Feb 2025 12:36:57.141,684.479
234,13 Feb 2025 14:01:11.065,13 Feb 2025 14:07:03.024,351.959
235,13 Feb 2025 21:33:29.894,13 Feb 2025 21:40:58.567,448.673
236,13 Feb 2025 23:04:31.206,13 Feb 2025 23:16:04.574,693.368
237,14 Feb 2025 00:40:30.269,14 Feb 2025 00:48:39.275,489.006
238,14 Feb 2025 10:34:23.951,14 Feb 2025 10:42:03.193,459.242
239,14 Feb 2025 12:06:46.905,14 Feb 2025 12:18:21.341,694.436
240,14 Feb 2025 13:41:44.315,14 Feb 2025 13:49:38.713,474.398
241,14 Feb 2025 21:16:13.974,14 Feb 2025 21:21:25.060,311.086
242,14 Feb 2025 22:45:57.961,14 Feb 2025 22:57:17.672,679.711
243,15 Feb 2025 00:20:50.147,15 Feb 2025 00:30:30.052,579.905
244,15 Feb 2025 10:16:54.150,15 Feb 2025 10:21:35.483,281.333
245,15 Feb 2025 11:48:05.893,15 Feb 2025 11:59:35.098,689.205
246,15 Feb 2025 13:22:33.662,15 Feb 2025 13:31:51.820,558.157
247,15 Feb 2025 22:27:35.204,15 Feb 2025 22:38:26.068,650.864
248,16 Feb 2025 00:01:29.262,16 Feb 2025 00:12:07.720,638.457
249,16 Feb 2025 11:29:30.226,16 Feb 2025 11:40:37.814,667.589
250,16 Feb 2025 13:03:31.911,16 Feb 2025 13:13:49.779,617.868
251,16 Feb 2025 22:09:23.616,16 Feb 2025 22:19:29.209,605.593
252,16 Feb 2025 23:42:22.684,16 Feb 2025 23:53:36.958,674.274
253,17 Feb 2025 11:11:01.195,17 Feb 2025 11:21:28.132,626.937
254,17 Feb 2025 12:44:36.375,17 Feb 2025 12:55:35.459,659.084
255,17 Feb 2025 14:21:56.047,17 Feb 2025 14:23:28.265,92.218
256,17 Feb 2025 21:51:24.802,17 Feb 2025 22:00:25.687,540.885
257,17 Feb 2025 23:23:28.094,17 Feb 2025 23:34:59.947,691.853
258,18 Feb 2025 01:00:58.121,18 Feb 2025 01:06:34.028,335.907
259,18 Feb 2025 10:52:41.380,18 Feb 2025 11:02:03.309,561.929
260,18 Feb 2025 12:25:45.910,18 Feb 2025 12:37:10.187,684.276
261,18 Feb 2025 14:01:24.934,18 Feb 2025 14:07:15.083,350.149
262,18 Feb 2025 21:33:42.249,18 Feb 2025 21:41:12.199,449.950
263,18 Feb 2025 23:04:44.345,18 Feb 2025 23:16:17.777,693.432
264,19 Feb 2025 00:40:44.279,19 Feb 2025 00:48:51.954,487.675
265,19 Feb 2025 10:34:36.555,19 Feb 2025 10:42:17.298,460.743
266,19 Feb 2025 12:07:00.099,19 Feb 2025 12:18:34.505,694.406
267,19 Feb 2025 13:41:57.904,19 Feb 2025 13:49:51.131,473.227
268,19 Feb 2025 21:16:25.886,19 Feb 2025 21:21:39.058,313.171
269,19 Feb 2025 22:46:10.975,19 Feb 2025 22:57:30.933,679.958
270,20 Feb 2025 00:21:03.882,20 Feb 2025 00:30:42.934,579.052
271,20 Feb 2025 10:17:06.023,20 Feb 2025 10:21:50.399,284.376
272,20 Feb 2025 11:48:19.029,20 Feb 2025 11:59:48.387,689.358
273,20 Feb 2025 13:22:47.118,20 Feb 2025 13:32:04.442,557.325
274,20 Feb 2025 22:27:48.092,20 Feb 2025 22:38:39.386,651.294
275,21 Feb 2025 00:01:42.803,21 Feb 2025 00:12:20.721,637.919
276,21 Feb 2025 11:29:43.294,21 Feb 2025 11:40:51.242,667.949
277,21 Feb 2025 13:03:45.282,21 Feb 2025 13:14:02.559,617.277
278,21 Feb 2025 22:09:36.370,21 Feb 2025 22:19:42.599,606.229
279,21 Feb 2025 23:42:36.073,21 Feb 2025 23:53:50.041,673.968
280,22 Feb 2025 11:11:14.172,22 Feb 2025 11:21:41.720,627.548
281,22 Feb 2025 12:44:49.681,22 Feb 2025 12:55:48.376,658.695
282,22 Feb 2025 14:22:12.970,22 Feb 2025 14:23:37.187,84.217
283,22 Feb 2025 21:51:37.385,22 Feb 2025 22:00:39.164,541.780
284,22 Feb 2025 23:23:41.356,22 Feb 2025 23:35:13.097,691.740
285,23 Feb 2025 01:01:12.727,23 Feb 2025 01:06:46.191,333.464
286,23 Feb 2025 10:52:54.224,23 Feb 2025 11:02:17.093,562.869
287,23 Feb 2025 12:25:59.159,23 Feb 2025 12:37:23.228,684.068
288,23 Feb 2025 14:01:38.810,23 Feb 2025 14:07:27.134,348.324
289,23 Feb 2025 21:33:54.610,23 Feb 2025 21:41:25.827,451.217
290,23 Feb 2025 23:04:57.482,23 Feb 2025 23:16:30.983,693.501
291,24 Feb 2025 00:40:58.293,24 Feb 2025 00:49:04.632,486.339
292,24 Feb 2025 10:34:49.161,24 Feb 2025 10:42:31.392,462.231
293,24 Feb 2025 12:07:13.294,24 Feb 2025 12:18:47.668,694.374
294,24 Feb 2025 13:42:11.495,24 Feb 2025 13:50:03.545,472.050
295,24 Feb 2025 21:16:37.808,24 Feb 2025 21:21:53.042,315.233
296,24 Feb 2025 22:46:23.991,24 Feb 2025 22:57:44.193,680.202
297,25 Feb 2025 00:21:17.619,25 Feb 2025 00:30:55.815,578.196
298,25 Feb 2025 10:17:17.913,25 Feb 2025 10:22:05.295,287.382
299,25 Feb 2025 11:48:32.164,25 Feb 2025 12:00:01.674,689.509
300,25 Feb 2025 13:23:00.576,25 Feb 2025 13:32:17.065,556.489
301,25 Feb 2025 22:28:00.982,25 Feb 2025 22:38:52.703,651.721
302,26 Feb 2025 00:01:56.348,26 Feb 2025 00:12:33.721,637.373
303,26 Feb 2025 11:29:56.360,26 Feb 2025 11:41:04.667,668.307
304,26 Feb 2025 13:03:58.648,26 Feb 2025 13:14:15.338,616.691
305,26 Feb 2025 22:09:49.121,26 Feb 2025 22:19:55.982,606.861
306,26 Feb 2025 23:42:49.466,26 Feb 2025 23:54:03.124,673.658
307,27 Feb 2025 11:11:27.149,27 Feb 2025 11:21:55.300,628.151
308,27 Feb 2025 12:45:02.986,27 Feb 2025 12:56:01.290,658.304
309,27 Feb 2025 14:22:30.320,27 Feb 2025 14:23:45.680,75.360
310,27 Feb 2025 21:51:49.972,27 Feb 2025 22:00:52.639,542.667
311,27 Feb 2025 23:23:54.616,27 Feb 2025 23:35:26.245,691.629
312,28 Feb 2025 01:01:27.345,28 Feb 2025 01:06:58.341,330.996
313,28 Feb 2025 10:53:07.070,28 Feb 2025 11:02:30.876,563.806
314,28 Feb 2025 12:26:12.408,28 Feb 2025 12:37:36.266,683.858
315,28 Feb 2025 14:01:52.689,28 Feb 2025 14:07:39.178,346.489
316,28 Feb 2025 21:34:06.972,28 Feb 2025 21:41:39.452,452.480
317,28 Feb 2025 23:05:10.620,28 Feb 2025 23:16:44.188,693.568
318,1 Mar 2025 00:41:12.310,1 Mar 2025 00:49:17.304,484.994
319,1 Mar 2025 10:35:01.771,1 Mar 2025 10:42:45.484,463.713
320,1 Mar 2025 12:07:26.486,1 Mar 2025 12:19:00.828,694.342
321,1 Mar 2025 13:42:25.086,1 Mar 2025 13:50:15.955,470.869
322,1 Mar 2025 21:16:49.737,1 Mar 2025 21:22:07.023,317.286
323,1 Mar 2025 22:46:37.007,1 Mar 2025 22:57:57.452,680.445
324,2 Mar 2025 00:21:31.359,2 Mar 2025 00:31:08.693,577.334
325,2 Mar 2025 10:17:29.824,2 Mar 2025 10:22:20.167,290.343
326,2 Mar 2025 11:48:45.301,2 Mar 2025 12:00:14.956,689.655
327,2 Mar 2025 13:23:14.035,2 Mar 2025 13:32:29.686,555.650
328,2 Mar 2025 22:28:13.872,2 Mar 2025 22:39:06.019,652.147
329,3 Mar 2025 00:02:09.896,3 Mar 2025 00:12:46.720,636.824
330,3 Mar 2025 11:30:09.430,3 Mar 2025 11:41:18.088,668.658
331,3 Mar 2025 13:04:12.019,3 Mar 2025 13:14:28.115,616.096
332,3 Mar 2025 22:10:01.875,3 Mar 2025 22:20:09.367,607.491
333,3 Mar 2025 23:43:02.862,3 Mar 2025 23:54:16.207,673.344
334,4 Mar 2025 11:11:40.129,4 Mar 2025 11:22:08.879,628.750
335,4 Mar 2025 12:45:16.294,4 Mar 2025 12:56:14.200,657.906
336,4 Mar 2025 14:22:48.264,4 Mar 2025 14:23:53.582,65.318
337,4 Mar 2025 21:52:02.566,4 Mar 2025 22:01:06.115,543.549
338,4 Mar 2025 23:24:07.881,4 Mar 2025 23:35:39.394,691.513
339,5 Mar 2025 01:01:41.980,5 Mar 2025 01:07:10.480,328.500
340,5 Mar 2025 10:53:19.920,5 Mar 2025 11:02:44.659,564.739
341,5 Mar 2025 12:26:25.659,5 Mar 2025 12:37:49.305,683.646
342,5 Mar 2025 14:02:06.576,5 Mar 2025 14:07:51.218,344.642
343,5 Mar 2025 21:34:19.339,5 Mar 2025 21:41:53.076,453.738
344,5 Mar 2025 23:05:23.761,5 Mar 2025 23:16:57.394,693.633
345,6 Mar 2025 00:41:26.335,6 Mar 2025 00:49:29.975,483.641
346,6 Mar 2025 10:35:14.387,6 Mar 2025 10:42:59.575,465.187
347,6 Mar 2025 12:07:39.683,6 Mar 2025 12:19:13.989,694.306
348,6 Mar 2025 13:42:38.682,6 Mar 2025 13:50:28.365,469.683
349,6 Mar 2025 21:17:01.676,6 Mar 2025 21:22:20.999,319.323
350,6 Mar 2025 22:46:50.026,6 Mar 2025 22:58:10.712,680.686
351,7 Mar 2025 00:21:45.103,7 Mar 2025 00:31:21.567,576.463
352,7 Mar 2025 10:17:41.753,7 Mar 2025 10:22:35.024,293.271
353,7 Mar 2025 11:48:58.440,7 Mar 2025 12:00:28.242,689.801
354,7 Mar 2025 13:23:27.491,7 Mar 2025 13:32:42.308,554.817
355,7 Mar 2025 22:28:26.764,7 Mar 2025 22:39:19.339,652.575
356,8 Mar 2025 00:02:23.447,8 Mar 2025 00:12:59.719,636.272
357,8 Mar 2025 11:30:22.500,8 Mar 2025 11:41:31.509,669.009
358,8 Mar 2025 13:04:25.393,8 Mar 2025 13:14:40.894,615.500
359,8 Mar 2025 22:10:14.627,8 Mar 2025 22:20:22.750,608.123
360,8 Mar 2025 23:43:16.265,8 Mar 2025 23:54:29.292,673.027
361,9 Mar 2025 11:11:53.112,9 Mar 2025 11:22:22.457,629.344
362,9 Mar 2025 12:45:29.605,9 Mar 2025 12:56:27.112,657.507
363,9 Mar 2025 14:23:07.159,9 Mar 2025 14:24:00.535,53.376
364,9 Mar 2025 21:52:15.159,9 Mar 2025 22:01:19.588,544.429
365,9 Mar 2025 23:24:21.145,9 Mar 2025 23:35:52.542,691.397
366,10 Mar 2025 01:01:56.626,10 Mar 2025 01:07:22.608,325.982
367,10 Mar 2025 10:53:32.770,10 Mar 2025 11:02:58.438,565.667
368,10 Mar 2025 12:26:38.911,10 Mar 2025 12:38:02.343,683.432
369,10 Mar 2025 14:02:20.470,10 Mar 2025 14:08:03.250,342.780
370,10 Mar 2025 21:34:31.709,10 Mar 2025 21:42:06.696,454.988
371,10 Mar 2025 23:05:36.902,10 Mar 2025 23:17:10.599,693.697
372,11 Mar 2025 00:41:40.362,11 Mar 2025 00:49:42.643,482.281
373,11 Mar 2025 10:35:27.006,11 Mar 2025 10:43:13.660,466.654
374,11 Mar 2025 12:07:52.879,11 Mar 2025 12:19:27.147,694.268
375,11 Mar 2025 13:42:52.279,11 Mar 2025 13:50:40.770,468.491
376,11 Mar 2025 21:17:13.623,11 Mar 2025 21:22:34.966,321.343
377,11 Mar 2025 22:47:03.046,11 Mar 2025 22:58:23.971,680.925
378,12 Mar 2025 00:21:58.846,12 Mar 2025 00:31:34.442,575.596
379,12 Mar 2025 10:17:53.699,12 Mar 2025 10:22:49.861,296.162
380,12 Mar 2025 11:49:11.579,12 Mar 2025 12:00:41.524,689.946
381,12 Mar 2025 13:23:40.952,12 Mar 2025 13:32:54.925,553.973
382,12 Mar 2025 22:28:39.660,12 Mar 2025 22:39:32.654,652.994
383,13 Mar 2025 00:02:36.999,13 Mar 2025 00:13:12.715,635.716
384,13 Mar 2025 11:30:35.570,13 Mar 2025 11:41:44.927,669.357
385,13 Mar 2025 13:04:38.767,13 Mar 2025 13:14:53.669,614.903
386,13 Mar 2025 22:10:27.384,13 Mar 2025 22:20:36.132,608.748
387,13 Mar 2025 23:43:29.660,13 Mar 2025 23:54:42.373,672.713
388,14 Mar 2025 11:12:06.093,14 Mar 2025 11:22:36.031,629.938
389,14 Mar 2025 12:45:42.913,14 Mar 2025 12:56:40.023,657.110
390,14 Mar 2025 14:23:27.840,14 Mar 2025 14:24:05.699,37.859
391,14 Mar 2025 21:52:27.753,14 Mar 2025 22:01:33.060,545.307
392,14 Mar 2025 23:24:34.413,14 Mar 2025 23:36:05.689,691.276
393,15 Mar 2025 01:02:11.286,15 Mar 2025 01:07:34.721,323.434
394,15 Mar 2025 10:53:45.624,15 Mar 2025 11:03:12.213,566.589
395,15 Mar 2025 12:26:52.163,15 Mar 2025 12:38:15.375,683.212
396,15 Mar 2025 14:02:34.366,15 Mar 2025 14:08:15.276,340.910
397,15 Mar 2025 21:34:44.081,15 Mar 2025 21:42:20.311,456.230
398,15 Mar 2025 23:05:50.045,15 Mar 2025 23:17:23.803,693.758
399,16 Mar 2025 00:41:54.396,16 Mar 2025 00:49:55.303,480.908
400,16 Mar 2025 10:35:39.630,16 Mar 2025 10:43:27.739,468.109
401,16 Mar 2025 12:08:06.077,16 Mar 2025 12:19:40.304,694.228
402,16 Mar 2025 13:43:05.877,16 Mar 2025 13:50:53.173,467.297
403,16 Mar 2025 21:17:25.576,16 Mar 2025 21:22:48.928,323.351
404,16 Mar 2025 22:47:16.067,16 Mar 2025 22:58:37.229,681.162
405,17 Mar 2025 00:22:12.595,17 Mar 2025 00:31:47.315,574.721
406,17 Mar 2025 10:18:05.664,17 Mar 2025 10:23:04.680,299.016
407,17 Mar 2025 11:49:24.715,17 Mar 2025 12:00:54.807,690.092
408,17 Mar 2025 13:23:54.416,17 Mar 2025 13:33:07.541,553.125
409,17 Mar 2025 22:28:52.557,17 Mar 2025 22:39:45.970,653.412
410,18 Mar 2025 00:02:50.554,18 Mar 2025 00:13:25.711,635.157
411,18 Mar 2025 11:30:48.643,18 Mar 2025 11:41:58.344,669.701
412,18 Mar 2025 13:04:52.142,18 Mar 2025 13:15:06.445,614.303
413,18 Mar 2025 22:10:40.144,18 Mar 2025 22:20:49.511,609.367
414,18 Mar 2025 23:43:43.067,18 Mar 2025 23:54:55.454,672.387
415,19 Mar 2025 11:12:19.079,19 Mar 2025 11:22:49.605,630.526
416,19 Mar 2025 12:45:56.223,19 Mar 2025 12:56:52.934,656.711
417,19 Mar 2025 14:23:57.610,19 Mar 2025 14:24:01.770,4.159
418,19 Mar 2025 21:52:40.350,19 Mar 2025 22:01:46.533,546.183
419,19 Mar 2025 23:24:47.681,19 Mar 2025 23:36:18.837,691.156
420,20 Mar 2025 01:02:25.963,20 Mar 2025 01:07:46.821,320.858
421,20 Mar 2025 10:53:58.485,20 Mar 2025 11:03:25.988,567.503
422,20 Mar 2025 12:27:05.417,20 Mar 2025 12:38:28.410,682.994
423,20 Mar 2025 14:02:48.271,20 Mar 2025 14:08:27.297,339.026
424,20 Mar 2025 21:34:56.458,20 Mar 2025 21:42:33.929,457.472
425,20 Mar 2025 23:06:03.191,20 Mar 2025 23:17:37.008,693.817
426,21 Mar 2025 00:42:08.435,21 Mar 2025 00:50:07.963,479.528
427,21 Mar 2025 10:35:52.259,21 Mar 2025 10:43:41.816,469.556
428,21 Mar 2025 12:08:19.276,21 Mar 2025 12:19:53.462,694.185
429,21 Mar 2025 13:43:19.479,21 Mar 2025 13:51:05.575,466.096
430,21 Mar 2025 21:17:37.539,21 Mar 2025 21:23:02.882,325.343
431,21 Mar 2025 22:47:29.092,21 Mar 2025 22:58:50.488,681.396
432,22 Mar 2025 00:22:26.345,22 Mar 2025 00:32:00.188,573.844
433,22 Mar 2025 10:18:17.646,22 Mar 2025 10:23:19.481,301.835
434,22 Mar 2025 11:49:37.857,22 Mar 2025 12:01:08.090,690.233
435,22 Mar 2025 13:24:07.880,22 Mar 2025 13:33:20.155,552.275
436,22 Mar 2025 22:29:05.454,22 Mar 2025 22:39:59.282,653.828
437,23 Mar 2025 00:03:04.112,23 Mar 2025 00:13:38.707,634.595
438,23 Mar 2025 11:31:01.717,23 Mar 2025 11:42:11.761,670.044
439,23 Mar 2025 13:05:05.519,23 Mar 2025 13:15:19.219,613.700
440,23 Mar 2025 22:10:52.905,23 Mar 2025 22:21:02.893,609.987
441,23 Mar 2025 23:43:56.471,23 Mar 2025 23:55:08.535,672.063
442,24 Mar 2025 11:12:32.066,24 Mar 2025 11:23:03.178,631.111
443,24 Mar 2025 12:46:09.535,24 Mar 2025 12:57:05.843,656.308
444,24 Mar 2025 21:52:52.950,24 Mar 2025 22:02:00.004,547.054
445,24 Mar 2025 23:25:00.952,24 Mar 2025 23:36:31.984,691.032
446,25 Mar 2025 01:02:40.652,25 Mar 2025 01:07:58.910,318.258
447,25 Mar 2025 10:54:11.341,25 Mar 2025 11:03:39.759,568.418
448,25 Mar 2025 12:27:18.675,25 Mar 2025 12:38:41.448,682.773
449,25 Mar 2025 14:03:02.184,25 Mar 2025 14:08:39.309,337.125
450,25 Mar 2025 21:35:08.838,25 Mar 2025 21:42:47.544,458.706
451,25 Mar 2025 23:06:16.336,25 Mar 2025 23:17:50.212,693.876
452,26 Mar 2025 00:42:22.478,26 Mar 2025 00:50:20.620,478.142
453,26 Mar 2025 10:36:04.891,26 Mar 2025 10:43:55.887,470.997
454,26 Mar 2025 12:08:32.476,26 Mar 2025 12:20:06.616,694.141
455,26 Mar 2025 13:43:33.082,26 Mar 2025 13:51:17.971,464.889
456,26 Mar 2025 21:17:49.511,26 Mar 2025 21:23:16.827,327.316
457,26 Mar 2025 22:47:42.117,26 Mar 2025 22:59:03.745,681.629
458,27 Mar 2025 00:22:40.098,27 Mar 2025 00:32:13.059,572.961
459,27 Mar 2025 10:18:29.645,27 Mar 2025 10:23:34.265,304.620
460,27 Mar 2025 11:49:50.998,27 Mar 2025 12:01:21.368,690.370
461,27 Mar 2025 13:24:21.345,27 Mar 2025 13:33:32.766,551.421
462,27 Mar 2025 22:29:18.354,27 Mar 2025 22:40:12.596,654.242
463,28 Mar 2025 00:03:17.671,28 Mar 2025 00:13:51.700,634.030
464,28 Mar 2025 11:31:14.791,28 Mar 2025 11:42:25.174,670.384
465,28 Mar 2025 13:05:18.895,28 Mar 2025 13:15:31.989,613.094
466,28 Mar 2025 22:11:05.668,28 Mar 2025 22:21:16.273,610.605
467,28 Mar 2025 23:44:09.876,28 Mar 2025 23:55:21.613,671.737
468,29 Mar 2025 11:12:45.055,29 Mar 2025 11:23:16.744,631.689
469,29 Mar 2025 12:46:22.846,29 Mar 2025 12:57:18.750,655.903
470,29 Mar 2025 21:53:05.551,29 Mar 2025 22:02:13.473,547.922
471,29 Mar 2025 23:25:14.224,29 Mar 2025 23:36:45.129,690.905
472,30 Mar 2025 01:02:55.356,30 Mar 2025 01:08:10.983,315.627
473,30 Mar 2025 10:54:24.201,30 Mar 2025 11:03:53.522,569.320
474,30 Mar 2025 12:27:31.929,30 Mar 2025 12:38:54.480,682.551
475,30 Mar 2025 14:03:16.099,30 Mar 2025 14:08:51.316,335.217
476,30 Mar 2025 21:35:21.220,30 Mar 2025 21:43:01.159,459.939
477,30 Mar 2025 23:06:29.480,30 Mar 2025 23:18:03.415,693.934
478,31 Mar 2025 00:42:36.525,31 Mar 2025 00:50:33.271,476.746
479,31 Mar 2025 10:36:17.529,31 Mar 2025 10:44:09.951,472.422
480,31 Mar 2025 12:08:45.676,31 Mar 2025 12:20:19.766,694.091
481,31 Mar 2025 13:43:46.687,31 Mar 2025 13:51:30.362,463.675
482,31 Mar 2025 21:18:01.484,31 Mar 2025 21:23:30.770,329.286
483,31 Mar 2025 22:47:55.143,31 Mar 2025 22:59:17.003,681.860
484,1 Apr 2025 00:22:53.855,1 Apr 2025 00:32:25.927,572.072
485,1 Apr 2025 10:18:41.659,1 Apr 2025 10:23:49.033,307.374
486,1 Apr 2025 11:50:04.141,1 Apr 2025 12:01:34.648,690.506
487,1 Apr 2025 13:24:34.811,1 Apr 2025 13:33:45.376,550.565
488,1 Apr 2025 22:29:31.256,1 Apr 2025 22:40:25.911,654.654
489,2 Apr 2025 00:03:31.233,2 Apr 2025 00:14:04.693,633.460
490,2 Apr 2025 11:31:27.863,2 Apr 2025 11:42:38.583,670.720
491,2 Apr 2025 13:05:32.279,2 Apr 2025 13:15:44.762,612.483
492,2 Apr 2025 22:11:18.433,2 Apr 2025 22:21:29.657,611.223
493,2 Apr 2025 23:44:23.285,2 Apr 2025 23:55:34.693,671.408
494,3 Apr 2025 11:12:58.044,3 Apr 2025 11:23:30.313,632.269
495,3 Apr 2025 12:46:36.159,3 Apr 2025 12:57:31.657,655.497
496,3 Apr 2025 21:53:18.156,3 Apr 2025 22:02:26.944,548.788
497,3 Apr 2025 23:25:27.499,3 Apr 2025 23:36:58.276,690.777
498,4 Apr 2025 01:03:10.078,4 Apr 2025 01:08:23.044,312.966
499,4 Apr 2025 10:54:37.065,4 Apr 2025 11:04:07.289,570.223
500,4 Apr 2025 12:27:45.183,4 Apr 2025 12:39:07.512,682.329
501,4 Apr 2025 14:03:30.023,4 Apr 2025 14:09:03.316,333.293
502,4 Apr 2025 21:35:33.607,4 Apr 2025 21:43:14.772,461.166
503,4 Apr 2025 23:06:42.632,4 Apr 2025 23:18:16.619,693.987
504,5 Apr 2025 00:42:50.578,5 Apr 2025 00:50:45.921,475.342
505,5 Apr 2025 10:36:30.171,5 Apr 2025 10:44:24.015,473.843
506,5 Apr 2025 12:08:58.882,5 Apr 2025 12:20:32.920,694.038
507,5 Apr 2025 13:44:00.297,5 Apr 2025 13:51:42.757,462.460
508,5 Apr 2025 21:18:13.471,5 Apr 2025 21:23:44.705,331.234
509,5 Apr 2025 22:48:08.172,5 Apr 2025 22:59:30.260,682.088
510,6 Apr 2025 00:23:07.616,6 Apr 2025 00:32:38.795,571.179
511,6 Apr 2025 10:18:53.690,6 Apr 2025 10:24:03.787,310.097
512,6 Apr 2025 11:50:17.286,6 Apr 2025 12:01:47.926,690.640
513,6 Apr 2025 13:24:48.274,6 Apr 2025 13:33:57.984,549.709
514,6 Apr 2025 22:29:44.160,6 Apr 2025 22:40:39.224,655.064
515,7 Apr 2025 00:03:44.797,7 Apr 2025 00:14:17.686,632.889
516,7 Apr 2025 11:31:40.940,7 Apr 2025 11:42:51.996,671.056
517,7 Apr 2025 13:05:45.658,7 Apr 2025 13:15:57.530,611.872
518,7 Apr 2025 22:11:31.200,7 Apr 2025 22:21:43.036,611.836
519,7 Apr 2025 23:44:36.690,7 Apr 2025 23:55:47.771,671.080
520,8 Apr 2025 11:13:11.034,8 Apr 2025 11:23:43.879,632.845
521,8 Apr 2025 12:46:49.472,8 Apr 2025 12:57:44.561,655.089
522,8 Apr 2025 21:53:30.761,8 Apr 2025 22:02:40.411,549.649
523,8 Apr 2025 23:25:40.774,8 Apr 2025 23:37:11.420,690.646
524,9 Apr 2025 01:03:24.812,9 Apr 2025 01:08:35.090,310.278
525,9 Apr 2025 10:54:49.929,9 Apr 2025 11:04:21.051,571.122
526,9 Apr 2025 12:27:58.439,9 Apr 2025 12:39:20.541,682.103
527,9 Apr 2025 14:03:43.952,9 Apr 2025 14:09:15.307,331.355
528,9 Apr 2025 21:35:45.996,9 Apr 2025 21:43:28.382,462.386
529,9 Apr 2025 23:06:55.783,9 Apr 2025 23:18:29.820,694.037
530,10 Apr 2025 00:43:04.634,10 Apr 2025 00:50:58.565,473.931
531,10 Apr 2025 10:36:42.816,10 Apr 2025 10:44:38.071,475.255
532,10 Apr 2025 12:09:12.080,10 Apr 2025 12:20:46.071,693.990
533,10 Apr 2025 13:44:13.906,10 Apr 2025 13:51:55.145,461.239
534,10 Apr 2025 21:18:25.463,10 Apr 2025 21:23:58.633,333.170
535,10 Apr 2025 22:48:21.201,10 Apr 2025 22:59:43.516,682.315
536,11 Apr 2025 00:23:21.378,11 Apr 2025 00:32:51.660,570.282
537,11 Apr 2025 10:19:05.734,11 Apr 2025 10:24:18.522,312.788
538,11 Apr 2025 11:50:30.430,11 Apr 2025 12:02:01.203,690.773
539,11 Apr 2025 13:25:01.742,11 Apr 2025 13:34:10.589,548.847
540,11 Apr 2025 22:29:57.065,11 Apr 2025 22:40:52.537,655.472
541,12 Apr 2025 00:03:58.363,12 Apr 2025 00:14:30.676,632.313
542,12 Apr 2025 11:31:54.017,12 Apr 2025 11:43:05.404,671.387
543,12 Apr 2025 13:05:59.037,12 Apr 2025 13:16:10.297,611.260
544,12 Apr 2025 22:11:43.968,12 Apr 2025 22:21:56.416,612.448
545,12 Apr 2025 23:44:50.101,12 Apr 2025 23:56:00.847,670.746
546,13 Apr 2025 11:13:24.025,13 Apr 2025 11:23:57.443,633.418
547,13 Apr 2025 12:47:02.785,13 Apr 2025 12:57:57.464,654.679
548,13 Apr 2025 21:53:43.369,13 Apr 2025 22:02:53.878,550.510
549,13 Apr 2025 23:25:54.051,13 Apr 2025 23:37:24.564,690.513
550,14 Apr 2025 01:03:39.565,14 Apr 2025 01:08:47.118,307.553
551,14 Apr 2025 10:55:02.792,14 Apr 2025 11:04:34.811,572.019
552,14 Apr 2025 12:28:11.696,14 Apr 2025 12:39:33.570,681.874
553,14 Apr 2025 14:03:57.886,14 Apr 2025 14:09:27.294,329.408
554,14 Apr 2025 21:35:58.387,14 Apr 2025 21:43:41.992,463.604
555,14 Apr 2025 23:07:08.937,14 Apr 2025 23:18:43.022,694.085
556,15 Apr 2025 00:43:18.694,15 Apr 2025 00:51:11.206,472.512
557,15 Apr 2025 10:36:55.466,15 Apr 2025 10:44:52.121,476.655
558,15 Apr 2025 12:09:25.287,15 Apr 2025 12:20:59.221,693.934
559,15 Apr 2025 13:44:27.518,15 Apr 2025 13:52:07.532,460.014
560,15 Apr 2025 21:18:37.461,15 Apr 2025 21:24:12.558,335.097
561,15 Apr 2025 22:48:34.233,15 Apr 2025 22:59:56.769,682.536
562,16 Apr 2025 00:23:35.140,16 Apr 2025 00:33:04.522,569.383
563,16 Apr 2025 10:19:17.796,16 Apr 2025 10:24:33.243,315.448
564,16 Apr 2025 11:50:43.576,16 Apr 2025 12:02:14.477,690.901
565,16 Apr 2025 13:25:15.211,16 Apr 2025 13:34:23.194,547.983
566,16 Apr 2025 22:30:09.972,16 Apr 2025 22:41:05.850,655.878
567,17 Apr 2025 00:04:11.933,17 Apr 2025 00:14:43.662,631.729
568,17 Apr 2025 11:32:07.097,17 Apr 2025 11:43:18.815,671.718
569,17 Apr 2025 13:06:12.418,17 Apr 2025 13:16:23.063,610.645
570,17 Apr 2025 22:11:56.739,17 Apr 2025 22:22:09.796,613.057
571,17 Apr 2025 23:45:03.515,17 Apr 2025 23:56:13.924,670.409
572,18 Apr 2025 11:13:37.019,18 Apr 2025 11:24:11.004,633.985
573,18 Apr 2025 12:47:16.100,18 Apr 2025 12:58:10.367,654.267
574,18 Apr 2025 21:53:55.975,18 Apr 2025 22:03:07.346,551.371
575,18 Apr 2025 23:26:07.331,18 Apr 2025 23:37:37.709,690.378
576,19 Apr 2025 01:03:54.335,19 Apr 2025 01:08:59.133,304.799
577,19 Apr 2025 10:55:15.662,19 Apr 2025 11:04:48.570,572.908
578,19 Apr 2025 12:28:24.954,19 Apr 2025 12:39:46.598,681.644
579,19 Apr 2025 14:04:11.828,19 Apr 2025 14:09:39.273,327.445
580,19 Apr 2025 21:36:10.783,19 Apr 2025 21:43:55.599,464.816
581,19 Apr 2025 23:07:22.093,19 Apr 2025 23:18:56.224,694.131
582,20 Apr 2025 00:43:32.760,20 Apr 2025 00:51:23.844,471.084
583,20 Apr 2025 10:37:08.120,20 Apr 2025 10:45:06.171,478.051
584,20 Apr 2025 12:09:38.492,20 Apr 2025 12:21:12.370,693.879
585,20 Apr 2025 13:44:41.128,20 Apr 2025 13:52:19.916,458.788
586,20 Apr 2025 21:18:49.468,20 Apr 2025 21:24:26.476,337.007
587,20 Apr 2025 22:48:47.266,20 Apr 2025 23:00:10.025,682.759
588,21 Apr 2025 00:23:48.908,21 Apr 2025 00:33:17.384,568.476
589,21 Apr 2025 10:19:29.869,21 Apr 2025 10:24:47.951,318.082
590,21 Apr 2025 11:50:56.725,21 Apr 2025 12:02:27.751,691.025
591,21 Apr 2025 13:25:28.683,21 Apr 2025 13:34:35.796,547.114
592,21 Apr 2025 22:30:22.880,21 Apr 2025 22:41:19.163,656.282
593,22 Apr 2025 00:04:25.506,22 Apr 2025 00:14:56.651,631.145
594,22 Apr 2025 11:32:20.177,22 Apr 2025 11:43:32.223,672.046
595,22 Apr 2025 13:06:25.800,22 Apr 2025 13:16:35.826,610.026
596,22 Apr 2025 22:12:09.511,22 Apr 2025 22:22:23.174,613.663
597,22 Apr 2025 23:45:16.930,22 Apr 2025 23:56:26.999,670.070
598,23 Apr 2025 11:13:50.010,23 Apr 2025 11:24:24.566,634.556
599,23 Apr 2025 12:47:29.416,23 Apr 2025 12:58:23.267,653.852
600,23 Apr 2025 21:54:08.590,23 Apr 2025 22:03:20.810,552.220
601,23 Apr 2025 23:26:20.606,23 Apr 2025 23:37:50.850,690.244
602,24 Apr 2025 01:04:09.119,24 Apr 2025 01:09:11.133,302.015
603,24 Apr 2025 10:55:28.532,24 Apr 2025 11:05:02.322,573.790
604,24 Apr 2025 12:28:38.212,24 Apr 2025 12:39:59.623,681.411
605,24 Apr 2025 14:04:25.776,24 Apr 2025 14:09:51.242,325.467
606,24 Apr 2025 21:36:23.181,24 Apr 2025 21:44:09.202,466.021
607,24 Apr 2025 23:07:35.250,24 Apr 2025 23:19:09.424,694.174
608,25 Apr 2025 00:43:46.832,25 Apr 2025 00:51:36.477,469.645
609,25 Apr 2025 10:37:20.771,25 Apr 2025 10:45:20.214,479.443
610,25 Apr 2025 12:09:51.695,25 Apr 2025 12:21:25.517,693.822
611,25 Apr 2025 13:44:54.743,25 Apr 2025 13:52:32.295,457.552
612,25 Apr 2025 21:19:01.481,25 Apr 2025 21:24:40.386,338.905
613,25 Apr 2025 22:49:00.300,25 Apr 2025 23:00:23.279,682.979
614,26 Apr 2025 00:24:02.679,26 Apr 2025 00:33:30.243,567.564
615,26 Apr 2025 10:19:41.956,26 Apr 2025 10:25:02.643,320.687
616,26 Apr 2025 11:51:09.873,26 Apr 2025 12:02:41.021,691.148
617,26 Apr 2025 13:25:42.153,26 Apr 2025 13:34:48.396,546.242
618,26 Apr 2025 22:30:35.789,26 Apr 2025 22:41:32.474,656.685
619,27 Apr 2025 00:04:39.078,27 Apr 2025 00:15:09.637,630.559
620,27 Apr 2025 11:32:33.262,27 Apr 2025 11:43:45.627,672.365
621,27 Apr 2025 13:06:39.177,27 Apr 2025 13:16:48.588,609.411
622,27 Apr 2025 22:12:22.284,27 Apr 2025 22:22:36.551,614.266
623,27 Apr 2025 23:45:30.346,27 Apr 2025 23:56:40.070,669.725
624,28 Apr 2025 11:14:03.008,28 Apr 2025 11:24:38.124,635.116
625,28 Apr 2025 12:47:42.731,28 Apr 2025 12:58:36.167,653.435
626,28 Apr 2025 21:54:21.205,28 Apr 2025 22:03:34.275,553.070
627,28 Apr 2025 23:26:33.893,28 Apr 2025 23:38:03.993,690.100
628,29 Apr 2025 01:04:23.926,29 Apr 2025 01:09:23.114,299.188
629,29 Apr 2025 10:55:41.406,29 Apr 2025 11:05:16.075,574.669
630,29 Apr 2025 12:28:51.471,29 Apr 2025 12:40:12.648,681.177
631,29 Apr 2025 14:04:39.728,29 Apr 2025 14:10:03.208,323.479
632,29 Apr 2025 21:36:35.582,29 Apr 2025 21:44:22.806,467.225
633,29 Apr 2025 23:07:48.406,29 Apr 2025 23:19:22.624,694.219
634,30 Apr 2025 00:44:00.910,30 Apr 2025 00:51:49.106,468.196
635,30 Apr 2025 10:37:33.433,30 Apr 2025 10:45:34.254,480.821
636,30 Apr 2025 12:10:04.901,30 Apr 2025 12:21:38.663,693.762
637,30 Apr 2025 13:45:08.362,30 Apr 2025 13:52:44.674,456.313
638,30 Apr 2025 21:19:13.500,30 Apr 2025 21:24:54.295,340.794
639,30 Apr 2025 22:49:13.336,30 Apr 2025 23:00:36.535,683.198
640,1 May 2025 00:24:16.454,1 May 2025 00:33:43.100,566.646
641,1 May 2025 10:19:54.059,1 May 2025 10:25:17.320,323.261
642,1 May 2025 11:51:23.022,1 May 2025 12:02:54.291,691.269
643,1 May 2025 13:25:55.629,1 May 2025 13:35:00.991,545.363
644,1 May 2025 21:03:23.615,1 May 2025 21:04:00.296,36.681
645,1 May 2025 22:30:48.701,1 May 2025 22:41:45.785,657.084
646,2 May 2025 00:04:52.653,2 May 2025 00:15:22.623,629.970
647,2 May 2025 11:32:46.341,2 May 2025 11:43:59.032,672.692
648,2 May 2025 13:06:52.562,2 May 2025 13:17:01.350,608.788
649,2 May 2025 22:12:35.060,2 May 2025 22:22:49.924,614.864
650,2 May 2025 23:45:43.765,2 May 2025 23:56:53.148,669.382
651,3 May 2025 11:14:16.008,3 May 2025 11:24:51.682,635.674
652,3 May 2025 12:47:56.049,3 May 2025 12:58:49.065,653.017
653,3 May 2025 21:54:33.821,3 May 2025 22:03:47.739,553.918
654,3 May 2025 23:26:47.172,3 May 2025 23:38:17.134,689.962
655,4 May 2025 01:04:38.747,4 May 2025 01:09:35.082,296.335
656,4 May 2025 10:55:54.281,4 May 2025 11:05:29.826,575.545
657,4 May 2025 12:29:04.732,4 May 2025 12:40:25.672,680.940
658,4 May 2025 14:04:53.691,4 May 2025 14:10:15.163,321.473
659,4 May 2025 21:36:47.986,4 May 2025 21:44:36.407,468.421
660,4 May 2025 23:08:01.566,4 May 2025 23:19:35.824,694.258
661,5 May 2025 00:44:14.990,5 May 2025 00:52:01.732,466.741
662,5 May 2025 10:37:46.097,5 May 2025 10:45:48.288,482.191
663,5 May 2025 12:10:18.107,5 May 2025 12:21:51.808,693.701
664,5 May 2025 13:45:21.983,5 May 2025 13:52:57.048,455.065
665,5 May 2025 21:19:25.528,5 May 2025 21:25:08.194,342.666
666,5 May 2025 22:49:26.374,5 May 2025 23:00:49.788,683.415
667,6 May 2025 00:24:30.231,6 May 2025 00:33:55.953,565.722
668,6 May 2025 10:20:06.172,6 May 2025 10:25:31.987,325.815
669,6 May 2025 11:51:36.172,6 May 2025 12:03:07.559,691.387
670,6 May 2025 13:26:09.105,6 May 2025 13:35:13.587,544.482
671,6 May 2025 21:03:28.608,6 May 2025 21:04:21.149,52.542
672,6 May 2025 22:31:01.613,6 May 2025 22:41:59.095,657.483
673,7 May 2025 00:05:06.230,7 May 2025 00:15:35.607,629.377
674,7 May 2025 11:32:59.424,7 May 2025 11:44:12.433,673.009
675,7 May 2025 13:07:05.945,7 May 2025 13:17:14.106,608.161
676,7 May 2025 22:12:47.836,7 May 2025 22:23:03.299,615.462
677,7 May 2025 23:45:57.185,7 May 2025 23:57:06.219,669.035
678,8 May 2025 11:14:29.005,8 May 2025 11:25:05.235,636.230
679,8 May 2025 12:48:09.365,8 May 2025 12:59:01.961,652.596
680,8 May 2025 21:54:46.439,8 May 2025 22:04:01.200,554.761
681,8 May 2025 23:27:00.461,8 May 2025 23:38:30.275,689.814
682,9 May 2025 01:04:53.583,9 May 2025 01:09:47.029,293.446
683,9 May 2025 10:56:07.157,9 May 2025 11:05:43.573,576.416
684,9 May 2025 12:29:17.991,9 May 2025 12:40:38.693,680.702
685,9 May 2025 14:05:07.657,9 May 2025 14:10:27.111,319.455
686,9 May 2025 21:37:00.392,9 May 2025 21:44:50.002,469.610
687,9 May 2025 23:08:14.724,9 May 2025 23:19:49.022,694.298
688,10 May 2025 00:44:29.077,10 May 2025 00:52:14.352,465.275
689,10 May 2025 10:37:58.766,10 May 2025 10:46:02.318,483.553
690,10 May 2025 12:10:31.313,10 May 2025 12:22:04.950,693.638
691,10 May 2025 13:45:35.603,10 May 2025 13:53:09.419,453.816
692,10 May 2025 21:19:37.559,10 May 2025 21:25:22.089,344.530
693,10 May 2025 22:49:39.411,10 May 2025 23:01:03.041,683.629
694,11 May 2025 00:24:44.010,11 May 2025 00:34:08.804,564.794
695,11 May 2025 10:20:18.300,11 May 2025 10:25:46.636,328.335
696,11 May 2025 11:51:49.321,11 May 2025 12:03:20.825,691.504
697,11 May 2025 13:26:22.580,11 May 2025 13:35:26.181,543.602
698,11 May 2025 21:03:35.475,11 May 2025 21:04:40.125,64.650
699,11 May 2025 22:31:14.526,11 May 2025 22:42:12.405,657.879
700,12 May 2025 00:05:19.809,12 May 2025 00:15:48.589,628.780
701,12 May 2025 11:33:12.507,12 May 2025 11:44:25.833,673.325
702,12 May 2025 13:07:19.329,12 May 2025 13:17:26.861,607.532
703,12 May 2025 22:13:00.618,12 May 2025 22:23:16.678,616.061
704,12 May 2025 23:46:10.606,12 May 2025 23:57:19.287,668.681
705,13 May 2025 11:14:42.007,13 May 2025 11:25:18.785,636.779
706,13 May 2025 12:48:22.682,13 May 2025 12:59:14.856,652.173
707,13 May 2025 21:54:59.059,13 May 2025 22:04:14.662,555.604
708,13 May 2025 23:27:13.747,13 May 2025 23:38:43.415,689.667
709,14 May 2025 01:05:08.441,14 May 2025 01:09:58.957,290.517
710,14 May 2025 10:56:20.037,14 May 2025 11:05:57.317,577.280
711,14 May 2025 12:29:31.252,14 May 2025 12:40:51.713,680.461
712,14 May 2025 14:05:21.629,14 May 2025 14:10:39.053,317.424
713,14 May 2025 21:37:12.801,14 May 2025 21:45:03.603,470.802
714,14 May 2025 23:08:27.886,14 May 2025 23:20:02.220,694.334
715,15 May 2025 00:44:43.169,15 May 2025 00:52:26.968,463.798
716,15 May 2025 10:38:11.440,15 May 2025 10:46:16.345,484.905
717,15 May 2025 12:10:44.520,15 May 2025 12:22:18.093,693.573
718,15 May 2025 13:45:49.227,15 May 2025 13:53:21.789,452.562
719,15 May 2025 21:19:49.596,15 May 2025 21:25:35.977,346.381
720,15 May 2025 22:49:52.455,15 May 2025 23:01:16.298,683.842
721,16 May 2025 00:24:57.793,16 May 2025 00:34:21.655,563.862
722,16 May 2025 10:20:30.442,16 May 2025 10:26:01.271,330.829
723,16 May 2025 11:52:02.472,16 May 2025 12:03:34.088,691.616
724,16 May 2025 13:26:36.051,16 May 2025 13:35:38.774,542.723
725,16 May 2025 21:03:43.323,16 May 2025 21:04:58.131,74.808
726,16 May 2025 22:31:27.441,16 May 2025 22:42:25.713,658.272
727,17 May 2025 00:05:33.391,17 May 2025 00:16:01.570,628.179
728,17 May 2025 11:33:25.596,17 May 2025 11:44:39.231,673.635
729,17 May 2025 13:07:32.715,17 May 2025 13:17:39.617,606.902
730,17 May 2025 22:13:13.399,17 May 2025 22:23:30.053,616.655
731,17 May 2025 23:46:24.030,17 May 2025 23:57:32.357,668.327
732,18 May 2025 11:14:55.006,18 May 2025 11:25:32.337,637.330
733,18 May 2025 12:48:36.001,18 May 2025 12:59:27.749,651.748
734,18 May 2025 21:55:11.681,18 May 2025 22:04:28.123,556.442
735,18 May 2025 23:27:27.035,18 May 2025 23:38:56.554,689.519
736,19 May 2025 01:05:23.316,19 May 2025 01:10:10.870,287.554
737,19 May 2025 10:56:32.918,19 May 2025 11:06:11.059,578.141
738,19 May 2025 12:29:44.514,19 May 2025 12:41:04.732,680.218
739,19 May 2025 14:05:35.611,19 May 2025 14:10:50.985,315.374
740,19 May 2025 21:37:25.214,19 May 2025 21:45:17.198,471.984
741,19 May 2025 23:08:41.049,19 May 2025 23:20:15.417,694.368
742,20 May 2025 00:44:57.265,20 May 2025 00:52:39.581,462.315
743,20 May 2025 10:38:24.116,20 May 2025 10:46:30.366,486.250
744,20 May 2025 12:10:57.727,20 May 2025 12:22:31.234,693.507
745,20 May 2025 13:46:02.854,20 May 2025 13:53:34.152,451.298
746,20 May 2025 21:20:01.642,20 May 2025 21:25:49.860,348.218
747,20 May 2025 22:50:05.497,20 May 2025 23:01:29.549,684.053
748,21 May 2025 00:25:11.578,21 May 2025 00:34:34.504,562.925
749,21 May 2025 10:20:42.593,21 May 2025 10:26:15.894,333.301
750,21 May 2025 11:52:15.623,21 May 2025 12:03:47.351,691.729
751,21 May 2025 13:26:49.528,21 May 2025 13:35:51.363,541.835
752,21 May 2025 21:03:51.786,21 May 2025 21:05:15.515,83.729
753,21 May 2025 22:31:40.358,21 May 2025 22:42:39.022,658.664
754,22 May 2025 00:05:46.973,22 May 2025 00:16:14.547,627.574
755,22 May 2025 11:33:38.679,22 May 2025 11:44:52.627,673.947
756,22 May 2025 13:07:46.100,22 May 2025 13:17:52.370,606.270
757,22 May 2025 22:13:26.180,22 May 2025 22:23:43.425,617.246
758,22 May 2025 23:46:37.454,22 May 2025 23:57:45.426,667.972
759,23 May 2025 11:15:08.008,23 May 2025 11:25:45.884,637.876
760,23 May 2025 12:48:49.319,23 May 2025 12:59:40.640,651.321
761,23 May 2025 21:55:24.304,23 May 2025 22:04:41.580,557.277
762,23 May 2025 23:27:40.323,23 May 2025 23:39:09.691,689.367
763,24 May 2025 01:05:38.209,24 May 2025 01:10:22.762,284.552
764,24 May 2025 10:56:45.800,24 May 2025 11:06:24.796,578.997
765,24 May 2025 12:29:57.775,24 May 2025 12:41:17.748,679.974
766,24 May 2025 14:05:49.597,24 May 2025 14:11:02.909,313.312
767,24 May 2025 21:37:37.628,24 May 2025 21:45:30.790,473.162
768,24 May 2025 23:08:54.213,24 May 2025 23:20:28.613,694.400
769,25 May 2025 00:45:11.365,25 May 2025 00:52:52.187,460.822
770,25 May 2025 10:38:36.795,25 May 2025 10:46:44.381,487.586
771,25 May 2025 12:11:10.934,25 May 2025 12:22:44.372,693.438
772,25 May 2025 13:46:16.480,25 May 2025 13:53:46.514,450.034
773,25 May 2025 21:20:13.691,25 May 2025 21:26:03.739,350.048
774,25 May 2025 22:50:18.536,25 May 2025 23:01:42.800,684.264
775,26 May 2025 00:25:25.366,26 May 2025 00:34:47.348,561.983
776,26 May 2025 10:20:54.759,26 May 2025 10:26:30.502,335.743
777,26 May 2025 11:52:28.774,26 May 2025 12:04:00.613,691.839
778,26 May 2025 13:27:03.005,26 May 2025 13:36:03.951,540.946
779,26 May 2025 21:04:00.676,26 May 2025 21:05:32.474,91.797
780,26 May 2025 22:31:53.275,26 May 2025 22:42:52.330,659.055
781,27 May 2025 00:06:00.558,27 May 2025 00:16:27.525,626.967
782,27 May 2025 11:33:51.767,27 May 2025 11:45:06.021,674.254
783,27 May 2025 13:07:59.486,27 May 2025 13:18:05.123,605.637
784,27 May 2025 22:13:38.963,27 May 2025 22:23:56.799,617.836
785,27 May 2025 23:46:50.881,27 May 2025 23:57:58.493,667.613
786,28 May 2025 11:15:21.013,28 May 2025 11:25:59.434,638.421
787,28 May 2025 12:49:02.634,28 May 2025 12:59:53.531,650.898
788,28 May 2025 21:55:36.925,28 May 2025 22:04:55.039,558.115
789,28 May 2025 23:27:53.614,28 May 2025 23:39:22.828,689.213
790,29 May 2025 01:05:53.128,29 May 2025 01:10:34.632,281.504
791,29 May 2025 10:56:58.685,29 May 2025 11:06:38.529,579.843
792,29 May 2025 12:30:11.038,29 May 2025 12:41:30.765,679.727
793,29 May 2025 14:06:03.591,29 May 2025 14:11:14.827,311.236
794,29 May 2025 21:37:50.045,29 May 2025 21:45:44.382,474.337
795,29 May 2025 23:09:07.378,29 May 2025 23:20:41.809,694.431
796,30 May 2025 00:45:25.472,30 May 2025 00:53:04.791,459.318
797,30 May 2025 10:38:49.478,30 May 2025 10:46:58.393,488.915
798,30 May 2025 12:11:24.144,30 May 2025 12:22:57.511,693.367
799,30 May 2025 13:46:30.111,30 May 2025 13:53:58.875,448.764
800,30 May 2025 21:20:25.749,30 May 2025 21:26:17.616,351.866
801,30 May 2025 22:50:31.580,30 May 2025 23:01:56.051,684.470
802,31 May 2025 00:25:39.158,31 May 2025 00:35:00.193,561.035
803,31 May 2025 10:21:06.935,31 May 2025 10:26:45.099,338.164
804,31 May 2025 11:52:41.926,31 May 2025 12:04:13.874,691.948
805,31 May 2025 13:27:16.485,31 May 2025 13:36:16.537,540.052
806,31 May 2025 21:04:09.901,31 May 2025 21:05:49.101,99.200
807,31 May 2025 22:32:06.195,31 May 2025 22:43:05.638,659.444
808,1 Jun 2025 00:06:14.145,1 Jun 2025 00:16:40.507,626.362
809,1 Jun 2025 11:34:04.855,1 Jun 2025 11:45:19.414,674.559
810,1 Jun 2025 13:08:12.874,1 Jun 2025 13:18:17.874,605.000
811,1 Jun 2025 22:13:51.748,1 Jun 2025 22:24:10.170,618.422
812,1 Jun 2025 23:47:04.313,1 Jun 2025 23:58:11.561,667.247
813,2 Jun 2025 11:15:34.017,2 Jun 2025 11:26:12.977,638.960
814,2 Jun 2025 12:49:15.953,2 Jun 2025 13:00:06.420,650.466
815,2 Jun 2025 21:55:49.552,2 Jun 2025 22:05:08.491,558.939
816,2 Jun 2025 23:28:06.906,2 Jun 2025 23:39:35.964,689.058
817,3 Jun 2025 01:06:08.064,3 Jun 2025 01:10:46.485,278.421
818,3 Jun 2025 10:57:11.571,3 Jun 2025 11:06:52.264,580.694
819,3 Jun 2025 12:30:24.300,3 Jun 2025 12:41:43.778,679.478
820,3 Jun 2025 14:06:17.594,3 Jun 2025 14:11:26.731,309.137
821,3 Jun 2025 21:38:02.466,3 Jun 2025 21:45:57.970,475.504
822,3 Jun 2025 23:09:20.545,3 Jun 2025 23:20:55.003,694.458
823,4 Jun 2025 00:45:39.577,4 Jun 2025 00:53:17.387,457.810
824,4 Jun 2025 10:39:02.162,4 Jun 2025 10:47:12.400,490.238
825,4 Jun 2025 12:11:37.352,4 Jun 2025 12:23:10.647,693.295
826,4 Jun 2025 13:46:43.743,4 Jun 2025 13:54:11.230,447.487
827,4 Jun 2025 21:20:37.813,4 Jun 2025 21:26:31.482,353.669
828,4 Jun 2025 22:50:44.624,4 Jun 2025 23:02:09.299,684.675
829,5 Jun 2025 00:25:52.950,5 Jun 2025 00:35:13.034,560.083
830,5 Jun 2025 10:21:19.122,5 Jun 2025 10:26:59.682,340.561
831,5 Jun 2025 11:52:55.078,5 Jun 2025 12:04:27.132,692.054
832,5 Jun 2025 13:27:29.965,5 Jun 2025 13:36:29.122,539.157
833,5 Jun 2025 21:04:19.388,5 Jun 2025 21:06:05.468,106.080
834,5 Jun 2025 22:32:19.114,5 Jun 2025 22:43:18.944,659.829
835,6 Jun 2025 00:06:27.728,6 Jun 2025 00:16:53.481,625.753
836,6 Jun 2025 11:34:17.942,6 Jun 2025 11:45:32.804,674.862
837,6 Jun 2025 13:08:26.260,6 Jun 2025 13:18:30.621,604.361
838,6 Jun 2025 22:14:04.532,6 Jun 2025 22:24:23.540,619.007
839,6 Jun 2025 23:47:17.738,6 Jun 2025 23:58:24.625,666.888
840,7 Jun 2025 11:15:47.022,7 Jun 2025 11:26:26.518,639.496
841,7 Jun 2025 12:49:29.272,7 Jun 2025 13:00:19.305,650.033
842,7 Jun 2025 21:56:02.180,7 Jun 2025 22:05:21.945,559.765
843,7 Jun 2025 23:28:20.198,7 Jun 2025 23:39:49.098,688.899
844,8 Jun 2025 01:06:23.023,8 Jun 2025 01:10:58.314,275.291
845,8 Jun 2025 10:57:24.461,8 Jun 2025 11:07:05.989,581.527
846,8 Jun 2025 12:30:37.563,8 Jun 2025 12:41:56.790,679.227
847,8 Jun 2025 14:06:31.600,8 Jun 2025 14:11:38.631,307.031
848,8 Jun 2025 21:38:14.890,8 Jun 2025 21:46:11.553,476.664
849,8 Jun 2025 23:09:33.709,8 Jun 2025 23:21:08.200,694.491
850,9 Jun 2025 00:45:53.692,9 Jun 2025 00:53:29.980,456.288
851,9 Jun 2025 10:39:14.850,9 Jun 2025 10:47:26.396,491.547
852,9 Jun 2025 12:11:50.558,9 Jun 2025 12:23:23.777,693.219
853,9 Jun 2025 13:46:57.375,9 Jun 2025 13:54:23.584,446.209
854,9 Jun 2025 21:20:49.884,9 Jun 2025 21:26:45.349,355.465
855,9 Jun 2025 22:50:57.669,9 Jun 2025 23:02:22.543,684.874
856,10 Jun 2025 00:26:06.748,10 Jun 2025 00:35:25.871,559.123
857,10 Jun 2025 10:21:31.321,10 Jun 2025 10:27:14.252,342.931
858,10 Jun 2025 11:53:08.231,10 Jun 2025 12:04:40.388,692.157
859,10 Jun 2025 13:27:43.445,10 Jun 2025 13:36:41.703,538.258
860,10 Jun 2025 21:04:29.081,10 Jun 2025 21:06:21.626,112.545
861,10 Jun 2025 22:32:32.036,10 Jun 2025 22:43:32.249,660.213
862,11 Jun 2025 00:06:41.318,11 Jun 2025 00:17:06.449,625.131
863,11 Jun 2025 11:34:31.030,11 Jun 2025 11:45:46.192,675.162
864,11 Jun 2025 13:08:39.647,11 Jun 2025 13:18:43.368,603.721
865,11 Jun 2025 22:14:17.319,11 Jun 2025 22:24:36.909,619.590
866,11 Jun 2025 23:47:31.169,11 Jun 2025 23:58:37.689,666.520
867,12 Jun 2025 11:16:00.028,12 Jun 2025 11:26:40.057,640.028
868,12 Jun 2025 12:49:42.592,12 Jun 2025 13:00:32.191,649.599
869,12 Jun 2025 21:56:14.811,12 Jun 2025 22:05:35.400,560.589
870,12 Jun 2025 23:28:33.493,12 Jun 2025 23:40:02.231,688.739
871,13 Jun 2025 01:06:38.005,13 Jun 2025 01:11:10.121,272.116
872,13 Jun 2025 10:57:37.352,13 Jun 2025 11:07:19.716,582.363
873,13 Jun 2025 12:30:50.826,13 Jun 2025 12:42:09.801,678.975
874,13 Jun 2025 14:06:45.616,13 Jun 2025 14:11:50.521,304.905
875,13 Jun 2025 21:38:27.316,13 Jun 2025 21:46:25.139,477.823
876,13 Jun 2025 23:09:46.878,13 Jun 2025 23:21:21.393,694.515
877,14 Jun 2025 00:46:07.813,14 Jun 2025 00:53:42.570,454.756
878,14 Jun 2025 10:39:27.541,14 Jun 2025 10:47:40.395,492.854
879,14 Jun 2025 12:12:03.768,14 Jun 2025 12:23:36.913,693.145
880,14 Jun 2025 13:47:11.011,14 Jun 2025 13:54:35.933,444.922
881,14 Jun 2025 21:21:01.960,14 Jun 2025 21:26:59.207,357.247
882,14 Jun 2025 22:51:10.716,14 Jun 2025 23:02:35.791,685.075
883,15 Jun 2025 00:26:20.549,15 Jun 2025 00:35:38.707,558.158
884,15 Jun 2025 10:21:43.531,15 Jun 2025 10:27:28.812,345.282
885,15 Jun 2025 11:53:21.384,15 Jun 2025 12:04:53.643,692.259
886,15 Jun 2025 13:27:56.928,15 Jun 2025 13:36:54.282,537.354
887,15 Jun 2025 21:04:38.958,15 Jun 2025 21:06:37.601,118.643
888,15 Jun 2025 22:32:44.959,15 Jun 2025 22:43:45.549,660.590
889,16 Jun 2025 00:06:54.911,16 Jun 2025 00:17:19.423,624.512
890,16 Jun 2025 11:34:44.119,16 Jun 2025 11:45:59.579,675.460
891,16 Jun 2025 13:08:53.036,16 Jun 2025 13:18:56.113,603.077
892,16 Jun 2025 22:14:30.108,16 Jun 2025 22:24:50.277,620.170
893,16 Jun 2025 23:47:44.603,16 Jun 2025 23:58:50.752,666.150
894,17 Jun 2025 11:16:13.031,17 Jun 2025 11:26:53.593,640.563
895,17 Jun 2025 12:49:55.913,17 Jun 2025 13:00:45.075,649.162
896,17 Jun 2025 21:56:27.443,17 Jun 2025 22:05:48.852,561.409
897,17 Jun 2025 23:28:46.788,17 Jun 2025 23:40:15.364,688.576
898,18 Jun 2025 01:06:53.008,18 Jun 2025 01:11:21.909,268.901
899,18 Jun 2025 10:57:50.241,18 Jun 2025 11:07:33.440,583.199
900,18 Jun 2025 12:31:04.090,18 Jun 2025 12:42:22.810,678.720
901,18 Jun 2025 14:06:59.642,18 Jun 2025 14:12:02.400,302.758
902,18 Jun 2025 21:38:39.744,18 Jun 2025 21:46:38.720,478.976
903,18 Jun 2025 23:10:00.048,18 Jun 2025 23:21:34.585,694.537
904,19 Jun 2025 00:46:21.938,19 Jun 2025 00:53:55.155,453.217
905,19 Jun 2025 10:39:40.234,19 Jun 2025 10:47:54.388,494.153
906,19 Jun 2025 12:12:16.977,19 Jun 2025 12:23:50.042,693.065
907,19 Jun 2025 13:47:24.648,19 Jun 2025 13:54:48.277,443.629
908,19 Jun 2025 21:21:14.041,19 Jun 2025 21:27:13.057,359.017
909,19 Jun 2025 22:51:23.764,19 Jun 2025 23:02:49.037,685.273
910,20 Jun 2025 00:26:34.345,20 Jun 2025 00:35:51.541,557.195
911,20 Jun 2025 10:21:55.749,20 Jun 2025 10:27:43.359,347.610
912,20 Jun 2025 11:53:34.537,20 Jun 2025 12:05:06.896,692.358
913,20 Jun 2025 13:28:10.409,20 Jun 2025 13:37:06.857,536.449
914,20 Jun 2025 21:04:48.987,20 Jun 2025 21:06:53.423,124.436
915,20 Jun 2025 22:32:57.878,20 Jun 2025 22:43:58.855,660.977
916,21 Jun 2025 00:07:08.503,21 Jun 2025 00:17:32.394,623.891
917,21 Jun 2025 11:34:57.208,21 Jun 2025 11:46:12.962,675.755
918,21 Jun 2025 13:09:06.424,21 Jun 2025 13:19:08.853,602.429
919,21 Jun 2025 22:14:42.897,21 Jun 2025 22:25:03.644,620.747
920,21 Jun 2025 23:47:58.037,21 Jun 2025 23:59:03.813,665.776
921,22 Jun 2025 11:16:26.038,22 Jun 2025 11:27:07.124,641.086
922,22 Jun 2025 12:50:09.237,22 Jun 2025 13:00:57.957,648.719
923,22 Jun 2025 21:56:40.080,22 Jun 2025 22:06:02.306,562.226
924,22 Jun 2025 23:29:00.083,22 Jun 2025 23:40:28.492,688.409
925,23 Jun 2025 01:07:08.036,23 Jun 2025 01:11:33.669,265.633
926,23 Jun 2025 10:58:03.130,23 Jun 2025 11:07:47.157,584.027
927,23 Jun 2025 12:31:17.352,23 Jun 2025 12:42:35.816,678.465
928,23 Jun 2025 14:07:13.672,23 Jun 2025 14:12:14.271,300.599
929,23 Jun 2025 21:38:52.172,23 Jun 2025 21:46:52.303,480.131
930,23 Jun 2025 23:10:13.221,23 Jun 2025 23:21:47.770,694.550
931,24 Jun 2025 00:46:36.068,24 Jun 2025 00:54:07.733,451.665
932,24 Jun 2025 10:39:52.933,24 Jun 2025 10:48:08.376,495.443
933,24 Jun 2025 12:12:30.186,24 Jun 2025 12:24:03.170,692.984
934,24 Jun 2025 13:47:38.287,24 Jun 2025 13:55:00.619,442.332
935,24 Jun 2025 21:21:26.126,24 Jun 2025 21:27:26.906,360.780
936,24 Jun 2025 22:51:36.813,24 Jun 2025 23:03:02.282,685.469
937,25 Jun 2025 00:26:48.150,25 Jun 2025 00:36:04.371,556.221
938,25 Jun 2025 10:22:07.980,25 Jun 2025 10:27:57.893,349.913
939,25 Jun 2025 11:53:47.692,25 Jun 2025 12:05:20.147,692.455
940,25 Jun 2025 13:28:23.892,25 Jun 2025 13:37:19.427,535.535
941,25 Jun 2025 21:04:59.142,25 Jun 2025 21:07:09.123,129.980
942,25 Jun 2025 22:33:10.803,25 Jun 2025 22:44:12.157,661.354
943,26 Jun 2025 00:07:22.099,26 Jun 2025 00:17:45.362,623.263
944,26 Jun 2025 11:35:10.294,26 Jun 2025 11:46:26.344,676.050
945,26 Jun 2025 13:09:19.814,26 Jun 2025 13:19:21.598,601.785
946,26 Jun 2025 22:14:55.683,26 Jun 2025 22:25:17.011,621.327
947,26 Jun 2025 23:48:11.469,26 Jun 2025 23:59:16.877,665.408
948,27 Jun 2025 11:16:39.047,27 Jun 2025 11:27:20.657,641.609
949,27 Jun 2025 12:50:22.559,27 Jun 2025 13:01:10.837,648.278
950,27 Jun 2025 21:56:52.717,27 Jun 2025 22:06:15.757,563.040
951,27 Jun 2025 23:29:13.383,27 Jun 2025 23:40:41.623,688.240
952,28 Jun 2025 01:07:23.089,28 Jun 2025 01:11:45.407,262.317
953,28 Jun 2025 10:58:16.025,28 Jun 2025 11:08:00.879,584.855
954,28 Jun 2025 12:31:30.617,28 Jun 2025 12:42:48.822,678.206
955,28 Jun 2025 14:07:27.713,28 Jun 2025 14:12:26.132,298.419
956,28 Jun 2025 21:39:04.605,28 Jun 2025 21:47:05.881,481.276
957,28 Jun 2025 23:10:26.394,28 Jun 2025 23:22:00.961,694.566
958,29 Jun 2025 00:46:50.204,29 Jun 2025 00:54:20.309,450.105
959,29 Jun 2025 10:40:05.634,29 Jun 2025 10:48:22.361,496.727
960,29 Jun 2025 12:12:43.397,29 Jun 2025 12:24:16.298,692.900
961,29 Jun 2025 13:47:51.929,29 Jun 2025 13:55:12.957,441.027
962,29 Jun 2025 21:21:38.218,29 Jun 2025 21:27:40.747,362.529
963,29 Jun 2025 22:51:49.864,29 Jun 2025 23:03:15.527,685.663
964,30 Jun 2025 00:27:01.957,30 Jun 2025 00:36:17.200,555.243
965,30 Jun 2025 10:22:20.218,30 Jun 2025 10:28:12.419,352.200
966,30 Jun 2025 11:54:00.847,30 Jun 2025 12:05:33.396,692.550
967,30 Jun 2025 13:28:37.377,30 Jun 2025 13:37:31.998,534.621
968,30 Jun 2025 21:05:09.421,30 Jun 2025 21:07:24.698,135.277
969,30 Jun 2025 22:33:23.730,30 Jun 2025 22:44:25.458,661.728
970,1 Jul 2025 00:07:35.697,1 Jul 2025 00:17:58.329,622.632
971,1 Jul 2025 11:35:23.384,1 Jul 2025 11:46:39.726,676.342
972,1 Jul 2025 13:09:33.204,1 Jul 2025 13:19:34.336,601.132
973,1 Jul 2025 22:15:08.476,1 Jul 2025 22:25:30.375,621.899
974,1 Jul 2025 23:48:24.905,1 Jul 2025 23:59:29.936,665.030
975,2 Jul 2025 11:16:52.061,2 Jul 2025 11:27:34.184,642.123
976,2 Jul 2025 12:50:35.880,2 Jul 2025 13:01:23.714,647.833
977,2 Jul 2025 21:57:05.354,2 Jul 2025 22:06:29.203,563.849
978,2 Jul 2025 23:29:26.679,2 Jul 2025 23:40:54.752,688.072
