3UCubedIntegratedSim/Reports & Plots/Comms/UNH/Sat 2 Comms.csv

"Access","Start Time (UTCG)","Stop Time (UTCG)","Duration (sec)"
1,1 Jan 2025 16:11:42.127,1 Jan 2025 16:15:59.573,257.446
2,1 Jan 2025 17:40:58.194,1 Jan 2025 17:52:11.620,673.426
3,1 Jan 2025 19:15:34.066,1 Jan 2025 19:25:32.468,598.402
4,2 Jan 2025 17:22:38.362,2 Jan 2025 17:33:18.679,640.317
5,2 Jan 2025 18:56:17.385,2 Jan 2025 19:07:07.541,650.156
6,3 Jan 2025 17:04:30.025,3 Jan 2025 17:14:20.202,590.176
7,3 Jan 2025 18:37:14.225,3 Jan 2025 18:48:34.930,680.705
8,3 Jan 2025 20:17:09.484,3 Jan 2025 20:18:06.438,56.954
9,4 Jan 2025 16:46:35.135,4 Jan 2025 16:55:14.436,519.301
10,4 Jan 2025 18:18:22.651,4 Jan 2025 18:29:56.447,693.796
11,4 Jan 2025 19:55:24.164,4 Jan 2025 20:01:50.805,386.640
12,5 Jan 2025 16:28:58.162,5 Jan 2025 16:35:57.128,418.965
13,5 Jan 2025 17:59:41.734,5 Jan 2025 18:11:12.988,691.254
14,5 Jan 2025 19:35:22.138,5 Jan 2025 19:43:58.719,516.580
15,6 Jan 2025 16:11:53.771,6 Jan 2025 16:16:13.815,260.043
16,6 Jan 2025 17:41:11.169,6 Jan 2025 17:52:24.894,673.725
17,6 Jan 2025 19:15:47.742,6 Jan 2025 19:25:45.388,597.646
18,7 Jan 2025 17:22:51.212,7 Jan 2025 17:33:32.010,640.799
19,7 Jan 2025 18:56:30.889,7 Jan 2025 19:07:20.568,649.679
20,8 Jan 2025 17:04:42.734,8 Jan 2025 17:14:33.611,590.877
21,8 Jan 2025 18:37:27.579,8 Jan 2025 18:48:48.031,680.453
22,8 Jan 2025 20:17:33.030,8 Jan 2025 20:18:09.715,36.685
23,9 Jan 2025 16:46:47.666,9 Jan 2025 16:55:27.946,520.280
24,9 Jan 2025 18:18:35.875,9 Jan 2025 18:30:09.610,693.735
25,9 Jan 2025 19:55:38.538,9 Jan 2025 20:02:03.173,384.635
26,10 Jan 2025 16:29:10.434,10 Jan 2025 16:36:10.817,420.384
27,10 Jan 2025 17:59:54.835,10 Jan 2025 18:11:26.207,691.372
28,10 Jan 2025 19:35:36.061,10 Jan 2025 19:44:11.461,515.400
29,11 Jan 2025 16:12:05.430,11 Jan 2025 16:16:28.038,262.607
30,11 Jan 2025 17:41:24.149,11 Jan 2025 17:52:38.168,674.019
31,11 Jan 2025 19:16:01.419,11 Jan 2025 19:25:58.303,596.884
32,12 Jan 2025 17:23:04.063,12 Jan 2025 17:33:45.342,641.280
33,12 Jan 2025 18:56:44.388,12 Jan 2025 19:07:33.589,649.201
34,13 Jan 2025 17:04:55.441,13 Jan 2025 17:14:47.013,591.572
35,13 Jan 2025 18:37:40.933,13 Jan 2025 18:49:01.130,680.197
36,14 Jan 2025 16:47:00.197,14 Jan 2025 16:55:41.453,521.256
37,14 Jan 2025 18:18:49.100,14 Jan 2025 18:30:22.772,693.672
38,14 Jan 2025 19:55:52.920,14 Jan 2025 20:02:15.532,382.612
39,15 Jan 2025 16:29:22.706,15 Jan 2025 16:36:24.506,421.800
40,15 Jan 2025 18:00:07.938,15 Jan 2025 18:11:39.425,691.487
41,15 Jan 2025 19:35:49.988,15 Jan 2025 19:44:24.198,514.211
42,16 Jan 2025 16:12:17.102,16 Jan 2025 16:16:42.251,265.149
43,16 Jan 2025 17:41:37.130,16 Jan 2025 17:52:51.441,674.311
44,16 Jan 2025 19:16:15.099,16 Jan 2025 19:26:11.215,596.116
45,17 Jan 2025 17:23:16.916,17 Jan 2025 17:33:58.675,641.759
46,17 Jan 2025 18:56:57.891,17 Jan 2025 19:07:46.610,648.719
47,18 Jan 2025 17:05:08.151,18 Jan 2025 17:15:00.418,592.267
48,18 Jan 2025 18:37:54.290,18 Jan 2025 18:49:14.230,679.940
49,19 Jan 2025 16:47:12.732,19 Jan 2025 16:55:54.961,522.228
50,19 Jan 2025 18:19:02.328,19 Jan 2025 18:30:35.934,693.606
51,19 Jan 2025 19:56:07.312,19 Jan 2025 20:02:27.885,380.573
52,20 Jan 2025 16:29:34.986,20 Jan 2025 16:36:38.186,423.200
53,20 Jan 2025 18:00:21.039,20 Jan 2025 18:11:52.648,691.608
54,20 Jan 2025 19:36:03.922,20 Jan 2025 19:44:36.940,513.018
55,21 Jan 2025 16:12:28.791,21 Jan 2025 16:16:56.449,267.659
56,21 Jan 2025 17:41:50.113,21 Jan 2025 17:53:04.714,674.601
57,21 Jan 2025 19:16:28.786,21 Jan 2025 19:26:24.128,595.341
58,22 Jan 2025 17:23:29.771,22 Jan 2025 17:34:12.004,642.233
59,22 Jan 2025 18:57:11.395,22 Jan 2025 19:07:59.631,648.236
60,23 Jan 2025 17:05:20.863,23 Jan 2025 17:15:13.821,592.958
61,23 Jan 2025 18:38:07.648,23 Jan 2025 18:49:27.328,679.680
62,24 Jan 2025 16:47:25.271,24 Jan 2025 16:56:08.460,523.190
63,24 Jan 2025 18:19:15.553,24 Jan 2025 18:30:49.100,693.547
64,24 Jan 2025 19:56:21.707,24 Jan 2025 20:02:40.236,378.530
65,25 Jan 2025 16:29:47.273,25 Jan 2025 16:36:51.871,424.598
66,25 Jan 2025 18:00:34.147,25 Jan 2025 18:12:05.860,691.713
67,25 Jan 2025 19:36:17.851,25 Jan 2025 19:44:49.669,511.818
68,26 Jan 2025 16:12:40.493,26 Jan 2025 16:17:10.632,270.139
69,26 Jan 2025 17:42:03.096,26 Jan 2025 17:53:17.984,674.887
70,26 Jan 2025 19:16:42.470,26 Jan 2025 19:26:37.037,594.568
71,27 Jan 2025 17:23:42.627,27 Jan 2025 17:34:25.334,642.707
72,27 Jan 2025 18:57:24.900,27 Jan 2025 19:08:12.649,647.749
73,28 Jan 2025 17:05:33.576,28 Jan 2025 17:15:27.222,593.646
74,28 Jan 2025 18:38:21.007,28 Jan 2025 18:49:40.425,679.418
75,29 Jan 2025 16:47:37.809,29 Jan 2025 16:56:21.964,524.155
76,29 Jan 2025 18:19:28.782,29 Jan 2025 18:31:02.260,693.478
77,29 Jan 2025 19:56:36.114,29 Jan 2025 20:02:52.573,376.459
78,30 Jan 2025 16:29:59.560,30 Jan 2025 16:37:05.549,425.989
79,30 Jan 2025 18:00:47.254,30 Jan 2025 18:12:19.076,691.822
80,30 Jan 2025 19:36:31.788,30 Jan 2025 19:45:02.399,510.611
81,31 Jan 2025 16:12:52.206,31 Jan 2025 16:17:24.806,272.600
82,31 Jan 2025 17:42:16.082,31 Jan 2025 17:53:31.255,675.173
83,31 Jan 2025 19:16:56.156,31 Jan 2025 19:26:49.945,593.789
84,1 Feb 2025 17:23:55.485,1 Feb 2025 17:34:38.665,643.180
85,1 Feb 2025 18:57:38.408,1 Feb 2025 19:08:25.667,647.259
86,2 Feb 2025 17:05:46.292,2 Feb 2025 17:15:40.624,594.333
87,2 Feb 2025 18:38:34.369,2 Feb 2025 18:49:53.522,679.153
88,3 Feb 2025 16:47:50.356,3 Feb 2025 16:56:35.466,525.111
89,3 Feb 2025 18:19:42.014,3 Feb 2025 18:31:15.420,693.406
90,3 Feb 2025 19:56:50.531,3 Feb 2025 20:03:04.904,374.372
91,4 Feb 2025 16:30:11.853,4 Feb 2025 16:37:19.224,427.371
92,4 Feb 2025 18:01:00.363,4 Feb 2025 18:12:32.292,691.929
93,4 Feb 2025 19:36:45.729,4 Feb 2025 19:45:15.133,509.404
94,5 Feb 2025 16:13:03.936,5 Feb 2025 16:17:38.964,275.028
95,5 Feb 2025 17:42:29.069,5 Feb 2025 17:53:44.525,675.456
96,5 Feb 2025 19:17:09.846,5 Feb 2025 19:27:02.853,593.008
97,6 Feb 2025 17:24:08.345,6 Feb 2025 17:34:51.994,643.649
98,6 Feb 2025 18:57:51.917,6 Feb 2025 19:08:38.685,646.767
99,7 Feb 2025 17:05:59.005,7 Feb 2025 17:15:54.026,595.021
100,7 Feb 2025 18:38:47.727,7 Feb 2025 18:50:06.622,678.895
101,8 Feb 2025 16:48:02.899,8 Feb 2025 16:56:48.964,526.065
102,8 Feb 2025 18:19:55.246,8 Feb 2025 18:31:28.578,693.333
103,8 Feb 2025 19:57:04.955,8 Feb 2025 20:03:17.227,372.272
104,9 Feb 2025 16:30:24.146,9 Feb 2025 16:37:32.894,428.748
105,9 Feb 2025 18:01:13.474,9 Feb 2025 18:12:45.506,692.031
106,9 Feb 2025 19:36:59.673,9 Feb 2025 19:45:27.858,508.186
107,10 Feb 2025 16:13:15.677,10 Feb 2025 16:17:53.110,277.434
108,10 Feb 2025 17:42:42.057,10 Feb 2025 17:53:57.793,675.737
109,10 Feb 2025 19:17:23.536,10 Feb 2025 19:27:15.758,592.222
110,11 Feb 2025 17:24:21.205,11 Feb 2025 17:35:05.321,644.116
111,11 Feb 2025 18:58:05.424,11 Feb 2025 19:08:51.700,646.276
112,12 Feb 2025 17:06:11.723,12 Feb 2025 17:16:07.424,595.701
113,12 Feb 2025 18:39:01.091,12 Feb 2025 18:50:19.717,678.626
114,13 Feb 2025 16:48:15.445,13 Feb 2025 16:57:02.461,527.016
115,13 Feb 2025 18:20:08.480,13 Feb 2025 18:31:41.737,693.257
116,13 Feb 2025 19:57:19.390,13 Feb 2025 20:03:29.540,370.151
117,14 Feb 2025 16:30:36.446,14 Feb 2025 16:37:46.559,430.113
118,14 Feb 2025 18:01:26.582,14 Feb 2025 18:12:58.724,692.142
119,14 Feb 2025 19:37:13.620,14 Feb 2025 19:45:40.580,506.960
120,15 Feb 2025 16:13:27.430,15 Feb 2025 16:18:07.248,279.818
121,15 Feb 2025 17:42:55.047,15 Feb 2025 17:54:11.058,676.011
122,15 Feb 2025 19:17:37.230,15 Feb 2025 19:27:28.663,591.432
123,16 Feb 2025 17:24:34.069,16 Feb 2025 17:35:18.649,644.580
124,16 Feb 2025 18:58:18.937,16 Feb 2025 19:09:04.716,645.778
125,17 Feb 2025 17:06:24.445,17 Feb 2025 17:16:20.823,596.377
126,17 Feb 2025 18:39:14.458,17 Feb 2025 18:50:32.812,678.354
127,18 Feb 2025 16:48:27.992,18 Feb 2025 16:57:15.958,527.967
128,18 Feb 2025 18:20:21.716,18 Feb 2025 18:31:54.895,693.179
129,18 Feb 2025 19:57:33.833,18 Feb 2025 20:03:41.848,368.015
130,19 Feb 2025 16:30:48.751,19 Feb 2025 16:38:00.224,431.473
131,19 Feb 2025 18:01:39.696,19 Feb 2025 18:13:11.939,692.243
132,19 Feb 2025 19:37:27.572,19 Feb 2025 19:45:53.302,505.730
133,20 Feb 2025 16:13:39.199,20 Feb 2025 16:18:21.371,282.172
134,20 Feb 2025 17:43:08.039,20 Feb 2025 17:54:24.326,676.287
135,20 Feb 2025 19:17:50.927,20 Feb 2025 19:27:41.566,590.640
136,21 Feb 2025 17:24:46.933,21 Feb 2025 17:35:31.975,645.042
137,21 Feb 2025 18:58:32.452,21 Feb 2025 19:09:17.730,645.278
138,22 Feb 2025 17:06:37.169,22 Feb 2025 17:16:34.218,597.050
139,22 Feb 2025 18:39:27.825,22 Feb 2025 18:50:45.906,678.081
140,23 Feb 2025 16:48:40.543,23 Feb 2025 16:57:29.452,528.908
141,23 Feb 2025 18:20:34.953,23 Feb 2025 18:32:08.052,693.099
142,23 Feb 2025 19:57:48.285,23 Feb 2025 20:03:54.148,365.863
143,24 Feb 2025 16:31:01.059,24 Feb 2025 16:38:13.885,432.826
144,24 Feb 2025 18:01:52.810,24 Feb 2025 18:13:25.151,692.341
145,24 Feb 2025 19:37:41.527,24 Feb 2025 19:46:06.019,504.493
146,25 Feb 2025 16:13:50.977,25 Feb 2025 16:18:35.483,284.507
147,25 Feb 2025 17:43:21.031,25 Feb 2025 17:54:37.592,676.561
148,25 Feb 2025 19:18:04.624,25 Feb 2025 19:27:54.467,589.843
149,26 Feb 2025 17:24:59.796,26 Feb 2025 17:35:45.301,645.505
150,26 Feb 2025 18:58:45.968,26 Feb 2025 19:09:30.740,644.772
151,27 Feb 2025 17:06:49.896,27 Feb 2025 17:16:47.612,597.717
152,27 Feb 2025 18:39:41.195,27 Feb 2025 18:50:58.994,677.799
153,28 Feb 2025 16:48:53.102,28 Feb 2025 16:57:42.943,529.841
154,28 Feb 2025 18:20:48.192,28 Feb 2025 18:32:21.209,693.017
155,28 Feb 2025 19:58:02.748,28 Feb 2025 20:04:06.436,363.689
156,1 Mar 2025 16:31:13.375,1 Mar 2025 16:38:27.546,434.170
157,1 Mar 2025 18:02:05.930,1 Mar 2025 18:13:38.364,692.434
158,1 Mar 2025 19:37:55.487,1 Mar 2025 19:46:18.734,503.247
159,2 Mar 2025 16:14:02.767,2 Mar 2025 16:18:49.587,286.821
160,2 Mar 2025 17:43:34.026,2 Mar 2025 17:54:50.859,676.833
161,2 Mar 2025 19:18:18.326,2 Mar 2025 19:28:07.368,589.042
162,3 Mar 2025 17:25:12.665,3 Mar 2025 17:35:58.627,645.962
163,3 Mar 2025 18:58:59.488,3 Mar 2025 19:09:43.754,644.266
164,4 Mar 2025 17:07:02.623,4 Mar 2025 17:17:01.008,598.384
165,4 Mar 2025 18:39:54.566,4 Mar 2025 18:51:12.087,677.521
166,5 Mar 2025 16:49:05.655,5 Mar 2025 16:57:56.438,530.783
167,5 Mar 2025 18:21:01.433,5 Mar 2025 18:32:34.365,692.932
168,5 Mar 2025 19:58:17.219,5 Mar 2025 20:04:18.721,361.502
169,6 Mar 2025 16:31:25.688,6 Mar 2025 16:38:41.201,435.513
170,6 Mar 2025 18:02:19.044,6 Mar 2025 18:13:51.576,692.532
171,6 Mar 2025 19:38:09.450,6 Mar 2025 19:46:31.448,501.998
172,7 Mar 2025 16:14:14.571,7 Mar 2025 16:19:03.677,289.106
173,7 Mar 2025 17:43:47.022,7 Mar 2025 17:55:04.125,677.103
174,7 Mar 2025 19:18:32.029,7 Mar 2025 19:28:20.267,588.238
175,8 Mar 2025 17:25:25.534,8 Mar 2025 17:36:11.950,646.416
176,8 Mar 2025 18:59:13.008,8 Mar 2025 19:09:56.765,643.757
177,9 Mar 2025 17:07:15.352,9 Mar 2025 17:17:14.400,599.049
178,9 Mar 2025 18:40:07.938,9 Mar 2025 18:51:25.179,677.240
179,10 Mar 2025 16:49:18.214,10 Mar 2025 16:58:09.928,531.714
180,10 Mar 2025 18:21:14.674,10 Mar 2025 18:32:47.520,692.846
181,10 Mar 2025 19:58:31.700,10 Mar 2025 20:04:30.994,359.294
182,11 Mar 2025 16:31:38.007,11 Mar 2025 16:38:54.855,436.848
183,11 Mar 2025 18:02:32.163,11 Mar 2025 18:14:04.787,692.624
184,11 Mar 2025 19:38:23.417,11 Mar 2025 19:46:44.157,500.740
185,12 Mar 2025 16:14:26.383,12 Mar 2025 16:19:17.759,291.376
186,12 Mar 2025 17:44:00.019,12 Mar 2025 17:55:17.390,677.371
187,12 Mar 2025 19:18:45.735,12 Mar 2025 19:28:33.164,587.429
188,13 Mar 2025 17:25:38.405,13 Mar 2025 17:36:25.273,646.868
189,13 Mar 2025 18:59:26.531,13 Mar 2025 19:10:09.776,643.245
190,14 Mar 2025 17:07:28.080,14 Mar 2025 17:17:27.792,599.712
191,14 Mar 2025 18:40:21.317,14 Mar 2025 18:51:38.274,676.957
192,15 Mar 2025 16:49:30.776,15 Mar 2025 16:58:23.417,532.641
193,15 Mar 2025 18:21:27.921,15 Mar 2025 18:33:00.676,692.755
194,15 Mar 2025 19:58:46.193,15 Mar 2025 20:04:43.259,357.066
195,16 Mar 2025 16:31:50.335,16 Mar 2025 16:39:08.512,438.176
196,16 Mar 2025 18:02:45.286,16 Mar 2025 18:14:17.999,692.714
197,16 Mar 2025 19:38:37.389,16 Mar 2025 19:46:56.865,499.476
198,17 Mar 2025 16:14:38.208,17 Mar 2025 16:19:31.836,293.628
199,17 Mar 2025 17:44:13.020,17 Mar 2025 17:55:30.661,677.642
200,17 Mar 2025 19:18:59.445,17 Mar 2025 19:28:46.061,586.616
201,18 Mar 2025 17:25:51.279,18 Mar 2025 17:36:38.597,647.318
202,18 Mar 2025 18:59:40.057,18 Mar 2025 19:10:22.787,642.730
203,19 Mar 2025 17:07:40.814,19 Mar 2025 17:17:41.184,600.370
204,19 Mar 2025 18:40:34.694,19 Mar 2025 18:51:51.366,676.672
205,20 Mar 2025 16:49:43.341,20 Mar 2025 16:58:36.905,533.564
206,20 Mar 2025 18:21:41.168,20 Mar 2025 18:33:13.831,692.664
207,20 Mar 2025 19:59:00.696,20 Mar 2025 20:04:55.516,354.820
208,21 Mar 2025 16:32:02.661,21 Mar 2025 16:39:22.160,439.498
209,21 Mar 2025 18:02:58.409,21 Mar 2025 18:14:31.210,692.802
210,21 Mar 2025 19:38:51.364,21 Mar 2025 19:47:09.571,498.207
211,22 Mar 2025 16:14:50.045,22 Mar 2025 16:19:45.898,295.853
212,22 Mar 2025 17:44:26.021,22 Mar 2025 17:55:43.926,677.905
213,22 Mar 2025 19:19:13.157,22 Mar 2025 19:28:58.957,585.800
214,23 Mar 2025 17:26:04.154,23 Mar 2025 17:36:51.919,647.765
215,23 Mar 2025 18:59:53.584,23 Mar 2025 19:10:35.796,642.212
216,24 Mar 2025 17:07:53.549,24 Mar 2025 17:17:54.575,601.026
217,24 Mar 2025 18:40:48.072,24 Mar 2025 18:52:04.456,676.384
218,25 Mar 2025 16:49:55.908,25 Mar 2025 16:58:50.391,534.483
219,25 Mar 2025 18:21:54.415,25 Mar 2025 18:33:26.985,692.570
220,25 Mar 2025 19:59:15.208,25 Mar 2025 20:05:07.761,352.553
221,26 Mar 2025 16:32:14.991,26 Mar 2025 16:39:35.805,440.814
222,26 Mar 2025 18:03:11.532,26 Mar 2025 18:14:44.420,692.888
223,26 Mar 2025 19:39:05.343,26 Mar 2025 19:47:22.272,496.929
224,27 Mar 2025 16:15:01.890,27 Mar 2025 16:19:59.948,298.058
225,27 Mar 2025 17:44:39.023,27 Mar 2025 17:55:57.190,678.167
226,27 Mar 2025 19:19:26.871,27 Mar 2025 19:29:11.849,584.979
227,28 Mar 2025 17:26:17.030,28 Mar 2025 17:37:05.240,648.211
228,28 Mar 2025 19:00:07.118,28 Mar 2025 19:10:48.804,641.686
229,29 Mar 2025 17:08:06.286,29 Mar 2025 17:18:07.963,601.678
230,29 Mar 2025 18:41:01.452,29 Mar 2025 18:52:17.545,676.093
231,30 Mar 2025 16:50:08.477,30 Mar 2025 16:59:03.876,535.399
232,30 Mar 2025 18:22:07.665,30 Mar 2025 18:33:40.140,692.475
233,30 Mar 2025 19:59:29.733,30 Mar 2025 20:05:19.997,350.264
234,31 Mar 2025 16:32:27.326,31 Mar 2025 16:39:49.445,442.118
235,31 Mar 2025 18:03:24.658,31 Mar 2025 18:14:57.631,692.973
236,31 Mar 2025 19:39:19.330,31 Mar 2025 19:47:34.972,495.642
237,1 Apr 2025 16:15:13.747,1 Apr 2025 16:20:13.992,300.245
238,1 Apr 2025 17:44:52.029,1 Apr 2025 17:56:10.454,678.426
239,1 Apr 2025 19:19:40.589,1 Apr 2025 19:29:24.743,584.154
240,2 Apr 2025 17:26:29.909,2 Apr 2025 17:37:18.562,648.653
241,2 Apr 2025 19:00:20.650,2 Apr 2025 19:11:01.813,641.163
242,3 Apr 2025 17:08:19.026,3 Apr 2025 17:18:21.353,602.328
243,3 Apr 2025 18:41:14.834,3 Apr 2025 18:52:30.635,675.801
244,4 Apr 2025 16:50:21.050,4 Apr 2025 16:59:17.360,536.309
245,4 Apr 2025 18:22:20.911,4 Apr 2025 18:33:53.293,692.383
246,4 Apr 2025 19:59:44.267,4 Apr 2025 20:05:32.226,347.960
247,5 Apr 2025 16:32:39.666,5 Apr 2025 16:40:03.085,443.418
248,5 Apr 2025 18:03:37.785,5 Apr 2025 18:15:10.840,693.055
249,5 Apr 2025 19:39:33.318,5 Apr 2025 19:47:47.669,494.351
250,6 Apr 2025 16:15:25.614,6 Apr 2025 16:20:28.025,302.411
251,6 Apr 2025 17:45:05.034,6 Apr 2025 17:56:23.717,678.683
252,6 Apr 2025 19:19:54.308,6 Apr 2025 19:29:37.634,583.326
253,7 Apr 2025 17:26:42.789,7 Apr 2025 17:37:31.882,649.093
254,7 Apr 2025 19:00:34.183,7 Apr 2025 19:11:14.819,640.636
255,8 Apr 2025 17:08:31.766,8 Apr 2025 17:18:34.742,602.976
256,8 Apr 2025 18:41:28.218,8 Apr 2025 18:52:43.723,675.505
257,9 Apr 2025 16:50:33.624,9 Apr 2025 16:59:30.842,537.218
258,9 Apr 2025 18:22:34.163,9 Apr 2025 18:34:06.446,692.283
259,9 Apr 2025 19:59:58.813,9 Apr 2025 20:05:44.448,345.635
260,10 Apr 2025 16:32:52.008,10 Apr 2025 16:40:16.724,444.716
261,10 Apr 2025 18:03:50.914,10 Apr 2025 18:15:24.049,693.135
262,10 Apr 2025 19:39:47.311,10 Apr 2025 19:48:00.362,493.051
263,11 Apr 2025 16:15:37.489,11 Apr 2025 16:20:42.054,304.565
264,11 Apr 2025 17:45:18.042,11 Apr 2025 17:56:36.981,678.938
265,11 Apr 2025 19:20:08.031,11 Apr 2025 19:29:50.523,582.492
266,12 Apr 2025 17:26:55.671,12 Apr 2025 17:37:45.203,649.532
267,12 Apr 2025 19:00:47.720,12 Apr 2025 19:11:27.825,640.106
268,13 Apr 2025 17:08:44.510,13 Apr 2025 17:18:48.132,603.622
269,13 Apr 2025 18:41:41.604,13 Apr 2025 18:52:56.812,675.207
270,14 Apr 2025 16:50:46.202,14 Apr 2025 16:59:44.325,538.123
271,14 Apr 2025 18:22:47.418,14 Apr 2025 18:34:19.600,692.181
272,14 Apr 2025 20:00:13.372,14 Apr 2025 20:05:56.652,343.280
273,15 Apr 2025 16:33:04.356,15 Apr 2025 16:40:30.362,446.006
274,15 Apr 2025 18:04:04.046,15 Apr 2025 18:15:37.259,693.213
275,15 Apr 2025 19:40:01.309,15 Apr 2025 19:48:13.053,491.744
276,16 Apr 2025 16:15:49.377,16 Apr 2025 16:20:56.074,306.697
277,16 Apr 2025 17:45:31.053,16 Apr 2025 17:56:50.245,679.191
278,16 Apr 2025 19:20:21.758,16 Apr 2025 19:30:03.412,581.655
279,17 Apr 2025 17:27:08.556,17 Apr 2025 17:37:58.524,649.968
280,17 Apr 2025 19:01:01.259,17 Apr 2025 19:11:40.832,639.573
281,18 Apr 2025 17:08:57.256,18 Apr 2025 17:19:01.520,604.264
282,18 Apr 2025 18:41:54.993,18 Apr 2025 18:53:09.900,674.907
283,19 Apr 2025 16:50:58.782,19 Apr 2025 16:59:57.805,539.024
284,19 Apr 2025 18:23:00.675,19 Apr 2025 18:34:32.752,692.078
285,19 Apr 2025 20:00:27.942,19 Apr 2025 20:06:08.853,340.912
286,20 Apr 2025 16:33:16.706,20 Apr 2025 16:40:43.996,447.289
287,20 Apr 2025 18:04:17.179,20 Apr 2025 18:15:50.468,693.289
288,20 Apr 2025 19:40:15.311,20 Apr 2025 19:48:25.742,490.431
289,21 Apr 2025 16:16:01.273,21 Apr 2025 16:21:10.085,308.811
290,21 Apr 2025 17:45:44.064,21 Apr 2025 17:57:03.507,679.442
291,21 Apr 2025 19:20:35.486,21 Apr 2025 19:30:16.299,580.813
292,22 Apr 2025 17:27:21.441,22 Apr 2025 17:38:11.843,650.402
293,22 Apr 2025 19:01:14.794,22 Apr 2025 19:11:53.836,639.042
294,23 Apr 2025 17:09:10.002,23 Apr 2025 17:19:14.907,604.905
295,23 Apr 2025 18:42:08.382,23 Apr 2025 18:53:22.986,674.605
296,24 Apr 2025 16:51:11.367,24 Apr 2025 17:00:11.285,539.918
297,24 Apr 2025 18:23:13.932,24 Apr 2025 18:34:45.904,691.972
298,24 Apr 2025 20:00:42.524,24 Apr 2025 20:06:21.038,338.515
299,25 Apr 2025 16:33:29.060,25 Apr 2025 16:40:57.629,448.569
300,25 Apr 2025 18:04:30.313,25 Apr 2025 18:16:03.676,693.363
301,25 Apr 2025 19:40:29.317,25 Apr 2025 19:48:38.426,489.108
302,26 Apr 2025 16:16:13.177,26 Apr 2025 16:21:24.089,310.911
303,26 Apr 2025 17:45:57.077,26 Apr 2025 17:57:16.769,679.692
304,26 Apr 2025 19:20:49.218,26 Apr 2025 19:30:29.184,579.966
305,27 Apr 2025 17:27:34.330,27 Apr 2025 17:38:25.163,650.833
306,27 Apr 2025 19:01:28.339,27 Apr 2025 19:12:06.840,638.500
307,28 Apr 2025 17:09:22.752,28 Apr 2025 17:19:28.295,605.543
308,28 Apr 2025 18:42:21.775,28 Apr 2025 18:53:36.074,674.299
309,29 Apr 2025 16:51:23.949,29 Apr 2025 17:00:24.765,540.816
310,29 Apr 2025 18:23:27.195,29 Apr 2025 18:34:59.056,691.861
311,29 Apr 2025 20:00:57.120,29 Apr 2025 20:06:33.216,336.097
312,30 Apr 2025 16:33:41.423,30 Apr 2025 16:41:11.263,449.840
313,30 Apr 2025 18:04:43.455,30 Apr 2025 18:16:16.881,693.426
314,30 Apr 2025 19:40:43.325,30 Apr 2025 19:48:51.108,487.783
315,1 May 2025 16:16:25.091,1 May 2025 16:21:38.086,312.994
316,1 May 2025 17:46:10.093,1 May 2025 17:57:30.032,679.938
317,1 May 2025 19:21:02.952,1 May 2025 19:30:42.069,579.117
318,2 May 2025 17:27:47.218,2 May 2025 17:38:38.482,651.264
319,2 May 2025 19:01:41.883,2 May 2025 19:12:19.843,637.961
320,3 May 2025 17:09:35.504,3 May 2025 17:19:41.681,606.177
321,3 May 2025 18:42:35.168,3 May 2025 18:53:49.160,673.992
322,4 May 2025 16:51:36.535,4 May 2025 17:00:38.241,541.706
323,4 May 2025 18:23:40.456,4 May 2025 18:35:12.207,691.751
324,4 May 2025 20:01:11.726,4 May 2025 20:06:45.383,333.657
325,5 May 2025 16:33:53.784,5 May 2025 16:41:24.891,451.107
326,5 May 2025 18:04:56.593,5 May 2025 18:16:30.088,693.495
327,5 May 2025 19:40:57.339,5 May 2025 19:49:03.786,486.447
328,6 May 2025 16:16:37.014,6 May 2025 16:21:52.075,315.061
329,6 May 2025 17:46:23.109,6 May 2025 17:57:43.293,680.183
330,6 May 2025 19:21:16.689,6 May 2025 19:30:54.951,578.262
331,7 May 2025 17:28:00.108,7 May 2025 17:38:51.800,651.692
332,7 May 2025 19:01:55.430,7 May 2025 19:12:32.844,637.415
333,8 May 2025 17:09:48.260,8 May 2025 17:19:55.071,606.810
334,8 May 2025 18:42:48.559,8 May 2025 18:54:02.242,673.683
335,9 May 2025 16:51:49.124,9 May 2025 17:00:51.719,542.595
336,9 May 2025 18:23:53.719,9 May 2025 18:35:25.358,691.639
337,9 May 2025 20:01:26.347,9 May 2025 20:06:57.535,331.188
338,10 May 2025 16:34:06.148,10 May 2025 16:41:38.518,452.371
339,10 May 2025 18:05:09.733,10 May 2025 18:16:43.296,693.563
340,10 May 2025 19:41:11.360,10 May 2025 19:49:16.461,485.101
341,11 May 2025 16:16:48.945,11 May 2025 16:22:06.060,317.115
342,11 May 2025 17:46:36.128,11 May 2025 17:57:56.555,680.427
343,11 May 2025 19:21:30.426,11 May 2025 19:31:07.832,577.406
344,12 May 2025 17:28:13.002,12 May 2025 17:39:05.119,652.117
345,12 May 2025 19:02:08.981,12 May 2025 19:12:45.846,636.865
346,13 May 2025 17:10:01.016,13 May 2025 17:20:08.457,607.441
347,13 May 2025 18:43:01.958,13 May 2025 18:54:15.327,673.369
348,14 May 2025 16:52:01.717,14 May 2025 17:01:05.196,543.479
349,14 May 2025 18:24:06.985,14 May 2025 18:35:38.509,691.524
350,14 May 2025 20:01:40.982,14 May 2025 20:07:09.678,328.696
351,15 May 2025 16:34:18.516,15 May 2025 16:41:52.143,453.627
352,15 May 2025 18:05:22.875,15 May 2025 18:16:56.504,693.629
353,15 May 2025 19:41:25.385,15 May 2025 19:49:29.135,483.749
354,16 May 2025 16:17:00.885,16 May 2025 16:22:20.036,319.151
355,16 May 2025 17:46:49.149,16 May 2025 17:58:09.816,680.667
356,16 May 2025 19:21:44.170,16 May 2025 19:31:20.712,576.542
357,17 May 2025 17:28:25.897,17 May 2025 17:39:18.437,652.540
358,17 May 2025 19:02:22.534,17 May 2025 19:12:58.846,636.313
359,18 May 2025 17:10:13.773,18 May 2025 17:20:21.841,608.068
360,18 May 2025 18:43:15.357,18 May 2025 18:54:28.411,673.054
361,19 May 2025 16:52:14.314,19 May 2025 17:01:18.670,544.356
362,19 May 2025 18:24:20.252,19 May 2025 18:35:51.659,691.406
363,19 May 2025 20:01:55.629,19 May 2025 20:07:21.808,326.180
364,20 May 2025 16:34:30.887,20 May 2025 16:42:05.764,454.877
365,20 May 2025 18:05:36.017,20 May 2025 18:17:09.710,693.692
366,20 May 2025 19:41:39.414,20 May 2025 19:49:41.803,482.389
367,21 May 2025 16:17:12.832,21 May 2025 16:22:34.004,321.171
368,21 May 2025 17:47:02.170,21 May 2025 17:58:23.076,680.906
369,21 May 2025 19:21:57.915,21 May 2025 19:31:33.589,575.673
370,22 May 2025 17:28:38.793,22 May 2025 17:39:31.754,652.961
371,22 May 2025 19:02:36.088,22 May 2025 19:13:11.844,635.756
372,23 May 2025 17:10:26.532,23 May 2025 17:20:35.226,608.694
373,23 May 2025 18:43:28.759,23 May 2025 18:54:41.494,672.735
374,24 May 2025 16:52:26.910,24 May 2025 17:01:32.145,545.235
375,24 May 2025 18:24:33.521,24 May 2025 18:36:04.808,691.287
376,24 May 2025 20:02:10.296,24 May 2025 20:07:33.924,323.628
377,25 May 2025 16:34:43.261,25 May 2025 16:42:19.383,456.122
378,25 May 2025 18:05:49.162,25 May 2025 18:17:22.916,693.754
379,25 May 2025 19:41:53.449,25 May 2025 19:49:54.468,481.020
380,26 May 2025 16:17:24.788,26 May 2025 16:22:47.968,323.180
381,26 May 2025 17:47:15.194,26 May 2025 17:58:36.337,681.143
382,26 May 2025 19:22:11.666,26 May 2025 19:31:46.465,574.799
383,27 May 2025 17:28:51.692,27 May 2025 17:39:45.069,653.377
384,27 May 2025 19:02:49.647,27 May 2025 19:13:24.843,635.196
385,28 May 2025 17:10:39.294,28 May 2025 17:20:48.610,609.317
386,28 May 2025 18:43:42.163,28 May 2025 18:54:54.577,672.414
387,29 May 2025 16:52:39.510,29 May 2025 17:01:45.619,546.110
388,29 May 2025 18:24:46.790,29 May 2025 18:36:17.958,691.167
389,29 May 2025 20:02:24.972,29 May 2025 20:07:46.030,321.058
390,30 May 2025 16:34:55.640,30 May 2025 16:42:33.003,457.363
391,30 May 2025 18:06:02.309,30 May 2025 18:17:36.123,693.813
392,30 May 2025 19:42:07.488,30 May 2025 19:50:07.132,479.644
393,31 May 2025 16:17:36.753,31 May 2025 16:23:01.922,325.169
394,31 May 2025 17:47:28.219,31 May 2025 17:58:49.597,681.378
395,31 May 2025 19:22:25.418,31 May 2025 19:31:59.340,573.921
396,1 Jun 2025 17:29:04.592,1 Jun 2025 17:39:58.385,653.793
397,1 Jun 2025 19:03:03.206,1 Jun 2025 19:13:37.840,634.634
398,2 Jun 2025 17:10:52.056,2 Jun 2025 17:21:01.993,609.937
399,2 Jun 2025 18:43:55.568,2 Jun 2025 18:55:07.659,672.091
400,3 Jun 2025 16:52:52.110,3 Jun 2025 17:01:59.091,546.981
401,3 Jun 2025 18:25:00.062,3 Jun 2025 18:36:31.105,691.043
402,3 Jun 2025 20:02:39.661,3 Jun 2025 20:07:58.120,318.459
403,4 Jun 2025 16:35:08.020,4 Jun 2025 16:42:46.618,458.598
404,4 Jun 2025 18:06:15.457,4 Jun 2025 18:17:49.327,693.871
405,4 Jun 2025 19:42:21.531,4 Jun 2025 19:50:19.789,478.258
406,5 Jun 2025 16:17:48.722,5 Jun 2025 16:23:15.872,327.150
407,5 Jun 2025 17:47:41.245,5 Jun 2025 17:59:02.856,681.611
408,5 Jun 2025 19:22:39.174,5 Jun 2025 19:32:12.211,573.037
409,6 Jun 2025 17:29:17.493,6 Jun 2025 17:40:11.701,654.208
410,6 Jun 2025 19:03:16.766,6 Jun 2025 19:13:50.835,634.070
411,7 Jun 2025 17:11:04.820,7 Jun 2025 17:21:15.376,610.556
412,7 Jun 2025 18:44:08.975,7 Jun 2025 18:55:20.739,671.764
413,8 Jun 2025 16:53:04.708,8 Jun 2025 17:02:12.564,547.856
414,8 Jun 2025 18:25:13.338,8 Jun 2025 18:36:44.253,690.916
415,8 Jun 2025 20:02:54.368,8 Jun 2025 20:08:10.196,315.828
416,9 Jun 2025 16:35:20.404,9 Jun 2025 16:43:00.235,459.831
417,9 Jun 2025 18:06:28.607,9 Jun 2025 18:18:02.533,693.926
418,9 Jun 2025 19:42:35.580,9 Jun 2025 19:50:32.443,476.863
419,10 Jun 2025 16:18:00.701,10 Jun 2025 16:23:29.817,329.116
420,10 Jun 2025 17:47:54.274,10 Jun 2025 17:59:16.116,681.842
421,10 Jun 2025 19:22:52.932,10 Jun 2025 19:32:25.081,572.149
422,11 Jun 2025 17:29:30.396,11 Jun 2025 17:40:25.018,654.622
423,11 Jun 2025 19:03:30.330,11 Jun 2025 19:14:03.830,633.500
424,12 Jun 2025 17:11:17.587,12 Jun 2025 17:21:28.759,611.171
425,12 Jun 2025 18:44:22.390,12 Jun 2025 18:55:33.820,671.430
426,13 Jun 2025 16:53:17.314,13 Jun 2025 17:02:26.035,548.721
427,13 Jun 2025 18:25:26.613,13 Jun 2025 18:36:57.401,690.787
428,13 Jun 2025 20:03:09.089,13 Jun 2025 20:08:22.259,313.170
429,14 Jun 2025 16:35:32.791,14 Jun 2025 16:43:13.849,461.059
430,14 Jun 2025 18:06:41.754,14 Jun 2025 18:18:15.738,693.984
431,14 Jun 2025 19:42:49.638,14 Jun 2025 19:50:45.092,475.455
432,15 Jun 2025 16:18:12.687,15 Jun 2025 16:23:43.753,331.066
433,15 Jun 2025 17:48:07.304,15 Jun 2025 17:59:29.375,682.071
434,15 Jun 2025 19:23:06.693,15 Jun 2025 19:32:37.950,571.257
435,16 Jun 2025 17:29:43.301,16 Jun 2025 17:40:38.332,655.031
436,16 Jun 2025 19:03:43.896,16 Jun 2025 19:14:16.826,632.930
437,17 Jun 2025 17:11:30.355,17 Jun 2025 17:21:42.139,611.784
438,17 Jun 2025 18:44:35.800,17 Jun 2025 18:55:46.899,671.099
439,18 Jun 2025 16:53:29.920,18 Jun 2025 17:02:39.504,549.584
440,18 Jun 2025 18:25:39.889,18 Jun 2025 18:37:10.546,690.657
441,18 Jun 2025 20:03:23.825,18 Jun 2025 20:08:34.307,310.482
442,19 Jun 2025 16:35:45.180,19 Jun 2025 16:43:27.461,462.281
443,19 Jun 2025 18:06:54.906,19 Jun 2025 18:18:28.941,694.035
444,19 Jun 2025 19:43:03.695,19 Jun 2025 19:50:57.738,474.043
445,20 Jun 2025 16:18:24.679,20 Jun 2025 16:23:57.681,333.002
446,20 Jun 2025 17:48:20.334,20 Jun 2025 17:59:42.632,682.298
447,20 Jun 2025 19:23:20.457,20 Jun 2025 19:32:50.815,570.359
448,21 Jun 2025 17:29:56.207,21 Jun 2025 17:40:51.647,655.440
449,21 Jun 2025 19:03:57.464,21 Jun 2025 19:14:29.817,632.353
450,22 Jun 2025 17:11:43.125,22 Jun 2025 17:21:55.521,612.396
451,22 Jun 2025 18:44:49.213,22 Jun 2025 18:55:59.977,670.764
452,23 Jun 2025 16:53:42.529,23 Jun 2025 17:02:52.974,550.445
453,23 Jun 2025 18:25:53.169,23 Jun 2025 18:37:23.693,690.524
454,23 Jun 2025 20:03:38.580,23 Jun 2025 20:08:46.339,307.759
455,24 Jun 2025 16:35:57.569,24 Jun 2025 16:43:41.073,463.503
456,24 Jun 2025 18:07:08.061,24 Jun 2025 18:18:42.149,694.088
457,24 Jun 2025 19:43:17.758,24 Jun 2025 19:51:10.382,472.624
458,25 Jun 2025 16:18:36.678,25 Jun 2025 16:24:11.613,334.935
459,25 Jun 2025 17:48:33.368,25 Jun 2025 17:59:55.891,682.523
460,25 Jun 2025 19:23:34.228,25 Jun 2025 19:33:03.681,569.453
461,26 Jun 2025 17:30:09.116,26 Jun 2025 17:41:04.962,655.847
462,26 Jun 2025 19:04:11.033,26 Jun 2025 19:14:42.807,631.774
463,27 Jun 2025 17:11:55.896,27 Jun 2025 17:22:08.901,613.005
464,27 Jun 2025 18:45:02.628,27 Jun 2025 18:56:13.057,670.429
465,28 Jun 2025 16:53:55.140,28 Jun 2025 17:03:06.442,551.302
466,28 Jun 2025 18:26:06.449,28 Jun 2025 18:37:36.838,690.389
467,28 Jun 2025 20:03:53.344,28 Jun 2025 20:08:58.357,305.014
468,29 Jun 2025 16:36:09.965,29 Jun 2025 16:43:54.680,464.715
469,29 Jun 2025 18:07:21.216,29 Jun 2025 18:18:55.352,694.135
470,29 Jun 2025 19:43:31.825,29 Jun 2025 19:51:23.020,471.195
471,30 Jun 2025 16:18:48.684,30 Jun 2025 16:24:25.531,336.847
472,30 Jun 2025 17:48:46.401,30 Jun 2025 18:00:09.147,682.746
473,30 Jun 2025 19:23:47.997,30 Jun 2025 19:33:16.542,568.545
474,1 Jul 2025 17:30:22.024,1 Jul 2025 17:41:18.275,656.251
475,1 Jul 2025 19:04:24.604,1 Jul 2025 19:14:55.795,631.191
476,2 Jul 2025 17:12:08.668,2 Jul 2025 17:22:22.280,613.612
477,2 Jul 2025 18:45:16.043,2 Jul 2025 18:56:26.133,670.089
478,3 Jul 2025 16:54:07.757,3 Jul 2025 17:03:19.909,552.152
479,3 Jul 2025 18:26:19.730,3 Jul 2025 18:37:49.981,690.252
480,3 Jul 2025 20:04:08.131,3 Jul 2025 20:09:10.357,302.226
481,4 Jul 2025 16:36:22.363,4 Jul 2025 16:44:08.284,465.921
482,4 Jul 2025 18:07:34.373,4 Jul 2025 18:19:08.553,694.180
483,4 Jul 2025 19:43:45.898,4 Jul 2025 19:51:35.653,469.755
484,5 Jul 2025 16:19:00.692,5 Jul 2025 16:24:39.442,338.751
485,5 Jul 2025 17:48:59.437,5 Jul 2025 18:00:22.404,682.966
486,5 Jul 2025 19:24:01.766,5 Jul 2025 19:33:29.401,567.636
487,6 Jul 2025 17:30:34.934,6 Jul 2025 17:41:31.588,656.655
488,6 Jul 2025 19:04:38.178,6 Jul 2025 19:15:08.782,630.604
489,7 Jul 2025 17:12:21.443,7 Jul 2025 17:22:35.660,614.217
490,7 Jul 2025 18:45:29.462,7 Jul 2025 18:56:39.208,669.746
491,8 Jul 2025 16:54:20.372,8 Jul 2025 17:03:33.376,553.004
492,8 Jul 2025 18:26:33.013,8 Jul 2025 18:38:03.125,690.112
493,8 Jul 2025 20:04:22.939,8 Jul 2025 20:09:22.340,299.401
494,9 Jul 2025 16:36:34.765,9 Jul 2025 16:44:21.895,467.130
495,9 Jul 2025 18:07:47.536,9 Jul 2025 18:19:21.751,694.214
496,9 Jul 2025 19:43:59.977,9 Jul 2025 19:51:48.284,468.306
497,10 Jul 2025 16:19:12.712,10 Jul 2025 16:24:53.353,340.642
498,10 Jul 2025 17:49:12.474,10 Jul 2025 18:00:35.660,683.186
499,10 Jul 2025 19:24:15.544,10 Jul 2025 19:33:42.259,566.716
500,11 Jul 2025 16:03:23.574,11 Jul 2025 16:03:58.621,35.047
501,11 Jul 2025 17:30:47.846,11 Jul 2025 17:41:44.901,657.055
502,11 Jul 2025 19:04:51.755,11 Jul 2025 19:15:21.769,630.014
503,12 Jul 2025 17:12:34.219,12 Jul 2025 17:22:49.038,614.819
504,12 Jul 2025 18:45:42.881,12 Jul 2025 18:56:52.282,669.401
505,13 Jul 2025 16:54:32.988,13 Jul 2025 17:03:46.840,553.852
506,13 Jul 2025 18:26:46.297,13 Jul 2025 18:38:16.267,689.970
507,13 Jul 2025 20:04:37.758,13 Jul 2025 20:09:34.308,296.550
508,14 Jul 2025 16:36:47.169,14 Jul 2025 16:44:35.496,468.327
509,14 Jul 2025 18:08:00.695,14 Jul 2025 18:19:34.951,694.255
510,14 Jul 2025 19:44:14.059,14 Jul 2025 19:52:00.909,466.850
511,15 Jul 2025 16:19:24.741,15 Jul 2025 16:25:07.258,342.517
512,15 Jul 2025 17:49:25.511,15 Jul 2025 18:00:48.910,683.399
513,15 Jul 2025 19:24:29.322,15 Jul 2025 19:33:55.114,565.793
514,16 Jul 2025 16:03:28.291,16 Jul 2025 16:04:19.746,51.455
515,16 Jul 2025 17:31:00.759,16 Jul 2025 17:41:58.212,657.453
516,16 Jul 2025 19:05:05.332,16 Jul 2025 19:15:34.753,629.421
517,17 Jul 2025 17:12:46.996,17 Jul 2025 17:23:02.414,615.418
518,17 Jul 2025 18:45:56.302,17 Jul 2025 18:57:05.354,669.053
519,18 Jul 2025 16:54:45.606,18 Jul 2025 17:04:00.304,554.698
520,18 Jul 2025 18:26:59.582,18 Jul 2025 18:38:29.408,689.826
521,18 Jul 2025 20:04:52.597,18 Jul 2025 20:09:46.256,293.659
522,19 Jul 2025 16:36:59.575,19 Jul 2025 16:44:49.097,469.522
523,19 Jul 2025 18:08:13.855,19 Jul 2025 18:19:48.150,694.295
524,19 Jul 2025 19:44:28.142,19 Jul 2025 19:52:13.529,465.387
525,20 Jul 2025 16:19:36.772,20 Jul 2025 16:25:21.158,344.386
526,20 Jul 2025 17:49:38.550,20 Jul 2025 18:01:02.164,683.614
527,20 Jul 2025 19:24:43.103,20 Jul 2025 19:34:07.966,564.863
528,21 Jul 2025 16:03:35.054,21 Jul 2025 16:04:38.835,63.782
529,21 Jul 2025 17:31:13.673,21 Jul 2025 17:42:11.524,657.850
530,21 Jul 2025 19:05:18.913,21 Jul 2025 19:15:47.736,628.823
531,22 Jul 2025 17:12:59.775,22 Jul 2025 17:23:15.792,616.016
532,22 Jul 2025 18:46:09.725,22 Jul 2025 18:57:18.427,668.702
533,23 Jul 2025 16:54:58.227,23 Jul 2025 17:04:13.768,555.541
534,23 Jul 2025 18:27:12.871,23 Jul 2025 18:38:42.549,689.679
535,23 Jul 2025 20:05:07.458,23 Jul 2025 20:09:58.187,290.730
536,24 Jul 2025 16:37:11.985,24 Jul 2025 16:45:02.697,470.712
537,24 Jul 2025 18:08:27.018,24 Jul 2025 18:20:01.350,694.332
538,24 Jul 2025 19:44:42.235,24 Jul 2025 19:52:26.147,463.912
539,25 Jul 2025 16:19:48.812,25 Jul 2025 16:25:35.050,346.239
540,25 Jul 2025 17:49:51.591,25 Jul 2025 18:01:15.418,683.827
541,25 Jul 2025 19:24:56.887,25 Jul 2025 19:34:20.818,563.930
542,26 Jul 2025 16:03:42.839,26 Jul 2025 16:04:56.902,74.063
543,26 Jul 2025 17:31:26.589,26 Jul 2025 17:42:24.834,658.245
544,26 Jul 2025 19:05:32.495,26 Jul 2025 19:16:00.718,628.223
545,27 Jul 2025 17:13:12.555,27 Jul 2025 17:23:29.166,616.611
546,27 Jul 2025 18:46:23.149,27 Jul 2025 18:57:31.498,668.349
547,28 Jul 2025 16:55:10.848,28 Jul 2025 17:04:27.228,556.380
548,28 Jul 2025 18:27:26.158,28 Jul 2025 18:38:55.688,689.530
549,28 Jul 2025 20:05:22.333,28 Jul 2025 20:10:10.101,287.768
550,29 Jul 2025 16:37:24.396,29 Jul 2025 16:45:16.292,471.896
551,29 Jul 2025 18:08:40.180,29 Jul 2025 18:20:14.547,694.366
552,29 Jul 2025 19:44:56.331,29 Jul 2025 19:52:38.758,462.427
553,30 Jul 2025 16:20:00.855,30 Jul 2025 16:25:48.936,348.081
554,30 Jul 2025 17:50:04.632,30 Jul 2025 18:01:28.670,684.038
555,30 Jul 2025 19:25:10.673,30 Jul 2025 19:34:33.665,562.992
556,31 Jul 2025 16:03:51.252,31 Jul 2025 16:05:14.340,83.089
557,31 Jul 2025 17:31:39.505,31 Jul 2025 17:42:38.142,658.637
558,31 Jul 2025 19:05:46.078,31 Jul 2025 19:16:13.697,627.619
559,1 Aug 2025 17:13:25.336,1 Aug 2025 17:23:42.540,617.204
560,1 Aug 2025 18:46:36.569,1 Aug 2025 18:57:44.566,667.997
561,2 Aug 2025 16:55:23.471,2 Aug 2025 17:04:40.689,557.217
562,2 Aug 2025 18:27:39.448,2 Aug 2025 18:39:08.826,689.378
563,2 Aug 2025 20:05:37.231,2 Aug 2025 20:10:21.991,284.760
564,3 Aug 2025 16:37:36.810,3 Aug 2025 16:45:29.887,473.078
565,3 Aug 2025 18:08:53.344,3 Aug 2025 18:20:27.743,694.399
566,3 Aug 2025 19:45:10.433,3 Aug 2025 19:52:51.364,460.931
567,4 Aug 2025 16:20:12.904,4 Aug 2025 16:26:02.819,349.915
568,4 Aug 2025 17:50:17.675,4 Aug 2025 18:01:41.922,684.247
569,4 Aug 2025 19:25:24.462,4 Aug 2025 19:34:46.510,562.047
570,5 Aug 2025 16:04:00.108,5 Aug 2025 16:05:31.335,91.227
571,5 Aug 2025 17:31:52.423,5 Aug 2025 17:42:51.451,659.028
572,5 Aug 2025 19:05:59.664,5 Aug 2025 19:16:26.675,627.012
573,6 Aug 2025 17:13:38.119,6 Aug 2025 17:23:55.914,617.795
574,6 Aug 2025 18:46:49.997,6 Aug 2025 18:57:57.634,667.638
575,7 Aug 2025 16:55:36.096,7 Aug 2025 17:04:54.148,558.052
576,7 Aug 2025 18:27:52.739,7 Aug 2025 18:39:21.962,689.223
577,7 Aug 2025 20:05:52.149,7 Aug 2025 20:10:33.862,281.714
578,8 Aug 2025 16:37:49.230,8 Aug 2025 16:45:43.476,474.246
579,8 Aug 2025 18:09:06.508,8 Aug 2025 18:20:40.944,694.436
580,8 Aug 2025 19:45:24.544,8 Aug 2025 19:53:03.966,459.422
581,9 Aug 2025 16:20:24.961,9 Aug 2025 16:26:16.695,351.734
582,9 Aug 2025 17:50:30.719,9 Aug 2025 18:01:55.173,684.454
583,9 Aug 2025 19:25:38.255,9 Aug 2025 19:34:59.353,561.098
584,10 Aug 2025 16:04:09.310,10 Aug 2025 16:05:47.982,98.672
585,10 Aug 2025 17:32:05.343,10 Aug 2025 17:43:04.756,659.413
586,10 Aug 2025 19:06:13.250,10 Aug 2025 19:16:39.654,626.404
587,11 Aug 2025 17:13:50.904,11 Aug 2025 17:24:09.286,618.382
588,11 Aug 2025 18:47:03.428,11 Aug 2025 18:58:10.701,667.273
589,12 Aug 2025 16:55:48.722,12 Aug 2025 17:05:07.605,558.882
590,12 Aug 2025 18:28:06.029,12 Aug 2025 18:39:35.097,689.068
591,12 Aug 2025 20:06:07.085,12 Aug 2025 20:10:45.714,278.629
592,13 Aug 2025 16:38:01.649,13 Aug 2025 16:45:57.066,475.416
593,13 Aug 2025 18:09:19.674,13 Aug 2025 18:20:54.138,694.464
594,13 Aug 2025 19:45:38.654,13 Aug 2025 19:53:16.563,457.909
595,14 Aug 2025 16:20:37.022,14 Aug 2025 16:26:30.565,353.543
596,14 Aug 2025 17:50:43.763,14 Aug 2025 18:02:08.422,684.659
597,14 Aug 2025 19:25:52.047,14 Aug 2025 19:35:12.193,560.146
598,15 Aug 2025 16:04:18.769,15 Aug 2025 16:06:04.378,105.610
599,15 Aug 2025 17:32:18.262,15 Aug 2025 17:43:18.062,659.800
600,15 Aug 2025 19:06:26.839,15 Aug 2025 19:16:52.625,625.787
601,16 Aug 2025 17:14:03.688,16 Aug 2025 17:24:22.657,618.969
602,16 Aug 2025 18:47:16.856,16 Aug 2025 18:58:23.765,666.909
603,17 Aug 2025 16:56:01.350,17 Aug 2025 17:05:21.061,559.711
604,17 Aug 2025 18:28:19.322,17 Aug 2025 18:39:48.231,688.908
605,17 Aug 2025 20:06:22.046,17 Aug 2025 20:10:57.542,275.496
606,18 Aug 2025 16:38:14.071,18 Aug 2025 16:46:10.655,476.584
607,18 Aug 2025 18:09:32.842,18 Aug 2025 18:21:07.332,694.490
608,18 Aug 2025 19:45:52.771,18 Aug 2025 19:53:29.154,456.383
609,19 Aug 2025 16:20:49.089,19 Aug 2025 16:26:44.432,355.343
610,19 Aug 2025 17:50:56.809,19 Aug 2025 18:02:21.671,684.862
611,19 Aug 2025 19:26:05.844,19 Aug 2025 19:35:25.030,559.186
612,20 Aug 2025 16:04:28.445,20 Aug 2025 16:06:20.552,112.107
613,20 Aug 2025 17:32:31.184,20 Aug 2025 17:43:31.369,660.184
614,20 Aug 2025 19:06:40.430,20 Aug 2025 19:17:05.599,625.169
615,21 Aug 2025 17:14:16.472,21 Aug 2025 17:24:36.028,619.556
616,21 Aug 2025 18:47:30.290,21 Aug 2025 18:58:36.831,666.541
617,22 Aug 2025 16:56:13.980,22 Aug 2025 17:05:34.516,560.536
618,22 Aug 2025 18:28:32.617,22 Aug 2025 18:40:01.363,688.747
619,22 Aug 2025 20:06:37.027,22 Aug 2025 20:11:09.351,272.324
620,23 Aug 2025 16:38:26.496,23 Aug 2025 16:46:24.241,477.745
621,23 Aug 2025 18:09:46.011,23 Aug 2025 18:21:20.525,694.514
622,23 Aug 2025 19:46:06.892,23 Aug 2025 19:53:41.742,454.851
623,24 Aug 2025 16:21:01.162,24 Aug 2025 16:26:58.290,357.128
624,24 Aug 2025 17:51:09.856,24 Aug 2025 18:02:34.918,685.062
625,24 Aug 2025 19:26:19.643,24 Aug 2025 19:35:37.866,558.223
626,25 Aug 2025 16:04:38.307,25 Aug 2025 16:06:36.542,118.235
627,25 Aug 2025 17:32:44.106,25 Aug 2025 17:43:44.672,660.566
628,25 Aug 2025 19:06:54.021,25 Aug 2025 19:17:18.569,624.548
629,26 Aug 2025 17:14:29.259,26 Aug 2025 17:24:49.396,620.137
630,26 Aug 2025 18:47:43.717,26 Aug 2025 18:58:49.896,666.179
631,27 Aug 2025 16:56:26.608,27 Aug 2025 17:05:47.964,561.356
632,27 Aug 2025 18:28:45.912,27 Aug 2025 18:40:14.499,688.587
633,27 Aug 2025 20:06:52.025,27 Aug 2025 20:11:21.134,269.108
634,28 Aug 2025 16:38:38.921,28 Aug 2025 16:46:37.824,478.903
635,28 Aug 2025 18:09:59.180,28 Aug 2025 18:21:33.716,694.535
636,28 Aug 2025 19:46:21.016,28 Aug 2025 19:53:54.324,453.308
637,29 Aug 2025 16:21:13.239,29 Aug 2025 16:27:12.144,358.906
638,29 Aug 2025 17:51:22.903,29 Aug 2025 18:02:48.164,685.261
639,29 Aug 2025 19:26:33.444,29 Aug 2025 19:35:50.697,557.253
640,30 Aug 2025 16:04:48.317,30 Aug 2025 16:06:52.388,124.071
641,30 Aug 2025 17:32:57.029,30 Aug 2025 17:43:57.975,660.946
642,30 Aug 2025 19:07:07.615,30 Aug 2025 19:17:31.537,623.923
643,31 Aug 2025 17:14:42.047,31 Aug 2025 17:25:02.763,620.716
644,31 Aug 2025 18:47:57.150,31 Aug 2025 18:59:02.956,665.806
645,1 Sep 2025 16:56:39.241,1 Sep 2025 17:06:01.416,562.175
646,1 Sep 2025 18:28:59.209,1 Sep 2025 18:40:27.630,688.421
647,1 Sep 2025 20:07:07.055,1 Sep 2025 20:11:32.894,265.839
648,2 Sep 2025 16:38:51.350,2 Sep 2025 16:46:51.407,480.056
649,2 Sep 2025 18:10:12.351,2 Sep 2025 18:21:46.906,694.555
650,2 Sep 2025 19:46:35.147,2 Sep 2025 19:54:06.901,451.754
651,3 Sep 2025 16:21:25.321,3 Sep 2025 16:27:25.994,360.673
652,3 Sep 2025 17:51:35.953,3 Sep 2025 18:03:01.410,685.457
653,3 Sep 2025 19:26:47.248,3 Sep 2025 19:36:03.527,556.279
654,4 Sep 2025 16:04:58.465,4 Sep 2025 16:07:08.097,129.633
655,4 Sep 2025 17:33:09.954,4 Sep 2025 17:44:11.279,661.325
656,4 Sep 2025 19:07:21.206,4 Sep 2025 19:17:44.507,623.301
657,5 Sep 2025 17:14:54.839,5 Sep 2025 17:25:16.130,621.291
658,5 Sep 2025 18:48:10.590,5 Sep 2025 18:59:16.013,665.423
659,6 Sep 2025 16:56:51.881,6 Sep 2025 17:06:14.870,562.990
660,6 Sep 2025 18:29:12.507,6 Sep 2025 18:40:40.758,688.251
661,6 Sep 2025 20:07:22.106,6 Sep 2025 20:11:44.630,262.524
662,7 Sep 2025 16:39:03.783,7 Sep 2025 16:47:04.985,481.202
663,7 Sep 2025 18:10:25.523,7 Sep 2025 18:22:00.096,694.573
664,7 Sep 2025 19:46:49.282,7 Sep 2025 19:54:19.475,450.193
665,8 Sep 2025 16:21:37.413,8 Sep 2025 16:27:39.836,362.423
666,8 Sep 2025 17:51:49.002,8 Sep 2025 18:03:14.654,685.652
667,8 Sep 2025 19:27:01.054,8 Sep 2025 19:36:16.354,555.300
668,9 Sep 2025 16:05:08.730,9 Sep 2025 16:07:23.683,134.953
669,9 Sep 2025 17:33:22.879,9 Sep 2025 17:44:24.579,661.700
670,9 Sep 2025 19:07:34.802,9 Sep 2025 19:17:57.472,622.670
671,10 Sep 2025 17:15:07.630,10 Sep 2025 17:25:29.494,621.864
672,10 Sep 2025 18:48:24.025,10 Sep 2025 18:59:29.071,665.045
673,11 Sep 2025 16:57:04.516,11 Sep 2025 17:06:28.318,563.802
674,11 Sep 2025 18:29:25.805,11 Sep 2025 18:40:53.885,688.080
675,11 Sep 2025 20:07:37.182,11 Sep 2025 20:11:56.337,259.155
676,12 Sep 2025 16:39:16.216,12 Sep 2025 16:47:18.561,482.345
677,12 Sep 2025 18:10:38.694,12 Sep 2025 18:22:13.283,694.588
678,12 Sep 2025 19:47:03.421,12 Sep 2025 19:54:32.042,448.620
679,13 Sep 2025 16:21:49.508,13 Sep 2025 16:27:53.675,364.166
680,13 Sep 2025 17:52:02.052,13 Sep 2025 18:03:27.896,685.844
681,13 Sep 2025 19:27:14.860,13 Sep 2025 19:36:29.177,554.318
682,14 Sep 2025 16:05:19.093,14 Sep 2025 16:07:39.174,140.081
683,14 Sep 2025 17:33:35.805,14 Sep 2025 17:44:37.879,662.074
684,14 Sep 2025 19:07:48.401,14 Sep 2025 19:18:10.435,622.034
685,15 Sep 2025 17:15:20.422,15 Sep 2025 17:25:42.858,622.436
686,15 Sep 2025 18:48:37.463,15 Sep 2025 18:59:42.127,664.664
687,16 Sep 2025 16:57:17.154,16 Sep 2025 17:06:41.765,564.612
688,16 Sep 2025 18:29:39.103,16 Sep 2025 18:41:07.012,687.909
689,16 Sep 2025 20:07:52.287,16 Sep 2025 20:12:08.021,255.734
690,17 Sep 2025 16:39:28.652,17 Sep 2025 16:47:32.136,483.484
691,17 Sep 2025 18:10:51.869,17 Sep 2025 18:22:26.470,694.601
692,17 Sep 2025 19:47:17.567,17 Sep 2025 19:54:44.605,447.037
693,18 Sep 2025 16:22:01.608,18 Sep 2025 16:28:07.508,365.899
694,18 Sep 2025 17:52:15.105,18 Sep 2025 18:03:41.139,686.034
695,18 Sep 2025 19:27:28.671,18 Sep 2025 19:36:42.000,553.328
696,19 Sep 2025 16:05:29.555,19 Sep 2025 16:07:54.562,145.007
697,19 Sep 2025 17:33:48.733,19 Sep 2025 17:44:51.178,662.445
698,19 Sep 2025 19:08:02.001,19 Sep 2025 19:18:23.397,621.396
699,20 Sep 2025 17:15:33.216,20 Sep 2025 17:25:56.220,623.004
700,20 Sep 2025 18:48:50.901,20 Sep 2025 18:59:55.182,664.281
701,21 Sep 2025 16:57:29.792,21 Sep 2025 17:06:55.210,565.418
702,21 Sep 2025 18:29:52.404,21 Sep 2025 18:41:20.139,687.734
703,21 Sep 2025 20:08:07.416,21 Sep 2025 20:12:19.680,252.263
704,22 Sep 2025 16:39:41.092,22 Sep 2025 16:47:45.706,484.614
705,22 Sep 2025 18:11:05.042,22 Sep 2025 18:22:39.655,694.613
706,22 Sep 2025 19:47:31.716,22 Sep 2025 19:54:57.163,445.447
707,23 Sep 2025 16:22:13.711,23 Sep 2025 16:28:21.330,367.619
708,23 Sep 2025 17:52:28.157,23 Sep 2025 18:03:54.379,686.221
709,23 Sep 2025 19:27:42.484,23 Sep 2025 19:36:54.819,552.335
710,24 Sep 2025 16:05:40.098,24 Sep 2025 16:08:09.873,149.774
711,24 Sep 2025 17:34:01.661,24 Sep 2025 17:45:04.474,662.813
712,24 Sep 2025 19:08:15.602,24 Sep 2025 19:18:36.357,620.755
713,25 Sep 2025 17:15:46.011,25 Sep 2025 17:26:09.580,623.569
714,25 Sep 2025 18:49:04.339,25 Sep 2025 19:00:08.235,663.896
715,26 Sep 2025 16:57:42.432,26 Sep 2025 17:07:08.652,566.220
716,26 Sep 2025 18:30:05.705,26 Sep 2025 18:41:33.262,687.557
717,26 Sep 2025 20:08:22.574,26 Sep 2025 20:12:31.307,248.733
718,27 Sep 2025 16:39:53.532,27 Sep 2025 16:47:59.274,485.742
719,27 Sep 2025 18:11:18.217,27 Sep 2025 18:22:52.839,694.622
720,27 Sep 2025 19:47:45.869,27 Sep 2025 19:55:09.714,443.845
721,28 Sep 2025 16:22:25.821,28 Sep 2025 16:28:35.152,369.331
722,28 Sep 2025 17:52:41.210,28 Sep 2025 18:04:07.618,686.408
723,28 Sep 2025 19:27:56.299,28 Sep 2025 19:37:07.634,551.335
724,29 Sep 2025 16:05:50.716,29 Sep 2025 16:08:25.103,154.386
725,29 Sep 2025 17:34:14.590,29 Sep 2025 17:45:17.765,663.175
726,29 Sep 2025 19:08:29.204,29 Sep 2025 19:18:49.314,620.109
727,30 Sep 2025 17:15:58.807,30 Sep 2025 17:26:22.939,624.132
728,30 Sep 2025 18:49:17.780,30 Sep 2025 19:00:21.287,663.507
729,1 Oct 2025 16:57:55.074,1 Oct 2025 17:07:22.094,567.020
730,1 Oct 2025 18:30:19.008,1 Oct 2025 18:41:46.385,687.377
731,1 Oct 2025 20:08:37.763,1 Oct 2025 20:12:42.907,245.144
732,2 Oct 2025 16:40:05.976,2 Oct 2025 16:48:12.841,486.865
733,2 Oct 2025 18:11:31.394,2 Oct 2025 18:23:06.022,694.629
734,2 Oct 2025 19:48:00.029,2 Oct 2025 19:55:22.262,442.233
735,3 Oct 2025 16:22:37.938,3 Oct 2025 16:28:48.969,371.031
736,3 Oct 2025 17:52:54.265,3 Oct 2025 18:04:20.857,686.591
737,3 Oct 2025 19:28:10.118,3 Oct 2025 19:37:20.449,550.331
738,4 Oct 2025 16:06:01.409,4 Oct 2025 16:08:40.266,158.857
739,4 Oct 2025 17:34:27.521,4 Oct 2025 17:45:31.060,663.539
740,4 Oct 2025 19:08:42.809,4 Oct 2025 19:19:02.271,619.461
741,5 Oct 2025 17:16:11.605,5 Oct 2025 17:26:36.297,624.692
742,5 Oct 2025 18:49:31.219,5 Oct 2025 19:00:34.338,663.119
743,6 Oct 2025 16:58:07.718,6 Oct 2025 17:07:35.532,567.814
744,6 Oct 2025 18:30:32.311,6 Oct 2025 18:41:59.507,687.196
745,6 Oct 2025 20:08:52.980,6 Oct 2025 20:12:54.478,241.498
746,7 Oct 2025 16:40:18.422,7 Oct 2025 16:48:26.403,487.981
747,7 Oct 2025 18:11:44.574,7 Oct 2025 18:23:19.199,694.625
748,7 Oct 2025 19:48:14.192,7 Oct 2025 19:55:34.805,440.614
749,8 Oct 2025 16:22:50.062,8 Oct 2025 16:29:02.780,372.717
750,8 Oct 2025 17:53:07.318,8 Oct 2025 18:04:34.093,686.774
751,8 Oct 2025 19:28:23.937,8 Oct 2025 19:37:33.260,549.323
752,9 Oct 2025 16:06:12.165,9 Oct 2025 16:08:55.364,163.199
753,9 Oct 2025 17:34:40.451,9 Oct 2025 17:45:44.352,663.901
754,9 Oct 2025 19:08:56.414,9 Oct 2025 19:19:15.224,618.809
755,10 Oct 2025 17:16:24.402,10 Oct 2025 17:26:49.652,625.251
756,10 Oct 2025 18:49:44.662,10 Oct 2025 19:00:47.386,662.724
757,11 Oct 2025 16:58:20.362,11 Oct 2025 17:07:48.970,568.607
758,11 Oct 2025 18:30:45.615,11 Oct 2025 18:42:12.627,687.012
759,11 Oct 2025 20:09:08.230,11 Oct 2025 20:13:06.013,237.783
760,12 Oct 2025 16:40:30.869,12 Oct 2025 16:48:39.964,489.095
761,12 Oct 2025 18:11:57.752,12 Oct 2025 18:23:32.380,694.628
762,12 Oct 2025 19:48:28.361,12 Oct 2025 19:55:47.341,438.981
763,13 Oct 2025 16:23:02.186,13 Oct 2025 16:29:16.586,374.400
764,13 Oct 2025 17:53:20.375,13 Oct 2025 18:04:47.328,686.954
765,13 Oct 2025 19:28:37.757,13 Oct 2025 19:37:46.068,548.311
766,14 Oct 2025 16:06:22.976,14 Oct 2025 16:09:10.403,167.427
767,14 Oct 2025 17:34:53.384,14 Oct 2025 17:45:57.644,664.260
768,14 Oct 2025 19:09:10.023,14 Oct 2025 19:19:28.176,618.154
769,15 Oct 2025 17:16:37.202,15 Oct 2025 17:27:03.008,625.806
770,15 Oct 2025 18:49:58.108,15 Oct 2025 19:01:00.434,662.326
771,16 Oct 2025 16:58:33.010,16 Oct 2025 17:08:02.406,569.396
772,16 Oct 2025 18:30:58.921,16 Oct 2025 18:42:25.749,686.829
773,16 Oct 2025 20:09:23.514,16 Oct 2025 20:13:17.519,234.005
774,17 Oct 2025 16:40:43.321,17 Oct 2025 16:48:53.522,490.201
775,17 Oct 2025 18:12:10.931,17 Oct 2025 18:23:45.560,694.629
776,17 Oct 2025 19:48:42.535,17 Oct 2025 19:55:59.875,437.340
777,18 Oct 2025 16:23:14.324,18 Oct 2025 16:29:30.385,376.061
778,18 Oct 2025 17:53:33.432,18 Oct 2025 18:05:00.563,687.131
779,18 Oct 2025 19:28:51.581,18 Oct 2025 19:37:58.875,547.293
780,19 Oct 2025 16:06:33.848,19 Oct 2025 16:09:25.386,171.538
781,19 Oct 2025 17:35:06.317,19 Oct 2025 17:46:10.934,664.617
782,19 Oct 2025 19:09:23.631,19 Oct 2025 19:19:41.128,617.496
783,20 Oct 2025 17:16:50.003,20 Oct 2025 17:27:16.361,626.358
784,20 Oct 2025 18:50:11.548,20 Oct 2025 19:01:13.481,661.933
785,21 Oct 2025 16:58:45.661,21 Oct 2025 17:08:15.839,570.178
786,21 Oct 2025 18:31:12.226,21 Oct 2025 18:42:38.867,686.641
787,21 Oct 2025 20:09:38.830,21 Oct 2025 20:13:28.991,230.161
788,22 Oct 2025 16:40:55.774,22 Oct 2025 16:49:07.076,491.302
789,22 Oct 2025 18:12:24.110,22 Oct 2025 18:23:58.737,694.627
790,22 Oct 2025 19:48:56.712,22 Oct 2025 19:56:12.407,435.695
791,23 Oct 2025 16:23:26.461,23 Oct 2025 16:29:44.177,377.716
792,23 Oct 2025 17:53:46.489,23 Oct 2025 18:05:13.796,687.307
793,23 Oct 2025 19:29:05.407,23 Oct 2025 19:38:11.678,546.271
794,24 Oct 2025 16:06:44.769,24 Oct 2025 16:09:40.316,175.547
795,24 Oct 2025 17:35:19.251,24 Oct 2025 17:46:24.222,664.971
796,24 Oct 2025 19:09:37.241,24 Oct 2025 19:19:54.076,616.835
797,25 Oct 2025 17:17:02.803,25 Oct 2025 17:27:29.712,626.908
798,25 Oct 2025 18:50:24.998,25 Oct 2025 19:01:26.528,661.530
799,26 Oct 2025 16:58:58.310,26 Oct 2025 17:08:29.267,570.956
800,26 Oct 2025 18:31:25.532,26 Oct 2025 18:42:51.986,686.454
801,26 Oct 2025 20:09:54.187,26 Oct 2025 20:13:40.424,226.237
802,27 Oct 2025 16:41:08.227,27 Oct 2025 16:49:20.628,492.401
803,27 Oct 2025 18:12:37.290,27 Oct 2025 18:24:11.914,694.624
804,27 Oct 2025 19:49:10.892,27 Oct 2025 19:56:24.924,434.032
805,28 Oct 2025 16:23:38.603,28 Oct 2025 16:29:57.966,379.363
806,28 Oct 2025 17:53:59.548,28 Oct 2025 18:05:27.028,687.481
807,28 Oct 2025 19:29:19.237,28 Oct 2025 19:38:24.479,545.242
808,29 Oct 2025 16:06:55.736,29 Oct 2025 16:09:55.199,179.463
809,29 Oct 2025 17:35:32.186,29 Oct 2025 17:46:37.510,665.324
810,29 Oct 2025 19:09:50.853,29 Oct 2025 19:20:07.024,616.170
811,30 Oct 2025 17:17:15.607,30 Oct 2025 17:27:43.063,627.455
812,30 Oct 2025 18:50:38.446,30 Oct 2025 19:01:39.572,661.126
813,31 Oct 2025 16:59:10.963,31 Oct 2025 17:08:42.697,571.734
814,31 Oct 2025 18:31:38.841,31 Oct 2025 18:43:05.102,686.261
815,31 Oct 2025 20:10:09.581,31 Oct 2025 20:13:51.820,222.239
816,1 Nov 2025 16:41:20.686,1 Nov 2025 16:49:34.178,493.491
817,1 Nov 2025 18:12:50.472,1 Nov 2025 18:24:25.090,694.618
818,1 Nov 2025 19:49:25.082,1 Nov 2025 19:56:37.448,432.366
819,2 Nov 2025 16:23:50.753,2 Nov 2025 16:30:11.745,380.992
820,2 Nov 2025 17:54:12.612,2 Nov 2025 18:05:40.263,687.651
821,2 Nov 2025 19:29:33.073,2 Nov 2025 19:38:37.278,544.205
822,3 Nov 2025 16:07:06.754,3 Nov 2025 16:10:10.036,183.281
823,3 Nov 2025 17:35:45.124,3 Nov 2025 17:46:50.797,665.673
824,3 Nov 2025 19:10:04.467,3 Nov 2025 19:20:19.969,615.502
825,4 Nov 2025 17:17:28.412,4 Nov 2025 17:27:56.411,627.999
826,4 Nov 2025 18:50:51.894,4 Nov 2025 19:01:52.615,660.720
827,5 Nov 2025 16:59:23.616,5 Nov 2025 17:08:56.128,572.513
828,5 Nov 2025 18:31:52.150,5 Nov 2025 18:43:18.214,686.064
829,5 Nov 2025 20:10:25.014,5 Nov 2025 20:14:03.176,218.162
830,6 Nov 2025 16:41:33.145,6 Nov 2025 16:49:47.723,494.578
831,6 Nov 2025 18:13:03.654,6 Nov 2025 18:24:38.265,694.611
832,6 Nov 2025 19:49:39.279,6 Nov 2025 19:56:49.960,430.681
833,7 Nov 2025 16:24:02.903,7 Nov 2025 16:30:25.526,382.623
834,7 Nov 2025 17:54:25.668,7 Nov 2025 18:05:53.489,687.821
835,7 Nov 2025 19:29:46.903,7 Nov 2025 19:38:50.075,543.172
836,8 Nov 2025 16:07:17.808,8 Nov 2025 16:10:24.827,187.019
837,8 Nov 2025 17:35:58.060,8 Nov 2025 17:47:04.081,666.021
838,8 Nov 2025 19:10:18.082,8 Nov 2025 19:20:32.914,614.832
839,9 Nov 2025 17:17:41.218,9 Nov 2025 17:28:09.758,628.541
840,9 Nov 2025 18:51:05.344,9 Nov 2025 19:02:05.655,660.311
841,10 Nov 2025 16:59:36.271,10 Nov 2025 17:09:09.555,573.285
842,10 Nov 2025 18:32:05.460,10 Nov 2025 18:43:31.327,685.867
843,10 Nov 2025 20:10:40.491,10 Nov 2025 20:14:14.486,213.995
844,11 Nov 2025 16:41:45.609,11 Nov 2025 16:50:01.269,495.660
845,11 Nov 2025 18:13:16.838,11 Nov 2025 18:24:51.438,694.601
846,11 Nov 2025 19:49:53.479,11 Nov 2025 19:57:02.467,428.988
847,12 Nov 2025 16:24:15.059,12 Nov 2025 16:30:39.300,384.240
848,12 Nov 2025 17:54:38.731,12 Nov 2025 18:06:06.719,687.988
849,12 Nov 2025 19:30:00.741,12 Nov 2025 19:39:02.870,542.129
850,13 Nov 2025 16:07:28.905,13 Nov 2025 16:10:39.587,190.682
851,13 Nov 2025 17:36:11.000,13 Nov 2025 17:47:17.371,666.371
852,13 Nov 2025 19:10:31.704,13 Nov 2025 19:20:45.858,614.153
853,14 Nov 2025 17:17:54.026,14 Nov 2025 17:28:23.105,629.079
854,14 Nov 2025 18:51:18.796,14 Nov 2025 19:02:18.696,659.900
855,15 Nov 2025 16:59:48.929,15 Nov 2025 17:09:22.980,574.052
856,15 Nov 2025 18:32:18.772,15 Nov 2025 18:43:44.441,685.669
857,15 Nov 2025 20:10:56.011,15 Nov 2025 20:14:25.756,209.745
858,16 Nov 2025 16:41:58.077,16 Nov 2025 16:50:14.810,496.733
859,16 Nov 2025 18:13:30.023,16 Nov 2025 18:25:04.614,694.591
860,16 Nov 2025 19:50:07.683,16 Nov 2025 19:57:14.971,427.288
861,17 Nov 2025 16:24:27.229,17 Nov 2025 16:30:53.065,385.836
862,17 Nov 2025 17:54:51.794,17 Nov 2025 18:06:19.947,688.153
863,17 Nov 2025 19:30:14.584,17 Nov 2025 19:39:15.663,541.079
864,18 Nov 2025 16:07:40.043,18 Nov 2025 16:10:54.300,194.258
865,18 Nov 2025 17:36:23.940,18 Nov 2025 17:47:30.653,666.713
866,18 Nov 2025 19:10:45.322,18 Nov 2025 19:20:58.799,613.477
867,19 Nov 2025 17:18:06.835,19 Nov 2025 17:28:36.449,629.614
868,19 Nov 2025 18:51:32.248,19 Nov 2025 19:02:31.735,659.487
869,20 Nov 2025 17:00:01.588,20 Nov 2025 17:09:36.400,574.812
870,20 Nov 2025 18:32:32.084,20 Nov 2025 18:43:57.552,685.468
871,20 Nov 2025 20:11:11.577,20 Nov 2025 20:14:36.977,205.401
872,21 Nov 2025 16:42:10.546,21 Nov 2025 16:50:28.348,497.802
873,21 Nov 2025 18:13:43.208,21 Nov 2025 18:25:17.785,694.576
874,21 Nov 2025 19:50:21.892,21 Nov 2025 19:57:27.469,425.577
875,22 Nov 2025 16:24:39.394,22 Nov 2025 16:31:06.827,387.433
876,22 Nov 2025 17:55:04.858,22 Nov 2025 18:06:33.173,688.315
877,22 Nov 2025 19:30:28.421,22 Nov 2025 19:39:28.453,540.032
878,23 Nov 2025 16:07:51.213,23 Nov 2025 16:11:08.981,197.767
879,23 Nov 2025 17:36:36.881,23 Nov 2025 17:47:43.935,667.054
880,23 Nov 2025 19:10:58.942,23 Nov 2025 19:21:11.739,612.797
881,24 Nov 2025 17:18:19.645,24 Nov 2025 17:28:49.792,630.147
882,24 Nov 2025 18:51:45.701,24 Nov 2025 19:02:44.773,659.071
883,25 Nov 2025 17:00:14.249,25 Nov 2025 17:09:49.821,575.572
884,25 Nov 2025 18:32:45.398,25 Nov 2025 18:44:10.663,685.265
885,25 Nov 2025 20:11:27.197,25 Nov 2025 20:14:48.147,200.949
886,26 Nov 2025 16:42:23.018,26 Nov 2025 16:50:41.885,498.868
887,26 Nov 2025 18:13:56.396,26 Nov 2025 18:25:30.955,694.559
888,26 Nov 2025 19:50:36.108,26 Nov 2025 19:57:39.960,423.853
889,27 Nov 2025 16:24:51.573,27 Nov 2025 16:31:20.581,389.008
890,27 Nov 2025 17:55:17.924,27 Nov 2025 18:06:46.402,688.477
891,27 Nov 2025 19:30:42.271,27 Nov 2025 19:39:41.242,538.971
892,28 Nov 2025 16:08:02.418,28 Nov 2025 16:11:23.628,201.210
893,28 Nov 2025 17:36:49.821,28 Nov 2025 17:47:57.216,667.395
894,28 Nov 2025 19:11:12.565,28 Nov 2025 19:21:24.676,612.111
895,29 Nov 2025 17:18:32.459,29 Nov 2025 17:29:03.132,630.673
896,29 Nov 2025 18:51:59.156,29 Nov 2025 19:02:57.808,658.652
897,30 Nov 2025 17:00:26.913,30 Nov 2025 17:10:03.244,576.331
898,30 Nov 2025 18:32:58.714,30 Nov 2025 18:44:23.773,685.059
899,30 Nov 2025 20:11:42.873,30 Nov 2025 20:14:59.263,196.391
900,1 Dec 2025 16:42:35.493,1 Dec 2025 16:50:55.419,499.926
901,1 Dec 2025 18:14:09.585,1 Dec 2025 18:25:44.125,694.540
902,1 Dec 2025 19:50:50.329,1 Dec 2025 19:57:52.449,422.120
903,2 Dec 2025 16:25:03.754,2 Dec 2025 16:31:34.331,390.578
904,2 Dec 2025 17:55:30.991,2 Dec 2025 18:06:59.627,688.636
905,2 Dec 2025 19:30:56.118,2 Dec 2025 19:39:54.029,537.911
906,3 Dec 2025 16:08:13.659,3 Dec 2025 16:11:38.239,204.580
907,3 Dec 2025 17:37:02.765,3 Dec 2025 17:48:10.495,667.731
908,3 Dec 2025 19:11:26.189,3 Dec 2025 19:21:37.614,611.425
909,4 Dec 2025 17:18:45.272,4 Dec 2025 17:29:16.475,631.203
910,4 Dec 2025 18:52:12.614,4 Dec 2025 19:03:10.843,658.230
911,5 Dec 2025 17:00:39.577,5 Dec 2025 17:10:16.661,577.084
912,5 Dec 2025 18:33:12.030,5 Dec 2025 18:44:36.881,684.851
913,5 Dec 2025 20:11:58.603,5 Dec 2025 20:15:10.322,191.719
914,6 Dec 2025 16:42:47.970,6 Dec 2025 16:51:08.950,500.980
915,6 Dec 2025 18:14:22.774,6 Dec 2025 18:25:57.294,694.520
916,6 Dec 2025 19:51:04.554,6 Dec 2025 19:58:04.933,420.379
917,7 Dec 2025 16:25:15.938,7 Dec 2025 16:31:48.079,392.141
918,7 Dec 2025 17:55:44.063,7 Dec 2025 18:07:12.851,688.787
919,7 Dec 2025 19:31:09.968,7 Dec 2025 19:40:06.813,536.844
920,8 Dec 2025 16:08:24.927,8 Dec 2025 16:11:52.825,207.898
921,8 Dec 2025 17:37:15.710,8 Dec 2025 17:48:23.774,668.064
922,8 Dec 2025 19:11:39.815,8 Dec 2025 19:21:50.550,610.735
923,9 Dec 2025 17:18:58.087,9 Dec 2025 17:29:29.812,631.725
924,9 Dec 2025 18:52:26.071,9 Dec 2025 19:03:23.879,657.808
925,10 Dec 2025 17:00:52.244,10 Dec 2025 17:10:30.076,577.831
926,10 Dec 2025 18:33:25.349,10 Dec 2025 18:44:49.990,684.642
927,10 Dec 2025 20:12:14.401,10 Dec 2025 20:15:21.318,186.917
928,11 Dec 2025 16:43:00.451,11 Dec 2025 16:51:22.481,502.029
929,11 Dec 2025 18:14:35.966,11 Dec 2025 18:26:10.464,694.498
930,11 Dec 2025 19:51:18.788,11 Dec 2025 19:58:17.412,418.624
931,12 Dec 2025 16:25:28.130,12 Dec 2025 16:32:01.822,393.692
932,12 Dec 2025 17:55:57.134,12 Dec 2025 18:07:26.071,688.937
933,12 Dec 2025 19:31:23.823,12 Dec 2025 19:40:19.596,535.774
934,13 Dec 2025 16:08:36.229,13 Dec 2025 16:12:07.378,211.150
935,13 Dec 2025 17:37:28.658,13 Dec 2025 17:48:37.053,668.395
936,13 Dec 2025 19:11:53.444,13 Dec 2025 19:22:03.487,610.043
937,14 Dec 2025 17:19:10.905,14 Dec 2025 17:29:43.151,632.246
938,14 Dec 2025 18:52:39.532,14 Dec 2025 19:03:36.915,657.382
939,15 Dec 2025 17:01:04.914,15 Dec 2025 17:10:43.490,578.576
940,15 Dec 2025 18:33:38.668,15 Dec 2025 18:45:03.099,684.430
941,15 Dec 2025 20:12:30.262,15 Dec 2025 20:15:32.255,181.993
942,16 Dec 2025 16:43:12.935,16 Dec 2025 16:51:36.007,503.072
943,16 Dec 2025 18:14:49.158,16 Dec 2025 18:26:23.632,694.474
944,16 Dec 2025 19:51:33.027,16 Dec 2025 19:58:29.887,416.860
945,17 Dec 2025 16:25:40.326,17 Dec 2025 16:32:15.558,395.232
946,17 Dec 2025 17:56:10.204,17 Dec 2025 18:07:39.296,689.091
947,17 Dec 2025 19:31:37.678,17 Dec 2025 19:40:32.378,534.700
948,18 Dec 2025 16:08:47.558,18 Dec 2025 16:12:21.902,214.343
949,18 Dec 2025 17:37:41.607,18 Dec 2025 17:48:50.330,668.723
950,18 Dec 2025 19:12:07.071,18 Dec 2025 19:22:16.422,609.351
951,19 Dec 2025 17:19:23.724,19 Dec 2025 17:29:56.488,632.765
952,19 Dec 2025 18:52:52.994,19 Dec 2025 19:03:49.948,656.954
953,20 Dec 2025 17:01:17.585,20 Dec 2025 17:10:56.903,579.318
954,20 Dec 2025 18:33:51.989,20 Dec 2025 18:45:16.206,684.217
955,20 Dec 2025 20:12:46.198,20 Dec 2025 20:15:43.115,176.916
956,21 Dec 2025 16:43:25.421,21 Dec 2025 16:51:49.532,504.110
957,21 Dec 2025 18:15:02.352,21 Dec 2025 18:26:36.800,694.447
958,21 Dec 2025 19:51:47.273,21 Dec 2025 19:58:42.356,415.084
959,22 Dec 2025 16:25:52.526,22 Dec 2025 16:32:29.292,396.766
960,22 Dec 2025 17:56:23.277,22 Dec 2025 18:07:52.520,689.244
961,22 Dec 2025 19:31:51.533,22 Dec 2025 19:40:45.157,533.624
962,23 Dec 2025 16:08:58.913,23 Dec 2025 16:12:36.403,217.490
963,23 Dec 2025 17:37:54.558,23 Dec 2025 17:49:03.607,669.049
964,23 Dec 2025 19:12:20.706,23 Dec 2025 19:22:29.360,608.655
965,24 Dec 2025 17:19:36.545,24 Dec 2025 17:30:09.826,633.281
966,24 Dec 2025 18:53:06.457,24 Dec 2025 19:04:02.982,656.525
967,25 Dec 2025 17:01:30.257,25 Dec 2025 17:11:10.318,580.061
968,25 Dec 2025 18:34:05.309,25 Dec 2025 18:45:29.317,684.008
969,25 Dec 2025 20:13:02.220,25 Dec 2025 20:15:53.899,171.678
970,26 Dec 2025 16:43:37.912,26 Dec 2025 16:52:03.056,505.144
971,26 Dec 2025 18:15:15.549,26 Dec 2025 18:26:49.968,694.419
972,26 Dec 2025 19:52:01.525,26 Dec 2025 19:58:54.822,413.297
973,27 Dec 2025 16:26:04.734,27 Dec 2025 16:32:43.022,398.288
974,27 Dec 2025 17:56:36.352,27 Dec 2025 18:08:05.743,689.391
975,27 Dec 2025 19:32:05.398,27 Dec 2025 19:40:57.935,532.537
976,28 Dec 2025 16:09:10.297,28 Dec 2025 16:12:50.878,220.580
977,28 Dec 2025 17:38:07.511,28 Dec 2025 17:49:16.884,669.373
