3UCubedIntegratedSim/Reports & Plots/Comms/UNH/Sat 4 Comms.csv

"Access","Start Time (UTCG)","Stop Time (UTCG)","Duration (sec)"
1,1 Jan 2025 19:16:31.033,1 Jan 2025 19:26:56.523,625.490
2,1 Jan 2025 20:49:51.588,1 Jan 2025 21:00:54.150,662.562
3,2 Jan 2025 08:18:15.967,2 Jan 2025 08:29:01.394,645.427
4,2 Jan 2025 09:52:01.820,2 Jan 2025 10:02:46.722,644.901
5,2 Jan 2025 18:58:26.930,2 Jan 2025 19:07:55.869,568.939
6,2 Jan 2025 20:30:52.480,2 Jan 2025 20:42:19.417,686.937
7,2 Jan 2025 22:09:15.972,2 Jan 2025 22:13:12.132,236.160
8,3 Jan 2025 07:59:52.097,3 Jan 2025 08:09:42.981,590.884
9,3 Jan 2025 09:33:09.444,3 Jan 2025 09:44:25.651,676.207
10,3 Jan 2025 11:09:12.665,3 Jan 2025 11:13:54.110,281.445
11,3 Jan 2025 18:40:37.347,3 Jan 2025 18:48:46.903,489.556
12,3 Jan 2025 20:12:04.555,3 Jan 2025 20:23:39.194,694.640
13,3 Jan 2025 21:48:35.622,3 Jan 2025 21:55:53.896,438.274
14,4 Jan 2025 07:41:40.305,4 Jan 2025 07:50:06.412,506.107
15,4 Jan 2025 09:14:21.820,4 Jan 2025 09:25:54.029,692.210
16,4 Jan 2025 10:49:33.670,4 Jan 2025 10:56:44.722,431.053
17,4 Jan 2025 18:23:08.541,4 Jan 2025 18:29:23.620,375.079
18,4 Jan 2025 19:53:27.125,4 Jan 2025 20:04:54.159,687.034
19,4 Jan 2025 21:28:44.862,4 Jan 2025 21:37:52.737,547.875
20,5 Jan 2025 07:23:51.631,5 Jan 2025 07:30:00.299,368.668
21,5 Jan 2025 08:55:38.849,5 Jan 2025 09:07:12.044,693.195
22,5 Jan 2025 10:30:17.888,5 Jan 2025 10:39:05.560,527.673
23,5 Jan 2025 18:06:28.814,5 Jan 2025 18:09:17.910,169.097
24,5 Jan 2025 19:35:00.075,5 Jan 2025 19:46:04.498,664.423
25,5 Jan 2025 21:09:17.030,5 Jan 2025 21:19:34.900,617.870
26,6 Jan 2025 08:37:00.908,6 Jan 2025 08:48:19.347,678.439
27,6 Jan 2025 10:11:12.993,6 Jan 2025 10:21:09.159,596.166
28,6 Jan 2025 19:16:43.842,6 Jan 2025 19:27:09.879,626.037
29,6 Jan 2025 20:50:05.037,6 Jan 2025 21:01:07.199,662.163
30,7 Jan 2025 08:18:28.984,7 Jan 2025 08:29:14.910,645.926
31,7 Jan 2025 09:52:15.147,7 Jan 2025 10:02:59.586,644.439
32,7 Jan 2025 18:58:39.580,7 Jan 2025 19:08:09.305,569.725
33,7 Jan 2025 20:31:05.789,7 Jan 2025 20:42:32.541,686.751
34,7 Jan 2025 22:09:31.268,7 Jan 2025 22:13:23.635,232.367
35,8 Jan 2025 08:00:04.998,8 Jan 2025 08:09:56.680,591.682
36,8 Jan 2025 09:33:22.717,8 Jan 2025 09:44:38.642,675.925
37,8 Jan 2025 11:09:26.794,8 Jan 2025 11:14:05.874,279.079
38,8 Jan 2025 18:40:49.808,8 Jan 2025 18:49:00.464,490.655
39,8 Jan 2025 20:12:17.742,8 Jan 2025 20:23:52.373,694.631
40,8 Jan 2025 21:48:49.799,8 Jan 2025 21:56:06.435,436.636
41,9 Jan 2025 07:41:53.026,9 Jan 2025 07:50:20.363,507.337
42,9 Jan 2025 09:14:35.034,9 Jan 2025 09:26:07.143,692.110
43,9 Jan 2025 10:49:47.337,9 Jan 2025 10:56:57.025,429.688
44,9 Jan 2025 18:23:20.683,9 Jan 2025 18:29:37.414,376.731
45,9 Jan 2025 19:53:40.190,9 Jan 2025 20:05:07.397,687.207
46,9 Jan 2025 21:28:58.690,9 Jan 2025 21:38:05.549,546.859
47,10 Jan 2025 07:24:03.939,10 Jan 2025 07:30:14.740,370.801
48,10 Jan 2025 08:55:52.004,10 Jan 2025 09:07:25.279,693.275
49,10 Jan 2025 10:30:31.382,10 Jan 2025 10:39:18.106,526.724
50,10 Jan 2025 18:06:39.721,10 Jan 2025 18:09:32.859,173.138
51,10 Jan 2025 19:35:13.013,10 Jan 2025 19:46:17.790,664.777
52,10 Jan 2025 21:09:30.642,10 Jan 2025 21:19:47.856,617.214
53,11 Jan 2025 08:37:14.002,11 Jan 2025 08:48:32.712,678.710
54,11 Jan 2025 10:11:26.391,11 Jan 2025 10:21:21.878,595.488
55,11 Jan 2025 19:16:56.647,11 Jan 2025 19:27:23.232,626.585
56,11 Jan 2025 20:50:18.485,11 Jan 2025 21:01:20.249,661.764
57,12 Jan 2025 08:18:41.997,12 Jan 2025 08:29:28.424,646.427
58,12 Jan 2025 09:52:28.469,12 Jan 2025 10:03:12.444,643.975
59,12 Jan 2025 18:58:52.236,12 Jan 2025 19:08:22.734,570.498
60,12 Jan 2025 20:31:19.098,12 Jan 2025 20:42:45.664,686.567
61,12 Jan 2025 22:09:46.599,12 Jan 2025 22:13:35.105,228.506
62,13 Jan 2025 08:00:17.901,13 Jan 2025 08:10:10.372,592.470
63,13 Jan 2025 09:33:35.985,13 Jan 2025 09:44:51.630,675.646
64,13 Jan 2025 11:09:40.938,13 Jan 2025 11:14:17.626,276.688
65,13 Jan 2025 18:41:02.266,13 Jan 2025 18:49:14.016,491.750
66,13 Jan 2025 20:12:30.924,13 Jan 2025 20:24:05.553,694.629
67,13 Jan 2025 21:49:03.976,13 Jan 2025 21:56:18.968,434.992
68,14 Jan 2025 07:42:05.748,14 Jan 2025 07:50:34.309,508.561
69,14 Jan 2025 09:14:48.247,14 Jan 2025 09:26:20.254,692.007
70,14 Jan 2025 10:50:01.005,14 Jan 2025 10:57:09.323,428.318
71,14 Jan 2025 18:23:32.829,14 Jan 2025 18:29:51.199,378.370
72,14 Jan 2025 19:53:53.252,14 Jan 2025 20:05:20.634,687.383
73,14 Jan 2025 21:29:12.522,14 Jan 2025 21:38:18.356,545.833
74,15 Jan 2025 07:24:16.256,15 Jan 2025 07:30:29.170,372.914
75,15 Jan 2025 08:56:05.162,15 Jan 2025 09:07:38.514,693.352
76,15 Jan 2025 10:30:44.879,15 Jan 2025 10:39:30.651,525.773
77,15 Jan 2025 18:06:50.673,15 Jan 2025 18:09:47.763,177.090
78,15 Jan 2025 19:35:25.951,15 Jan 2025 19:46:31.080,665.129
79,15 Jan 2025 21:09:44.256,15 Jan 2025 21:20:00.809,616.553
80,16 Jan 2025 08:37:27.097,16 Jan 2025 08:48:46.075,678.978
81,16 Jan 2025 10:11:39.788,16 Jan 2025 10:21:34.597,594.808
82,16 Jan 2025 19:17:09.452,16 Jan 2025 19:27:36.586,627.134
83,16 Jan 2025 20:50:31.936,16 Jan 2025 21:01:33.298,661.363
84,17 Jan 2025 08:18:55.015,17 Jan 2025 08:29:41.935,646.920
85,17 Jan 2025 09:52:41.796,17 Jan 2025 10:03:25.305,643.508
86,17 Jan 2025 18:59:04.891,17 Jan 2025 19:08:36.167,571.276
87,17 Jan 2025 20:31:32.409,17 Jan 2025 20:42:58.786,686.376
88,17 Jan 2025 22:10:01.970,17 Jan 2025 22:13:46.532,224.562
89,18 Jan 2025 08:00:30.811,18 Jan 2025 08:10:24.059,593.248
90,18 Jan 2025 09:33:49.250,18 Jan 2025 09:45:04.619,675.369
91,18 Jan 2025 11:09:55.083,18 Jan 2025 11:14:29.361,274.278
92,18 Jan 2025 18:41:14.730,18 Jan 2025 18:49:27.570,492.840
93,18 Jan 2025 20:12:44.110,18 Jan 2025 20:24:18.735,694.625
94,18 Jan 2025 21:49:18.170,18 Jan 2025 21:56:31.500,433.331
95,19 Jan 2025 07:42:18.476,19 Jan 2025 07:50:48.252,509.777
96,19 Jan 2025 09:15:01.462,19 Jan 2025 09:26:33.364,691.902
97,19 Jan 2025 10:50:14.677,19 Jan 2025 10:57:21.619,426.942
98,19 Jan 2025 18:23:44.981,19 Jan 2025 18:30:04.986,380.005
99,19 Jan 2025 19:54:06.316,19 Jan 2025 20:05:33.870,687.555
100,19 Jan 2025 21:29:26.357,19 Jan 2025 21:38:31.163,544.806
101,20 Jan 2025 07:24:28.579,20 Jan 2025 07:30:43.597,375.018
102,20 Jan 2025 08:56:18.321,20 Jan 2025 09:07:51.749,693.429
103,20 Jan 2025 10:30:58.379,20 Jan 2025 10:39:43.199,524.820
104,20 Jan 2025 18:07:01.676,20 Jan 2025 18:10:02.619,180.942
105,20 Jan 2025 19:35:38.896,20 Jan 2025 19:46:44.372,665.476
106,20 Jan 2025 21:09:57.874,20 Jan 2025 21:20:13.766,615.892
107,21 Jan 2025 08:37:40.194,21 Jan 2025 08:48:59.438,679.244
108,21 Jan 2025 10:11:53.189,21 Jan 2025 10:21:47.314,594.125
109,21 Jan 2025 19:17:22.262,21 Jan 2025 19:27:49.939,627.678
110,21 Jan 2025 20:50:45.390,21 Jan 2025 21:01:46.348,660.958
111,22 Jan 2025 08:19:08.031,22 Jan 2025 08:29:55.444,647.413
112,22 Jan 2025 09:52:55.126,22 Jan 2025 10:03:38.164,643.038
113,22 Jan 2025 18:59:17.550,22 Jan 2025 19:08:49.600,572.049
114,22 Jan 2025 20:31:45.723,22 Jan 2025 20:43:11.907,686.184
115,22 Jan 2025 22:10:17.379,22 Jan 2025 22:13:57.924,220.545
116,23 Jan 2025 08:00:43.721,23 Jan 2025 08:10:37.749,594.029
117,23 Jan 2025 09:34:02.521,23 Jan 2025 09:45:17.601,675.081
118,23 Jan 2025 11:10:09.249,23 Jan 2025 11:14:41.085,271.837
119,23 Jan 2025 18:41:27.196,23 Jan 2025 18:49:41.120,493.924
120,23 Jan 2025 20:12:57.297,23 Jan 2025 20:24:31.915,694.619
121,23 Jan 2025 21:49:32.364,23 Jan 2025 21:56:44.025,431.661
122,24 Jan 2025 07:42:31.205,24 Jan 2025 07:51:02.193,510.988
123,24 Jan 2025 09:15:14.678,24 Jan 2025 09:26:46.469,691.791
124,24 Jan 2025 10:50:28.354,24 Jan 2025 10:57:33.909,425.555
125,24 Jan 2025 18:23:57.140,24 Jan 2025 18:30:18.767,381.627
126,24 Jan 2025 19:54:19.381,24 Jan 2025 20:05:47.105,687.724
127,24 Jan 2025 21:29:40.195,24 Jan 2025 21:38:43.970,543.775
128,25 Jan 2025 07:24:40.911,25 Jan 2025 07:30:58.008,377.097
129,25 Jan 2025 08:56:31.481,25 Jan 2025 09:08:04.980,693.500
130,25 Jan 2025 10:31:11.881,25 Jan 2025 10:39:55.740,523.859
131,25 Jan 2025 18:07:12.722,25 Jan 2025 18:10:17.436,184.714
132,25 Jan 2025 19:35:51.838,25 Jan 2025 19:46:57.662,665.824
133,25 Jan 2025 21:10:11.492,25 Jan 2025 21:20:26.718,615.226
134,26 Jan 2025 08:37:53.291,26 Jan 2025 08:49:12.799,679.507
135,26 Jan 2025 10:12:06.590,26 Jan 2025 10:22:00.029,593.439
136,26 Jan 2025 19:17:35.072,26 Jan 2025 19:28:03.290,628.218
137,26 Jan 2025 20:50:58.844,26 Jan 2025 21:01:59.396,660.552
138,27 Jan 2025 08:19:21.050,27 Jan 2025 08:30:08.951,647.901
139,27 Jan 2025 09:53:08.455,27 Jan 2025 10:03:51.021,642.566
140,27 Jan 2025 18:59:30.210,27 Jan 2025 19:09:03.029,572.819
141,27 Jan 2025 20:31:59.037,27 Jan 2025 20:43:25.026,685.990
142,27 Jan 2025 22:10:32.829,27 Jan 2025 22:14:09.275,216.446
143,28 Jan 2025 08:00:56.627,28 Jan 2025 08:10:51.435,594.808
144,28 Jan 2025 09:34:15.790,28 Jan 2025 09:45:30.590,674.800
145,28 Jan 2025 11:10:23.424,28 Jan 2025 11:14:52.795,269.371
146,28 Jan 2025 18:41:39.663,28 Jan 2025 18:49:54.667,495.004
147,28 Jan 2025 20:13:10.484,28 Jan 2025 20:24:45.094,694.610
148,28 Jan 2025 21:49:46.559,28 Jan 2025 21:56:56.544,429.985
149,29 Jan 2025 07:42:43.937,29 Jan 2025 07:51:16.128,512.191
150,29 Jan 2025 09:15:27.894,29 Jan 2025 09:26:59.579,691.685
151,29 Jan 2025 10:50:42.032,29 Jan 2025 10:57:46.196,424.164
152,29 Jan 2025 18:24:09.302,29 Jan 2025 18:30:32.543,383.241
153,29 Jan 2025 19:54:32.447,29 Jan 2025 20:06:00.339,687.892
154,29 Jan 2025 21:29:54.035,29 Jan 2025 21:38:56.772,542.738
155,30 Jan 2025 07:24:53.251,30 Jan 2025 07:31:12.415,379.164
156,30 Jan 2025 08:56:44.640,30 Jan 2025 09:08:18.209,693.568
157,30 Jan 2025 10:31:25.382,30 Jan 2025 10:40:08.278,522.896
158,30 Jan 2025 18:07:23.805,30 Jan 2025 18:10:32.212,188.407
159,30 Jan 2025 19:36:04.781,30 Jan 2025 19:47:10.950,666.169
160,30 Jan 2025 21:10:25.113,30 Jan 2025 21:20:39.668,614.555
161,31 Jan 2025 08:38:06.388,31 Jan 2025 08:49:26.157,679.769
162,31 Jan 2025 10:12:19.991,31 Jan 2025 10:22:12.741,592.750
163,31 Jan 2025 19:17:47.884,31 Jan 2025 19:28:16.641,628.757
164,31 Jan 2025 20:51:12.298,31 Jan 2025 21:02:12.443,660.144
165,1 Feb 2025 08:19:34.070,1 Feb 2025 08:30:22.455,648.386
166,1 Feb 2025 09:53:21.785,1 Feb 2025 10:04:03.877,642.092
167,1 Feb 2025 18:59:42.872,1 Feb 2025 19:09:16.460,573.588
168,1 Feb 2025 20:32:12.353,1 Feb 2025 20:43:38.146,685.792
169,1 Feb 2025 22:10:48.327,1 Feb 2025 22:14:20.579,212.251
170,2 Feb 2025 08:01:09.539,2 Feb 2025 08:11:05.120,595.580
171,2 Feb 2025 09:34:29.062,2 Feb 2025 09:45:43.574,674.512
172,2 Feb 2025 11:10:37.612,2 Feb 2025 11:15:04.494,266.882
173,2 Feb 2025 18:41:52.134,2 Feb 2025 18:50:08.214,496.080
174,2 Feb 2025 20:13:23.674,2 Feb 2025 20:24:58.274,694.600
175,2 Feb 2025 21:50:00.767,2 Feb 2025 21:57:09.057,428.290
176,3 Feb 2025 07:42:56.669,3 Feb 2025 07:51:30.057,513.387
177,3 Feb 2025 09:15:41.114,3 Feb 2025 09:27:12.681,691.567
178,3 Feb 2025 10:50:55.719,3 Feb 2025 10:57:58.484,422.766
179,3 Feb 2025 18:24:21.468,3 Feb 2025 18:30:46.321,384.853
180,3 Feb 2025 19:54:45.512,3 Feb 2025 20:06:13.571,688.059
181,3 Feb 2025 21:30:07.875,3 Feb 2025 21:39:09.575,541.700
182,4 Feb 2025 07:25:05.599,4 Feb 2025 07:31:26.812,381.213
183,4 Feb 2025 08:56:57.803,4 Feb 2025 09:08:31.434,693.631
184,4 Feb 2025 10:31:38.892,4 Feb 2025 10:40:20.817,521.925
185,4 Feb 2025 18:07:34.928,4 Feb 2025 18:10:46.950,192.021
186,4 Feb 2025 19:36:17.727,4 Feb 2025 19:47:24.240,666.513
187,4 Feb 2025 21:10:38.737,4 Feb 2025 21:20:52.619,613.882
188,5 Feb 2025 08:38:19.488,5 Feb 2025 08:49:39.515,680.027
189,5 Feb 2025 10:12:33.395,5 Feb 2025 10:22:25.453,592.058
190,5 Feb 2025 19:18:00.699,5 Feb 2025 19:28:29.989,629.290
191,5 Feb 2025 20:51:25.757,5 Feb 2025 21:02:25.490,659.732
192,6 Feb 2025 08:19:47.088,6 Feb 2025 08:30:35.959,648.871
193,6 Feb 2025 09:53:35.117,6 Feb 2025 10:04:16.734,641.617
194,6 Feb 2025 18:59:55.536,6 Feb 2025 19:09:29.891,574.355
195,6 Feb 2025 20:32:25.672,6 Feb 2025 20:43:51.262,685.590
196,6 Feb 2025 22:11:03.866,6 Feb 2025 22:14:31.841,207.976
197,7 Feb 2025 08:01:22.451,7 Feb 2025 08:11:18.797,596.346
198,7 Feb 2025 09:34:42.335,7 Feb 2025 09:45:56.556,674.222
199,7 Feb 2025 11:10:51.817,7 Feb 2025 11:15:16.176,264.359
200,7 Feb 2025 18:42:04.608,7 Feb 2025 18:50:21.758,497.150
201,7 Feb 2025 20:13:36.865,7 Feb 2025 20:25:11.453,694.587
202,7 Feb 2025 21:50:14.978,7 Feb 2025 21:57:21.566,426.587
203,8 Feb 2025 07:43:09.406,8 Feb 2025 07:51:43.986,514.580
204,8 Feb 2025 09:15:54.332,8 Feb 2025 09:27:25.785,691.453
205,8 Feb 2025 10:51:09.405,8 Feb 2025 10:58:10.762,421.357
206,8 Feb 2025 18:24:33.642,8 Feb 2025 18:31:00.088,386.445
207,8 Feb 2025 19:54:58.581,8 Feb 2025 20:06:26.804,688.223
208,8 Feb 2025 21:30:21.721,8 Feb 2025 21:39:22.375,540.655
209,9 Feb 2025 07:25:17.953,9 Feb 2025 07:31:41.201,383.248
210,9 Feb 2025 08:57:10.965,9 Feb 2025 09:08:44.660,693.695
211,9 Feb 2025 10:31:52.398,9 Feb 2025 10:40:33.349,520.951
212,9 Feb 2025 18:07:46.089,9 Feb 2025 18:11:01.648,195.559
213,9 Feb 2025 19:36:30.673,9 Feb 2025 19:47:37.527,666.854
214,9 Feb 2025 21:10:52.361,9 Feb 2025 21:21:05.567,613.206
215,10 Feb 2025 07:09:26.246,10 Feb 2025 07:09:31.812,5.566
216,10 Feb 2025 08:38:32.590,10 Feb 2025 08:49:52.871,680.281
217,10 Feb 2025 10:12:46.799,10 Feb 2025 10:22:38.162,591.363
218,10 Feb 2025 19:18:13.515,10 Feb 2025 19:28:43.338,629.823
219,10 Feb 2025 20:51:39.217,10 Feb 2025 21:02:38.535,659.318
220,11 Feb 2025 08:20:00.109,11 Feb 2025 08:30:49.460,649.351
221,11 Feb 2025 09:53:48.448,11 Feb 2025 10:04:29.583,641.134
222,11 Feb 2025 19:00:08.202,11 Feb 2025 19:09:43.315,575.113
223,11 Feb 2025 20:32:38.990,11 Feb 2025 20:44:04.379,685.389
224,11 Feb 2025 22:11:19.460,11 Feb 2025 22:14:43.052,203.592
225,12 Feb 2025 08:01:35.365,12 Feb 2025 08:11:32.480,597.115
226,12 Feb 2025 09:34:55.607,12 Feb 2025 09:46:09.536,673.930
227,12 Feb 2025 11:11:06.032,12 Feb 2025 11:15:27.845,261.813
228,12 Feb 2025 18:42:17.084,12 Feb 2025 18:50:35.300,498.216
229,12 Feb 2025 20:13:50.057,12 Feb 2025 20:25:24.630,694.572
230,12 Feb 2025 21:50:29.198,12 Feb 2025 21:57:34.071,424.873
231,13 Feb 2025 07:43:22.146,13 Feb 2025 07:51:57.911,515.764
232,13 Feb 2025 09:16:07.551,13 Feb 2025 09:27:38.887,691.336
233,13 Feb 2025 10:51:23.088,13 Feb 2025 10:58:23.037,419.949
234,13 Feb 2025 18:24:45.820,13 Feb 2025 18:31:13.852,388.032
235,13 Feb 2025 19:55:11.652,13 Feb 2025 20:06:40.034,688.382
236,13 Feb 2025 21:30:35.570,13 Feb 2025 21:39:35.172,539.602
237,14 Feb 2025 07:25:30.316,14 Feb 2025 07:31:55.580,385.264
238,14 Feb 2025 08:57:24.130,14 Feb 2025 09:08:57.885,693.755
239,14 Feb 2025 10:32:05.906,14 Feb 2025 10:40:45.881,519.975
240,14 Feb 2025 18:07:57.280,14 Feb 2025 18:11:16.323,199.042
241,14 Feb 2025 19:36:43.621,14 Feb 2025 19:47:50.814,667.193
242,14 Feb 2025 21:11:05.989,14 Feb 2025 21:21:18.514,612.525
243,15 Feb 2025 07:09:20.472,15 Feb 2025 07:10:04.418,43.947
244,15 Feb 2025 08:38:45.690,15 Feb 2025 08:50:06.225,680.535
245,15 Feb 2025 10:13:00.204,15 Feb 2025 10:22:50.870,590.666
246,15 Feb 2025 19:18:26.333,15 Feb 2025 19:28:56.687,630.354
247,15 Feb 2025 20:51:52.677,15 Feb 2025 21:02:51.580,658.903
248,16 Feb 2025 08:20:13.134,16 Feb 2025 08:31:02.961,649.827
249,16 Feb 2025 09:54:01.782,16 Feb 2025 10:04:42.434,640.653
250,16 Feb 2025 19:00:20.870,16 Feb 2025 19:09:56.742,575.872
251,16 Feb 2025 20:32:52.312,16 Feb 2025 20:44:17.497,685.185
252,16 Feb 2025 22:11:35.110,16 Feb 2025 22:14:54.209,199.100
253,17 Feb 2025 08:01:48.281,17 Feb 2025 08:11:46.157,597.876
254,17 Feb 2025 09:35:08.881,17 Feb 2025 09:46:22.517,673.635
255,17 Feb 2025 11:11:20.262,17 Feb 2025 11:15:39.501,259.239
256,17 Feb 2025 18:42:29.565,17 Feb 2025 18:50:48.842,499.277
257,17 Feb 2025 20:14:03.253,17 Feb 2025 20:25:37.808,694.555
258,17 Feb 2025 21:50:43.424,17 Feb 2025 21:57:46.570,423.146
259,18 Feb 2025 07:43:34.890,18 Feb 2025 07:52:11.834,516.944
260,18 Feb 2025 09:16:20.772,18 Feb 2025 09:27:51.990,691.218
261,18 Feb 2025 10:51:36.781,18 Feb 2025 10:58:35.309,418.528
262,18 Feb 2025 18:24:58.004,18 Feb 2025 18:31:27.613,389.609
263,18 Feb 2025 19:55:24.726,18 Feb 2025 20:06:53.268,688.542
264,18 Feb 2025 21:30:49.424,18 Feb 2025 21:39:47.968,538.544
265,19 Feb 2025 07:25:42.687,19 Feb 2025 07:32:09.954,387.267
266,19 Feb 2025 08:57:37.295,19 Feb 2025 09:09:11.110,693.815
267,19 Feb 2025 10:32:19.417,19 Feb 2025 10:40:58.410,518.993
268,19 Feb 2025 18:08:08.510,19 Feb 2025 18:11:30.961,202.451
269,19 Feb 2025 19:36:56.572,19 Feb 2025 19:48:04.102,667.530
270,19 Feb 2025 21:11:19.620,19 Feb 2025 21:21:31.462,611.841
271,20 Feb 2025 07:09:24.912,20 Feb 2025 07:10:26.806,61.894
272,20 Feb 2025 08:38:58.791,20 Feb 2025 08:50:19.580,680.788
273,20 Feb 2025 10:13:13.612,20 Feb 2025 10:23:03.577,589.964
274,20 Feb 2025 19:18:39.152,20 Feb 2025 19:29:10.036,630.884
275,20 Feb 2025 20:52:06.141,20 Feb 2025 21:03:04.625,658.484
276,21 Feb 2025 08:20:26.157,21 Feb 2025 08:31:16.460,650.303
277,21 Feb 2025 09:54:15.117,21 Feb 2025 10:04:55.285,640.168
278,21 Feb 2025 19:00:33.542,21 Feb 2025 19:10:10.168,576.626
279,21 Feb 2025 20:33:05.635,21 Feb 2025 20:44:30.615,684.980
280,21 Feb 2025 22:11:50.813,21 Feb 2025 22:15:05.311,194.498
281,22 Feb 2025 08:02:01.193,22 Feb 2025 08:11:59.833,598.640
282,22 Feb 2025 09:35:22.157,22 Feb 2025 09:46:35.495,673.338
283,22 Feb 2025 11:11:34.510,22 Feb 2025 11:15:51.139,256.629
284,22 Feb 2025 18:42:42.047,22 Feb 2025 18:51:02.381,500.333
285,22 Feb 2025 20:14:16.449,22 Feb 2025 20:25:50.986,694.537
286,22 Feb 2025 21:50:57.656,22 Feb 2025 21:57:59.065,421.409
287,23 Feb 2025 07:43:47.634,23 Feb 2025 07:52:25.754,518.120
288,23 Feb 2025 09:16:33.992,23 Feb 2025 09:28:05.090,691.098
289,23 Feb 2025 10:51:50.478,23 Feb 2025 10:58:47.575,417.097
290,23 Feb 2025 18:25:10.193,23 Feb 2025 18:31:41.368,391.175
291,23 Feb 2025 19:55:37.800,23 Feb 2025 20:07:06.501,688.700
292,23 Feb 2025 21:31:03.280,23 Feb 2025 21:40:00.762,537.482
293,24 Feb 2025 07:25:55.062,24 Feb 2025 07:32:24.319,389.256
294,24 Feb 2025 08:57:50.461,24 Feb 2025 09:09:24.332,693.871
295,24 Feb 2025 10:32:32.929,24 Feb 2025 10:41:10.936,518.007
296,24 Feb 2025 18:08:19.769,24 Feb 2025 18:11:45.567,205.798
297,24 Feb 2025 19:37:09.524,24 Feb 2025 19:48:17.388,667.864
298,24 Feb 2025 21:11:33.252,24 Feb 2025 21:21:44.407,611.155
299,25 Feb 2025 07:09:31.435,25 Feb 2025 07:10:47.104,75.669
300,25 Feb 2025 08:39:11.894,25 Feb 2025 08:50:32.927,681.033
301,25 Feb 2025 10:13:27.023,25 Feb 2025 10:23:16.280,589.258
302,25 Feb 2025 19:18:51.973,25 Feb 2025 19:29:23.382,631.410
303,25 Feb 2025 20:52:19.606,25 Feb 2025 21:03:17.668,658.062
304,26 Feb 2025 08:20:39.182,26 Feb 2025 08:31:29.956,650.774
305,26 Feb 2025 09:54:28.451,26 Feb 2025 10:05:08.133,639.681
306,26 Feb 2025 19:00:46.214,26 Feb 2025 19:10:23.589,577.375
307,26 Feb 2025 20:33:18.959,26 Feb 2025 20:44:43.730,684.771
308,26 Feb 2025 22:12:06.579,26 Feb 2025 22:15:16.352,189.774
309,27 Feb 2025 08:02:14.111,27 Feb 2025 08:12:13.505,599.394
310,27 Feb 2025 09:35:35.436,27 Feb 2025 09:46:48.471,673.036
311,27 Feb 2025 11:11:48.769,27 Feb 2025 11:16:02.763,253.994
312,27 Feb 2025 18:42:54.532,27 Feb 2025 18:51:15.918,501.386
313,27 Feb 2025 20:14:29.646,27 Feb 2025 20:26:04.162,694.516
314,27 Feb 2025 21:51:11.892,27 Feb 2025 21:58:11.555,419.663
315,28 Feb 2025 07:44:00.381,28 Feb 2025 07:52:39.668,519.287
316,28 Feb 2025 09:16:47.212,28 Feb 2025 09:28:18.188,690.976
317,28 Feb 2025 10:52:04.176,28 Feb 2025 10:58:59.838,415.662
318,28 Feb 2025 18:25:22.386,28 Feb 2025 18:31:55.121,392.735
319,28 Feb 2025 19:55:50.876,28 Feb 2025 20:07:19.731,688.855
320,28 Feb 2025 21:31:17.139,28 Feb 2025 21:40:13.553,536.413
321,1 Mar 2025 07:26:07.447,1 Mar 2025 07:32:38.674,391.227
322,1 Mar 2025 08:58:03.626,1 Mar 2025 09:09:37.553,693.927
323,1 Mar 2025 10:32:46.438,1 Mar 2025 10:41:23.460,517.022
324,1 Mar 2025 18:08:31.054,1 Mar 2025 18:12:00.148,209.094
325,1 Mar 2025 19:37:22.477,1 Mar 2025 19:48:30.674,668.197
326,1 Mar 2025 21:11:46.887,1 Mar 2025 21:21:57.350,610.463
327,2 Mar 2025 07:09:39.046,2 Mar 2025 07:11:06.318,87.272
328,2 Mar 2025 08:39:24.997,2 Mar 2025 08:50:46.278,681.280
329,2 Mar 2025 10:13:40.429,2 Mar 2025 10:23:28.981,588.552
330,2 Mar 2025 19:19:04.796,2 Mar 2025 19:29:36.730,631.934
331,2 Mar 2025 20:52:33.074,2 Mar 2025 21:03:30.711,657.637
332,3 Mar 2025 08:20:52.209,3 Mar 2025 08:31:43.452,651.243
333,3 Mar 2025 09:54:41.788,3 Mar 2025 10:05:20.980,639.192
334,3 Mar 2025 19:00:58.890,3 Mar 2025 19:10:37.013,578.123
335,3 Mar 2025 20:33:32.286,3 Mar 2025 20:44:56.847,684.561
336,3 Mar 2025 22:12:22.414,3 Mar 2025 22:15:27.331,184.917
337,4 Mar 2025 08:02:27.032,4 Mar 2025 08:12:27.176,600.145
338,4 Mar 2025 09:35:48.712,4 Mar 2025 09:47:01.448,672.736
339,4 Mar 2025 11:12:03.045,4 Mar 2025 11:16:14.371,251.325
340,4 Mar 2025 18:43:07.021,4 Mar 2025 18:51:29.451,502.430
341,4 Mar 2025 20:14:42.842,4 Mar 2025 20:26:17.343,694.501
342,4 Mar 2025 21:51:26.134,4 Mar 2025 21:58:24.044,417.910
343,5 Mar 2025 07:44:13.132,5 Mar 2025 07:52:53.582,520.450
344,5 Mar 2025 09:17:00.435,5 Mar 2025 09:28:31.287,690.852
345,5 Mar 2025 10:52:17.881,5 Mar 2025 10:59:12.097,414.216
346,5 Mar 2025 18:25:34.585,5 Mar 2025 18:32:08.870,394.285
347,5 Mar 2025 19:56:03.955,5 Mar 2025 20:07:32.964,689.009
348,5 Mar 2025 21:31:31.003,5 Mar 2025 21:40:26.343,535.340
349,6 Mar 2025 07:26:19.838,6 Mar 2025 07:32:53.025,393.187
350,6 Mar 2025 08:58:16.793,6 Mar 2025 09:09:50.774,693.981
351,6 Mar 2025 10:32:59.956,6 Mar 2025 10:41:35.986,516.030
352,6 Mar 2025 18:08:42.370,6 Mar 2025 18:12:14.699,212.330
353,6 Mar 2025 19:37:35.429,6 Mar 2025 19:48:43.960,668.531
354,6 Mar 2025 21:12:00.525,6 Mar 2025 21:22:10.295,609.770
355,7 Mar 2025 07:09:47.350,7 Mar 2025 07:11:24.843,97.493
356,7 Mar 2025 08:39:38.102,7 Mar 2025 08:50:59.628,681.526
357,7 Mar 2025 10:13:53.841,7 Mar 2025 10:23:41.684,587.843
358,7 Mar 2025 19:19:17.622,7 Mar 2025 19:29:50.076,632.454
359,7 Mar 2025 20:52:46.543,7 Mar 2025 21:03:43.754,657.210
360,8 Mar 2025 08:21:05.237,8 Mar 2025 08:31:56.946,651.709
361,8 Mar 2025 09:54:55.128,8 Mar 2025 10:05:33.826,638.698
362,8 Mar 2025 19:01:11.568,8 Mar 2025 19:10:50.436,578.868
363,8 Mar 2025 20:33:45.614,8 Mar 2025 20:45:09.966,684.352
364,8 Mar 2025 22:12:38.321,8 Mar 2025 22:15:38.245,179.923
365,9 Mar 2025 08:02:39.953,9 Mar 2025 08:12:40.841,600.888
366,9 Mar 2025 09:36:01.991,9 Mar 2025 09:47:14.422,672.431
367,9 Mar 2025 11:12:17.344,9 Mar 2025 11:16:25.959,248.615
368,9 Mar 2025 18:43:19.513,9 Mar 2025 18:51:42.989,503.476
369,9 Mar 2025 20:14:56.047,9 Mar 2025 20:26:30.514,694.468
370,9 Mar 2025 21:51:40.388,9 Mar 2025 21:58:36.519,416.131
371,10 Mar 2025 07:44:25.888,10 Mar 2025 07:53:07.491,521.603
372,10 Mar 2025 09:17:13.658,10 Mar 2025 09:28:44.383,690.726
373,10 Mar 2025 10:52:31.588,10 Mar 2025 10:59:24.351,412.763
374,10 Mar 2025 18:25:46.789,10 Mar 2025 18:32:22.614,395.825
375,10 Mar 2025 19:56:17.033,10 Mar 2025 20:07:46.192,689.159
376,10 Mar 2025 21:31:44.869,10 Mar 2025 21:40:39.131,534.262
377,11 Mar 2025 07:26:32.235,11 Mar 2025 07:33:07.367,395.131
378,11 Mar 2025 08:58:29.959,11 Mar 2025 09:10:03.992,694.033
379,11 Mar 2025 10:33:13.474,11 Mar 2025 10:41:48.505,515.031
380,11 Mar 2025 18:08:53.712,11 Mar 2025 18:12:29.225,215.513
381,11 Mar 2025 19:37:48.386,11 Mar 2025 19:48:57.245,668.859
382,11 Mar 2025 21:12:14.166,11 Mar 2025 21:22:23.237,609.071
383,12 Mar 2025 07:09:56.151,12 Mar 2025 07:11:42.860,106.709
384,12 Mar 2025 08:39:51.206,12 Mar 2025 08:51:12.975,681.769
385,12 Mar 2025 10:14:07.254,12 Mar 2025 10:23:54.381,587.127
386,12 Mar 2025 19:19:30.449,12 Mar 2025 19:30:03.422,632.973
387,12 Mar 2025 20:53:00.014,12 Mar 2025 21:03:56.794,656.781
388,13 Mar 2025 08:21:18.265,13 Mar 2025 08:32:10.434,652.169
389,13 Mar 2025 09:55:08.467,13 Mar 2025 10:05:46.668,638.201
390,13 Mar 2025 19:01:24.242,13 Mar 2025 19:11:03.858,579.616
391,13 Mar 2025 20:33:58.944,13 Mar 2025 20:45:23.080,684.136
392,13 Mar 2025 22:12:54.305,13 Mar 2025 22:15:49.069,174.764
393,14 Mar 2025 08:02:52.878,14 Mar 2025 08:12:54.510,601.632
394,14 Mar 2025 09:36:15.265,14 Mar 2025 09:47:27.391,672.126
395,14 Mar 2025 11:12:31.647,14 Mar 2025 11:16:37.536,245.889
396,14 Mar 2025 18:43:32.006,14 Mar 2025 18:51:56.522,504.516
397,14 Mar 2025 20:15:09.249,14 Mar 2025 20:26:43.691,694.442
398,14 Mar 2025 21:51:54.647,14 Mar 2025 21:58:48.992,414.345
399,15 Mar 2025 07:44:38.645,15 Mar 2025 07:53:21.398,522.753
400,15 Mar 2025 09:17:26.881,15 Mar 2025 09:28:57.479,690.598
401,15 Mar 2025 10:52:45.298,15 Mar 2025 10:59:36.603,411.305
402,15 Mar 2025 18:25:58.997,15 Mar 2025 18:32:36.357,397.359
403,15 Mar 2025 19:56:30.115,15 Mar 2025 20:07:59.424,689.309
404,15 Mar 2025 21:31:58.739,15 Mar 2025 21:40:51.915,533.176
405,16 Mar 2025 07:26:44.641,16 Mar 2025 07:33:21.701,397.060
406,16 Mar 2025 08:58:43.128,16 Mar 2025 09:10:17.211,694.083
407,16 Mar 2025 10:33:26.994,16 Mar 2025 10:42:01.019,514.025
408,16 Mar 2025 18:09:05.079,16 Mar 2025 18:12:43.731,218.651
409,16 Mar 2025 19:38:01.345,16 Mar 2025 19:49:10.530,669.185
410,16 Mar 2025 21:12:27.812,16 Mar 2025 21:22:36.178,608.366
411,17 Mar 2025 07:10:05.332,17 Mar 2025 07:12:00.503,115.171
412,17 Mar 2025 08:40:04.313,17 Mar 2025 08:51:26.322,682.009
413,17 Mar 2025 10:14:20.671,17 Mar 2025 10:24:07.080,586.409
414,17 Mar 2025 19:19:43.279,17 Mar 2025 19:30:16.766,633.487
415,17 Mar 2025 20:53:13.488,17 Mar 2025 21:04:09.836,656.348
416,18 Mar 2025 08:21:31.296,18 Mar 2025 08:32:23.926,652.630
417,18 Mar 2025 09:55:21.807,18 Mar 2025 10:05:59.512,637.705
418,18 Mar 2025 19:01:36.924,18 Mar 2025 19:11:17.281,580.357
419,18 Mar 2025 20:34:12.274,18 Mar 2025 20:45:36.196,683.922
420,18 Mar 2025 22:13:10.376,18 Mar 2025 22:15:59.818,169.441
421,19 Mar 2025 08:03:05.807,19 Mar 2025 08:13:08.177,602.370
422,19 Mar 2025 09:36:28.545,19 Mar 2025 09:47:40.365,671.820
423,19 Mar 2025 11:12:45.974,19 Mar 2025 11:16:49.092,243.119
424,19 Mar 2025 18:43:44.504,19 Mar 2025 18:52:10.055,505.551
425,19 Mar 2025 20:15:22.455,19 Mar 2025 20:26:56.867,694.413
426,19 Mar 2025 21:52:08.913,19 Mar 2025 21:59:01.462,412.548
427,20 Mar 2025 07:44:51.404,20 Mar 2025 07:53:35.302,523.899
428,20 Mar 2025 09:17:40.107,20 Mar 2025 09:29:10.574,690.467
429,20 Mar 2025 10:52:59.013,20 Mar 2025 10:59:48.850,409.837
430,20 Mar 2025 18:26:11.212,20 Mar 2025 18:32:50.095,398.883
431,20 Mar 2025 19:56:43.198,20 Mar 2025 20:08:12.656,689.458
432,20 Mar 2025 21:32:12.614,20 Mar 2025 21:41:04.699,532.085
433,21 Mar 2025 07:26:57.053,21 Mar 2025 07:33:36.030,398.976
434,21 Mar 2025 08:58:56.298,21 Mar 2025 09:10:30.429,694.131
435,21 Mar 2025 10:33:40.518,21 Mar 2025 10:42:13.536,513.018
436,21 Mar 2025 18:09:16.474,21 Mar 2025 18:12:58.210,221.736
437,21 Mar 2025 19:38:14.306,21 Mar 2025 19:49:23.815,669.509
438,21 Mar 2025 21:12:41.453,21 Mar 2025 21:22:49.118,607.666
439,22 Mar 2025 07:10:14.804,22 Mar 2025 07:12:17.853,123.049
440,22 Mar 2025 08:40:17.421,22 Mar 2025 08:51:39.668,682.247
441,22 Mar 2025 10:14:34.086,22 Mar 2025 10:24:19.776,585.690
442,22 Mar 2025 19:19:56.110,22 Mar 2025 19:30:30.111,634.001
443,22 Mar 2025 20:53:26.964,22 Mar 2025 21:04:22.877,655.913
444,23 Mar 2025 08:21:44.327,23 Mar 2025 08:32:37.415,653.089
445,23 Mar 2025 09:55:35.149,23 Mar 2025 10:06:12.358,637.209
446,23 Mar 2025 19:01:49.608,23 Mar 2025 19:11:30.703,581.095
447,23 Mar 2025 20:34:25.607,23 Mar 2025 20:45:49.310,683.703
448,23 Mar 2025 22:13:26.537,23 Mar 2025 22:16:10.478,163.942
449,24 Mar 2025 08:03:18.732,24 Mar 2025 08:13:21.835,603.103
450,24 Mar 2025 09:36:41.826,24 Mar 2025 09:47:53.335,671.509
451,24 Mar 2025 11:13:00.319,24 Mar 2025 11:17:00.629,240.311
452,24 Mar 2025 18:43:57.004,24 Mar 2025 18:52:23.584,506.580
453,24 Mar 2025 20:15:35.660,24 Mar 2025 20:27:10.042,694.382
454,24 Mar 2025 21:52:23.184,24 Mar 2025 21:59:13.925,410.741
455,25 Mar 2025 07:45:04.164,25 Mar 2025 07:53:49.202,525.038
456,25 Mar 2025 09:17:53.332,25 Mar 2025 09:29:23.667,690.335
457,25 Mar 2025 10:53:12.731,25 Mar 2025 11:00:01.092,408.361
458,25 Mar 2025 18:26:23.431,25 Mar 2025 18:33:03.825,400.394
459,25 Mar 2025 19:56:56.282,25 Mar 2025 20:08:25.886,689.604
460,25 Mar 2025 21:32:26.491,25 Mar 2025 21:41:17.480,530.988
461,26 Mar 2025 07:27:09.473,26 Mar 2025 07:33:50.345,400.872
462,26 Mar 2025 08:59:09.467,26 Mar 2025 09:10:43.645,694.178
463,26 Mar 2025 10:33:54.040,26 Mar 2025 10:42:26.048,512.009
464,26 Mar 2025 18:09:27.891,26 Mar 2025 18:13:12.666,224.775
465,26 Mar 2025 19:38:27.267,26 Mar 2025 19:49:37.095,669.828
466,26 Mar 2025 21:12:55.104,26 Mar 2025 21:23:02.056,606.952
467,27 Mar 2025 07:10:24.523,27 Mar 2025 07:12:34.953,130.430
468,27 Mar 2025 08:40:30.529,27 Mar 2025 08:51:53.011,682.483
469,27 Mar 2025 10:14:47.501,27 Mar 2025 10:24:32.470,584.970
470,27 Mar 2025 19:20:08.937,27 Mar 2025 19:30:43.459,634.521
471,27 Mar 2025 20:53:40.436,27 Mar 2025 21:04:35.918,655.482
472,28 Mar 2025 08:21:57.354,28 Mar 2025 08:32:50.903,653.548
473,28 Mar 2025 09:55:48.490,28 Mar 2025 10:06:25.197,636.707
474,28 Mar 2025 19:02:02.293,28 Mar 2025 19:11:44.123,581.829
475,28 Mar 2025 20:34:38.942,28 Mar 2025 20:46:02.423,683.481
476,28 Mar 2025 22:13:42.803,28 Mar 2025 22:16:21.026,158.224
477,29 Mar 2025 08:03:31.660,29 Mar 2025 08:13:35.500,603.840
478,29 Mar 2025 09:36:55.107,29 Mar 2025 09:48:06.306,671.199
479,29 Mar 2025 11:13:14.678,29 Mar 2025 11:17:12.150,237.472
480,29 Mar 2025 18:44:09.507,29 Mar 2025 18:52:37.114,507.607
481,29 Mar 2025 20:15:48.868,29 Mar 2025 20:27:23.215,694.346
482,29 Mar 2025 21:52:37.464,29 Mar 2025 21:59:26.381,408.917
483,30 Mar 2025 07:45:16.930,30 Mar 2025 07:54:03.099,526.170
484,30 Mar 2025 09:18:06.559,30 Mar 2025 09:29:36.759,690.201
485,30 Mar 2025 10:53:26.452,30 Mar 2025 11:00:13.331,406.879
486,30 Mar 2025 18:26:35.654,30 Mar 2025 18:33:17.558,401.904
487,30 Mar 2025 19:57:09.369,30 Mar 2025 20:08:39.112,689.743
488,30 Mar 2025 21:32:40.374,30 Mar 2025 21:41:30.258,529.884
489,31 Mar 2025 07:27:21.901,31 Mar 2025 07:34:04.658,402.757
490,31 Mar 2025 08:59:22.639,31 Mar 2025 09:10:56.859,694.220
491,31 Mar 2025 10:34:07.565,31 Mar 2025 10:42:38.560,510.995
492,31 Mar 2025 18:09:39.329,31 Mar 2025 18:13:27.105,227.775
493,31 Mar 2025 19:38:40.232,31 Mar 2025 19:49:50.380,670.148
494,31 Mar 2025 21:13:08.755,31 Mar 2025 21:23:14.994,606.239
495,1 Apr 2025 07:10:34.449,1 Apr 2025 07:12:51.849,137.400
496,1 Apr 2025 08:40:43.639,1 Apr 2025 08:52:06.360,682.721
497,1 Apr 2025 10:15:00.916,1 Apr 2025 10:24:45.167,584.251
498,1 Apr 2025 19:20:21.773,1 Apr 2025 19:30:56.804,635.031
499,1 Apr 2025 20:53:53.917,1 Apr 2025 21:04:48.958,655.041
500,2 Apr 2025 08:22:10.389,2 Apr 2025 08:33:04.392,654.003
501,2 Apr 2025 09:56:01.830,2 Apr 2025 10:06:38.037,636.207
502,2 Apr 2025 19:02:14.983,2 Apr 2025 19:11:57.541,582.558
503,2 Apr 2025 20:34:52.281,2 Apr 2025 20:46:15.537,683.256
504,2 Apr 2025 22:13:59.185,2 Apr 2025 22:16:31.469,152.284
505,3 Apr 2025 08:03:44.589,3 Apr 2025 08:13:49.156,604.568
506,3 Apr 2025 09:37:08.395,3 Apr 2025 09:48:19.277,670.883
507,3 Apr 2025 11:13:29.064,3 Apr 2025 11:17:23.650,234.586
508,3 Apr 2025 18:44:22.012,3 Apr 2025 18:52:50.638,508.626
509,3 Apr 2025 20:16:02.079,3 Apr 2025 20:27:36.390,694.310
510,3 Apr 2025 21:52:51.751,3 Apr 2025 21:59:38.835,407.083
511,4 Apr 2025 07:45:29.698,4 Apr 2025 07:54:16.995,527.297
512,4 Apr 2025 09:18:19.787,4 Apr 2025 09:29:49.851,690.064
513,4 Apr 2025 10:53:40.179,4 Apr 2025 11:00:25.565,405.386
514,4 Apr 2025 18:26:47.884,4 Apr 2025 18:33:31.286,403.402
515,4 Apr 2025 19:57:22.458,4 Apr 2025 20:08:52.346,689.888
516,4 Apr 2025 21:32:54.259,4 Apr 2025 21:41:43.036,528.776
517,5 Apr 2025 07:27:34.333,5 Apr 2025 07:34:18.966,404.632
518,5 Apr 2025 08:59:35.812,5 Apr 2025 09:11:10.073,694.262
519,5 Apr 2025 10:34:21.094,5 Apr 2025 10:42:51.069,509.975
520,5 Apr 2025 18:09:50.793,5 Apr 2025 18:13:41.519,230.726
521,5 Apr 2025 19:38:53.198,5 Apr 2025 19:50:03.664,670.466
522,5 Apr 2025 21:13:22.408,5 Apr 2025 21:23:27.931,605.523
523,6 Apr 2025 07:10:44.547,6 Apr 2025 07:13:08.572,144.025
524,6 Apr 2025 08:40:56.749,6 Apr 2025 08:52:19.701,682.952
525,6 Apr 2025 10:15:14.336,6 Apr 2025 10:24:57.858,583.523
526,6 Apr 2025 19:20:34.609,6 Apr 2025 19:31:10.147,635.538
527,6 Apr 2025 20:54:07.400,6 Apr 2025 21:05:01.996,654.595
528,7 Apr 2025 08:22:23.423,7 Apr 2025 08:33:17.877,654.454
529,7 Apr 2025 09:56:15.173,7 Apr 2025 10:06:50.874,635.701
530,7 Apr 2025 19:02:27.672,7 Apr 2025 19:12:10.959,583.286
531,7 Apr 2025 20:35:05.620,7 Apr 2025 20:46:28.650,683.030
532,7 Apr 2025 22:14:15.692,7 Apr 2025 22:16:41.786,146.094
533,8 Apr 2025 08:03:57.523,8 Apr 2025 08:14:02.812,605.288
534,8 Apr 2025 09:37:21.673,8 Apr 2025 09:48:32.240,670.567
535,8 Apr 2025 11:13:43.462,8 Apr 2025 11:17:35.130,231.668
536,8 Apr 2025 18:44:34.520,8 Apr 2025 18:53:04.164,509.644
537,8 Apr 2025 20:16:15.290,8 Apr 2025 20:27:49.563,694.273
538,8 Apr 2025 21:53:06.045,8 Apr 2025 21:59:51.280,405.235
539,9 Apr 2025 07:45:42.469,9 Apr 2025 07:54:30.885,528.416
540,9 Apr 2025 09:18:33.015,9 Apr 2025 09:30:02.940,689.925
541,9 Apr 2025 10:53:53.907,9 Apr 2025 11:00:37.795,403.888
542,9 Apr 2025 18:27:00.116,9 Apr 2025 18:33:45.011,404.895
543,9 Apr 2025 19:57:35.547,9 Apr 2025 20:09:05.574,690.027
544,9 Apr 2025 21:33:08.148,9 Apr 2025 21:41:55.809,527.661
545,10 Apr 2025 07:27:46.768,10 Apr 2025 07:34:33.264,406.496
546,10 Apr 2025 08:59:48.984,10 Apr 2025 09:11:23.287,694.303
547,10 Apr 2025 10:34:34.622,10 Apr 2025 10:43:03.576,508.954
548,10 Apr 2025 18:10:02.273,10 Apr 2025 18:13:55.917,233.643
549,10 Apr 2025 19:39:06.165,10 Apr 2025 19:50:16.945,670.780
550,10 Apr 2025 21:13:36.063,10 Apr 2025 21:23:40.866,604.803
551,11 Apr 2025 07:10:54.808,11 Apr 2025 07:13:25.138,150.331
552,11 Apr 2025 08:41:09.857,11 Apr 2025 08:52:33.041,683.184
553,11 Apr 2025 10:15:27.755,11 Apr 2025 10:25:10.548,582.793
554,11 Apr 2025 19:20:47.449,11 Apr 2025 19:31:23.487,636.038
555,11 Apr 2025 20:54:20.886,11 Apr 2025 21:05:15.029,654.143
556,12 Apr 2025 08:22:36.460,12 Apr 2025 08:33:31.360,654.900
557,12 Apr 2025 09:56:28.518,12 Apr 2025 10:07:03.711,635.193
558,12 Apr 2025 19:02:40.364,12 Apr 2025 19:12:24.377,584.013
559,12 Apr 2025 20:35:18.961,12 Apr 2025 20:46:41.762,682.800
560,12 Apr 2025 22:14:32.351,12 Apr 2025 22:16:51.950,139.599
561,13 Apr 2025 08:04:10.458,13 Apr 2025 08:14:16.471,606.013
562,13 Apr 2025 09:37:34.958,13 Apr 2025 09:48:45.208,670.250
563,13 Apr 2025 11:13:57.879,13 Apr 2025 11:17:46.592,228.713
564,13 Apr 2025 18:44:47.030,13 Apr 2025 18:53:17.690,510.660
565,13 Apr 2025 20:16:28.504,13 Apr 2025 20:28:02.737,694.234
566,13 Apr 2025 21:53:20.348,13 Apr 2025 22:00:03.719,403.371
567,14 Apr 2025 07:45:55.244,14 Apr 2025 07:54:44.773,529.529
568,14 Apr 2025 09:18:46.243,14 Apr 2025 09:30:16.030,689.787
569,14 Apr 2025 10:54:07.640,14 Apr 2025 11:00:50.023,402.383
570,14 Apr 2025 18:27:12.351,14 Apr 2025 18:33:58.735,406.384
571,14 Apr 2025 19:57:48.639,14 Apr 2025 20:09:18.803,690.164
572,14 Apr 2025 21:33:22.041,14 Apr 2025 21:42:08.581,526.539
573,15 Apr 2025 07:27:59.217,15 Apr 2025 07:34:47.557,408.340
574,15 Apr 2025 09:00:02.159,15 Apr 2025 09:11:36.495,694.336
575,15 Apr 2025 10:34:48.153,15 Apr 2025 10:43:16.081,507.928
576,15 Apr 2025 18:10:13.775,15 Apr 2025 18:14:10.298,236.523
577,15 Apr 2025 19:39:19.134,15 Apr 2025 19:50:30.229,671.095
578,15 Apr 2025 21:13:49.717,15 Apr 2025 21:23:53.800,604.083
579,16 Apr 2025 07:11:05.198,16 Apr 2025 07:13:41.573,156.376
580,16 Apr 2025 08:41:22.970,16 Apr 2025 08:52:46.381,683.411
581,16 Apr 2025 10:15:41.177,16 Apr 2025 10:25:23.237,582.060
582,16 Apr 2025 19:21:00.290,16 Apr 2025 19:31:36.831,636.541
583,16 Apr 2025 20:54:34.373,16 Apr 2025 21:05:28.067,653.693
584,17 Apr 2025 08:22:49.499,17 Apr 2025 08:33:44.842,655.344
585,17 Apr 2025 09:56:41.865,17 Apr 2025 10:07:16.547,634.682
586,17 Apr 2025 19:02:53.059,17 Apr 2025 19:12:37.795,584.736
587,17 Apr 2025 20:35:32.305,17 Apr 2025 20:46:54.874,682.569
588,17 Apr 2025 22:14:49.176,17 Apr 2025 22:17:01.952,132.777
589,18 Apr 2025 08:04:23.394,18 Apr 2025 08:14:30.125,606.731
590,18 Apr 2025 09:37:48.244,18 Apr 2025 09:48:58.172,669.928
591,18 Apr 2025 11:14:12.321,18 Apr 2025 11:17:58.031,225.710
592,18 Apr 2025 18:44:59.545,18 Apr 2025 18:53:31.215,511.670
593,18 Apr 2025 20:16:41.719,18 Apr 2025 20:28:15.912,694.192
594,18 Apr 2025 21:53:34.658,18 Apr 2025 22:00:16.153,401.495
595,19 Apr 2025 07:46:08.020,19 Apr 2025 07:54:58.659,530.638
596,19 Apr 2025 09:18:59.473,19 Apr 2025 09:30:29.118,689.644
597,19 Apr 2025 10:54:21.378,19 Apr 2025 11:01:02.245,400.867
598,19 Apr 2025 18:27:24.594,19 Apr 2025 18:34:12.455,407.861
599,19 Apr 2025 19:58:01.732,19 Apr 2025 20:09:32.031,690.299
600,19 Apr 2025 21:33:35.938,19 Apr 2025 21:42:21.351,525.413
601,20 Apr 2025 07:28:11.670,20 Apr 2025 07:35:01.844,410.174
602,20 Apr 2025 09:00:15.335,20 Apr 2025 09:11:49.710,694.375
603,20 Apr 2025 10:35:01.687,20 Apr 2025 10:43:28.583,506.896
604,20 Apr 2025 18:10:25.297,20 Apr 2025 18:14:24.657,239.360
605,20 Apr 2025 19:39:32.106,20 Apr 2025 19:50:43.512,671.407
606,20 Apr 2025 21:14:03.378,20 Apr 2025 21:24:06.733,603.355
607,21 Apr 2025 07:11:15.701,21 Apr 2025 07:13:57.888,162.187
608,21 Apr 2025 08:41:36.084,21 Apr 2025 08:52:59.719,683.635
609,21 Apr 2025 10:15:54.600,21 Apr 2025 10:25:35.923,581.323
610,21 Apr 2025 19:21:13.132,21 Apr 2025 19:31:50.173,637.041
611,21 Apr 2025 20:54:47.861,21 Apr 2025 21:05:41.102,653.241
612,22 Apr 2025 08:23:02.542,22 Apr 2025 08:33:58.322,655.780
613,22 Apr 2025 09:56:55.211,22 Apr 2025 10:07:29.380,634.168
614,22 Apr 2025 19:03:05.758,22 Apr 2025 19:12:51.207,585.449
615,22 Apr 2025 20:35:45.653,22 Apr 2025 20:47:07.981,682.327
616,22 Apr 2025 22:15:06.190,22 Apr 2025 22:17:11.758,125.568
617,23 Apr 2025 08:04:36.332,23 Apr 2025 08:14:43.775,607.443
618,23 Apr 2025 09:38:01.529,23 Apr 2025 09:49:11.137,669.607
619,23 Apr 2025 11:14:26.783,23 Apr 2025 11:18:09.447,222.664
620,23 Apr 2025 18:45:12.056,23 Apr 2025 18:53:44.737,512.681
621,23 Apr 2025 20:16:54.935,23 Apr 2025 20:28:29.084,694.149
622,23 Apr 2025 21:53:48.974,23 Apr 2025 22:00:28.579,399.605
623,24 Apr 2025 07:46:20.799,24 Apr 2025 07:55:12.540,531.741
624,24 Apr 2025 09:19:12.704,24 Apr 2025 09:30:42.203,689.500
625,24 Apr 2025 10:54:35.117,24 Apr 2025 11:01:14.463,399.346
626,24 Apr 2025 18:27:36.839,24 Apr 2025 18:34:26.171,409.332
627,24 Apr 2025 19:58:14.826,24 Apr 2025 20:09:45.258,690.432
628,24 Apr 2025 21:33:49.837,24 Apr 2025 21:42:34.117,524.280
629,25 Apr 2025 07:28:24.128,25 Apr 2025 07:35:16.121,411.994
630,25 Apr 2025 09:00:28.508,25 Apr 2025 09:12:02.917,694.409
631,25 Apr 2025 10:35:15.221,25 Apr 2025 10:43:41.083,505.862
632,25 Apr 2025 18:10:36.839,25 Apr 2025 18:14:38.998,242.159
633,25 Apr 2025 19:39:45.082,25 Apr 2025 19:50:56.796,671.715
634,25 Apr 2025 21:14:17.041,25 Apr 2025 21:24:19.659,602.618
635,26 Apr 2025 07:11:26.317,26 Apr 2025 07:14:14.090,167.773
636,26 Apr 2025 08:41:49.199,26 Apr 2025 08:53:13.055,683.856
637,26 Apr 2025 10:16:08.023,26 Apr 2025 10:25:48.608,580.584
638,26 Apr 2025 19:21:25.975,26 Apr 2025 19:32:03.512,637.537
639,26 Apr 2025 20:55:01.351,26 Apr 2025 21:05:54.136,652.785
640,27 Apr 2025 08:23:15.578,27 Apr 2025 08:34:11.800,656.222
641,27 Apr 2025 09:57:08.559,27 Apr 2025 10:07:42.209,633.650
642,27 Apr 2025 19:03:18.456,27 Apr 2025 19:13:04.624,586.167
643,27 Apr 2025 20:35:59.001,27 Apr 2025 20:47:21.091,682.090
644,27 Apr 2025 22:15:23.445,27 Apr 2025 22:17:21.335,117.890
645,28 Apr 2025 08:04:49.273,28 Apr 2025 08:14:57.424,608.151
646,28 Apr 2025 09:38:14.817,28 Apr 2025 09:49:24.101,669.284
647,28 Apr 2025 11:14:41.266,28 Apr 2025 11:18:20.843,219.578
648,28 Apr 2025 18:45:24.576,28 Apr 2025 18:53:58.260,513.684
649,28 Apr 2025 20:17:08.154,28 Apr 2025 20:28:42.255,694.101
650,28 Apr 2025 21:54:03.300,28 Apr 2025 22:00:40.999,397.699
651,29 Apr 2025 07:46:33.582,29 Apr 2025 07:55:26.418,532.836
652,29 Apr 2025 09:19:25.936,29 Apr 2025 09:30:55.290,689.353
653,29 Apr 2025 10:54:48.861,29 Apr 2025 11:01:26.678,397.817
654,29 Apr 2025 18:27:49.089,29 Apr 2025 18:34:39.886,410.797
655,29 Apr 2025 19:58:27.924,29 Apr 2025 20:09:58.486,690.563
656,29 Apr 2025 21:34:03.742,29 Apr 2025 21:42:46.883,523.140
657,30 Apr 2025 07:28:36.595,30 Apr 2025 07:35:30.395,413.800
658,30 Apr 2025 09:00:41.686,30 Apr 2025 09:12:16.126,694.440
659,30 Apr 2025 10:35:28.758,30 Apr 2025 10:43:53.582,504.824
660,30 Apr 2025 18:10:48.395,30 Apr 2025 18:14:53.330,244.934
661,30 Apr 2025 19:39:58.053,30 Apr 2025 19:51:10.079,672.026
662,30 Apr 2025 21:14:30.709,30 Apr 2025 21:24:32.594,601.885
663,1 May 2025 07:11:37.028,1 May 2025 07:14:30.202,173.174
664,1 May 2025 08:42:02.316,1 May 2025 08:53:26.391,684.075
665,1 May 2025 10:16:21.451,1 May 2025 10:26:01.292,579.841
666,1 May 2025 19:21:38.822,1 May 2025 19:32:16.854,638.032
667,1 May 2025 20:55:14.845,1 May 2025 21:06:07.172,652.327
668,2 May 2025 08:23:28.623,2 May 2025 08:34:25.278,656.656
669,2 May 2025 09:57:21.909,2 May 2025 10:07:55.041,633.132
670,2 May 2025 19:03:31.158,2 May 2025 19:13:18.039,586.882
671,2 May 2025 20:36:12.350,2 May 2025 20:47:34.202,681.852
672,2 May 2025 22:15:40.976,2 May 2025 22:17:30.641,109.665
673,3 May 2025 08:05:02.214,3 May 2025 08:15:11.072,608.857
674,3 May 2025 09:38:28.106,3 May 2025 09:49:37.064,668.958
675,3 May 2025 11:14:55.776,3 May 2025 11:18:32.212,216.436
676,3 May 2025 18:45:37.099,3 May 2025 18:54:11.781,514.682
677,3 May 2025 20:17:21.375,3 May 2025 20:28:55.428,694.053
678,3 May 2025 21:54:17.633,3 May 2025 22:00:53.414,395.781
679,4 May 2025 07:46:46.362,4 May 2025 07:55:40.294,533.932
680,4 May 2025 09:19:39.169,4 May 2025 09:31:08.374,689.204
681,4 May 2025 10:55:02.610,4 May 2025 11:01:38.887,396.277
682,4 May 2025 18:28:01.344,4 May 2025 18:34:53.596,412.252
683,4 May 2025 19:58:41.021,4 May 2025 20:10:11.713,690.691
684,4 May 2025 21:34:17.649,4 May 2025 21:42:59.645,521.996
685,5 May 2025 07:28:49.064,5 May 2025 07:35:44.660,415.596
686,5 May 2025 09:00:54.863,5 May 2025 09:12:29.332,694.468
687,5 May 2025 10:35:42.296,5 May 2025 10:44:06.077,503.780
688,5 May 2025 18:10:59.974,5 May 2025 18:15:07.635,247.661
689,5 May 2025 19:40:11.033,5 May 2025 19:51:23.360,672.327
690,5 May 2025 21:14:44.376,5 May 2025 21:24:45.518,601.142
691,6 May 2025 07:11:47.826,6 May 2025 07:14:46.222,178.396
692,6 May 2025 08:42:15.432,6 May 2025 08:53:39.720,684.288
693,6 May 2025 10:16:34.880,6 May 2025 10:26:13.973,579.092
694,6 May 2025 19:21:51.669,6 May 2025 19:32:30.195,638.525
695,6 May 2025 20:55:28.338,6 May 2025 21:06:20.204,651.866
696,7 May 2025 08:23:41.667,7 May 2025 08:34:38.753,657.086
697,7 May 2025 09:57:35.260,7 May 2025 10:08:07.869,632.610
698,7 May 2025 19:03:43.859,7 May 2025 19:13:31.453,587.594
699,7 May 2025 20:36:25.700,7 May 2025 20:47:47.310,681.610
700,7 May 2025 22:15:58.852,7 May 2025 22:17:39.595,100.743
701,8 May 2025 08:05:15.157,8 May 2025 08:15:24.716,609.559
702,8 May 2025 09:38:41.396,8 May 2025 09:49:50.023,668.628
703,8 May 2025 11:15:10.305,8 May 2025 11:18:43.559,213.254
704,8 May 2025 18:45:49.622,8 May 2025 18:54:25.300,515.678
705,8 May 2025 20:17:34.593,8 May 2025 20:29:08.601,694.009
706,8 May 2025 21:54:31.970,8 May 2025 22:01:05.824,393.854
707,9 May 2025 07:46:59.149,9 May 2025 07:55:54.166,535.016
708,9 May 2025 09:19:52.403,9 May 2025 09:31:21.456,689.053
709,9 May 2025 10:55:16.359,9 May 2025 11:01:51.092,394.733
710,9 May 2025 18:28:13.601,9 May 2025 18:35:07.305,413.705
711,9 May 2025 19:58:54.121,9 May 2025 20:10:24.939,690.818
712,9 May 2025 21:34:31.560,9 May 2025 21:43:12.404,520.843
713,10 May 2025 07:29:01.543,10 May 2025 07:35:58.923,417.381
714,10 May 2025 09:01:08.041,10 May 2025 09:12:42.536,694.495
715,10 May 2025 10:35:55.838,10 May 2025 10:44:18.570,502.732
716,10 May 2025 18:11:11.561,10 May 2025 18:15:21.937,250.377
717,10 May 2025 19:40:24.006,10 May 2025 19:51:36.638,672.632
718,10 May 2025 21:14:58.047,10 May 2025 21:24:58.449,600.402
719,11 May 2025 07:11:58.707,11 May 2025 07:15:02.160,183.453
720,11 May 2025 08:42:28.551,11 May 2025 08:53:53.053,684.502
721,11 May 2025 10:16:48.303,11 May 2025 10:26:26.653,578.350
722,11 May 2025 19:22:04.516,11 May 2025 19:32:43.536,639.020
723,11 May 2025 20:55:41.835,11 May 2025 21:06:33.236,651.401
724,12 May 2025 08:23:54.711,12 May 2025 08:34:52.224,657.512
725,12 May 2025 09:57:48.613,12 May 2025 10:08:20.698,632.085
726,12 May 2025 19:03:56.564,12 May 2025 19:13:44.868,588.304
727,12 May 2025 20:36:39.053,12 May 2025 20:48:00.419,681.366
728,12 May 2025 22:16:17.180,12 May 2025 22:17:48.096,90.916
729,13 May 2025 08:05:28.098,13 May 2025 08:15:38.359,610.261
730,13 May 2025 09:38:54.686,13 May 2025 09:50:02.982,668.296
731,13 May 2025 11:15:24.860,13 May 2025 11:18:54.881,210.021
732,13 May 2025 18:46:02.149,13 May 2025 18:54:38.820,516.670
733,13 May 2025 20:17:47.817,13 May 2025 20:29:21.773,693.956
734,13 May 2025 21:54:46.321,13 May 2025 22:01:18.223,391.903
735,14 May 2025 07:47:11.942,14 May 2025 07:56:08.036,536.094
736,14 May 2025 09:20:05.638,14 May 2025 09:31:34.539,688.901
737,14 May 2025 10:55:30.114,14 May 2025 11:02:03.295,393.180
738,14 May 2025 18:28:25.863,14 May 2025 18:35:21.013,415.150
739,14 May 2025 19:59:07.227,14 May 2025 20:10:38.166,690.939
740,14 May 2025 21:34:45.476,14 May 2025 21:43:25.161,519.684
741,15 May 2025 07:29:14.027,15 May 2025 07:36:13.176,419.149
742,15 May 2025 09:01:21.221,15 May 2025 09:12:55.740,694.519
743,15 May 2025 10:36:09.380,15 May 2025 10:44:31.062,501.681
744,15 May 2025 18:11:23.168,15 May 2025 18:15:36.220,253.052
745,15 May 2025 19:40:36.986,15 May 2025 19:51:49.918,672.932
746,15 May 2025 21:15:11.722,15 May 2025 21:25:11.375,599.654
747,16 May 2025 07:12:09.659,16 May 2025 07:15:18.026,188.366
748,16 May 2025 08:42:41.671,16 May 2025 08:54:06.385,684.714
749,16 May 2025 10:17:01.733,16 May 2025 10:26:39.332,577.599
750,16 May 2025 19:22:17.368,16 May 2025 19:32:56.877,639.509
751,16 May 2025 20:55:55.334,16 May 2025 21:06:46.268,650.934
752,17 May 2025 08:24:07.756,17 May 2025 08:35:05.696,657.940
753,17 May 2025 09:58:01.965,17 May 2025 10:08:33.526,631.561
754,17 May 2025 19:04:09.271,17 May 2025 19:13:58.282,589.011
755,17 May 2025 20:36:52.407,17 May 2025 20:48:13.527,681.120
756,17 May 2025 22:16:36.124,17 May 2025 22:17:55.990,79.866
757,18 May 2025 08:05:41.045,18 May 2025 08:15:51.996,610.951
758,18 May 2025 09:39:07.978,18 May 2025 09:50:15.941,667.962
759,18 May 2025 11:15:39.443,18 May 2025 11:19:06.173,206.729
760,18 May 2025 18:46:14.678,18 May 2025 18:54:52.338,517.660
761,18 May 2025 20:18:01.046,18 May 2025 20:29:34.938,693.892
762,18 May 2025 21:55:00.683,18 May 2025 22:01:30.612,389.929
763,19 May 2025 07:47:24.736,19 May 2025 07:56:21.903,537.167
764,19 May 2025 09:20:18.873,19 May 2025 09:31:47.619,688.746
765,19 May 2025 10:55:43.873,19 May 2025 11:02:15.491,391.618
766,19 May 2025 18:28:38.130,19 May 2025 18:35:34.715,416.585
767,19 May 2025 19:59:20.325,19 May 2025 20:10:51.391,691.065
768,19 May 2025 21:34:59.395,19 May 2025 21:43:37.920,518.525
769,20 May 2025 07:29:26.516,20 May 2025 07:36:27.422,420.906
770,20 May 2025 09:01:34.401,20 May 2025 09:13:08.939,694.537
771,20 May 2025 10:36:22.922,20 May 2025 10:44:43.554,500.633
772,20 May 2025 18:11:34.792,20 May 2025 18:15:50.485,255.693
773,20 May 2025 19:40:49.966,20 May 2025 19:52:03.200,673.235
774,20 May 2025 21:15:25.397,20 May 2025 21:25:24.299,598.902
775,21 May 2025 07:12:20.679,21 May 2025 07:15:33.822,193.143
776,21 May 2025 08:42:54.790,21 May 2025 08:54:19.713,684.923
777,21 May 2025 10:17:15.163,21 May 2025 10:26:52.008,576.845
778,21 May 2025 19:22:30.220,21 May 2025 19:33:10.216,639.996
779,21 May 2025 20:56:08.834,21 May 2025 21:06:59.297,650.463
780,22 May 2025 08:24:20.803,22 May 2025 08:35:19.166,658.363
781,22 May 2025 09:58:15.315,22 May 2025 10:08:46.350,631.035
782,22 May 2025 19:04:21.978,22 May 2025 19:14:11.691,589.713
783,22 May 2025 20:37:05.762,22 May 2025 20:48:26.634,680.871
784,22 May 2025 22:16:55.983,22 May 2025 22:18:02.963,66.979
785,23 May 2025 08:05:53.992,23 May 2025 08:16:05.632,611.640
786,23 May 2025 09:39:21.265,23 May 2025 09:50:28.896,667.631
787,23 May 2025 11:15:54.051,23 May 2025 11:19:17.438,203.387
788,23 May 2025 18:46:27.205,23 May 2025 18:55:05.854,518.649
789,23 May 2025 20:18:14.271,23 May 2025 20:29:48.107,693.836
790,23 May 2025 21:55:15.048,23 May 2025 22:01:42.996,387.947
791,24 May 2025 07:47:37.529,24 May 2025 07:56:35.767,538.238
792,24 May 2025 09:20:32.113,24 May 2025 09:32:00.701,688.588
793,24 May 2025 10:55:57.634,24 May 2025 11:02:27.684,390.050
794,24 May 2025 18:28:50.402,24 May 2025 18:35:48.421,418.019
795,24 May 2025 19:59:33.433,24 May 2025 20:11:04.611,691.178
796,24 May 2025 21:35:13.314,24 May 2025 21:43:50.665,517.351
797,25 May 2025 07:29:39.012,25 May 2025 07:36:41.660,422.648
798,25 May 2025 09:01:47.584,25 May 2025 09:13:22.139,694.555
799,25 May 2025 10:36:36.465,25 May 2025 10:44:56.041,499.576
800,25 May 2025 18:11:46.429,25 May 2025 18:16:04.740,258.311
801,25 May 2025 19:41:02.948,25 May 2025 19:52:16.481,673.533
802,25 May 2025 21:15:39.076,25 May 2025 21:25:37.221,598.144
803,26 May 2025 07:12:31.766,26 May 2025 07:15:49.552,197.786
804,26 May 2025 08:43:07.913,26 May 2025 08:54:33.042,685.128
805,26 May 2025 10:17:28.595,26 May 2025 10:27:04.683,576.088
806,26 May 2025 19:22:43.075,26 May 2025 19:33:23.554,640.479
807,26 May 2025 20:56:22.337,26 May 2025 21:07:12.326,649.989
808,27 May 2025 08:24:33.853,27 May 2025 08:35:32.636,658.783
809,27 May 2025 09:58:28.670,27 May 2025 10:08:59.175,630.506
810,27 May 2025 19:04:34.689,27 May 2025 19:14:25.104,590.416
811,27 May 2025 20:37:19.121,27 May 2025 20:48:39.740,680.620
812,27 May 2025 22:17:17.457,27 May 2025 22:18:08.323,50.866
813,28 May 2025 08:06:06.943,28 May 2025 08:16:19.274,612.331
814,28 May 2025 09:39:34.557,28 May 2025 09:50:41.848,667.291
815,28 May 2025 11:16:08.693,28 May 2025 11:19:28.677,199.984
816,28 May 2025 18:46:39.741,28 May 2025 18:55:19.369,519.628
817,28 May 2025 20:18:27.497,28 May 2025 20:30:01.281,693.784
818,28 May 2025 21:55:29.421,28 May 2025 22:01:55.378,385.957
819,29 May 2025 07:47:50.328,29 May 2025 07:56:49.627,539.299
820,29 May 2025 09:20:45.351,29 May 2025 09:32:13.780,688.429
821,29 May 2025 10:56:11.400,29 May 2025 11:02:39.873,388.472
822,29 May 2025 18:29:02.677,29 May 2025 18:36:02.120,419.443
823,29 May 2025 19:59:46.540,29 May 2025 20:11:17.837,691.297
824,29 May 2025 21:35:27.241,29 May 2025 21:44:03.415,516.173
825,30 May 2025 07:29:51.514,30 May 2025 07:36:55.895,424.381
826,30 May 2025 09:02:00.767,30 May 2025 09:13:35.340,694.572
827,30 May 2025 10:36:50.012,30 May 2025 10:45:08.525,498.513
828,30 May 2025 18:11:58.083,30 May 2025 18:16:18.979,260.896
829,30 May 2025 19:41:15.932,30 May 2025 19:52:29.756,673.824
830,30 May 2025 21:15:52.758,30 May 2025 21:25:50.142,597.384
831,31 May 2025 07:12:42.908,31 May 2025 07:16:05.227,202.319
832,31 May 2025 08:43:21.036,31 May 2025 08:54:46.369,685.333
833,31 May 2025 10:17:42.028,31 May 2025 10:27:17.356,575.329
834,31 May 2025 19:22:55.930,31 May 2025 19:33:36.893,640.962
835,31 May 2025 20:56:35.842,31 May 2025 21:07:25.355,649.513
836,1 Jun 2025 08:24:46.902,1 Jun 2025 08:35:46.103,659.201
837,1 Jun 2025 09:58:42.024,1 Jun 2025 10:09:12.000,629.976
838,1 Jun 2025 19:04:47.397,1 Jun 2025 19:14:38.519,591.123
839,1 Jun 2025 20:37:32.476,1 Jun 2025 20:48:52.850,680.375
840,1 Jun 2025 22:17:43.198,1 Jun 2025 22:18:09.420,26.222
841,2 Jun 2025 08:06:19.896,2 Jun 2025 08:16:32.908,613.012
842,2 Jun 2025 09:39:47.849,2 Jun 2025 09:50:54.802,666.952
843,2 Jun 2025 11:16:23.362,2 Jun 2025 11:19:39.880,196.517
844,2 Jun 2025 18:46:52.276,2 Jun 2025 18:55:32.881,520.605
845,2 Jun 2025 20:18:40.726,2 Jun 2025 20:30:14.449,693.723
846,2 Jun 2025 21:55:43.803,2 Jun 2025 22:02:07.748,383.945
847,3 Jun 2025 07:48:03.128,3 Jun 2025 07:57:03.483,540.355
848,3 Jun 2025 09:20:58.587,3 Jun 2025 09:32:26.852,688.265
849,3 Jun 2025 10:56:25.169,3 Jun 2025 11:02:52.055,386.886
850,3 Jun 2025 18:29:14.954,3 Jun 2025 18:36:15.814,420.860
851,3 Jun 2025 19:59:59.644,3 Jun 2025 20:11:31.060,691.416
852,3 Jun 2025 21:35:41.170,3 Jun 2025 21:44:16.160,514.989
853,4 Jun 2025 07:30:04.020,4 Jun 2025 07:37:10.120,426.100
854,4 Jun 2025 09:02:13.952,4 Jun 2025 09:13:48.537,694.585
855,4 Jun 2025 10:37:03.559,4 Jun 2025 10:45:21.006,497.448
856,4 Jun 2025 18:12:09.749,4 Jun 2025 18:16:33.208,263.458
857,4 Jun 2025 19:41:28.917,4 Jun 2025 19:52:43.034,674.117
858,4 Jun 2025 21:16:06.441,4 Jun 2025 21:26:03.060,596.619
859,5 Jun 2025 07:12:54.107,5 Jun 2025 07:16:20.842,206.734
860,5 Jun 2025 08:43:34.160,5 Jun 2025 08:54:59.693,685.533
861,5 Jun 2025 10:17:55.458,5 Jun 2025 10:27:30.027,574.570
862,5 Jun 2025 19:23:08.784,5 Jun 2025 19:33:50.231,641.446
863,5 Jun 2025 20:56:49.347,5 Jun 2025 21:07:38.380,649.033
864,6 Jun 2025 08:24:59.950,6 Jun 2025 08:35:59.566,659.617
865,6 Jun 2025 09:58:55.376,6 Jun 2025 10:09:24.821,629.445
866,6 Jun 2025 19:05:00.112,6 Jun 2025 19:14:51.925,591.813
867,6 Jun 2025 20:37:45.840,6 Jun 2025 20:49:05.950,680.110
868,7 Jun 2025 08:06:32.849,7 Jun 2025 08:16:46.538,613.689
869,7 Jun 2025 09:40:01.142,7 Jun 2025 09:51:07.754,666.612
870,7 Jun 2025 11:16:38.059,7 Jun 2025 11:19:51.054,192.995
871,7 Jun 2025 18:47:04.811,7 Jun 2025 18:55:46.394,521.583
872,7 Jun 2025 20:18:53.957,7 Jun 2025 20:30:27.616,693.659
873,7 Jun 2025 21:55:58.195,7 Jun 2025 22:02:20.108,381.913
874,8 Jun 2025 07:48:15.932,8 Jun 2025 07:57:17.335,541.403
875,8 Jun 2025 09:21:11.825,8 Jun 2025 09:32:39.927,688.102
876,8 Jun 2025 10:56:38.940,8 Jun 2025 11:03:04.235,385.295
877,8 Jun 2025 18:29:27.234,8 Jun 2025 18:36:29.507,422.274
878,8 Jun 2025 20:00:12.753,8 Jun 2025 20:11:44.284,691.531
879,8 Jun 2025 21:35:55.105,8 Jun 2025 21:44:28.901,513.796
880,9 Jun 2025 07:30:16.535,9 Jun 2025 07:37:24.339,427.805
881,9 Jun 2025 09:02:27.135,9 Jun 2025 09:14:01.733,694.598
882,9 Jun 2025 10:37:17.107,9 Jun 2025 10:45:33.486,496.379
883,9 Jun 2025 18:12:21.429,9 Jun 2025 18:16:47.424,265.996
884,9 Jun 2025 19:41:41.907,9 Jun 2025 19:52:56.316,674.409
885,9 Jun 2025 21:16:20.130,9 Jun 2025 21:26:15.973,595.844
886,10 Jun 2025 07:13:05.360,10 Jun 2025 07:16:36.404,211.044
887,10 Jun 2025 08:43:47.283,10 Jun 2025 08:55:13.017,685.734
888,10 Jun 2025 10:18:08.892,10 Jun 2025 10:27:42.697,573.806
889,10 Jun 2025 19:23:21.643,10 Jun 2025 19:34:03.571,641.928
890,10 Jun 2025 20:57:02.852,10 Jun 2025 21:07:51.404,648.552
891,11 Jun 2025 08:25:13.002,11 Jun 2025 08:36:13.030,660.028
892,11 Jun 2025 09:59:08.731,11 Jun 2025 10:09:37.638,628.907
893,11 Jun 2025 19:05:12.827,11 Jun 2025 19:15:05.335,592.508
894,11 Jun 2025 20:37:59.203,11 Jun 2025 20:49:19.054,679.851
895,12 Jun 2025 08:06:45.806,12 Jun 2025 08:17:00.168,614.362
896,12 Jun 2025 09:40:14.436,12 Jun 2025 09:51:20.703,666.267
897,12 Jun 2025 11:16:52.793,12 Jun 2025 11:20:02.193,189.400
898,12 Jun 2025 18:47:17.350,12 Jun 2025 18:55:59.906,522.556
899,12 Jun 2025 20:19:07.190,12 Jun 2025 20:30:40.783,693.593
900,12 Jun 2025 21:56:12.597,12 Jun 2025 22:02:32.462,379.864
901,13 Jun 2025 07:48:28.739,13 Jun 2025 07:57:31.186,542.447
902,13 Jun 2025 09:21:25.064,13 Jun 2025 09:32:53.001,687.937
903,13 Jun 2025 10:56:52.716,13 Jun 2025 11:03:16.410,383.694
904,13 Jun 2025 18:29:39.519,13 Jun 2025 18:36:43.198,423.679
905,13 Jun 2025 20:00:25.863,13 Jun 2025 20:11:57.505,691.642
906,13 Jun 2025 21:36:09.043,13 Jun 2025 21:44:41.640,512.598
907,14 Jun 2025 07:30:29.049,14 Jun 2025 07:37:38.553,429.505
908,14 Jun 2025 09:02:40.320,14 Jun 2025 09:14:14.929,694.609
909,14 Jun 2025 10:37:30.658,14 Jun 2025 10:45:45.963,495.305
910,14 Jun 2025 18:12:33.123,14 Jun 2025 18:17:01.626,268.503
911,14 Jun 2025 19:41:54.895,14 Jun 2025 19:53:09.593,674.698
912,14 Jun 2025 21:16:33.820,14 Jun 2025 21:26:28.889,595.070
913,15 Jun 2025 07:13:16.658,15 Jun 2025 07:16:51.920,215.262
914,15 Jun 2025 08:44:00.409,15 Jun 2025 08:55:26.339,685.930
915,15 Jun 2025 10:18:22.324,15 Jun 2025 10:27:55.362,573.038
916,15 Jun 2025 19:23:34.503,15 Jun 2025 19:34:16.908,642.404
917,15 Jun 2025 20:57:16.362,15 Jun 2025 21:08:04.429,648.067
918,16 Jun 2025 08:25:26.056,16 Jun 2025 08:36:26.492,660.436
919,16 Jun 2025 09:59:22.088,16 Jun 2025 10:09:50.455,628.367
920,16 Jun 2025 19:05:25.544,16 Jun 2025 19:15:18.744,593.200
921,16 Jun 2025 20:38:12.567,16 Jun 2025 20:49:32.156,679.590
922,17 Jun 2025 08:06:58.760,17 Jun 2025 08:17:13.795,615.035
923,17 Jun 2025 09:40:27.729,17 Jun 2025 09:51:33.652,665.923
924,17 Jun 2025 11:17:07.562,17 Jun 2025 11:20:13.293,185.731
925,17 Jun 2025 18:47:29.891,17 Jun 2025 18:56:13.419,523.528
926,17 Jun 2025 20:19:20.427,17 Jun 2025 20:30:53.944,693.517
927,17 Jun 2025 21:56:27.010,17 Jun 2025 22:02:44.802,377.793
928,18 Jun 2025 07:48:41.547,18 Jun 2025 07:57:45.031,543.485
929,18 Jun 2025 09:21:38.303,18 Jun 2025 09:33:06.073,687.770
930,18 Jun 2025 10:57:06.495,18 Jun 2025 11:03:28.579,382.083
931,18 Jun 2025 18:29:51.807,18 Jun 2025 18:36:56.884,425.077
932,18 Jun 2025 20:00:38.973,18 Jun 2025 20:12:10.727,691.754
933,18 Jun 2025 21:36:22.983,18 Jun 2025 21:44:54.376,511.393
934,19 Jun 2025 07:30:41.572,19 Jun 2025 07:37:52.755,431.183
935,19 Jun 2025 09:02:53.504,19 Jun 2025 09:14:28.122,694.618
936,19 Jun 2025 10:37:44.207,19 Jun 2025 10:45:58.436,494.229
937,19 Jun 2025 18:12:44.830,19 Jun 2025 18:17:15.815,270.985
938,19 Jun 2025 19:42:07.883,19 Jun 2025 19:53:22.864,674.981
939,19 Jun 2025 21:16:47.511,19 Jun 2025 21:26:41.802,594.291
940,20 Jun 2025 07:13:28.003,20 Jun 2025 07:17:07.388,219.385
941,20 Jun 2025 08:44:13.533,20 Jun 2025 08:55:39.659,686.126
942,20 Jun 2025 10:18:35.758,20 Jun 2025 10:28:08.027,572.269
943,20 Jun 2025 19:23:47.364,20 Jun 2025 19:34:30.242,642.878
944,20 Jun 2025 20:57:29.873,20 Jun 2025 21:08:17.451,647.577
945,21 Jun 2025 08:25:39.108,21 Jun 2025 08:36:39.951,660.843
946,21 Jun 2025 09:59:35.444,21 Jun 2025 10:10:03.271,627.827
947,21 Jun 2025 19:05:38.262,21 Jun 2025 19:15:32.151,593.890
948,21 Jun 2025 20:38:25.932,21 Jun 2025 20:49:45.257,679.325
949,22 Jun 2025 08:07:11.716,22 Jun 2025 08:17:27.419,615.703
950,22 Jun 2025 09:40:41.023,22 Jun 2025 09:51:46.600,665.577
951,22 Jun 2025 11:17:22.364,22 Jun 2025 11:20:24.358,181.994
952,22 Jun 2025 18:47:42.437,22 Jun 2025 18:56:26.924,524.487
953,22 Jun 2025 20:19:33.659,22 Jun 2025 20:31:07.113,693.454
954,22 Jun 2025 21:56:41.425,22 Jun 2025 22:02:57.142,375.717
955,23 Jun 2025 07:48:54.359,23 Jun 2025 07:57:58.874,544.515
956,23 Jun 2025 09:21:51.540,23 Jun 2025 09:33:19.143,687.603
957,23 Jun 2025 10:57:20.277,23 Jun 2025 11:03:40.745,380.468
958,23 Jun 2025 18:30:04.098,23 Jun 2025 18:37:10.570,426.472
959,23 Jun 2025 20:00:52.086,23 Jun 2025 20:12:23.949,691.863
960,23 Jun 2025 21:36:36.929,23 Jun 2025 21:45:07.113,510.184
961,24 Jun 2025 07:30:54.103,24 Jun 2025 07:38:06.955,432.853
962,24 Jun 2025 09:03:06.690,24 Jun 2025 09:14:41.315,694.625
963,24 Jun 2025 10:37:57.760,24 Jun 2025 10:46:10.906,493.146
964,24 Jun 2025 18:12:56.548,24 Jun 2025 18:17:29.994,273.446
965,24 Jun 2025 19:42:20.870,24 Jun 2025 19:53:36.141,675.270
966,24 Jun 2025 21:17:01.201,24 Jun 2025 21:26:54.717,593.515
967,25 Jun 2025 07:13:39.393,25 Jun 2025 07:17:22.812,223.419
968,25 Jun 2025 08:44:26.660,25 Jun 2025 08:55:52.979,686.319
969,25 Jun 2025 10:18:49.195,25 Jun 2025 10:28:20.690,571.495
970,25 Jun 2025 19:24:00.228,25 Jun 2025 19:34:43.578,643.350
971,25 Jun 2025 20:57:43.388,25 Jun 2025 21:08:30.473,647.085
972,26 Jun 2025 08:25:52.164,26 Jun 2025 08:36:53.410,661.246
973,26 Jun 2025 09:59:48.801,26 Jun 2025 10:10:16.086,627.285
974,26 Jun 2025 19:05:50.982,26 Jun 2025 19:15:45.560,594.577
975,26 Jun 2025 20:38:39.299,26 Jun 2025 20:49:58.358,679.059
976,27 Jun 2025 08:07:24.679,27 Jun 2025 08:17:41.042,616.363
977,27 Jun 2025 09:40:54.319,27 Jun 2025 09:51:59.547,665.228
978,27 Jun 2025 11:17:37.210,27 Jun 2025 11:20:35.380,178.170
