3UCubedIntegratedSim/Reports & Plots/Comms/UNH/Sat 13 Comms.csv

"Access","Start Time (UTCG)","Stop Time (UTCG)","Duration (sec)"
1,1 Jan 2025 16:32:33.871,1 Jan 2025 16:39:59.584,445.713
2,1 Jan 2025 18:05:11.158,1 Jan 2025 18:16:26.105,674.947
3,1 Jan 2025 19:39:55.544,1 Jan 2025 19:47:49.947,474.403
4,2 Jan 2025 16:15:11.197,2 Jan 2025 16:19:24.045,252.848
5,2 Jan 2025 17:46:16.943,2 Jan 2025 17:57:38.766,681.822
6,2 Jan 2025 19:21:01.329,2 Jan 2025 19:30:01.281,539.952
7,3 Jan 2025 17:27:35.945,3 Jan 2025 17:38:40.292,664.347
8,3 Jan 2025 19:02:07.114,3 Jan 2025 19:11:57.879,590.765
9,4 Jan 2025 17:09:07.711,4 Jan 2025 17:19:29.214,621.503
10,4 Jan 2025 18:43:12.899,4 Jan 2025 18:53:42.383,629.484
11,4 Jan 2025 20:19:37.000,4 Jan 2025 20:22:01.140,144.140
12,5 Jan 2025 16:50:49.089,5 Jan 2025 17:00:02.575,553.487
13,5 Jan 2025 18:24:18.686,5 Jan 2025 18:35:16.026,657.341
14,5 Jan 2025 19:59:23.774,5 Jan 2025 20:05:29.375,365.602
15,6 Jan 2025 16:32:46.436,6 Jan 2025 16:40:13.732,447.296
16,6 Jan 2025 18:05:24.472,6 Jan 2025 18:16:39.282,674.809
17,6 Jan 2025 19:40:08.858,6 Jan 2025 19:48:02.389,473.531
18,7 Jan 2025 16:15:22.870,7 Jan 2025 16:19:39.166,256.296
19,7 Jan 2025 17:46:30.259,7 Jan 2025 17:57:52.067,681.808
20,7 Jan 2025 19:21:14.645,7 Jan 2025 19:30:13.923,539.278
21,8 Jan 2025 17:27:49.004,8 Jan 2025 17:38:53.729,664.726
22,8 Jan 2025 19:02:20.431,8 Jan 2025 19:12:10.676,590.245
23,9 Jan 2025 17:09:20.678,9 Jan 2025 17:19:42.815,622.138
24,9 Jan 2025 18:43:26.217,9 Jan 2025 18:53:55.313,629.096
25,9 Jan 2025 20:19:52.392,9 Jan 2025 20:22:11.604,139.212
26,10 Jan 2025 16:51:01.916,10 Jan 2025 17:00:16.387,554.471
27,10 Jan 2025 18:24:32.004,10 Jan 2025 18:35:29.081,657.077
28,10 Jan 2025 19:59:37.603,10 Jan 2025 20:05:41.481,363.878
29,11 Jan 2025 16:32:59.007,11 Jan 2025 16:40:27.877,448.870
30,11 Jan 2025 18:05:37.790,11 Jan 2025 18:16:52.458,674.668
31,11 Jan 2025 19:40:22.176,11 Jan 2025 19:48:14.830,472.655
32,12 Jan 2025 16:15:34.570,12 Jan 2025 16:19:54.263,259.693
33,12 Jan 2025 17:46:43.575,12 Jan 2025 17:58:05.369,681.794
34,12 Jan 2025 19:21:27.961,12 Jan 2025 19:30:26.564,538.603
35,13 Jan 2025 17:28:02.064,13 Jan 2025 17:39:07.169,665.105
36,13 Jan 2025 19:02:33.746,13 Jan 2025 19:12:23.471,589.725
37,14 Jan 2025 17:09:33.650,14 Jan 2025 17:19:56.415,622.765
38,14 Jan 2025 18:43:39.531,14 Jan 2025 18:54:08.242,628.711
39,14 Jan 2025 20:20:07.883,14 Jan 2025 20:22:21.968,134.085
40,15 Jan 2025 16:51:14.745,15 Jan 2025 17:00:30.196,555.452
41,15 Jan 2025 18:24:45.317,15 Jan 2025 18:35:42.133,656.816
42,15 Jan 2025 19:59:51.439,15 Jan 2025 20:05:53.578,362.139
43,16 Jan 2025 16:33:11.580,16 Jan 2025 16:40:42.015,450.435
44,16 Jan 2025 18:05:51.103,16 Jan 2025 18:17:05.631,674.528
45,16 Jan 2025 19:40:35.489,16 Jan 2025 19:48:27.267,471.778
46,17 Jan 2025 16:15:46.293,17 Jan 2025 16:20:09.332,263.039
47,17 Jan 2025 17:46:56.889,17 Jan 2025 17:58:18.668,681.779
48,17 Jan 2025 19:21:41.274,17 Jan 2025 19:30:39.202,537.928
49,18 Jan 2025 17:28:15.124,18 Jan 2025 17:39:20.605,665.481
50,18 Jan 2025 19:02:47.060,18 Jan 2025 19:12:36.264,589.203
51,19 Jan 2025 17:09:46.617,19 Jan 2025 17:20:10.012,623.394
52,19 Jan 2025 18:43:52.847,19 Jan 2025 18:54:21.168,628.321
53,19 Jan 2025 20:20:23.473,19 Jan 2025 20:22:32.231,128.758
54,20 Jan 2025 16:51:27.575,20 Jan 2025 17:00:44.001,556.426
55,20 Jan 2025 18:24:58.634,20 Jan 2025 18:35:55.183,656.550
56,20 Jan 2025 20:00:05.277,20 Jan 2025 20:06:05.671,360.394
57,21 Jan 2025 16:33:24.160,21 Jan 2025 16:40:56.148,451.988
58,21 Jan 2025 18:06:04.421,21 Jan 2025 18:17:18.807,674.386
59,21 Jan 2025 19:40:48.807,21 Jan 2025 19:48:39.700,470.893
60,22 Jan 2025 16:15:58.044,22 Jan 2025 16:20:24.374,266.329
61,22 Jan 2025 17:47:10.208,22 Jan 2025 17:58:31.966,681.758
62,22 Jan 2025 19:21:54.594,22 Jan 2025 19:30:51.839,537.246
63,23 Jan 2025 17:28:28.185,23 Jan 2025 17:39:34.041,665.856
64,23 Jan 2025 19:03:00.380,23 Jan 2025 19:12:49.056,588.676
65,24 Jan 2025 17:09:59.587,24 Jan 2025 17:20:23.607,624.020
66,24 Jan 2025 18:44:06.166,24 Jan 2025 18:54:34.094,627.928
67,24 Jan 2025 20:20:39.178,24 Jan 2025 20:22:42.379,123.201
68,25 Jan 2025 16:51:40.410,25 Jan 2025 17:00:57.804,557.395
69,25 Jan 2025 18:25:11.953,25 Jan 2025 18:36:08.234,656.281
70,25 Jan 2025 20:00:19.121,25 Jan 2025 20:06:17.760,358.639
71,26 Jan 2025 16:33:36.745,26 Jan 2025 16:41:10.278,453.532
72,26 Jan 2025 18:06:17.740,26 Jan 2025 18:17:31.979,674.240
73,26 Jan 2025 19:41:02.126,26 Jan 2025 19:48:52.133,470.007
74,27 Jan 2025 16:16:09.818,27 Jan 2025 16:20:39.394,269.575
75,27 Jan 2025 17:47:23.526,27 Jan 2025 17:58:45.263,681.737
76,27 Jan 2025 19:22:07.911,27 Jan 2025 19:31:04.475,536.564
77,28 Jan 2025 17:28:41.251,28 Jan 2025 17:39:47.475,666.224
78,28 Jan 2025 19:03:13.697,28 Jan 2025 19:13:01.847,588.150
79,29 Jan 2025 17:10:12.557,29 Jan 2025 17:20:37.201,624.644
80,29 Jan 2025 18:44:19.482,29 Jan 2025 18:54:47.019,627.537
81,29 Jan 2025 20:20:55.024,29 Jan 2025 20:22:52.382,117.358
82,30 Jan 2025 16:51:53.244,30 Jan 2025 17:01:11.605,558.360
83,30 Jan 2025 18:25:25.268,30 Jan 2025 18:36:21.282,656.014
84,30 Jan 2025 20:00:32.972,30 Jan 2025 20:06:29.847,356.875
85,31 Jan 2025 16:33:49.328,31 Jan 2025 16:41:24.401,455.074
86,31 Jan 2025 18:06:31.055,31 Jan 2025 18:17:45.149,674.094
87,31 Jan 2025 19:41:15.441,31 Jan 2025 19:49:04.561,469.120
88,1 Feb 2025 16:16:21.613,1 Feb 2025 16:20:54.389,272.776
89,1 Feb 2025 17:47:36.841,1 Feb 2025 17:58:58.558,681.717
90,1 Feb 2025 19:22:21.227,1 Feb 2025 19:31:17.108,535.881
91,2 Feb 2025 17:28:54.314,2 Feb 2025 17:40:00.907,666.592
92,2 Feb 2025 19:03:27.013,2 Feb 2025 19:13:14.635,587.622
93,3 Feb 2025 17:10:25.530,3 Feb 2025 17:20:50.791,625.261
94,3 Feb 2025 18:44:32.801,3 Feb 2025 18:54:59.941,627.141
95,3 Feb 2025 20:21:11.018,3 Feb 2025 20:23:02.238,111.220
96,4 Feb 2025 16:52:06.087,4 Feb 2025 17:01:25.401,559.314
97,4 Feb 2025 18:25:38.588,4 Feb 2025 18:36:34.329,655.741
98,4 Feb 2025 20:00:46.824,4 Feb 2025 20:06:41.921,355.097
99,5 Feb 2025 16:34:01.922,5 Feb 2025 16:41:38.519,456.598
100,5 Feb 2025 18:06:44.376,5 Feb 2025 18:17:58.317,673.942
101,5 Feb 2025 19:41:28.762,5 Feb 2025 19:49:16.990,468.228
102,6 Feb 2025 16:16:33.435,6 Feb 2025 16:21:09.360,275.925
103,6 Feb 2025 17:47:50.163,6 Feb 2025 17:59:11.853,681.689
104,6 Feb 2025 19:22:34.549,6 Feb 2025 19:31:29.740,535.191
105,7 Feb 2025 17:29:07.381,7 Feb 2025 17:40:14.338,666.957
106,7 Feb 2025 19:03:40.336,7 Feb 2025 19:13:27.424,587.088
107,8 Feb 2025 17:10:38.506,8 Feb 2025 17:21:04.381,625.875
108,8 Feb 2025 18:44:46.122,8 Feb 2025 18:55:12.864,626.742
109,8 Feb 2025 20:21:27.194,8 Feb 2025 20:23:11.914,104.720
110,9 Feb 2025 16:52:18.929,9 Feb 2025 17:01:39.197,560.268
111,9 Feb 2025 18:25:51.909,9 Feb 2025 18:36:47.376,655.467
112,9 Feb 2025 20:01:00.684,9 Feb 2025 20:06:53.992,353.307
113,10 Feb 2025 16:34:14.520,10 Feb 2025 16:41:52.633,458.114
114,10 Feb 2025 18:06:57.695,10 Feb 2025 18:18:11.486,673.790
115,10 Feb 2025 19:41:42.081,10 Feb 2025 19:49:29.415,467.333
116,11 Feb 2025 16:16:45.275,11 Feb 2025 16:21:24.311,279.036
117,11 Feb 2025 17:48:03.482,11 Feb 2025 17:59:25.146,681.664
118,11 Feb 2025 19:22:47.867,11 Feb 2025 19:31:42.369,534.502
119,12 Feb 2025 17:29:20.445,12 Feb 2025 17:40:27.765,667.320
120,12 Feb 2025 19:03:53.653,12 Feb 2025 19:13:40.209,586.556
121,13 Feb 2025 17:10:51.482,13 Feb 2025 17:21:17.968,626.487
122,13 Feb 2025 18:44:59.440,13 Feb 2025 18:55:25.788,626.348
123,13 Feb 2025 20:21:43.594,13 Feb 2025 20:23:21.368,97.774
124,14 Feb 2025 16:52:31.771,14 Feb 2025 17:01:52.988,561.217
125,14 Feb 2025 18:26:05.227,14 Feb 2025 18:37:00.420,655.193
126,14 Feb 2025 20:01:14.549,14 Feb 2025 20:07:06.056,351.507
127,15 Feb 2025 16:34:27.121,15 Feb 2025 16:42:06.741,459.620
128,15 Feb 2025 18:07:11.014,15 Feb 2025 18:18:24.651,673.637
129,15 Feb 2025 19:41:55.400,15 Feb 2025 19:49:41.835,466.435
130,16 Feb 2025 16:16:57.138,16 Feb 2025 16:21:39.238,282.100
131,16 Feb 2025 17:48:16.801,16 Feb 2025 17:59:38.436,681.635
132,16 Feb 2025 19:23:01.187,16 Feb 2025 19:31:54.996,533.809
133,17 Feb 2025 17:29:33.512,17 Feb 2025 17:40:41.192,667.680
134,17 Feb 2025 19:04:06.974,17 Feb 2025 19:13:52.993,586.019
135,18 Feb 2025 17:11:04.459,18 Feb 2025 17:21:31.552,627.093
136,18 Feb 2025 18:45:12.762,18 Feb 2025 18:55:38.706,625.945
137,18 Feb 2025 20:22:00.248,18 Feb 2025 20:23:30.552,90.304
138,19 Feb 2025 16:52:44.617,19 Feb 2025 17:02:06.776,562.159
139,19 Feb 2025 18:26:18.550,19 Feb 2025 18:37:13.462,654.913
140,19 Feb 2025 20:01:28.416,19 Feb 2025 20:07:18.116,349.700
141,20 Feb 2025 16:34:39.733,20 Feb 2025 16:42:20.839,461.106
142,20 Feb 2025 18:07:24.338,20 Feb 2025 18:18:37.815,673.477
143,20 Feb 2025 19:42:08.724,20 Feb 2025 19:49:54.249,465.525
144,21 Feb 2025 16:17:09.021,21 Feb 2025 16:21:54.144,285.122
145,21 Feb 2025 17:48:30.126,21 Feb 2025 17:59:51.726,681.601
146,21 Feb 2025 19:23:14.511,21 Feb 2025 19:32:07.622,533.111
147,22 Feb 2025 17:29:46.581,22 Feb 2025 17:40:54.618,668.037
148,22 Feb 2025 19:04:20.298,22 Feb 2025 19:14:05.776,585.478
149,23 Feb 2025 17:11:17.439,23 Feb 2025 17:21:45.136,627.697
150,23 Feb 2025 18:45:26.085,23 Feb 2025 18:55:51.624,625.539
151,23 Feb 2025 20:22:17.250,23 Feb 2025 20:23:39.403,82.154
152,24 Feb 2025 16:52:57.465,24 Feb 2025 17:02:20.562,563.097
153,24 Feb 2025 18:26:31.872,24 Feb 2025 18:37:26.505,654.632
154,24 Feb 2025 20:01:42.291,24 Feb 2025 20:07:30.170,347.879
155,25 Feb 2025 16:34:52.344,25 Feb 2025 16:42:34.938,462.593
156,25 Feb 2025 18:07:37.660,25 Feb 2025 18:18:50.979,673.319
157,25 Feb 2025 19:42:22.046,25 Feb 2025 19:50:06.667,464.622
158,26 Feb 2025 16:17:20.923,26 Feb 2025 16:22:09.032,288.109
159,26 Feb 2025 17:48:43.446,26 Feb 2025 18:00:05.013,681.566
160,26 Feb 2025 19:23:27.832,26 Feb 2025 19:32:20.246,532.414
161,27 Feb 2025 17:29:59.650,27 Feb 2025 17:41:08.042,668.392
162,27 Feb 2025 19:04:33.618,27 Feb 2025 19:14:18.554,584.936
163,28 Feb 2025 17:11:30.419,28 Feb 2025 17:21:58.717,628.297
164,28 Feb 2025 18:45:39.405,28 Feb 2025 18:56:04.536,625.131
165,28 Feb 2025 20:22:34.715,28 Feb 2025 20:23:47.784,73.069
166,1 Mar 2025 16:53:10.313,1 Mar 2025 17:02:34.345,564.032
167,1 Mar 2025 18:26:45.192,1 Mar 2025 18:37:39.544,654.352
168,1 Mar 2025 20:01:56.171,1 Mar 2025 20:07:42.216,346.045
169,2 Mar 2025 16:35:04.958,2 Mar 2025 16:42:49.029,464.071
170,2 Mar 2025 18:07:50.981,2 Mar 2025 18:19:04.140,673.159
171,2 Mar 2025 19:42:35.367,2 Mar 2025 19:50:19.079,463.712
172,3 Mar 2025 16:17:32.843,3 Mar 2025 16:22:23.897,291.055
173,3 Mar 2025 17:48:56.769,3 Mar 2025 18:00:18.299,681.530
174,3 Mar 2025 19:23:41.155,3 Mar 2025 19:32:32.867,531.713
175,4 Mar 2025 17:30:12.720,4 Mar 2025 17:41:21.463,668.743
176,4 Mar 2025 19:04:46.943,4 Mar 2025 19:14:31.333,584.390
177,5 Mar 2025 17:11:43.401,5 Mar 2025 17:22:12.295,628.894
178,5 Mar 2025 18:45:52.731,5 Mar 2025 18:56:17.450,624.719
179,5 Mar 2025 20:22:52.818,5 Mar 2025 20:23:55.526,62.709
180,6 Mar 2025 16:53:23.166,6 Mar 2025 17:02:48.125,564.959
181,6 Mar 2025 18:26:58.519,6 Mar 2025 18:37:52.583,654.064
182,6 Mar 2025 20:02:10.054,6 Mar 2025 20:07:54.258,344.204
183,7 Mar 2025 16:35:17.579,7 Mar 2025 16:43:03.116,465.537
184,7 Mar 2025 18:08:04.308,7 Mar 2025 18:19:17.300,672.992
185,7 Mar 2025 19:42:48.694,7 Mar 2025 19:50:31.490,462.796
186,8 Mar 2025 16:17:44.783,8 Mar 2025 16:22:38.745,293.962
187,8 Mar 2025 17:49:10.096,8 Mar 2025 18:00:31.585,681.489
188,8 Mar 2025 19:23:54.481,8 Mar 2025 19:32:45.488,531.007
189,9 Mar 2025 17:30:25.792,9 Mar 2025 17:41:34.884,669.092
190,9 Mar 2025 19:05:00.268,9 Mar 2025 19:14:44.111,583.843
191,10 Mar 2025 17:11:56.385,10 Mar 2025 17:22:25.872,629.487
192,10 Mar 2025 18:46:06.055,10 Mar 2025 18:56:30.363,624.308
193,10 Mar 2025 20:23:11.987,10 Mar 2025 20:24:02.202,50.215
194,11 Mar 2025 16:53:36.020,11 Mar 2025 17:03:01.902,565.883
195,11 Mar 2025 18:27:11.843,11 Mar 2025 18:38:05.621,653.778
196,11 Mar 2025 20:02:23.945,11 Mar 2025 20:08:06.292,342.346
197,12 Mar 2025 16:35:30.202,12 Mar 2025 16:43:17.199,466.997
198,12 Mar 2025 18:08:17.630,12 Mar 2025 18:19:30.459,672.829
199,12 Mar 2025 19:43:02.016,12 Mar 2025 19:50:43.896,461.880
200,13 Mar 2025 16:17:56.738,13 Mar 2025 16:22:53.575,296.837
201,13 Mar 2025 17:49:23.417,13 Mar 2025 18:00:44.866,681.449
202,13 Mar 2025 19:24:07.803,13 Mar 2025 19:32:58.105,530.302
203,14 Mar 2025 17:30:38.864,14 Mar 2025 17:41:48.302,669.439
204,14 Mar 2025 19:05:13.590,14 Mar 2025 19:14:56.887,583.296
205,15 Mar 2025 17:12:09.368,15 Mar 2025 17:22:39.445,630.077
206,15 Mar 2025 18:46:19.378,15 Mar 2025 18:56:43.274,623.896
207,15 Mar 2025 20:23:33.355,15 Mar 2025 20:24:06.679,33.324
208,16 Mar 2025 16:53:48.874,16 Mar 2025 17:03:15.675,566.801
209,16 Mar 2025 18:27:25.166,16 Mar 2025 18:38:18.659,653.493
210,16 Mar 2025 20:02:37.839,16 Mar 2025 20:08:18.318,340.479
211,17 Mar 2025 16:35:42.829,17 Mar 2025 16:43:31.275,468.446
212,17 Mar 2025 18:08:30.955,17 Mar 2025 18:19:43.615,672.660
213,17 Mar 2025 19:43:15.340,17 Mar 2025 19:50:56.303,460.963
214,18 Mar 2025 16:18:08.711,18 Mar 2025 16:23:08.384,299.673
215,18 Mar 2025 17:49:36.743,18 Mar 2025 18:00:58.148,681.405
216,18 Mar 2025 19:24:21.129,18 Mar 2025 19:33:10.720,529.591
217,19 Mar 2025 17:30:51.936,19 Mar 2025 17:42:01.718,669.782
218,19 Mar 2025 19:05:26.917,19 Mar 2025 19:15:09.660,582.743
219,20 Mar 2025 17:12:22.353,20 Mar 2025 17:22:53.017,630.663
220,20 Mar 2025 18:46:32.705,20 Mar 2025 18:56:56.183,623.477
221,21 Mar 2025 16:54:01.732,21 Mar 2025 17:03:29.446,567.713
222,21 Mar 2025 18:27:38.494,21 Mar 2025 18:38:31.693,653.199
223,21 Mar 2025 20:02:51.738,21 Mar 2025 20:08:30.340,338.602
224,22 Mar 2025 16:35:55.461,22 Mar 2025 16:43:45.346,469.885
225,22 Mar 2025 18:08:44.283,22 Mar 2025 18:19:56.770,672.488
226,22 Mar 2025 19:43:28.668,22 Mar 2025 19:51:08.704,460.037
227,23 Mar 2025 16:18:20.702,23 Mar 2025 16:23:23.177,302.475
228,23 Mar 2025 17:49:50.071,23 Mar 2025 18:01:11.429,681.359
229,23 Mar 2025 19:24:34.457,23 Mar 2025 19:33:23.334,528.877
230,24 Mar 2025 17:31:05.010,24 Mar 2025 17:42:15.128,670.117
231,24 Mar 2025 19:05:40.244,24 Mar 2025 19:15:22.433,582.189
232,25 Mar 2025 17:12:35.340,25 Mar 2025 17:23:06.587,631.247
233,25 Mar 2025 18:46:46.031,25 Mar 2025 18:57:09.091,623.060
234,26 Mar 2025 16:54:14.592,26 Mar 2025 17:03:43.214,568.622
235,26 Mar 2025 18:27:51.819,26 Mar 2025 18:38:44.726,652.907
236,26 Mar 2025 20:03:05.646,26 Mar 2025 20:08:42.354,336.708
237,27 Mar 2025 16:36:08.095,27 Mar 2025 16:43:59.414,471.318
238,27 Mar 2025 18:08:57.607,27 Mar 2025 18:20:09.924,672.318
239,27 Mar 2025 19:43:41.991,27 Mar 2025 19:51:21.102,459.111
240,28 Mar 2025 16:18:32.706,28 Mar 2025 16:23:37.955,305.248
241,28 Mar 2025 17:50:03.394,28 Mar 2025 18:01:24.706,681.312
242,28 Mar 2025 19:24:47.780,28 Mar 2025 19:33:35.945,528.164
243,29 Mar 2025 17:31:18.084,29 Mar 2025 17:42:28.541,670.457
244,29 Mar 2025 19:05:53.568,29 Mar 2025 19:15:35.203,581.635
245,30 Mar 2025 17:12:48.330,30 Mar 2025 17:23:20.151,631.821
246,30 Mar 2025 18:46:59.356,30 Mar 2025 18:57:21.997,622.641
247,31 Mar 2025 16:54:27.452,31 Mar 2025 17:03:56.978,569.525
248,31 Mar 2025 18:28:05.145,31 Mar 2025 18:38:57.756,652.611
249,31 Mar 2025 20:03:19.556,31 Mar 2025 20:08:54.361,334.804
250,1 Apr 2025 16:36:20.734,1 Apr 2025 16:44:13.473,472.739
251,1 Apr 2025 18:09:10.934,1 Apr 2025 18:20:23.076,672.141
252,1 Apr 2025 19:43:55.319,1 Apr 2025 19:51:33.497,458.178
253,2 Apr 2025 16:18:44.728,2 Apr 2025 16:23:52.712,307.983
254,2 Apr 2025 17:50:16.723,2 Apr 2025 18:01:37.983,681.259
255,2 Apr 2025 19:25:01.109,2 Apr 2025 19:33:48.553,527.444
256,3 Apr 2025 17:31:31.159,3 Apr 2025 17:42:41.950,670.790
257,3 Apr 2025 19:06:06.898,3 Apr 2025 19:15:47.972,581.074
258,4 Apr 2025 17:13:01.320,4 Apr 2025 17:23:33.716,632.396
259,4 Apr 2025 18:47:12.686,4 Apr 2025 18:57:34.902,622.216
260,5 Apr 2025 16:54:40.316,5 Apr 2025 17:04:10.740,570.424
261,5 Apr 2025 18:28:18.475,5 Apr 2025 18:39:10.786,652.311
262,5 Apr 2025 20:03:33.473,5 Apr 2025 20:09:06.362,332.889
263,6 Apr 2025 16:36:33.378,6 Apr 2025 16:44:27.531,474.153
264,6 Apr 2025 18:09:24.263,6 Apr 2025 18:20:36.227,671.964
265,6 Apr 2025 19:44:08.647,6 Apr 2025 19:51:45.889,457.242
266,7 Apr 2025 16:18:56.760,7 Apr 2025 16:24:07.460,310.700
267,7 Apr 2025 17:50:30.051,7 Apr 2025 18:01:51.256,681.205
268,7 Apr 2025 19:25:14.437,7 Apr 2025 19:34:01.158,526.721
269,8 Apr 2025 17:31:44.236,8 Apr 2025 17:42:55.363,671.127
270,8 Apr 2025 19:06:20.224,8 Apr 2025 19:16:00.738,580.514
271,9 Apr 2025 17:13:14.309,9 Apr 2025 17:23:47.279,632.970
272,9 Apr 2025 18:47:26.011,9 Apr 2025 18:57:47.805,621.794
273,10 Apr 2025 16:54:53.180,10 Apr 2025 17:04:24.499,571.318
274,10 Apr 2025 18:28:31.799,10 Apr 2025 18:39:23.813,652.014
275,10 Apr 2025 20:03:47.397,10 Apr 2025 20:09:18.353,330.956
276,11 Apr 2025 16:36:46.023,11 Apr 2025 16:44:41.582,475.560
277,11 Apr 2025 18:09:37.587,11 Apr 2025 18:20:49.375,671.788
278,11 Apr 2025 19:44:21.974,11 Apr 2025 19:51:58.277,456.303
279,12 Apr 2025 16:19:08.809,12 Apr 2025 16:24:22.187,313.378
280,12 Apr 2025 17:50:43.376,12 Apr 2025 18:02:04.528,681.152
281,12 Apr 2025 19:25:27.761,12 Apr 2025 19:34:13.762,526.000
282,13 Apr 2025 17:31:57.312,13 Apr 2025 17:43:08.769,671.457
283,13 Apr 2025 19:06:33.549,13 Apr 2025 19:16:13.502,579.953
284,14 Apr 2025 17:13:27.299,14 Apr 2025 17:24:00.836,633.537
285,14 Apr 2025 18:47:39.337,14 Apr 2025 18:58:00.705,621.367
286,15 Apr 2025 16:55:06.046,15 Apr 2025 17:04:38.253,572.207
287,15 Apr 2025 18:28:45.126,15 Apr 2025 18:39:36.838,651.712
288,15 Apr 2025 20:04:01.324,15 Apr 2025 20:09:30.338,329.014
289,16 Apr 2025 16:36:58.672,16 Apr 2025 16:44:55.631,476.958
290,16 Apr 2025 18:09:50.915,16 Apr 2025 18:21:02.517,671.602
291,16 Apr 2025 19:44:35.301,16 Apr 2025 19:52:10.660,455.359
292,17 Apr 2025 16:19:20.879,17 Apr 2025 16:24:36.892,316.013
293,17 Apr 2025 17:50:56.704,17 Apr 2025 18:02:17.802,681.098
294,17 Apr 2025 19:25:41.090,17 Apr 2025 19:34:26.366,525.276
295,18 Apr 2025 17:32:10.387,18 Apr 2025 17:43:22.168,671.781
296,18 Apr 2025 19:06:46.878,18 Apr 2025 19:16:26.265,579.387
297,19 Apr 2025 17:13:40.291,19 Apr 2025 17:24:14.394,634.104
298,19 Apr 2025 18:47:52.667,19 Apr 2025 18:58:13.604,620.937
299,20 Apr 2025 16:55:18.915,20 Apr 2025 17:04:52.006,573.091
300,20 Apr 2025 18:28:58.455,20 Apr 2025 18:39:49.863,651.407
301,20 Apr 2025 20:04:15.259,20 Apr 2025 20:09:42.317,327.057
302,21 Apr 2025 16:37:11.325,21 Apr 2025 16:45:09.673,478.348
303,21 Apr 2025 18:10:04.244,21 Apr 2025 18:21:15.664,671.421
304,21 Apr 2025 19:44:48.629,21 Apr 2025 19:52:23.043,454.415
305,22 Apr 2025 16:19:32.957,22 Apr 2025 16:24:51.589,318.632
306,22 Apr 2025 17:51:10.032,22 Apr 2025 18:02:31.072,681.040
307,22 Apr 2025 19:25:54.418,22 Apr 2025 19:34:38.966,524.549
308,23 Apr 2025 17:32:23.465,23 Apr 2025 17:43:35.571,672.106
309,23 Apr 2025 19:07:00.205,23 Apr 2025 19:16:39.027,578.822
310,24 Apr 2025 17:13:53.283,24 Apr 2025 17:24:27.951,634.668
311,24 Apr 2025 18:48:05.992,24 Apr 2025 18:58:26.502,620.510
312,25 Apr 2025 16:55:31.784,25 Apr 2025 17:05:05.756,573.972
313,25 Apr 2025 18:29:11.780,25 Apr 2025 18:40:02.885,651.105
314,25 Apr 2025 20:04:29.202,25 Apr 2025 20:09:54.285,325.083
315,26 Apr 2025 16:37:23.981,26 Apr 2025 16:45:23.708,479.727
316,26 Apr 2025 18:10:17.568,26 Apr 2025 18:21:28.810,671.242
317,26 Apr 2025 19:45:01.953,26 Apr 2025 19:52:35.421,453.468
318,27 Apr 2025 16:19:45.047,27 Apr 2025 16:25:06.271,321.224
319,27 Apr 2025 17:51:23.357,27 Apr 2025 18:02:44.338,680.982
320,27 Apr 2025 19:26:07.743,27 Apr 2025 19:34:51.563,523.820
321,28 Apr 2025 17:32:36.542,28 Apr 2025 17:43:48.970,672.428
322,28 Apr 2025 19:07:13.531,28 Apr 2025 19:16:51.785,578.254
323,29 Apr 2025 17:14:06.276,29 Apr 2025 17:24:41.503,635.228
324,29 Apr 2025 18:48:19.320,29 Apr 2025 18:58:39.397,620.077
325,30 Apr 2025 16:55:44.654,30 Apr 2025 17:05:19.502,574.847
326,30 Apr 2025 18:29:25.109,30 Apr 2025 18:40:15.905,650.796
327,30 Apr 2025 20:04:43.147,30 Apr 2025 20:10:06.248,323.100
328,1 May 2025 16:37:36.641,1 May 2025 16:45:37.739,481.098
329,1 May 2025 18:10:30.898,1 May 2025 18:21:41.952,671.054
330,1 May 2025 19:45:15.282,1 May 2025 19:52:47.796,452.514
331,2 May 2025 16:19:57.153,2 May 2025 16:25:20.937,323.784
332,2 May 2025 17:51:36.687,2 May 2025 18:02:57.604,680.917
333,2 May 2025 19:26:21.073,2 May 2025 19:35:04.158,523.086
334,3 May 2025 17:32:49.622,3 May 2025 17:44:02.374,672.752
335,3 May 2025 19:07:26.861,3 May 2025 19:17:04.542,577.682
336,4 May 2025 17:14:19.270,4 May 2025 17:24:55.055,635.785
337,4 May 2025 18:48:32.648,4 May 2025 18:58:52.291,619.643
338,5 May 2025 16:55:57.528,5 May 2025 17:05:33.246,575.718
339,5 May 2025 18:29:38.436,5 May 2025 18:40:28.925,650.488
340,5 May 2025 20:04:57.103,5 May 2025 20:10:18.202,321.099
341,6 May 2025 16:37:49.304,6 May 2025 16:45:51.767,482.463
342,6 May 2025 18:10:44.224,6 May 2025 18:21:55.092,670.868
343,6 May 2025 19:45:28.610,6 May 2025 19:53:00.168,451.558
344,7 May 2025 16:20:09.269,7 May 2025 16:25:35.591,326.322
345,7 May 2025 17:51:50.012,7 May 2025 18:03:10.868,680.856
346,7 May 2025 19:26:34.397,7 May 2025 19:35:16.751,522.353
347,8 May 2025 17:33:02.701,8 May 2025 17:44:15.770,673.069
348,8 May 2025 19:07:40.184,8 May 2025 19:17:17.297,577.113
349,9 May 2025 17:14:32.265,9 May 2025 17:25:08.604,636.339
350,9 May 2025 18:48:45.972,9 May 2025 18:59:05.183,619.211
351,10 May 2025 16:56:10.400,10 May 2025 17:05:46.986,576.586
352,10 May 2025 18:29:51.759,10 May 2025 18:40:41.941,650.182
353,10 May 2025 20:05:11.065,10 May 2025 20:10:30.146,319.081
354,11 May 2025 16:38:01.968,11 May 2025 16:46:05.789,483.821
355,11 May 2025 18:10:57.548,11 May 2025 18:22:08.230,670.682
356,11 May 2025 19:45:41.933,11 May 2025 19:53:12.535,450.602
357,12 May 2025 16:20:21.393,12 May 2025 16:25:50.229,328.836
358,12 May 2025 17:52:03.336,12 May 2025 18:03:24.128,680.793
359,12 May 2025 19:26:47.722,12 May 2025 19:35:29.340,521.618
360,13 May 2025 17:33:15.780,13 May 2025 17:44:29.163,673.383
361,13 May 2025 19:07:53.509,13 May 2025 19:17:30.049,576.540
362,14 May 2025 17:14:45.260,14 May 2025 17:25:22.150,636.890
363,14 May 2025 18:48:59.297,14 May 2025 18:59:18.072,618.774
364,15 May 2025 16:56:23.275,15 May 2025 17:06:00.723,577.447
365,15 May 2025 18:30:05.086,15 May 2025 18:40:54.956,649.870
366,15 May 2025 20:05:25.031,15 May 2025 20:10:42.082,317.051
367,16 May 2025 16:38:14.637,16 May 2025 16:46:19.807,485.169
368,16 May 2025 18:11:10.874,16 May 2025 18:22:21.366,670.491
369,16 May 2025 19:45:55.259,16 May 2025 19:53:24.899,449.640
370,17 May 2025 16:20:33.536,17 May 2025 16:26:04.857,331.321
371,17 May 2025 17:52:16.663,17 May 2025 18:03:37.388,680.725
372,17 May 2025 19:27:01.049,17 May 2025 19:35:41.928,520.879
373,18 May 2025 17:33:28.861,18 May 2025 17:44:42.556,673.695
374,18 May 2025 19:08:06.836,18 May 2025 19:17:42.800,575.964
375,19 May 2025 17:14:58.257,19 May 2025 17:25:35.694,637.438
376,19 May 2025 18:49:12.624,19 May 2025 18:59:30.961,618.337
377,20 May 2025 16:56:36.153,20 May 2025 17:06:14.458,578.306
378,20 May 2025 18:30:18.411,20 May 2025 18:41:07.970,649.559
379,20 May 2025 20:05:39.008,20 May 2025 20:10:54.011,315.003
380,21 May 2025 16:38:27.305,21 May 2025 16:46:33.821,486.517
381,21 May 2025 18:11:24.199,21 May 2025 18:22:34.501,670.303
382,21 May 2025 19:46:08.583,21 May 2025 19:53:37.260,448.677
383,22 May 2025 16:20:45.683,22 May 2025 16:26:19.469,333.786
384,22 May 2025 17:52:29.986,22 May 2025 18:03:50.647,680.661
385,22 May 2025 19:27:14.372,22 May 2025 19:35:54.513,520.141
386,23 May 2025 17:33:41.942,23 May 2025 17:44:55.947,674.005
387,23 May 2025 19:08:20.158,23 May 2025 19:17:55.549,575.390
388,24 May 2025 17:15:11.254,24 May 2025 17:25:49.237,637.983
389,24 May 2025 18:49:25.945,24 May 2025 18:59:43.847,617.901
390,25 May 2025 16:56:49.030,25 May 2025 17:06:28.189,579.160
391,25 May 2025 18:30:31.733,25 May 2025 18:41:20.981,649.249
392,25 May 2025 20:05:52.991,25 May 2025 20:11:05.927,312.936
393,26 May 2025 16:38:39.978,26 May 2025 16:46:47.829,487.851
394,26 May 2025 18:11:37.521,26 May 2025 18:22:47.633,670.112
395,26 May 2025 19:46:21.904,26 May 2025 19:53:49.616,447.712
396,27 May 2025 16:20:57.849,27 May 2025 16:26:34.072,336.223
397,27 May 2025 17:52:43.309,27 May 2025 18:04:03.902,680.593
398,27 May 2025 19:27:27.695,27 May 2025 19:36:07.094,519.399
399,28 May 2025 17:33:55.022,28 May 2025 17:45:09.334,674.312
400,28 May 2025 19:08:33.483,28 May 2025 19:18:08.295,574.812
401,29 May 2025 17:15:24.251,29 May 2025 17:26:02.776,638.524
402,29 May 2025 18:49:39.271,29 May 2025 18:59:56.731,617.460
403,30 May 2025 16:57:01.908,30 May 2025 17:06:41.915,580.007
404,30 May 2025 18:30:45.059,30 May 2025 18:41:33.987,648.928
405,30 May 2025 20:06:06.980,30 May 2025 20:11:17.842,310.862
406,31 May 2025 16:38:52.656,31 May 2025 16:47:01.832,489.176
407,31 May 2025 18:11:50.847,31 May 2025 18:23:00.765,669.918
408,31 May 2025 19:46:35.230,31 May 2025 19:54:01.970,446.740
409,1 Jun 2025 16:21:10.021,1 Jun 2025 16:26:48.657,338.636
410,1 Jun 2025 17:52:56.635,1 Jun 2025 18:04:17.156,680.522
411,1 Jun 2025 19:27:41.020,1 Jun 2025 19:36:19.675,518.655
412,2 Jun 2025 17:34:08.105,2 Jun 2025 17:45:22.722,674.617
413,2 Jun 2025 19:08:46.807,2 Jun 2025 19:18:21.041,574.234
414,3 Jun 2025 17:15:37.251,3 Jun 2025 17:26:16.314,639.063
415,3 Jun 2025 18:49:52.593,3 Jun 2025 19:00:09.614,617.021
416,4 Jun 2025 16:57:14.788,4 Jun 2025 17:06:55.642,580.853
417,4 Jun 2025 18:30:58.380,4 Jun 2025 18:41:46.996,648.616
418,4 Jun 2025 20:06:20.980,4 Jun 2025 20:11:29.742,308.761
419,5 Jun 2025 16:39:05.336,5 Jun 2025 16:47:15.833,490.497
420,5 Jun 2025 18:12:04.167,5 Jun 2025 18:23:13.895,669.728
421,5 Jun 2025 19:46:48.549,5 Jun 2025 19:54:14.319,445.770
422,6 Jun 2025 16:21:22.202,6 Jun 2025 16:27:03.233,341.030
423,6 Jun 2025 17:53:09.954,6 Jun 2025 18:04:30.410,680.456
424,6 Jun 2025 19:27:54.339,6 Jun 2025 19:36:32.252,517.913
425,7 Jun 2025 17:34:21.184,7 Jun 2025 17:45:36.106,674.922
426,7 Jun 2025 19:09:00.126,7 Jun 2025 19:18:33.782,573.657
427,8 Jun 2025 17:15:50.250,8 Jun 2025 17:26:29.848,639.599
428,8 Jun 2025 18:50:05.912,8 Jun 2025 19:00:22.495,616.583
429,9 Jun 2025 16:57:27.669,9 Jun 2025 17:07:09.364,581.695
430,9 Jun 2025 18:31:11.699,9 Jun 2025 18:42:00.002,648.303
431,9 Jun 2025 20:06:34.988,9 Jun 2025 20:11:41.631,306.643
432,10 Jun 2025 16:39:18.019,10 Jun 2025 16:47:29.828,491.810
433,10 Jun 2025 18:12:17.486,10 Jun 2025 18:23:27.022,669.536
434,10 Jun 2025 19:47:01.868,10 Jun 2025 19:54:26.664,444.796
435,11 Jun 2025 16:21:34.394,11 Jun 2025 16:27:17.796,343.402
436,11 Jun 2025 17:53:23.274,11 Jun 2025 18:04:43.660,680.387
437,11 Jun 2025 19:28:07.659,11 Jun 2025 19:36:44.827,517.167
438,12 Jun 2025 17:34:34.267,12 Jun 2025 17:45:49.488,675.222
439,12 Jun 2025 19:09:13.446,12 Jun 2025 19:18:46.522,573.076
440,13 Jun 2025 17:16:03.250,13 Jun 2025 17:26:43.381,640.132
441,13 Jun 2025 18:50:19.233,13 Jun 2025 19:00:35.374,616.140
442,14 Jun 2025 16:57:40.552,14 Jun 2025 17:07:23.085,582.532
443,14 Jun 2025 18:31:25.021,14 Jun 2025 18:42:13.007,647.986
444,14 Jun 2025 20:06:49.002,14 Jun 2025 20:11:53.510,304.508
445,15 Jun 2025 16:39:30.705,15 Jun 2025 16:47:43.820,493.116
446,15 Jun 2025 18:12:30.808,15 Jun 2025 18:23:40.149,669.341
447,15 Jun 2025 19:47:15.190,15 Jun 2025 19:54:39.006,443.817
448,16 Jun 2025 16:21:46.598,16 Jun 2025 16:27:32.350,345.752
449,16 Jun 2025 17:53:36.595,16 Jun 2025 18:04:56.910,680.315
450,16 Jun 2025 19:28:20.981,16 Jun 2025 19:36:57.400,516.419
451,17 Jun 2025 17:34:47.351,17 Jun 2025 17:46:02.870,675.520
452,17 Jun 2025 19:09:26.767,17 Jun 2025 19:18:59.262,572.495
453,18 Jun 2025 17:16:16.249,18 Jun 2025 17:26:56.917,640.668
454,18 Jun 2025 18:50:32.553,18 Jun 2025 19:00:48.255,615.702
455,19 Jun 2025 16:57:53.438,19 Jun 2025 17:07:36.803,583.365
456,19 Jun 2025 18:31:38.339,19 Jun 2025 18:42:26.011,647.673
457,19 Jun 2025 20:07:03.029,19 Jun 2025 20:12:05.383,302.354
458,20 Jun 2025 16:39:43.397,20 Jun 2025 16:47:57.809,494.411
459,20 Jun 2025 18:12:44.125,20 Jun 2025 18:23:53.274,669.149
460,20 Jun 2025 19:47:28.506,20 Jun 2025 19:54:51.344,442.838
461,21 Jun 2025 16:21:58.809,21 Jun 2025 16:27:46.893,348.084
462,21 Jun 2025 17:53:49.911,21 Jun 2025 18:05:10.153,680.243
463,21 Jun 2025 19:28:34.296,21 Jun 2025 19:37:09.969,515.673
464,22 Jun 2025 17:35:00.434,22 Jun 2025 17:46:16.249,675.815
465,22 Jun 2025 19:09:40.082,22 Jun 2025 19:19:11.998,571.915
466,23 Jun 2025 17:16:29.250,23 Jun 2025 17:27:10.446,641.196
467,23 Jun 2025 18:50:45.868,23 Jun 2025 19:01:01.129,615.261
468,24 Jun 2025 16:58:06.323,24 Jun 2025 17:07:50.517,584.195
469,24 Jun 2025 18:31:51.655,24 Jun 2025 18:42:39.017,647.362
470,24 Jun 2025 20:07:17.061,24 Jun 2025 20:12:17.239,300.178
471,25 Jun 2025 16:39:56.087,25 Jun 2025 16:48:11.791,495.704
472,25 Jun 2025 18:12:57.442,25 Jun 2025 18:24:06.396,668.954
473,25 Jun 2025 19:47:41.824,25 Jun 2025 19:55:03.678,441.854
474,26 Jun 2025 16:22:11.032,26 Jun 2025 16:28:01.424,350.391
475,26 Jun 2025 17:54:03.229,26 Jun 2025 18:05:23.402,680.173
476,26 Jun 2025 19:28:47.615,26 Jun 2025 19:37:22.536,514.921
477,27 Jun 2025 17:35:13.520,27 Jun 2025 17:46:29.626,676.106
478,27 Jun 2025 19:09:53.402,27 Jun 2025 19:19:24.733,571.331
479,28 Jun 2025 17:16:42.256,28 Jun 2025 17:27:23.970,641.714
480,28 Jun 2025 18:50:59.188,28 Jun 2025 19:01:14.001,614.813
481,29 Jun 2025 16:58:19.211,29 Jun 2025 17:08:04.231,585.020
482,29 Jun 2025 18:32:04.974,29 Jun 2025 18:42:52.013,647.039
483,29 Jun 2025 20:07:31.104,29 Jun 2025 20:12:29.091,297.987
484,30 Jun 2025 16:40:08.781,30 Jun 2025 16:48:25.771,496.990
485,30 Jun 2025 18:13:10.760,30 Jun 2025 18:24:19.519,668.759
486,30 Jun 2025 19:47:55.250,30 Jun 2025 19:55:16.009,440.759
487,1 Jul 2025 16:22:23.265,1 Jul 2025 16:28:15.945,352.681
488,1 Jul 2025 17:54:16.546,1 Jul 2025 18:05:36.648,680.102
489,1 Jul 2025 19:29:00.931,1 Jul 2025 19:37:35.102,514.170
490,2 Jul 2025 17:35:26.606,2 Jul 2025 17:46:43.003,676.397
491,2 Jul 2025 19:10:06.716,2 Jul 2025 19:19:37.466,570.749
492,3 Jul 2025 17:16:55.262,3 Jul 2025 17:27:37.496,642.234
493,3 Jul 2025 18:51:12.501,3 Jul 2025 19:01:26.877,614.376
494,4 Jul 2025 16:58:32.099,4 Jul 2025 17:08:17.942,585.843
495,4 Jul 2025 18:32:18.286,4 Jul 2025 18:43:05.016,646.730
496,4 Jul 2025 20:07:45.159,4 Jul 2025 20:12:40.928,295.769
497,5 Jul 2025 16:40:21.477,5 Jul 2025 16:48:39.749,498.273
498,5 Jul 2025 18:13:24.072,5 Jul 2025 18:24:32.634,668.562
499,5 Jul 2025 19:48:08.895,5 Jul 2025 19:55:28.334,439.439
500,6 Jul 2025 16:22:35.504,6 Jul 2025 16:28:30.455,354.952
501,6 Jul 2025 17:54:29.857,6 Jul 2025 18:05:49.888,680.030
502,6 Jul 2025 19:29:14.243,6 Jul 2025 19:37:47.664,513.420
503,7 Jul 2025 17:35:39.691,7 Jul 2025 17:46:56.377,676.686
504,7 Jul 2025 19:10:20.028,7 Jul 2025 19:19:50.196,570.168
505,8 Jul 2025 17:17:08.265,8 Jul 2025 17:27:51.018,642.754
506,8 Jul 2025 18:51:25.814,8 Jul 2025 19:01:39.747,613.933
507,9 Jul 2025 16:58:44.988,9 Jul 2025 17:08:31.649,586.661
508,9 Jul 2025 18:32:31.599,9 Jul 2025 18:43:18.013,646.413
509,9 Jul 2025 20:07:59.221,9 Jul 2025 20:12:52.756,293.535
510,10 Jul 2025 16:40:34.175,10 Jul 2025 16:48:53.723,499.548
511,10 Jul 2025 18:13:37.386,10 Jul 2025 18:24:45.755,668.369
512,10 Jul 2025 19:48:22.541,10 Jul 2025 19:55:40.656,438.115
513,11 Jul 2025 16:22:47.754,11 Jul 2025 16:28:44.954,357.200
514,11 Jul 2025 17:54:43.172,11 Jul 2025 18:06:03.129,679.957
515,11 Jul 2025 19:29:27.558,11 Jul 2025 19:38:00.223,512.666
516,12 Jul 2025 17:35:52.777,12 Jul 2025 17:47:09.749,676.972
517,12 Jul 2025 19:10:33.343,12 Jul 2025 19:20:02.925,569.582
518,13 Jul 2025 17:17:21.271,13 Jul 2025 17:28:04.540,643.270
519,13 Jul 2025 18:51:39.129,13 Jul 2025 19:01:52.616,613.488
520,14 Jul 2025 16:58:57.880,14 Jul 2025 17:08:45.355,587.475
521,14 Jul 2025 18:32:44.914,14 Jul 2025 18:43:31.009,646.095
522,14 Jul 2025 20:08:13.295,14 Jul 2025 20:13:04.575,291.280
523,15 Jul 2025 16:40:46.878,15 Jul 2025 16:49:07.692,500.814
524,15 Jul 2025 18:13:50.699,15 Jul 2025 18:24:58.870,668.171
525,15 Jul 2025 19:48:36.192,15 Jul 2025 19:55:52.973,436.781
526,16 Jul 2025 16:23:00.016,16 Jul 2025 16:28:59.444,359.428
527,16 Jul 2025 17:54:56.484,16 Jul 2025 18:06:16.370,679.886
528,16 Jul 2025 19:29:40.870,16 Jul 2025 19:38:12.782,511.912
529,17 Jul 2025 17:36:05.865,17 Jul 2025 17:47:23.121,677.256
530,17 Jul 2025 19:10:46.654,17 Jul 2025 19:20:15.653,568.999
531,18 Jul 2025 17:17:34.277,18 Jul 2025 17:28:18.059,643.781
532,18 Jul 2025 18:51:52.438,18 Jul 2025 19:02:05.484,613.046
533,19 Jul 2025 16:59:10.772,19 Jul 2025 17:08:59.059,588.287
534,19 Jul 2025 18:32:58.222,19 Jul 2025 18:43:44.003,645.781
535,19 Jul 2025 20:08:27.380,19 Jul 2025 20:13:16.379,288.999
536,20 Jul 2025 16:40:59.581,20 Jul 2025 16:49:21.656,502.075
537,20 Jul 2025 18:14:04.007,20 Jul 2025 18:25:11.990,667.983
538,20 Jul 2025 19:48:49.846,20 Jul 2025 19:56:05.286,435.440
539,21 Jul 2025 16:23:12.282,21 Jul 2025 16:29:13.924,361.641
540,21 Jul 2025 17:55:09.792,21 Jul 2025 18:06:29.608,679.816
541,21 Jul 2025 19:29:54.178,21 Jul 2025 19:38:25.336,511.158
542,22 Jul 2025 17:36:18.952,22 Jul 2025 17:47:36.490,677.538
543,22 Jul 2025 19:10:59.963,22 Jul 2025 19:20:28.377,568.414
544,23 Jul 2025 17:17:47.283,23 Jul 2025 17:28:31.576,644.293
545,23 Jul 2025 18:52:05.748,23 Jul 2025 19:02:18.349,612.601
546,24 Jul 2025 16:59:23.665,24 Jul 2025 17:09:12.759,589.094
547,24 Jul 2025 18:33:11.533,24 Jul 2025 18:43:56.995,645.461
548,24 Jul 2025 20:08:41.474,24 Jul 2025 20:13:28.174,286.701
549,25 Jul 2025 16:41:12.288,25 Jul 2025 16:49:35.616,503.328
550,25 Jul 2025 18:14:17.319,25 Jul 2025 18:25:25.104,667.785
551,25 Jul 2025 19:49:03.502,25 Jul 2025 19:56:17.596,434.094
552,26 Jul 2025 16:23:24.556,26 Jul 2025 16:29:28.389,363.833
553,26 Jul 2025 17:55:23.104,26 Jul 2025 18:06:42.849,679.745
554,26 Jul 2025 19:30:07.490,26 Jul 2025 19:38:37.889,510.399
555,27 Jul 2025 17:36:32.041,27 Jul 2025 17:47:49.858,677.817
556,27 Jul 2025 19:11:13.275,27 Jul 2025 19:20:41.100,567.825
557,28 Jul 2025 17:18:00.289,28 Jul 2025 17:28:45.097,644.808
558,28 Jul 2025 18:52:19.059,28 Jul 2025 19:02:31.211,612.152
559,29 Jul 2025 16:59:36.563,29 Jul 2025 17:09:26.458,589.895
560,29 Jul 2025 18:33:24.843,29 Jul 2025 18:44:09.987,645.144
561,29 Jul 2025 20:08:55.581,29 Jul 2025 20:13:39.958,284.377
562,30 Jul 2025 16:41:24.996,30 Jul 2025 16:49:49.571,504.574
563,30 Jul 2025 18:14:30.627,30 Jul 2025 18:25:38.218,667.591
564,30 Jul 2025 19:49:17.160,30 Jul 2025 19:56:29.908,432.748
565,31 Jul 2025 16:23:36.839,31 Jul 2025 16:29:42.856,366.017
566,31 Jul 2025 17:55:36.411,31 Jul 2025 18:06:56.082,679.671
567,31 Jul 2025 19:30:20.797,31 Jul 2025 19:38:50.439,509.642
568,1 Aug 2025 17:36:45.131,1 Aug 2025 17:48:03.226,678.095
569,1 Aug 2025 19:11:26.580,1 Aug 2025 19:20:53.822,567.242
570,2 Aug 2025 17:18:13.301,2 Aug 2025 17:28:58.608,645.307
571,2 Aug 2025 18:52:32.364,2 Aug 2025 19:02:44.077,611.713
572,3 Aug 2025 16:59:49.457,3 Aug 2025 17:09:40.153,590.695
573,3 Aug 2025 18:33:38.148,3 Aug 2025 18:44:22.977,644.830
574,3 Aug 2025 20:09:09.701,3 Aug 2025 20:13:51.727,282.026
575,4 Aug 2025 16:41:37.708,4 Aug 2025 16:50:03.525,505.817
576,4 Aug 2025 18:14:43.932,4 Aug 2025 18:25:51.330,667.398
577,4 Aug 2025 19:49:30.824,4 Aug 2025 19:56:42.209,431.386
578,5 Aug 2025 16:23:49.130,5 Aug 2025 16:29:57.308,368.178
579,5 Aug 2025 17:55:49.716,5 Aug 2025 18:07:09.317,679.600
580,5 Aug 2025 19:30:34.102,5 Aug 2025 19:39:02.986,508.885
581,6 Aug 2025 17:36:58.221,6 Aug 2025 17:48:16.590,678.369
582,6 Aug 2025 19:11:39.886,6 Aug 2025 19:21:06.541,566.655
583,7 Aug 2025 17:18:26.311,7 Aug 2025 17:29:12.121,645.810
584,7 Aug 2025 18:52:45.670,7 Aug 2025 19:02:56.938,611.267
585,8 Aug 2025 17:00:02.358,8 Aug 2025 17:09:53.847,591.489
586,8 Aug 2025 18:33:51.455,8 Aug 2025 18:44:35.966,644.510
587,8 Aug 2025 20:09:23.829,8 Aug 2025 20:14:03.486,279.657
588,9 Aug 2025 16:41:50.424,9 Aug 2025 16:50:17.475,507.051
589,9 Aug 2025 18:14:57.240,9 Aug 2025 18:26:04.441,667.200
590,9 Aug 2025 19:49:44.495,9 Aug 2025 19:56:54.508,430.014
591,10 Aug 2025 16:24:01.431,10 Aug 2025 16:30:11.750,370.319
592,10 Aug 2025 17:56:03.025,10 Aug 2025 18:07:22.550,679.525
593,10 Aug 2025 19:30:47.411,10 Aug 2025 19:39:15.533,508.122
594,11 Aug 2025 17:37:11.313,11 Aug 2025 17:48:29.955,678.642
595,11 Aug 2025 19:11:53.194,11 Aug 2025 19:21:19.260,566.065
596,12 Aug 2025 17:18:39.324,12 Aug 2025 17:29:25.636,646.312
597,12 Aug 2025 18:52:58.978,12 Aug 2025 19:03:09.795,610.817
598,13 Aug 2025 17:00:15.259,13 Aug 2025 17:10:07.545,592.286
599,13 Aug 2025 18:34:04.761,13 Aug 2025 18:44:48.954,644.192
600,13 Aug 2025 20:09:37.977,13 Aug 2025 20:14:15.236,277.259
601,14 Aug 2025 16:42:03.144,14 Aug 2025 16:50:31.423,508.280
602,14 Aug 2025 18:15:10.545,14 Aug 2025 18:26:17.551,667.006
603,14 Aug 2025 19:49:58.163,14 Aug 2025 19:57:06.804,428.641
604,15 Aug 2025 16:24:13.739,15 Aug 2025 16:30:26.186,372.448
605,15 Aug 2025 17:56:16.328,15 Aug 2025 18:07:35.783,679.455
606,15 Aug 2025 19:31:00.714,15 Aug 2025 19:39:28.076,507.362
607,16 Aug 2025 17:37:24.405,16 Aug 2025 17:48:43.318,678.912
608,16 Aug 2025 19:12:06.496,16 Aug 2025 19:21:31.976,565.479
609,17 Aug 2025 17:18:52.336,17 Aug 2025 17:29:39.146,646.810
610,17 Aug 2025 18:53:12.279,17 Aug 2025 19:03:22.654,610.374
611,18 Aug 2025 17:00:28.160,18 Aug 2025 17:10:21.230,593.070
612,18 Aug 2025 18:34:18.063,18 Aug 2025 18:45:01.939,643.877
613,18 Aug 2025 20:09:52.133,18 Aug 2025 20:14:26.967,274.834
614,19 Aug 2025 16:42:15.864,19 Aug 2025 16:50:45.366,509.503
615,19 Aug 2025 18:15:23.847,19 Aug 2025 18:26:30.659,666.812
616,19 Aug 2025 19:50:11.841,19 Aug 2025 19:57:19.093,427.252
617,20 Aug 2025 16:24:26.054,20 Aug 2025 16:30:40.611,374.557
618,20 Aug 2025 17:56:29.631,20 Aug 2025 18:07:49.013,679.382
619,20 Aug 2025 19:31:14.017,20 Aug 2025 19:39:40.616,506.599
620,21 Aug 2025 17:37:37.498,21 Aug 2025 17:48:56.678,679.180
621,21 Aug 2025 19:12:19.801,21 Aug 2025 19:21:44.690,564.889
622,22 Aug 2025 17:19:05.350,22 Aug 2025 17:29:52.654,647.304
623,22 Aug 2025 18:53:25.585,22 Aug 2025 19:03:35.510,609.926
624,23 Aug 2025 17:00:41.064,23 Aug 2025 17:10:34.918,593.854
625,23 Aug 2025 18:34:31.369,23 Aug 2025 18:45:14.925,643.556
626,23 Aug 2025 20:10:06.294,23 Aug 2025 20:14:38.688,272.394
627,24 Aug 2025 16:42:28.588,24 Aug 2025 16:50:59.308,510.720
628,24 Aug 2025 18:15:37.153,24 Aug 2025 18:26:43.766,666.613
629,24 Aug 2025 19:50:25.519,24 Aug 2025 19:57:31.380,425.860
630,25 Aug 2025 16:24:38.380,25 Aug 2025 16:30:55.030,376.650
631,25 Aug 2025 17:56:42.937,25 Aug 2025 18:08:02.248,679.311
632,25 Aug 2025 19:31:27.322,25 Aug 2025 19:39:53.155,505.833
633,26 Aug 2025 17:37:50.594,26 Aug 2025 17:49:10.040,679.446
634,26 Aug 2025 19:12:33.105,26 Aug 2025 19:21:57.404,564.298
635,27 Aug 2025 17:19:18.366,27 Aug 2025 17:30:06.162,647.796
636,27 Aug 2025 18:53:38.888,27 Aug 2025 19:03:48.367,609.479
637,28 Aug 2025 17:00:53.969,28 Aug 2025 17:10:48.607,594.639
638,28 Aug 2025 18:34:44.671,28 Aug 2025 18:45:27.908,643.237
639,28 Aug 2025 20:10:20.478,28 Aug 2025 20:14:50.392,269.913
640,29 Aug 2025 16:42:41.313,29 Aug 2025 16:51:13.246,511.934
641,29 Aug 2025 18:15:50.454,29 Aug 2025 18:26:56.869,666.415
642,29 Aug 2025 19:50:39.199,29 Aug 2025 19:57:43.668,424.469
643,30 Aug 2025 16:24:50.710,30 Aug 2025 16:31:09.440,378.730
644,30 Aug 2025 17:56:56.237,30 Aug 2025 18:08:15.474,679.237
645,30 Aug 2025 19:31:40.623,30 Aug 2025 19:40:05.692,505.069
646,31 Aug 2025 17:38:03.689,31 Aug 2025 17:49:23.399,679.709
647,31 Aug 2025 19:12:46.405,31 Aug 2025 19:22:10.115,563.710
648,1 Sep 2025 17:19:31.382,1 Sep 2025 17:30:19.667,648.285
649,1 Sep 2025 18:53:52.188,1 Sep 2025 19:04:01.222,609.034
650,2 Sep 2025 17:01:06.874,2 Sep 2025 17:11:02.292,595.417
651,2 Sep 2025 18:34:57.971,2 Sep 2025 18:45:40.890,642.919
652,2 Sep 2025 20:10:34.674,2 Sep 2025 20:15:02.084,267.409
653,3 Sep 2025 16:42:54.041,3 Sep 2025 16:51:27.180,513.139
654,3 Sep 2025 18:16:03.755,3 Sep 2025 18:27:09.974,666.219
655,3 Sep 2025 19:50:52.885,3 Sep 2025 19:57:55.947,423.062
656,4 Sep 2025 16:25:03.050,4 Sep 2025 16:31:23.841,380.791
657,4 Sep 2025 17:57:09.539,4 Sep 2025 18:08:28.701,679.162
658,4 Sep 2025 19:31:53.924,4 Sep 2025 19:40:18.226,504.301
659,5 Sep 2025 17:38:16.786,5 Sep 2025 17:49:36.752,679.966
660,5 Sep 2025 19:12:59.708,5 Sep 2025 19:22:22.825,563.117
661,6 Sep 2025 17:19:44.400,6 Sep 2025 17:30:33.171,648.771
662,6 Sep 2025 18:54:05.492,6 Sep 2025 19:04:14.075,608.583
663,7 Sep 2025 17:01:19.784,7 Sep 2025 17:11:15.975,596.191
664,7 Sep 2025 18:35:11.275,7 Sep 2025 18:45:53.872,642.596
665,7 Sep 2025 20:10:48.882,7 Sep 2025 20:15:13.764,264.883
666,8 Sep 2025 16:43:06.774,8 Sep 2025 16:51:41.113,514.338
667,8 Sep 2025 18:16:17.059,8 Sep 2025 18:27:23.078,666.019
668,8 Sep 2025 19:51:06.579,8 Sep 2025 19:58:08.224,421.645
669,9 Sep 2025 16:25:15.399,9 Sep 2025 16:31:38.235,382.837
670,9 Sep 2025 17:57:22.843,9 Sep 2025 18:08:41.929,679.086
671,9 Sep 2025 19:32:07.228,9 Sep 2025 19:40:30.758,503.530
672,10 Sep 2025 17:38:29.885,10 Sep 2025 17:49:50.110,680.225
673,10 Sep 2025 19:13:13.011,10 Sep 2025 19:22:35.534,562.524
674,11 Sep 2025 17:19:57.420,11 Sep 2025 17:30:46.675,649.255
675,11 Sep 2025 18:54:18.793,11 Sep 2025 19:04:26.928,608.135
676,12 Sep 2025 17:01:32.694,12 Sep 2025 17:11:29.657,596.963
677,12 Sep 2025 18:35:24.575,12 Sep 2025 18:46:06.852,642.277
678,12 Sep 2025 20:11:03.108,12 Sep 2025 20:15:25.428,262.320
679,13 Sep 2025 16:43:19.509,13 Sep 2025 16:51:55.042,515.533
680,13 Sep 2025 18:16:30.358,13 Sep 2025 18:27:36.185,665.827
681,13 Sep 2025 19:51:20.274,13 Sep 2025 19:58:20.496,420.221
682,14 Sep 2025 16:25:27.752,14 Sep 2025 16:31:52.622,384.870
683,14 Sep 2025 17:57:36.141,14 Sep 2025 18:08:55.155,679.014
684,14 Sep 2025 19:32:20.526,14 Sep 2025 19:40:43.287,502.761
685,15 Sep 2025 16:09:19.914,15 Sep 2025 16:09:59.434,39.520
686,15 Sep 2025 17:38:42.984,15 Sep 2025 17:50:03.466,680.482
687,15 Sep 2025 19:13:26.309,15 Sep 2025 19:22:48.241,561.932
688,16 Sep 2025 17:20:10.440,16 Sep 2025 17:31:00.176,649.736
689,16 Sep 2025 18:54:32.092,16 Sep 2025 19:04:39.778,607.686
690,17 Sep 2025 17:01:45.608,17 Sep 2025 17:11:43.333,597.725
691,17 Sep 2025 18:35:37.875,17 Sep 2025 18:46:19.834,641.959
692,17 Sep 2025 20:11:17.350,17 Sep 2025 20:15:37.076,259.726
693,18 Sep 2025 16:43:32.247,18 Sep 2025 16:52:08.971,516.724
694,18 Sep 2025 18:16:43.659,18 Sep 2025 18:27:49.287,665.628
695,18 Sep 2025 19:51:33.971,18 Sep 2025 19:58:32.759,418.788
696,19 Sep 2025 16:25:40.116,19 Sep 2025 16:32:07.000,386.883
697,19 Sep 2025 17:57:49.443,19 Sep 2025 18:09:08.379,678.936
698,19 Sep 2025 19:32:33.829,19 Sep 2025 19:40:55.817,501.988
699,20 Sep 2025 16:09:23.637,20 Sep 2025 16:10:22.533,58.896
700,20 Sep 2025 17:38:56.084,20 Sep 2025 17:50:16.820,680.736
701,20 Sep 2025 19:13:39.612,20 Sep 2025 19:23:00.947,561.335
702,21 Sep 2025 17:20:23.462,21 Sep 2025 17:31:13.677,650.215
703,21 Sep 2025 18:54:45.396,21 Sep 2025 19:04:52.632,607.236
704,22 Sep 2025 17:01:58.524,22 Sep 2025 17:11:57.011,598.488
705,22 Sep 2025 18:35:51.179,22 Sep 2025 18:46:32.814,641.635
706,22 Sep 2025 20:11:31.603,22 Sep 2025 20:15:48.708,257.105
707,23 Sep 2025 16:43:44.990,23 Sep 2025 16:52:22.894,517.904
708,23 Sep 2025 18:16:56.962,23 Sep 2025 18:28:02.390,665.427
709,23 Sep 2025 19:51:47.673,23 Sep 2025 19:58:45.025,417.351
710,24 Sep 2025 16:25:52.487,24 Sep 2025 16:32:21.372,388.885
711,24 Sep 2025 17:58:02.745,24 Sep 2025 18:09:21.604,678.859
712,24 Sep 2025 19:32:47.131,24 Sep 2025 19:41:08.344,501.213
713,25 Sep 2025 16:09:29.840,25 Sep 2025 16:10:43.156,73.316
714,25 Sep 2025 17:39:09.187,25 Sep 2025 17:50:30.175,680.988
715,25 Sep 2025 19:13:52.913,25 Sep 2025 19:23:13.652,560.739
716,26 Sep 2025 17:20:36.486,26 Sep 2025 17:31:27.177,650.691
717,26 Sep 2025 18:54:58.696,26 Sep 2025 19:05:05.481,606.785
718,27 Sep 2025 17:02:11.440,27 Sep 2025 17:12:10.688,599.248
719,27 Sep 2025 18:36:04.478,27 Sep 2025 18:46:45.793,641.314
720,27 Sep 2025 20:11:45.875,27 Sep 2025 20:16:00.326,254.452
721,28 Sep 2025 16:43:57.735,28 Sep 2025 16:52:36.814,519.080
722,28 Sep 2025 18:17:10.261,28 Sep 2025 18:28:15.490,665.229
723,28 Sep 2025 19:52:01.381,28 Sep 2025 19:58:57.285,415.905
724,29 Sep 2025 16:26:04.863,29 Sep 2025 16:32:35.736,390.873
725,29 Sep 2025 17:58:16.045,29 Sep 2025 18:09:34.828,678.783
726,29 Sep 2025 19:33:00.430,29 Sep 2025 19:41:20.868,500.438
727,30 Sep 2025 16:09:37.257,30 Sep 2025 16:11:02.565,85.308
728,30 Sep 2025 17:39:22.290,30 Sep 2025 17:50:43.528,681.237
729,30 Sep 2025 19:14:06.213,30 Sep 2025 19:23:26.355,560.142
730,1 Oct 2025 17:20:49.511,1 Oct 2025 17:31:40.674,651.164
731,1 Oct 2025 18:55:11.996,1 Oct 2025 19:05:18.329,606.332
732,2 Oct 2025 17:02:24.358,2 Oct 2025 17:12:24.361,600.003
733,2 Oct 2025 18:36:17.780,2 Oct 2025 18:46:58.769,640.989
734,2 Oct 2025 20:12:00.159,2 Oct 2025 20:16:11.929,251.771
735,3 Oct 2025 16:44:10.483,3 Oct 2025 16:52:50.730,520.248
736,3 Oct 2025 18:17:23.564,3 Oct 2025 18:28:28.589,665.025
737,3 Oct 2025 19:52:15.084,3 Oct 2025 19:59:09.542,414.458
738,4 Oct 2025 16:26:17.249,4 Oct 2025 16:32:50.092,392.842
739,4 Oct 2025 17:58:29.348,4 Oct 2025 18:09:48.050,678.702
740,4 Oct 2025 19:33:13.734,4 Oct 2025 19:41:33.386,499.652
741,5 Oct 2025 16:09:45.434,5 Oct 2025 16:11:21.212,95.777
742,5 Oct 2025 17:39:35.395,5 Oct 2025 17:50:56.879,681.484
743,5 Oct 2025 19:14:19.517,5 Oct 2025 19:23:39.056,559.539
744,6 Oct 2025 17:21:02.538,6 Oct 2025 17:31:54.167,651.628
745,6 Oct 2025 18:55:25.301,6 Oct 2025 19:05:31.176,605.875
746,7 Oct 2025 17:02:37.280,7 Oct 2025 17:12:38.034,600.754
747,7 Oct 2025 18:36:31.084,7 Oct 2025 18:47:11.746,640.662
748,7 Oct 2025 20:12:14.460,7 Oct 2025 20:16:23.518,249.058
749,8 Oct 2025 16:44:23.235,8 Oct 2025 16:53:04.645,521.410
750,8 Oct 2025 18:17:36.867,8 Oct 2025 18:28:41.688,664.821
751,8 Oct 2025 19:52:28.799,8 Oct 2025 19:59:21.797,412.998
752,9 Oct 2025 16:26:29.643,9 Oct 2025 16:33:04.442,394.799
753,9 Oct 2025 17:58:42.650,9 Oct 2025 18:10:01.272,678.622
754,9 Oct 2025 19:33:27.036,9 Oct 2025 19:41:45.906,498.870
755,10 Oct 2025 16:09:54.134,10 Oct 2025 16:11:39.339,105.205
756,10 Oct 2025 17:39:48.502,10 Oct 2025 17:51:10.231,681.729
757,10 Oct 2025 19:14:32.818,10 Oct 2025 19:23:51.757,558.939
758,11 Oct 2025 17:21:15.567,11 Oct 2025 17:32:07.664,652.097
759,11 Oct 2025 18:55:38.600,11 Oct 2025 19:05:44.022,605.421
760,12 Oct 2025 17:02:50.202,12 Oct 2025 17:12:51.705,601.503
761,12 Oct 2025 18:36:44.383,12 Oct 2025 18:47:24.721,640.338
762,12 Oct 2025 20:12:28.781,12 Oct 2025 20:16:35.087,246.306
763,13 Oct 2025 16:44:35.988,13 Oct 2025 16:53:18.556,522.568
764,13 Oct 2025 18:17:50.167,13 Oct 2025 18:28:54.785,664.618
765,13 Oct 2025 19:52:42.517,13 Oct 2025 19:59:34.045,411.528
766,14 Oct 2025 16:26:42.042,14 Oct 2025 16:33:18.784,396.742
767,14 Oct 2025 17:58:55.951,14 Oct 2025 18:10:14.492,678.541
768,14 Oct 2025 19:33:40.336,14 Oct 2025 19:41:58.424,498.087
769,15 Oct 2025 16:10:03.236,15 Oct 2025 16:11:57.063,113.828
770,15 Oct 2025 17:40:01.730,15 Oct 2025 17:51:23.580,681.850
771,15 Oct 2025 19:14:46.120,15 Oct 2025 19:24:04.455,558.335
772,16 Oct 2025 17:21:28.597,16 Oct 2025 17:32:21.161,652.564
773,16 Oct 2025 18:55:51.904,16 Oct 2025 19:05:56.866,604.962
774,17 Oct 2025 17:03:03.127,17 Oct 2025 17:13:05.374,602.247
775,17 Oct 2025 18:36:57.688,17 Oct 2025 18:47:37.695,640.006
776,17 Oct 2025 20:12:43.115,17 Oct 2025 20:16:46.640,243.526
777,18 Oct 2025 16:44:48.747,18 Oct 2025 16:53:32.464,523.717
778,18 Oct 2025 18:18:03.473,18 Oct 2025 18:29:07.881,664.408
779,18 Oct 2025 19:52:56.237,18 Oct 2025 19:59:46.292,410.054
780,19 Oct 2025 16:26:54.451,19 Oct 2025 16:33:33.118,398.667
781,19 Oct 2025 17:59:09.257,19 Oct 2025 18:10:27.712,678.454
782,19 Oct 2025 19:33:53.643,19 Oct 2025 19:42:10.941,497.298
783,20 Oct 2025 16:10:12.655,20 Oct 2025 16:12:14.473,121.818
784,20 Oct 2025 17:40:15.037,20 Oct 2025 17:51:36.929,681.892
785,20 Oct 2025 19:14:59.427,20 Oct 2025 19:24:17.156,557.729
786,21 Oct 2025 17:21:41.632,21 Oct 2025 17:32:34.654,653.022
787,21 Oct 2025 18:56:05.210,21 Oct 2025 19:06:09.707,604.496
788,22 Oct 2025 17:03:16.055,22 Oct 2025 17:13:19.042,602.987
789,22 Oct 2025 18:37:10.994,22 Oct 2025 18:47:50.669,639.675
790,22 Oct 2025 20:12:57.469,22 Oct 2025 20:16:58.177,240.709
791,23 Oct 2025 16:45:01.509,23 Oct 2025 16:53:46.371,524.862
792,23 Oct 2025 18:18:16.778,23 Oct 2025 18:29:20.977,664.199
793,23 Oct 2025 19:53:09.964,23 Oct 2025 19:59:58.535,408.571
794,24 Oct 2025 16:27:06.867,24 Oct 2025 16:33:47.448,400.581
795,24 Oct 2025 17:59:22.562,24 Oct 2025 18:10:40.932,678.370
796,24 Oct 2025 19:34:06.948,24 Oct 2025 19:42:23.456,496.508
797,25 Oct 2025 16:10:22.321,25 Oct 2025 16:12:31.630,129.310
798,25 Oct 2025 17:40:28.341,25 Oct 2025 17:51:50.278,681.937
799,25 Oct 2025 19:15:12.731,25 Oct 2025 19:24:29.853,557.122
800,26 Oct 2025 17:21:54.666,26 Oct 2025 17:32:48.147,653.480
801,26 Oct 2025 18:56:18.514,26 Oct 2025 19:06:22.550,604.035
802,27 Oct 2025 17:03:28.985,27 Oct 2025 17:13:32.708,603.723
803,27 Oct 2025 18:37:24.298,27 Oct 2025 18:48:03.642,639.344
804,27 Oct 2025 20:13:11.842,27 Oct 2025 20:17:09.694,237.852
805,28 Oct 2025 16:45:14.273,28 Oct 2025 16:54:00.273,526.001
806,28 Oct 2025 18:18:30.082,28 Oct 2025 18:29:34.071,663.989
807,28 Oct 2025 19:53:23.693,28 Oct 2025 20:00:10.773,407.080
808,29 Oct 2025 16:27:19.289,29 Oct 2025 16:34:01.768,402.480
809,29 Oct 2025 17:59:35.867,29 Oct 2025 18:10:54.149,678.283
810,29 Oct 2025 19:34:20.252,29 Oct 2025 19:42:35.968,495.715
811,30 Oct 2025 16:10:32.204,30 Oct 2025 16:12:48.577,136.372
812,30 Oct 2025 17:40:41.647,30 Oct 2025 17:52:03.628,681.981
813,30 Oct 2025 19:15:26.037,30 Oct 2025 19:24:42.547,556.511
814,31 Oct 2025 17:22:07.699,31 Oct 2025 17:33:01.636,653.937
815,31 Oct 2025 18:56:31.821,31 Oct 2025 19:06:35.391,603.569
816,1 Nov 2025 17:03:41.916,1 Nov 2025 17:13:46.371,604.455
817,1 Nov 2025 18:37:37.606,1 Nov 2025 18:48:16.613,639.006
818,1 Nov 2025 20:13:26.230,1 Nov 2025 20:17:21.193,234.964
819,2 Nov 2025 16:45:27.041,2 Nov 2025 16:54:14.169,527.128
820,2 Nov 2025 18:18:43.392,2 Nov 2025 18:29:47.170,663.778
821,2 Nov 2025 19:53:37.429,2 Nov 2025 20:00:23.013,405.584
822,3 Nov 2025 16:27:31.720,3 Nov 2025 16:34:16.082,404.362
823,3 Nov 2025 17:59:49.177,3 Nov 2025 18:11:07.366,678.189
824,3 Nov 2025 19:34:33.563,3 Nov 2025 19:42:48.479,494.916
825,4 Nov 2025 16:10:42.270,4 Nov 2025 16:13:05.331,143.061
826,4 Nov 2025 17:40:54.957,4 Nov 2025 17:52:16.970,682.013
827,4 Nov 2025 19:15:39.347,4 Nov 2025 19:24:55.241,555.894
828,5 Nov 2025 17:22:20.739,5 Nov 2025 17:33:15.126,654.387
829,5 Nov 2025 18:56:45.131,5 Nov 2025 19:06:48.232,603.101
830,6 Nov 2025 17:03:54.851,6 Nov 2025 17:14:00.034,605.183
831,6 Nov 2025 18:37:50.915,6 Nov 2025 18:48:29.584,638.669
832,6 Nov 2025 20:13:40.640,6 Nov 2025 20:17:32.673,232.033
833,7 Nov 2025 16:45:39.813,7 Nov 2025 16:54:28.068,528.255
834,7 Nov 2025 18:18:56.699,7 Nov 2025 18:30:00.265,663.566
835,7 Nov 2025 19:53:51.166,7 Nov 2025 20:00:35.240,404.074
836,8 Nov 2025 16:27:44.156,8 Nov 2025 16:34:30.391,406.234
837,8 Nov 2025 18:00:02.484,8 Nov 2025 18:11:20.583,678.100
838,8 Nov 2025 19:34:46.869,8 Nov 2025 19:43:00.988,494.118
839,9 Nov 2025 16:10:52.494,9 Nov 2025 16:13:21.943,149.449
840,9 Nov 2025 17:41:08.264,9 Nov 2025 17:52:30.319,682.056
841,9 Nov 2025 19:15:52.653,9 Nov 2025 19:25:07.934,555.280
842,10 Nov 2025 17:22:33.775,10 Nov 2025 17:33:28.614,654.838
843,10 Nov 2025 18:56:58.437,10 Nov 2025 19:07:01.071,602.633
844,11 Nov 2025 17:04:07.785,11 Nov 2025 17:14:13.693,605.908
845,11 Nov 2025 18:38:04.222,11 Nov 2025 18:48:42.553,638.331
846,11 Nov 2025 20:13:55.070,11 Nov 2025 20:17:44.131,229.061
847,12 Nov 2025 16:45:52.586,12 Nov 2025 16:54:41.963,529.377
848,12 Nov 2025 18:19:10.008,12 Nov 2025 18:30:13.353,663.345
849,12 Nov 2025 19:54:04.902,12 Nov 2025 20:00:47.471,402.569
850,13 Nov 2025 16:27:56.600,13 Nov 2025 16:34:44.685,408.085
851,13 Nov 2025 18:00:15.794,13 Nov 2025 18:11:33.799,678.005
852,13 Nov 2025 19:35:00.180,13 Nov 2025 19:43:13.494,493.314
853,14 Nov 2025 16:11:02.857,14 Nov 2025 16:13:38.405,155.548
854,14 Nov 2025 17:41:21.576,14 Nov 2025 17:52:43.662,682.086
855,14 Nov 2025 19:16:05.965,14 Nov 2025 19:25:20.624,554.659
856,15 Nov 2025 17:22:46.816,15 Nov 2025 17:33:42.100,655.284
857,15 Nov 2025 18:57:11.751,15 Nov 2025 19:07:13.909,602.158
858,16 Nov 2025 17:04:20.722,16 Nov 2025 17:14:27.355,606.633
859,16 Nov 2025 18:38:17.537,16 Nov 2025 18:48:55.519,637.982
860,16 Nov 2025 20:14:09.515,16 Nov 2025 20:17:55.572,226.057
861,17 Nov 2025 16:46:05.366,17 Nov 2025 16:54:55.851,530.485
862,17 Nov 2025 18:19:23.323,17 Nov 2025 18:30:26.448,663.125
863,17 Nov 2025 19:54:18.650,17 Nov 2025 20:00:59.696,401.046
864,18 Nov 2025 16:28:09.053,18 Nov 2025 16:34:58.979,409.926
865,18 Nov 2025 18:00:29.109,18 Nov 2025 18:11:47.012,677.903
866,18 Nov 2025 19:35:13.495,18 Nov 2025 19:43:26.000,492.505
867,19 Nov 2025 16:11:13.345,19 Nov 2025 16:13:54.748,161.403
868,19 Nov 2025 17:41:34.891,19 Nov 2025 17:52:57.005,682.114
869,19 Nov 2025 19:16:19.280,19 Nov 2025 19:25:33.315,554.035
870,20 Nov 2025 17:22:59.859,20 Nov 2025 17:33:55.586,655.727
871,20 Nov 2025 18:57:25.065,20 Nov 2025 19:07:26.747,601.682
872,21 Nov 2025 17:04:33.663,21 Nov 2025 17:14:41.012,607.349
873,21 Nov 2025 18:38:30.851,21 Nov 2025 18:49:08.487,637.636
874,21 Nov 2025 20:14:23.987,21 Nov 2025 20:18:06.990,223.003
875,22 Nov 2025 16:46:18.147,22 Nov 2025 16:55:09.740,531.593
876,22 Nov 2025 18:19:36.636,22 Nov 2025 18:30:39.539,662.903
877,22 Nov 2025 19:54:32.398,22 Nov 2025 20:01:11.916,399.518
878,23 Nov 2025 16:28:21.512,23 Nov 2025 16:35:13.266,411.755
879,23 Nov 2025 18:00:42.422,23 Nov 2025 18:12:00.226,677.804
880,23 Nov 2025 19:35:26.808,23 Nov 2025 19:43:38.503,491.695
881,24 Nov 2025 16:11:23.939,24 Nov 2025 16:14:10.981,167.042
882,24 Nov 2025 17:41:48.205,24 Nov 2025 17:53:10.347,682.142
883,24 Nov 2025 19:16:32.593,24 Nov 2025 19:25:46.003,553.410
884,25 Nov 2025 17:23:12.902,25 Nov 2025 17:34:09.069,656.167
885,25 Nov 2025 18:57:38.379,25 Nov 2025 19:07:39.583,601.204
886,26 Nov 2025 17:04:46.605,26 Nov 2025 17:14:54.666,608.061
887,26 Nov 2025 18:38:44.165,26 Nov 2025 18:49:21.452,637.288
888,26 Nov 2025 20:14:38.479,26 Nov 2025 20:18:18.384,219.906
889,27 Nov 2025 16:46:30.930,27 Nov 2025 16:55:23.624,532.694
890,27 Nov 2025 18:19:49.951,27 Nov 2025 18:30:52.629,662.678
891,27 Nov 2025 19:54:46.146,27 Nov 2025 20:01:24.128,397.982
892,28 Nov 2025 16:28:33.977,28 Nov 2025 16:35:27.545,413.568
893,28 Nov 2025 18:00:55.738,28 Nov 2025 18:12:13.438,677.700
894,28 Nov 2025 19:35:40.124,28 Nov 2025 19:43:51.003,490.879
895,29 Nov 2025 16:11:34.635,29 Nov 2025 16:14:27.109,172.474
896,29 Nov 2025 17:42:01.523,29 Nov 2025 17:53:23.686,682.163
897,29 Nov 2025 19:16:45.911,29 Nov 2025 19:25:58.689,552.778
898,30 Nov 2025 17:23:25.947,30 Nov 2025 17:34:22.551,656.603
899,30 Nov 2025 18:57:51.698,30 Nov 2025 19:07:52.421,600.723
900,1 Dec 2025 17:04:59.549,1 Dec 2025 17:15:08.318,608.769
901,1 Dec 2025 18:38:57.485,1 Dec 2025 18:49:34.417,636.933
902,1 Dec 2025 20:14:52.991,1 Dec 2025 20:18:29.759,216.768
903,2 Dec 2025 16:46:43.718,2 Dec 2025 16:55:37.506,533.787
904,2 Dec 2025 18:20:03.272,2 Dec 2025 18:31:05.718,662.446
905,2 Dec 2025 19:54:59.900,2 Dec 2025 20:01:36.342,396.441
906,3 Dec 2025 16:28:46.451,3 Dec 2025 16:35:41.818,415.368
907,3 Dec 2025 18:01:09.059,3 Dec 2025 18:12:26.650,677.591
908,3 Dec 2025 19:35:53.445,3 Dec 2025 19:44:03.503,490.059
909,4 Dec 2025 16:11:45.423,4 Dec 2025 16:14:43.150,177.728
910,4 Dec 2025 17:42:14.843,4 Dec 2025 17:53:37.025,682.182
911,4 Dec 2025 19:16:59.231,4 Dec 2025 19:26:11.375,552.145
912,5 Dec 2025 17:23:38.995,5 Dec 2025 17:34:36.032,657.037
913,5 Dec 2025 18:58:05.017,5 Dec 2025 19:08:05.255,600.239
914,6 Dec 2025 17:05:12.496,6 Dec 2025 17:15:21.969,609.473
915,6 Dec 2025 18:39:10.803,6 Dec 2025 18:49:47.384,636.582
916,6 Dec 2025 20:15:07.532,6 Dec 2025 20:18:41.106,213.575
917,7 Dec 2025 16:46:56.509,7 Dec 2025 16:55:51.384,534.875
918,7 Dec 2025 18:20:16.589,7 Dec 2025 18:31:18.806,662.217
919,7 Dec 2025 19:55:13.658,7 Dec 2025 20:01:48.549,394.891
920,8 Dec 2025 16:28:58.929,8 Dec 2025 16:35:56.085,417.157
921,8 Dec 2025 18:01:22.376,8 Dec 2025 18:12:39.859,677.483
922,8 Dec 2025 19:36:06.762,8 Dec 2025 19:44:16.000,489.238
923,9 Dec 2025 16:11:56.289,9 Dec 2025 16:14:59.114,182.825
924,9 Dec 2025 17:42:28.162,9 Dec 2025 17:53:50.359,682.197
925,9 Dec 2025 19:17:12.549,9 Dec 2025 19:26:24.058,551.510
926,10 Dec 2025 17:23:52.042,10 Dec 2025 17:34:49.510,657.468
927,10 Dec 2025 18:58:18.336,10 Dec 2025 19:08:18.087,599.751
928,11 Dec 2025 17:05:25.444,11 Dec 2025 17:15:35.616,610.173
929,11 Dec 2025 18:39:24.124,11 Dec 2025 18:50:00.346,636.223
930,11 Dec 2025 20:15:22.092,11 Dec 2025 20:18:52.430,210.337
931,12 Dec 2025 16:47:09.303,12 Dec 2025 16:56:05.263,535.960
932,12 Dec 2025 18:20:29.912,12 Dec 2025 18:31:31.887,661.975
933,12 Dec 2025 19:55:27.414,12 Dec 2025 20:02:00.758,393.343
934,13 Dec 2025 16:29:11.415,13 Dec 2025 16:36:10.343,418.928
935,13 Dec 2025 18:01:35.700,13 Dec 2025 18:12:53.066,677.366
936,13 Dec 2025 19:36:20.086,13 Dec 2025 19:44:28.494,488.408
937,14 Dec 2025 16:12:07.238,14 Dec 2025 16:15:14.994,187.755
938,14 Dec 2025 17:42:41.488,14 Dec 2025 17:54:03.694,682.206
939,14 Dec 2025 19:17:25.874,14 Dec 2025 19:26:36.741,550.867
940,15 Dec 2025 17:24:05.093,15 Dec 2025 17:35:02.988,657.895
941,15 Dec 2025 18:58:31.662,15 Dec 2025 19:08:30.918,599.256
942,16 Dec 2025 17:05:38.397,16 Dec 2025 17:15:49.262,610.865
943,16 Dec 2025 18:39:37.450,16 Dec 2025 18:50:13.309,635.858
944,16 Dec 2025 20:15:36.678,16 Dec 2025 20:19:03.730,207.052
945,17 Dec 2025 16:47:22.100,17 Dec 2025 16:56:19.131,537.031
946,17 Dec 2025 18:20:43.239,17 Dec 2025 18:31:44.977,661.738
947,17 Dec 2025 19:55:41.181,17 Dec 2025 20:02:12.955,391.774
948,18 Dec 2025 16:29:23.909,18 Dec 2025 16:36:24.596,420.688
949,18 Dec 2025 18:01:49.027,18 Dec 2025 18:13:06.275,677.248
950,18 Dec 2025 19:36:33.413,18 Dec 2025 19:44:40.988,487.575
951,19 Dec 2025 16:12:18.254,19 Dec 2025 16:15:30.806,192.552
952,19 Dec 2025 17:42:54.815,19 Dec 2025 17:54:17.029,682.215
953,19 Dec 2025 19:17:39.201,19 Dec 2025 19:26:49.422,550.222
954,20 Dec 2025 17:24:18.144,20 Dec 2025 17:35:16.464,658.320
955,20 Dec 2025 18:58:44.988,20 Dec 2025 19:08:43.749,598.761
956,21 Dec 2025 17:05:51.350,21 Dec 2025 17:16:02.906,611.557
957,21 Dec 2025 18:39:50.776,21 Dec 2025 18:50:26.269,635.494
958,21 Dec 2025 20:15:51.292,21 Dec 2025 20:19:15.000,203.708
959,22 Dec 2025 16:47:34.896,22 Dec 2025 16:56:33.004,538.108
960,22 Dec 2025 18:20:56.564,22 Dec 2025 18:31:58.059,661.496
961,22 Dec 2025 19:55:54.945,22 Dec 2025 20:02:25.156,390.211
962,23 Dec 2025 16:29:36.407,23 Dec 2025 16:36:38.842,422.435
963,23 Dec 2025 18:02:02.352,23 Dec 2025 18:13:19.480,677.128
964,23 Dec 2025 19:36:46.738,23 Dec 2025 19:44:53.478,486.740
965,24 Dec 2025 16:12:29.334,24 Dec 2025 16:15:46.553,197.219
966,24 Dec 2025 17:43:08.139,24 Dec 2025 17:54:30.362,682.223
967,24 Dec 2025 19:17:52.526,24 Dec 2025 19:27:02.101,549.575
968,25 Dec 2025 17:24:31.200,25 Dec 2025 17:35:29.937,658.736
969,25 Dec 2025 18:58:58.315,25 Dec 2025 19:08:56.576,598.262
970,26 Dec 2025 17:06:04.303,26 Dec 2025 17:16:16.547,612.244
971,26 Dec 2025 18:40:04.103,26 Dec 2025 18:50:39.227,635.124
972,26 Dec 2025 20:16:05.931,26 Dec 2025 20:19:26.242,200.311
973,27 Dec 2025 16:47:47.698,27 Dec 2025 16:56:46.868,539.170
974,27 Dec 2025 18:21:09.893,27 Dec 2025 18:32:11.141,661.248
975,27 Dec 2025 19:56:08.712,27 Dec 2025 20:02:37.348,388.635
976,28 Dec 2025 16:29:48.912,28 Dec 2025 16:36:53.079,424.167
977,28 Dec 2025 18:02:15.683,28 Dec 2025 18:13:32.684,677.001
978,28 Dec 2025 19:37:00.069,28 Dec 2025 19:45:05.966,485.898
