3UCubedIntegratedSim/Reports & Plots/Comms/Past Comms Data/UNH/CSV/Sat0.csv

Access,Start Time (UTCG),Stop Time (UTCG),Duration (sec),
1,01/01/2025 16:05:44,01/01/2025 16:17:18,693.732,
2,01/01/2025 17:41:48,01/01/2025 17:49:50,481.477,
3,01/02/2025 14:17:20,01/02/2025 14:22:43,322.538,
4,01/02/2025 15:47:10,01/02/2025 15:58:31,681.063,
5,01/02/2025 17:22:07,01/02/2025 17:31:42,575.091,
6,01/03/2025 15:28:47,01/03/2025 15:39:40,653.237,
7,01/03/2025 17:02:45,01/03/2025 17:13:20,635.383,
8,01/04/2025 15:10:35,01/04/2025 15:20:44,609.111,
9,01/04/2025 16:43:37,01/04/2025 16:54:50,672.52,
10,01/05/2025 14:52:35,01/05/2025 15:01:41,545.824,
11,01/05/2025 16:24:42,01/05/2025 16:36:13,691.206,
12,01/05/2025 18:02:20,01/05/2025 18:07:42,321.925,
13,01/06/2025 14:34:51,01/06/2025 14:42:28,456.968,
14,01/06/2025 16:05:58,01/06/2025 16:17:31,693.792,
15,01/06/2025 17:42:02,01/06/2025 17:50:02,480.104,
16,01/07/2025 14:17:32,01/07/2025 14:22:57,324.538,
17,01/07/2025 15:47:23,01/07/2025 15:58:45,681.299,
18,01/07/2025 17:22:20,01/07/2025 17:31:55,574.213,
19,01/08/2025 15:29:00,01/08/2025 15:39:54,653.655,
20,01/08/2025 17:02:58,01/08/2025 17:13:33,634.82,
21,01/09/2025 15:10:47,01/09/2025 15:20:57,609.733,
22,01/09/2025 16:43:51,01/09/2025 16:55:03,672.197,
23,01/10/2025 14:52:47,01/10/2025 15:01:54,546.699,
24,01/10/2025 16:24:55,01/10/2025 16:36:26,691.083,
25,01/10/2025 18:02:34,01/10/2025 18:07:54,319.331,
26,01/11/2025 14:35:03,01/11/2025 14:42:42,458.208,
27,01/11/2025 16:06:11,01/11/2025 16:17:44,693.85,
28,01/11/2025 17:42:16,01/11/2025 17:50:15,478.719,
29,01/12/2025 14:17:44,01/12/2025 14:23:11,326.527,
30,01/12/2025 15:47:36,01/12/2025 15:58:58,681.533,
31,01/12/2025 17:22:34,01/12/2025 17:32:07,573.33,
32,01/13/2025 15:29:13,01/13/2025 15:40:07,654.071,
33,01/13/2025 17:03:12,01/13/2025 17:13:46,634.256,
34,01/14/2025 15:11:00,01/14/2025 15:21:10,610.354,
35,01/14/2025 16:44:04,01/14/2025 16:55:16,671.87,
36,01/15/2025 14:53:00,01/15/2025 15:02:08,547.572,
37,01/15/2025 16:25:08,01/15/2025 16:36:39,690.957,
38,01/15/2025 18:02:49,01/15/2025 18:08:06,316.705,
39,01/16/2025 14:35:16,01/16/2025 14:42:55,459.444,
40,01/16/2025 16:06:24,01/16/2025 16:17:58,693.906,
41,01/16/2025 17:42:30,01/16/2025 17:50:28,477.324,
42,01/17/2025 14:17:56,01/17/2025 14:23:25,328.502,
43,01/17/2025 15:47:50,01/17/2025 15:59:11,681.765,
44,01/17/2025 17:22:48,01/17/2025 17:32:20,572.442,
45,01/18/2025 15:29:26,01/18/2025 15:40:20,654.486,
46,01/18/2025 17:03:25,01/18/2025 17:13:59,633.687,
47,01/19/2025 15:11:13,01/19/2025 15:21:24,610.971,
48,01/19/2025 16:44:17,01/19/2025 16:55:29,671.542,
49,01/20/2025 14:53:13,01/20/2025 15:02:21,548.443,
50,01/20/2025 16:25:22,01/20/2025 16:36:53,690.828,
51,01/20/2025 18:03:04,01/20/2025 18:08:18,314.051,
52,01/21/2025 14:35:28,01/21/2025 14:43:09,460.67,
53,01/21/2025 16:06:37,01/21/2025 16:18:11,693.965,
54,01/21/2025 17:42:44,01/21/2025 17:50:40,475.923,
55,01/22/2025 14:18:08,01/22/2025 14:23:39,330.458,
56,01/22/2025 15:48:03,01/22/2025 15:59:25,681.994,
57,01/22/2025 17:23:02,01/22/2025 17:32:33,571.551,
58,01/23/2025 15:29:39,01/23/2025 15:40:33,654.897,
59,01/23/2025 17:03:39,01/23/2025 17:14:12,633.115,
60,01/24/2025 15:11:26,01/24/2025 15:21:37,611.585,
61,01/24/2025 16:44:31,01/24/2025 16:55:42,671.211,
62,01/25/2025 14:53:25,01/25/2025 15:02:35,549.307,
63,01/25/2025 16:25:35,01/25/2025 16:37:06,690.698,
64,01/25/2025 18:03:18,01/25/2025 18:08:30,311.372,
65,01/26/2025 14:35:41,01/26/2025 14:43:23,461.894,
66,01/26/2025 16:06:50,01/26/2025 16:18:24,694.017,
67,01/26/2025 17:42:59,01/26/2025 17:50:53,474.514,
68,01/27/2025 14:18:20,01/27/2025 14:23:53,332.398,
69,01/27/2025 15:48:16,01/27/2025 15:59:38,682.222,
70,01/27/2025 17:23:15,01/27/2025 17:32:46,570.655,
71,01/28/2025 15:29:51,01/28/2025 15:40:47,655.305,
72,01/28/2025 17:03:52,01/28/2025 17:14:25,632.542,
73,01/29/2025 15:11:38,01/29/2025 15:21:51,612.197,
74,01/29/2025 16:44:44,01/29/2025 16:55:55,670.877,
75,01/30/2025 14:53:38,01/30/2025 15:02:48,550.169,
76,01/30/2025 16:25:48,01/30/2025 16:37:19,690.566,
77,01/30/2025 18:03:33,01/30/2025 18:08:42,308.66,
78,01/31/2025 14:35:53,01/31/2025 14:43:36,463.118,
79,01/31/2025 16:07:03,01/31/2025 16:18:37,694.07,
80,01/31/2025 17:43:13,01/31/2025 17:51:06,473.094,
81,02/01/2025 14:18:32,02/01/2025 14:24:07,334.336,
82,02/01/2025 15:48:29,02/01/2025 15:59:51,682.447,
83,02/01/2025 17:23:29,02/01/2025 17:32:59,569.75,
84,02/02/2025 15:30:04,02/02/2025 15:41:00,655.713,
85,02/02/2025 17:04:06,02/02/2025 17:14:38,631.964,
86,02/03/2025 15:11:51,02/03/2025 15:22:04,612.807,
87,02/03/2025 16:44:58,02/03/2025 16:56:08,670.543,
88,02/04/2025 14:53:50,02/04/2025 15:03:02,551.026,
89,02/04/2025 16:26:02,02/04/2025 16:37:32,690.432,
90,02/04/2025 18:03:48,02/04/2025 18:08:54,305.928,
91,02/05/2025 14:36:05,02/05/2025 14:43:50,464.33,
92,02/05/2025 16:07:16,02/05/2025 16:18:50,694.118,
93,02/05/2025 17:43:27,02/05/2025 17:51:18,471.67,
94,02/06/2025 14:18:44,02/06/2025 14:24:20,336.249,
95,02/06/2025 15:48:42,02/06/2025 16:00:04,682.671,
96,02/06/2025 17:23:43,02/06/2025 17:33:12,568.846,
97,02/07/2025 15:30:17,02/07/2025 15:41:13,656.117,
98,02/07/2025 17:04:20,02/07/2025 17:14:51,631.383,
99,02/08/2025 15:12:04,02/08/2025 15:22:17,613.413,
100,02/08/2025 16:45:11,02/08/2025 16:56:21,670.205,
101,02/09/2025 14:54:03,02/09/2025 15:03:15,551.875,
102,02/09/2025 16:26:15,02/09/2025 16:37:45,690.295,
103,02/09/2025 18:04:03,02/09/2025 18:09:06,303.157,
104,02/10/2025 14:36:18,02/10/2025 14:44:03,465.537,
105,02/10/2025 16:07:30,02/10/2025 16:19:04,694.163,
106,02/10/2025 17:43:41,02/10/2025 17:51:31,470.235,
107,02/11/2025 14:18:56,02/11/2025 14:24:34,338.151,
108,02/11/2025 15:48:55,02/11/2025 16:00:18,682.891,
109,02/11/2025 17:23:57,02/11/2025 17:33:25,567.94,
110,02/12/2025 15:30:30,02/12/2025 15:41:27,656.52,
111,02/12/2025 17:04:33,02/12/2025 17:15:04,630.799,
112,02/13/2025 15:12:17,02/13/2025 15:22:31,614.018,
113,02/13/2025 16:45:25,02/13/2025 16:56:34,669.864,
114,02/14/2025 14:54:16,02/14/2025 15:03:28,552.726,
115,02/14/2025 16:26:28,02/14/2025 16:37:58,690.157,
116,02/14/2025 18:04:18,02/14/2025 18:09:18,300.352,
117,02/15/2025 14:36:30,02/15/2025 14:44:17,466.737,
118,02/15/2025 16:07:43,02/15/2025 16:19:17,694.207,
119,02/15/2025 17:43:55,02/15/2025 17:51:44,468.793,
120,02/16/2025 14:19:08,02/16/2025 14:24:48,340.039,
121,02/16/2025 15:49:08,02/16/2025 16:00:31,683.11,
122,02/16/2025 17:24:10,02/16/2025 17:33:37,567.026,
123,02/17/2025 14:03:22,02/17/2025 14:03:50,27.966,
124,02/17/2025 15:30:43,02/17/2025 15:41:40,656.92,
125,02/17/2025 17:04:47,02/17/2025 17:15:17,630.212,
126,02/18/2025 15:12:30,02/18/2025 15:22:44,614.618,
127,02/18/2025 16:45:38,02/18/2025 16:56:47,669.52,
128,02/19/2025 14:54:28,02/19/2025 15:03:42,553.572,
129,02/19/2025 16:26:41,02/19/2025 16:38:11,690.016,
130,02/19/2025 18:04:32,02/19/2025 18:09:30,297.521,
131,02/20/2025 14:36:43,02/20/2025 14:44:31,467.936,
132,02/20/2025 16:07:56,02/20/2025 16:19:30,694.24,
133,02/20/2025 17:44:09,02/20/2025 17:51:56,467.35,
134,02/21/2025 14:19:20,02/21/2025 14:25:02,341.911,
135,02/21/2025 15:49:21,02/21/2025 16:00:44,683.324,
136,02/21/2025 17:24:24,02/21/2025 17:33:50,566.106,
137,02/22/2025 14:03:26,02/22/2025 14:04:13,46.841,
138,02/22/2025 15:30:56,02/22/2025 15:41:53,657.318,
139,02/22/2025 17:05:00,02/22/2025 17:15:30,629.622,
140,02/23/2025 15:12:42,02/23/2025 15:22:57,615.216,
141,02/23/2025 16:45:51,02/23/2025 16:57:01,669.175,
142,02/24/2025 14:54:41,02/24/2025 15:03:55,554.415,
143,02/24/2025 16:26:55,02/24/2025 16:38:25,689.873,
144,02/24/2025 18:04:47,02/24/2025 18:09:42,294.655,
145,02/25/2025 14:36:55,02/25/2025 14:44:44,469.126,
146,02/25/2025 16:08:09,02/25/2025 16:19:43,694.279,
147,02/25/2025 17:44:23,02/25/2025 17:52:09,465.892,
148,02/26/2025 14:19:32,02/26/2025 14:25:16,343.773,
149,02/26/2025 15:49:34,02/26/2025 16:00:57,683.539,
150,02/26/2025 17:24:38,02/26/2025 17:34:03,565.183,
151,02/27/2025 14:03:32,02/27/2025 14:04:32,60.06,
152,02/27/2025 15:31:09,02/27/2025 15:42:07,657.714,
153,02/27/2025 17:05:14,02/27/2025 17:15:43,629.028,
154,02/28/2025 15:12:55,02/28/2025 15:23:11,615.812,
155,02/28/2025 16:46:05,02/28/2025 16:57:14,668.826,
156,03/01/2025 14:54:54,03/01/2025 15:04:09,555.255,
157,03/01/2025 16:27:08,03/01/2025 16:38:38,689.728,
158,03/01/2025 18:05:02,03/01/2025 18:09:54,291.749,
159,03/02/2025 14:37:07,03/02/2025 14:44:58,470.311,
160,03/02/2025 16:08:22,03/02/2025 16:19:56,694.318,
161,03/02/2025 17:44:37,03/02/2025 17:52:21,464.426,
162,03/03/2025 14:19:44,03/03/2025 14:25:30,345.619,
163,03/03/2025 15:49:47,03/03/2025 16:01:11,683.752,
164,03/03/2025 17:24:52,03/03/2025 17:34:16,564.256,
165,03/04/2025 14:03:40,03/04/2025 14:04:51,70.815,
166,03/04/2025 15:31:22,03/04/2025 15:42:20,658.107,
167,03/04/2025 17:05:27,03/04/2025 17:15:56,628.432,
168,03/05/2025 15:13:08,03/05/2025 15:23:24,616.404,
169,03/05/2025 16:46:18,03/05/2025 16:57:27,668.476,
170,03/06/2025 14:55:06,03/06/2025 15:04:22,556.089,
171,03/06/2025 16:27:21,03/06/2025 16:38:51,689.581,
172,03/06/2025 18:05:17,03/06/2025 18:10:06,288.817,
173,03/07/2025 14:37:20,03/07/2025 14:45:11,471.488,
174,03/07/2025 16:08:35,03/07/2025 16:20:10,694.353,
175,03/07/2025 17:44:51,03/07/2025 17:52:34,462.953,
176,03/08/2025 14:19:56,03/08/2025 14:25:44,347.451,
177,03/08/2025 15:50:00,03/08/2025 16:01:24,683.962,
178,03/08/2025 17:25:06,03/08/2025 17:34:29,563.325,
179,03/09/2025 14:03:48,03/09/2025 14:05:08,80.134,
180,03/09/2025 15:31:35,03/09/2025 15:42:33,658.498,
181,03/09/2025 17:05:41,03/09/2025 17:16:09,627.833,
182,03/10/2025 15:13:21,03/10/2025 15:23:38,616.994,
183,03/10/2025 16:46:32,03/10/2025 16:57:40,668.123,
184,03/11/2025 14:55:19,03/11/2025 15:04:36,556.922,
185,03/11/2025 16:27:35,03/11/2025 16:39:04,689.431,
186,03/11/2025 18:05:32,03/11/2025 18:10:18,285.842,
187,03/12/2025 14:37:32,03/12/2025 14:45:25,472.663,
188,03/12/2025 16:08:48,03/12/2025 16:20:23,694.386,
189,03/12/2025 17:45:05,03/12/2025 17:52:47,461.47,
190,03/13/2025 14:20:08,03/13/2025 14:25:58,349.274,
191,03/13/2025 15:50:13,03/13/2025 16:01:37,684.171,
192,03/13/2025 17:25:19,03/13/2025 17:34:42,562.388,
193,03/14/2025 14:03:57,03/14/2025 14:05:25,88.477,
194,03/14/2025 15:31:48,03/14/2025 15:42:47,658.887,
195,03/14/2025 17:05:55,03/14/2025 17:16:22,627.231,
196,03/15/2025 15:13:33,03/15/2025 15:23:51,617.582,
197,03/15/2025 16:46:45,03/15/2025 16:57:53,667.767,
198,03/16/2025 14:55:31,03/16/2025 15:04:49,557.752,
199,03/16/2025 16:27:48,03/16/2025 16:39:17,689.278,
200,03/16/2025 18:05:47,03/16/2025 18:10:29,282.834,
201,03/17/2025 14:37:45,03/17/2025 14:45:38,473.823,
202,03/17/2025 16:09:02,03/17/2025 16:20:36,694.424,
203,03/17/2025 17:45:19,03/17/2025 17:52:59,459.974,
204,03/18/2025 14:20:20,03/18/2025 14:26:12,351.082,
205,03/18/2025 15:50:26,03/18/2025 16:01:50,684.377,
206,03/18/2025 17:25:33,03/18/2025 17:34:55,561.449,
207,03/19/2025 14:04:06,03/19/2025 14:05:42,96.068,
208,03/19/2025 15:32:01,03/19/2025 15:43:00,659.271,
209,03/19/2025 17:06:08,03/19/2025 17:16:35,626.629,
210,03/20/2025 15:13:46,03/20/2025 15:24:04,618.165,
211,03/20/2025 16:46:58,03/20/2025 16:58:06,667.407,
212,03/21/2025 14:55:44,03/21/2025 15:05:03,558.576,
213,03/21/2025 16:28:01,03/21/2025 16:39:30,689.126,
214,03/21/2025 18:06:02,03/21/2025 18:10:41,279.788,
215,03/22/2025 14:37:57,03/22/2025 14:45:52,474.985,
216,03/22/2025 16:09:15,03/22/2025 16:20:49,694.453,
217,03/22/2025 17:45:33,03/22/2025 17:53:12,458.476,
218,03/23/2025 14:20:33,03/23/2025 14:26:25,352.876,
219,03/23/2025 15:50:39,03/23/2025 16:02:04,684.582,
220,03/23/2025 17:25:47,03/23/2025 17:35:07,560.504,
221,03/24/2025 14:04:15,03/24/2025 14:05:58,103.102,
222,03/24/2025 15:32:13,03/24/2025 15:43:13,659.654,
223,03/24/2025 17:06:22,03/24/2025 17:16:48,626.018,
224,03/25/2025 15:13:59,03/25/2025 15:24:18,618.748,
225,03/25/2025 16:47:12,03/25/2025 16:58:19,667.049,
226,03/26/2025 14:55:57,03/26/2025 15:05:16,559.399,
227,03/26/2025 16:28:14,03/26/2025 16:39:43,688.969,
228,03/26/2025 18:06:16,03/26/2025 18:10:53,276.696,
229,03/27/2025 14:38:09,03/27/2025 14:46:06,476.143,
230,03/27/2025 16:09:28,03/27/2025 16:21:02,694.48,
231,03/27/2025 17:45:48,03/27/2025 17:53:24,456.966,
232,03/28/2025 14:20:45,03/28/2025 14:26:39,354.662,
233,03/28/2025 15:50:52,03/28/2025 16:02:17,684.784,
234,03/28/2025 17:26:01,03/28/2025 17:35:20,559.554,
235,03/29/2025 14:04:25,03/29/2025 14:06:15,109.687,
236,03/29/2025 15:32:26,03/29/2025 15:43:26,660.037,
237,03/29/2025 17:06:35,03/29/2025 17:17:01,625.406,
238,03/30/2025 15:14:12,03/30/2025 15:24:31,619.331,
239,03/30/2025 16:47:25,03/30/2025 16:58:32,666.687,
240,03/31/2025 14:56:09,03/31/2025 15:05:30,560.218,
241,03/31/2025 16:28:28,03/31/2025 16:39:56,688.807,
242,03/31/2025 18:06:31,03/31/2025 18:11:05,273.564,
243,04/01/2025 14:38:22,04/01/2025 14:46:19,477.295,
244,04/01/2025 16:09:41,04/01/2025 16:21:16,694.505,
245,04/01/2025 17:46:02,04/01/2025 17:53:37,455.449,
246,04/02/2025 14:20:57,04/02/2025 14:26:53,356.431,
247,04/02/2025 15:51:05,04/02/2025 16:02:30,684.984,
248,04/02/2025 17:26:15,04/02/2025 17:35:33,558.601,
249,04/03/2025 14:04:35,04/03/2025 14:06:31,115.866,
250,04/03/2025 15:32:39,04/03/2025 15:43:40,660.416,
251,04/03/2025 17:06:49,04/03/2025 17:17:14,624.793,
252,04/04/2025 15:14:25,04/04/2025 15:24:44,619.908,
253,04/04/2025 16:47:39,04/04/2025 16:58:45,666.325,
254,04/05/2025 14:56:22,04/05/2025 15:05:43,561.03,
255,04/05/2025 16:28:41,04/05/2025 16:40:10,688.652,
256,04/05/2025 18:06:46,04/05/2025 18:11:17,270.39,
257,04/06/2025 14:38:34,04/06/2025 14:46:33,478.442,
258,04/06/2025 16:09:54,04/06/2025 16:21:29,694.527,
259,04/06/2025 17:46:16,04/06/2025 17:53:50,453.923,
260,04/07/2025 14:21:09,04/07/2025 14:27:07,358.192,
261,04/07/2025 15:51:18,04/07/2025 16:02:43,685.182,
262,04/07/2025 17:26:28,04/07/2025 17:35:46,557.642,
263,04/08/2025 14:04:45,04/08/2025 14:06:46,121.744,
264,04/08/2025 15:32:52,04/08/2025 15:43:53,660.794,
265,04/08/2025 17:07:03,04/08/2025 17:17:27,624.174,
266,04/09/2025 15:14:37,04/09/2025 15:24:58,620.482,
267,04/09/2025 16:47:52,04/09/2025 16:58:58,665.957,
268,04/10/2025 14:56:35,04/10/2025 15:05:56,561.843,
269,04/10/2025 16:28:54,04/10/2025 16:40:23,688.489,
270,04/10/2025 18:07:01,04/10/2025 18:11:29,267.168,
271,04/11/2025 14:38:47,04/11/2025 14:46:46,479.585,
272,04/11/2025 16:10:07,04/11/2025 16:21:42,694.548,
273,04/11/2025 17:46:30,04/11/2025 17:54:02,452.387,
274,04/12/2025 14:21:21,04/12/2025 14:27:21,359.944,
275,04/12/2025 15:51:31,04/12/2025 16:02:56,685.378,
276,04/12/2025 17:26:42,04/12/2025 17:35:59,556.678,
277,04/13/2025 14:04:55,04/13/2025 14:07:02,127.34,
278,04/13/2025 15:33:05,04/13/2025 15:44:06,661.17,
279,04/13/2025 17:07:16,04/13/2025 17:17:40,623.56,
280,04/14/2025 15:14:50,04/14/2025 15:25:11,621.053,
281,04/14/2025 16:48:06,04/14/2025 16:59:11,665.584,
282,04/15/2025 14:56:47,04/15/2025 15:06:10,562.65,
283,04/15/2025 16:29:08,04/15/2025 16:40:36,688.322,
284,04/15/2025 18:07:16,04/15/2025 18:11:40,263.904,
285,04/16/2025 14:38:59,04/16/2025 14:47:00,480.72,
286,04/16/2025 16:10:21,04/16/2025 16:21:55,694.567,
287,04/16/2025 17:46:44,04/16/2025 17:54:15,450.844,
288,04/17/2025 14:21:33,04/17/2025 14:27:35,361.681,
289,04/17/2025 15:51:44,04/17/2025 16:03:10,685.572,
290,04/17/2025 17:26:56,04/17/2025 17:36:12,555.71,
291,04/18/2025 14:05:05,04/18/2025 14:07:18,132.686,
292,04/18/2025 15:33:18,04/18/2025 15:44:20,661.543,
293,04/18/2025 17:07:30,04/18/2025 17:17:53,622.936,
294,04/19/2025 15:15:03,04/19/2025 15:25:25,621.622,
295,04/19/2025 16:48:19,04/19/2025 16:59:24,665.211,
296,04/20/2025 14:57:00,04/20/2025 15:06:23,563.455,
297,04/20/2025 16:29:21,04/20/2025 16:40:49,688.154,
298,04/20/2025 18:07:31,04/20/2025 18:11:52,260.587,
299,04/21/2025 14:39:12,04/21/2025 14:47:13,481.851,
300,04/21/2025 16:10:34,04/21/2025 16:22:08,694.583,
301,04/21/2025 17:46:58,04/21/2025 17:54:27,449.29,
302,04/22/2025 14:21:45,04/22/2025 14:27:48,363.403,
303,04/22/2025 15:51:57,04/22/2025 16:03:23,685.763,
304,04/22/2025 17:27:10,04/22/2025 17:36:24,554.737,
305,04/23/2025 14:05:15,04/23/2025 14:07:33,137.827,
306,04/23/2025 15:33:31,04/23/2025 15:44:33,661.915,
307,04/23/2025 17:07:43,04/23/2025 17:18:06,622.308,
308,04/24/2025 15:15:16,04/24/2025 15:25:38,622.189,
309,04/24/2025 16:48:32,04/24/2025 16:59:37,664.835,
310,04/25/2025 14:57:12,04/25/2025 15:06:37,564.257,
311,04/25/2025 16:29:34,04/25/2025 16:41:02,687.986,
312,04/25/2025 18:07:47,04/25/2025 18:12:04,257.221,
313,04/26/2025 14:39:24,04/26/2025 14:47:27,482.98,
314,04/26/2025 16:10:47,04/26/2025 16:22:22,694.598,
315,04/26/2025 17:47:12,04/26/2025 17:54:40,447.726,
316,04/27/2025 14:21:57,04/27/2025 14:28:02,365.121,
317,04/27/2025 15:52:10,04/27/2025 16:03:36,685.953,
318,04/27/2025 17:27:24,04/27/2025 17:36:37,553.761,
319,04/28/2025 14:05:26,04/28/2025 14:07:49,142.776,
320,04/28/2025 15:33:44,04/28/2025 15:44:46,662.283,
321,04/28/2025 17:07:57,04/28/2025 17:18:19,621.677,
322,04/29/2025 15:15:28,04/29/2025 15:25:51,622.752,
323,04/29/2025 16:48:46,04/29/2025 16:59:50,664.457,
324,04/30/2025 14:57:25,04/30/2025 15:06:50,565.057,
325,04/30/2025 16:29:47,04/30/2025 16:41:15,687.814,
326,04/30/2025 18:08:02,04/30/2025 18:12:15,253.804,
327,05/01/2025 14:39:37,05/01/2025 14:47:41,484.1,
328,05/01/2025 16:11:00,05/01/2025 16:22:35,694.61,
329,05/01/2025 17:47:26,05/01/2025 17:54:53,446.154,
330,05/02/2025 14:22:09,05/02/2025 14:28:16,366.823,
331,05/02/2025 15:52:23,05/02/2025 16:03:49,686.14,
332,05/02/2025 17:27:37,05/02/2025 17:36:50,552.779,
333,05/03/2025 14:05:36,05/03/2025 14:08:04,147.548,
334,05/03/2025 15:33:57,05/03/2025 15:45:00,662.653,
335,05/03/2025 17:08:11,05/03/2025 17:18:32,621.041,
336,05/04/2025 15:15:41,05/04/2025 15:26:05,623.309,
337,05/04/2025 16:48:59,05/04/2025 17:00:03,664.071,
338,05/05/2025 14:57:38,05/05/2025 15:07:04,565.852,
339,05/05/2025 16:30:01,05/05/2025 16:41:28,687.64,
340,05/05/2025 18:08:17,05/05/2025 18:12:27,250.331,
341,05/06/2025 14:39:49,05/06/2025 14:47:54,485.217,
342,05/06/2025 16:11:13,05/06/2025 16:22:48,694.621,
343,05/06/2025 17:47:41,05/06/2025 17:55:05,444.571,
344,05/07/2025 14:22:21,05/07/2025 14:28:30,368.52,
345,05/07/2025 15:52:36,05/07/2025 16:04:03,686.325,
346,05/07/2025 17:27:51,05/07/2025 17:37:03,551.79,
347,05/08/2025 14:05:47,05/08/2025 14:08:19,152.176,
348,05/08/2025 15:34:10,05/08/2025 15:45:13,663.014,
349,05/08/2025 17:08:24,05/08/2025 17:18:45,620.406,
350,05/09/2025 15:15:54,05/09/2025 15:26:18,623.873,
351,05/09/2025 16:49:13,05/09/2025 17:00:16,663.692,
352,05/10/2025 14:57:50,05/10/2025 15:07:17,566.645,
353,05/10/2025 16:30:14,05/10/2025 16:41:42,687.463,
354,05/10/2025 18:08:32,05/10/2025 18:12:39,246.797,
355,05/11/2025 14:40:01,05/11/2025 14:48:08,486.33,
356,05/11/2025 16:11:27,05/11/2025 16:23:01,694.629,
357,05/11/2025 17:47:55,05/11/2025 17:55:18,442.977,
358,05/12/2025 14:22:34,05/12/2025 14:28:44,370.206,
359,05/12/2025 15:52:49,05/12/2025 16:04:16,686.509,
360,05/12/2025 17:28:05,05/12/2025 17:37:16,550.797,
361,05/13/2025 14:05:58,05/13/2025 14:08:34,156.657,
362,05/13/2025 15:34:23,05/13/2025 15:45:26,663.376,
363,05/13/2025 17:08:38,05/13/2025 17:18:58,619.765,
364,05/14/2025 15:16:07,05/14/2025 15:26:31,624.429,
365,05/14/2025 16:49:26,05/14/2025 17:00:30,663.306,
366,05/15/2025 14:58:03,05/15/2025 15:07:31,567.434,
367,05/15/2025 16:30:27,05/15/2025 16:41:55,687.284,
368,05/15/2025 18:08:47,05/15/2025 18:12:50,243.209,
369,05/16/2025 14:40:14,05/16/2025 14:48:21,487.433,
370,05/16/2025 16:11:40,05/16/2025 16:23:14,694.635,
371,05/16/2025 17:48:09,05/16/2025 17:55:30,441.374,
372,05/17/2025 14:22:46,05/17/2025 14:28:58,371.873,
373,05/17/2025 15:53:02,05/17/2025 16:04:29,686.692,
374,05/17/2025 17:28:19,05/17/2025 17:37:29,549.799,
375,05/18/2025 14:06:08,05/18/2025 14:08:49,161.003,
376,05/18/2025 15:34:36,05/18/2025 15:45:39,663.735,
377,05/18/2025 17:08:51,05/18/2025 17:19:10,619.119,
378,05/19/2025 15:16:20,05/19/2025 15:26:45,624.984,
379,05/19/2025 16:49:40,05/19/2025 17:00:43,662.921,
380,05/20/2025 14:58:16,05/20/2025 15:07:44,568.22,
381,05/20/2025 16:30:41,05/20/2025 16:42:08,687.109,
382,05/20/2025 18:09:02,05/20/2025 18:13:02,239.559,
383,05/21/2025 14:40:26,05/21/2025 14:48:35,488.541,
384,05/21/2025 16:11:53,05/21/2025 16:23:28,694.631,
385,05/21/2025 17:48:23,05/21/2025 17:55:43,439.761,
386,05/22/2025 14:22:58,05/22/2025 14:29:11,373.547,
387,05/22/2025 15:53:16,05/22/2025 16:04:42,686.871,
388,05/22/2025 17:28:33,05/22/2025 17:37:41,548.795,
389,05/23/2025 14:06:19,05/23/2025 14:09:05,165.245,
390,05/23/2025 15:34:49,05/23/2025 15:45:53,664.094,
391,05/23/2025 17:09:05,05/23/2025 17:19:23,618.471,
392,05/24/2025 15:16:32,05/24/2025 15:26:58,625.536,
393,05/24/2025 16:49:53,05/24/2025 17:00:56,662.522,
394,05/25/2025 14:58:28,05/25/2025 15:07:57,569.002,
395,05/25/2025 16:30:54,05/25/2025 16:42:21,686.923,
396,05/25/2025 18:09:18,05/25/2025 18:13:14,235.835,
397,05/26/2025 14:40:39,05/26/2025 14:48:48,489.641,
398,05/26/2025 16:12:06,05/26/2025 16:23:41,694.633,
399,05/26/2025 17:48:37,05/26/2025 17:55:55,438.136,
400,05/27/2025 14:23:10,05/27/2025 14:29:25,375.204,
401,05/27/2025 15:53:29,05/27/2025 16:04:56,687.049,
402,05/27/2025 17:28:46,05/27/2025 17:37:54,547.79,
403,05/28/2025 14:06:30,05/28/2025 14:09:20,169.366,
404,05/28/2025 15:35:02,05/28/2025 15:46:06,664.449,
405,05/28/2025 17:09:19,05/28/2025 17:19:36,617.82,
406,05/29/2025 15:16:45,05/29/2025 15:27:11,626.085,
407,05/29/2025 16:50:07,05/29/2025 17:01:09,662.132,
408,05/30/2025 14:58:41,05/30/2025 15:08:11,569.782,
409,05/30/2025 16:31:07,05/30/2025 16:42:34,686.738,
410,05/30/2025 18:09:33,05/30/2025 18:13:25,232.052,
411,05/31/2025 14:40:51,05/31/2025 14:49:02,490.735,
412,05/31/2025 16:12:19,05/31/2025 16:23:54,694.633,
413,05/31/2025 17:48:51,05/31/2025 17:56:08,436.505,
414,06/01/2025 14:23:22,06/01/2025 14:29:39,376.844,
415,06/01/2025 15:53:42,06/01/2025 16:05:09,687.225,
416,06/01/2025 17:29:00,06/01/2025 17:38:07,546.776,
417,06/02/2025 14:06:41,06/02/2025 14:09:34,173.39,
418,06/02/2025 15:35:14,06/02/2025 15:46:19,664.803,
419,06/02/2025 17:09:32,06/02/2025 17:19:49,617.165,
420,06/03/2025 15:16:58,06/03/2025 15:27:25,626.633,
421,06/03/2025 16:50:20,06/03/2025 17:01:22,661.738,
422,06/04/2025 14:58:54,06/04/2025 15:08:24,570.557,
423,06/04/2025 16:31:21,06/04/2025 16:42:47,686.553,
424,06/04/2025 18:09:48,06/04/2025 18:13:36,228.188,
425,06/05/2025 14:41:04,06/05/2025 14:49:16,491.828,
426,06/05/2025 16:12:32,06/05/2025 16:24:07,694.631,
427,06/05/2025 17:49:06,06/05/2025 17:56:20,434.858,
428,06/06/2025 14:23:34,06/06/2025 14:29:53,378.484,
429,06/06/2025 15:53:55,06/06/2025 16:05:22,687.399,
430,06/06/2025 17:29:14,06/06/2025 17:38:20,545.756,
431,06/07/2025 14:06:52,06/07/2025 14:09:49,177.325,
432,06/07/2025 15:35:27,06/07/2025 15:46:33,665.154,
433,06/07/2025 17:09:46,06/07/2025 17:20:02,616.505,
434,06/08/2025 15:17:11,06/08/2025 15:27:38,627.179,
435,06/08/2025 16:50:33,06/08/2025 17:01:35,661.337,
436,06/09/2025 14:59:06,06/09/2025 15:08:38,571.332,
437,06/09/2025 16:31:34,06/09/2025 16:43:00,686.363,
438,06/09/2025 18:10:04,06/09/2025 18:13:48,224.247,
439,06/10/2025 14:41:16,06/10/2025 14:49:29,492.915,
440,06/10/2025 16:12:46,06/10/2025 16:24:20,694.626,
441,06/10/2025 17:49:20,06/10/2025 17:56:33,433.2,
442,06/11/2025 14:23:46,06/11/2025 14:30:07,380.108,
443,06/11/2025 15:54:08,06/11/2025 16:05:35,687.57,
444,06/11/2025 17:29:28,06/11/2025 17:38:33,544.726,
445,06/12/2025 14:07:03,06/12/2025 14:10:04,181.164,
446,06/12/2025 15:35:40,06/12/2025 15:46:46,665.504,
447,06/12/2025 17:09:59,06/12/2025 17:20:15,615.842,
448,06/13/2025 15:17:24,06/13/2025 15:27:51,627.721,
449,06/13/2025 16:50:47,06/13/2025 17:01:48,660.935,
450,06/14/2025 14:59:19,06/14/2025 15:08:51,572.109,
451,06/14/2025 16:31:47,06/14/2025 16:43:13,686.168,
452,06/14/2025 18:10:19,06/14/2025 18:13:59,220.232,
453,06/15/2025 14:41:29,06/15/2025 14:49:43,493.998,
454,06/15/2025 16:12:59,06/15/2025 16:24:33,694.621,
455,06/15/2025 17:49:34,06/15/2025 17:56:46,431.532,
456,06/16/2025 14:23:59,06/16/2025 14:30:20,381.733,
457,06/16/2025 15:54:21,06/16/2025 16:05:49,687.74,
458,06/16/2025 17:29:42,06/16/2025 17:38:45,543.7,
459,06/17/2025 14:07:14,06/17/2025 14:10:19,184.924,
460,06/17/2025 15:35:53,06/17/2025 15:46:59,665.851,
461,06/17/2025 17:10:13,06/17/2025 17:20:28,615.176,
462,06/18/2025 15:17:37,06/18/2025 15:28:05,628.262,
463,06/18/2025 16:51:00,06/18/2025 17:02:01,660.529,
464,06/19/2025 14:59:32,06/19/2025 15:09:05,572.879,
465,06/19/2025 16:32:01,06/19/2025 16:43:27,685.974,
466,06/19/2025 18:10:35,06/19/2025 18:14:11,216.124,
467,06/20/2025 14:41:41,06/20/2025 14:49:56,495.078,
468,06/20/2025 16:13:12,06/20/2025 16:24:47,694.612,
469,06/20/2025 17:49:48,06/20/2025 17:56:58,429.85,
470,06/21/2025 14:24:11,06/21/2025 14:30:34,383.35,
471,06/21/2025 15:54:34,06/21/2025 16:06:02,687.908,
472,06/21/2025 17:29:56,06/21/2025 17:38:58,542.662,
473,06/22/2025 14:07:25,06/22/2025 14:10:34,188.611,
474,06/22/2025 15:36:06,06/22/2025 15:47:12,666.197,
475,06/22/2025 17:10:27,06/22/2025 17:20:41,614.506,
476,06/23/2025 15:17:49,06/23/2025 15:28:18,628.8,
477,06/23/2025 16:51:14,06/23/2025 17:02:14,660.12,
478,06/24/2025 14:59:44,06/24/2025 15:09:18,573.645,
479,06/24/2025 16:32:14,06/24/2025 16:43:40,685.777,
480,06/24/2025 18:10:50,06/24/2025 18:14:22,211.924,
481,06/25/2025 14:41:54,06/25/2025 14:50:10,496.151,
482,06/25/2025 16:13:25,06/25/2025 16:25:00,694.603,
483,06/25/2025 17:50:02,06/25/2025 17:57:11,428.158,
484,06/26/2025 14:24:23,06/26/2025 14:30:48,384.948,
485,06/26/2025 15:54:47,06/26/2025 16:06:15,688.074,
486,06/26/2025 17:30:09,06/26/2025 17:39:11,541.621,
487,06/27/2025 14:07:36,06/27/2025 14:10:49,192.221,
488,06/27/2025 15:36:19,06/27/2025 15:47:26,666.54,
489,06/27/2025 17:10:40,06/27/2025 17:20:54,613.832,
490,06/28/2025 15:18:02,06/28/2025 15:28:32,629.336,
491,06/28/2025 16:51:27,06/28/2025 17:02:27,659.709,
492,06/29/2025 14:59:57,06/29/2025 15:09:31,574.407,
493,06/29/2025 16:32:27,06/29/2025 16:43:53,685.577,
494,06/29/2025 18:11:06,06/29/2025 18:14:33,207.634,
495,06/30/2025 14:42:06,06/30/2025 14:50:23,497.221,
496,06/30/2025 16:13:38,06/30/2025 16:25:13,694.59,
497,06/30/2025 17:50:17,06/30/2025 17:57:23,426.454,
498,07/01/2025 14:24:35,07/01/2025 14:31:02,386.547,
499,07/01/2025 15:55:00,07/01/2025 16:06:28,688.237,
500,07/01/2025 17:30:23,07/01/2025 17:39:24,540.572,
501,07/02/2025 14:07:47,07/02/2025 14:11:03,195.766,
502,07/02/2025 15:36:32,07/02/2025 15:47:39,666.882,
503,07/02/2025 17:10:54,07/02/2025 17:21:07,613.154,
504,07/03/2025 15:18:15,07/03/2025 15:28:45,629.871,
505,07/03/2025 16:51:41,07/03/2025 17:02:40,659.295,
506,07/04/2025 15:00:10,07/04/2025 15:09:45,575.169,
507,07/04/2025 16:32:41,07/04/2025 16:44:06,685.375,
508,07/04/2025 18:11:21,07/04/2025 18:14:44,203.234,
509,07/05/2025 14:42:19,07/05/2025 14:50:37,498.29,
510,07/05/2025 16:13:52,07/05/2025 16:25:26,694.575,
511,07/05/2025 17:50:31,07/05/2025 17:57:36,424.734,
512,07/06/2025 14:24:47,07/06/2025 14:31:15,388.137,
513,07/06/2025 15:55:13,07/06/2025 16:06:42,688.399,
514,07/06/2025 17:30:37,07/06/2025 17:39:37,539.517,
515,07/07/2025 14:07:59,07/07/2025 14:11:18,199.248,
516,07/07/2025 15:36:45,07/07/2025 15:47:52,667.221,
517,07/07/2025 17:11:08,07/07/2025 17:21:20,612.471,
518,07/08/2025 15:18:28,07/08/2025 15:28:58,630.403,
519,07/08/2025 16:51:54,07/08/2025 17:02:53,658.877,
520,07/09/2025 15:00:22,07/09/2025 15:09:58,575.928,
521,07/09/2025 16:32:54,07/09/2025 16:44:19,685.171,
522,07/09/2025 18:11:37,07/09/2025 18:14:56,198.728,
523,07/10/2025 14:42:31,07/10/2025 14:50:50,499.353,
524,07/10/2025 16:14:05,07/10/2025 16:25:39,694.556,
525,07/10/2025 17:50:45,07/10/2025 17:57:48,423.004,
526,07/11/2025 14:24:59,07/11/2025 14:31:29,389.707,
527,07/11/2025 15:55:26,07/11/2025 16:06:55,688.561,
528,07/11/2025 17:30:51,07/11/2025 17:39:50,538.458,
529,07/12/2025 14:08:10,07/12/2025 14:11:33,202.662,
530,07/12/2025 15:36:58,07/12/2025 15:48:06,667.562,
531,07/12/2025 17:11:21,07/12/2025 17:21:33,611.783,
532,07/13/2025 15:18:41,07/13/2025 15:29:12,630.928,
533,07/13/2025 16:52:08,07/13/2025 17:03:06,658.451,
534,07/14/2025 15:00:35,07/14/2025 15:10:12,576.687,
535,07/14/2025 16:33:07,07/14/2025 16:44:32,684.963,
536,07/14/2025 18:11:53,07/14/2025 18:15:07,194.103,
537,07/15/2025 14:42:44,07/15/2025 14:51:04,500.412,
538,07/15/2025 16:14:18,07/15/2025 16:25:53,694.537,
539,07/15/2025 17:50:59,07/15/2025 17:58:01,421.26,
540,07/16/2025 14:25:12,07/16/2025 14:31:43,391.279,
541,07/16/2025 15:55:39,07/16/2025 16:07:08,688.714,
542,07/16/2025 17:31:05,07/16/2025 17:40:02,537.391,
543,07/17/2025 14:08:21,07/17/2025 14:11:47,206.023,
544,07/17/2025 15:37:11,07/17/2025 15:48:19,667.898,
545,07/17/2025 17:11:35,07/17/2025 17:21:46,611.092,
546,07/18/2025 15:18:53,07/18/2025 15:29:25,631.459,
547,07/18/2025 16:52:21,07/18/2025 17:03:19,658.028,
548,07/19/2025 15:00:48,07/19/2025 15:10:25,577.439,
549,07/19/2025 16:33:21,07/19/2025 16:44:45,684.754,
550,07/19/2025 18:12:08,07/19/2025 18:15:18,189.348,
551,07/20/2025 14:42:56,07/20/2025 14:51:17,501.469,
552,07/20/2025 16:14:31,07/20/2025 16:26:06,694.516,
553,07/20/2025 17:51:14,07/20/2025 17:58:13,419.507,
554,07/21/2025 14:25:24,07/21/2025 14:31:57,392.844,
555,07/21/2025 15:55:52,07/21/2025 16:07:21,688.87,
556,07/21/2025 17:31:19,07/21/2025 17:40:15,536.318,
557,07/22/2025 14:08:32,07/22/2025 14:12:02,209.328,
558,07/22/2025 15:37:24,07/22/2025 15:48:32,668.231,
559,07/22/2025 17:11:48,07/22/2025 17:21:59,610.398,
560,07/23/2025 15:19:06,07/23/2025 15:29:38,631.982,
561,07/23/2025 16:52:35,07/23/2025 17:03:32,657.601,
562,07/24/2025 15:01:00,07/24/2025 15:10:39,578.19,
563,07/24/2025 16:33:34,07/24/2025 16:44:58,684.542,
564,07/24/2025 18:12:24,07/24/2025 18:15:29,184.465,
565,07/25/2025 14:43:09,07/25/2025 14:51:31,502.52,
566,07/25/2025 16:14:44,07/25/2025 16:26:19,694.493,
567,07/25/2025 17:51:28,07/25/2025 17:58:26,417.74,
568,07/26/2025 14:25:36,07/26/2025 14:32:10,394.399,
569,07/26/2025 15:56:06,07/26/2025 16:07:35,689.02,
570,07/26/2025 17:31:33,07/26/2025 17:40:28,535.241,
571,07/27/2025 14:08:44,07/27/2025 14:12:16,212.575,
572,07/27/2025 15:37:37,07/27/2025 15:48:46,668.562,
573,07/27/2025 17:12:02,07/27/2025 17:22:12,609.701,
574,07/28/2025 15:19:19,07/28/2025 15:29:52,632.505,
575,07/28/2025 16:52:48,07/28/2025 17:03:45,657.172,
576,07/29/2025 15:01:13,07/29/2025 15:10:52,578.939,
577,07/29/2025 16:33:47,07/29/2025 16:45:12,684.328,
578,07/29/2025 18:12:40,07/29/2025 18:15:40,179.434,
579,07/30/2025 14:43:21,07/30/2025 14:51:45,503.569,
580,07/30/2025 16:14:58,07/30/2025 16:26:32,694.467,
581,07/30/2025 17:51:42,07/30/2025 17:58:38,415.957,
582,07/31/2025 14:25:48,07/31/2025 14:32:24,395.95,
583,07/31/2025 15:56:19,07/31/2025 16:07:48,689.175,
584,07/31/2025 17:31:47,07/31/2025 17:40:41,534.155,
585,08/01/2025 14:08:55,08/01/2025 14:12:31,215.779,
586,08/01/2025 15:37:50,08/01/2025 15:48:59,668.892,
587,08/01/2025 17:12:16,08/01/2025 17:22:25,609.001,
588,08/02/2025 15:19:32,08/02/2025 15:30:05,633.027,
589,08/02/2025 16:53:02,08/02/2025 17:03:58,656.738,
590,08/03/2025 15:01:26,08/03/2025 15:11:05,579.686,
591,08/03/2025 16:34:01,08/03/2025 16:45:25,684.112,
592,08/03/2025 18:12:56,08/03/2025 18:15:50,174.235,
593,08/04/2025 14:43:33,08/04/2025 14:51:58,504.615,
594,08/04/2025 16:15:11,08/04/2025 16:26:45,694.439,
595,08/04/2025 17:51:56,08/04/2025 17:58:51,414.161,
596,08/05/2025 14:26:00,08/05/2025 14:32:38,397.493,
597,08/05/2025 15:56:32,08/05/2025 16:08:01,689.326,
598,08/05/2025 17:32:00,08/05/2025 17:40:53,533.063,
599,08/06/2025 14:09:06,08/06/2025 14:12:45,218.932,
600,08/06/2025 15:38:03,08/06/2025 15:49:12,669.22,
601,08/06/2025 17:12:29,08/06/2025 17:22:38,608.293,
602,08/07/2025 15:19:45,08/07/2025 15:30:18,633.546,
603,08/07/2025 16:53:15,08/07/2025 17:04:11,656.305,
604,08/08/2025 15:01:38,08/08/2025 15:11:19,580.434,
605,08/08/2025 16:34:14,08/08/2025 16:45:38,683.9,
606,08/08/2025 18:13:12,08/08/2025 18:16:01,168.868,
607,08/09/2025 14:43:46,08/09/2025 14:52:12,505.655,
608,08/09/2025 16:15:24,08/09/2025 16:26:58,694.409,
609,08/09/2025 17:52:11,08/09/2025 17:59:03,412.355,
610,08/10/2025 14:26:13,08/10/2025 14:32:52,399.025,
611,08/10/2025 15:56:45,08/10/2025 16:08:14,689.474,
612,08/10/2025 17:32:14,08/10/2025 17:41:06,531.965,
613,08/11/2025 14:09:18,08/11/2025 14:13:00,222.035,
614,08/11/2025 15:38:16,08/11/2025 15:49:25,669.545,
615,08/11/2025 17:12:43,08/11/2025 17:22:51,607.589,
616,08/12/2025 15:19:58,08/12/2025 15:30:32,634.066,
617,08/12/2025 16:53:29,08/12/2025 17:04:24,655.873,
618,08/13/2025 15:01:51,08/13/2025 15:11:32,581.168,
619,08/13/2025 16:34:27,08/13/2025 16:45:51,683.672,
620,08/13/2025 18:13:28,08/13/2025 18:16:12,163.307,
621,08/14/2025 14:43:58,08/14/2025 14:52:25,506.693,
622,08/14/2025 16:15:37,08/14/2025 16:27:12,694.377,
623,08/14/2025 17:52:25,08/14/2025 17:59:15,410.533,
624,08/15/2025 14:26:25,08/15/2025 14:33:05,400.557,
625,08/15/2025 15:56:58,08/15/2025 16:08:27,689.62,
626,08/15/2025 17:32:28,08/15/2025 17:41:19,530.86,
627,08/16/2025 14:09:29,08/16/2025 14:13:14,225.101,
628,08/16/2025 15:38:29,08/16/2025 15:49:39,669.869,
629,08/16/2025 17:12:57,08/16/2025 17:23:04,606.874,
630,08/17/2025 15:20:10,08/17/2025 15:30:45,634.581,
631,08/17/2025 16:53:42,08/17/2025 17:04:37,655.431,
632,08/18/2025 15:02:04,08/18/2025 15:11:46,581.907,
633,08/18/2025 16:34:41,08/18/2025 16:46:04,683.448,
634,08/18/2025 18:13:45,08/18/2025 18:16:22,157.528,
635,08/19/2025 14:44:11,08/19/2025 14:52:39,507.728,
636,08/19/2025 16:15:50,08/19/2025 16:27:25,694.343,
637,08/19/2025 17:52:39,08/19/2025 17:59:28,408.697,
638,08/20/2025 14:26:37,08/20/2025 14:33:19,402.078,
639,08/20/2025 15:57:11,08/20/2025 16:08:41,689.764,
640,08/20/2025 17:32:42,08/20/2025 17:41:32,529.749,
641,08/21/2025 14:09:41,08/21/2025 14:13:29,228.118,
642,08/21/2025 15:38:42,08/21/2025 15:49:52,670.187,
643,08/21/2025 17:13:10,08/21/2025 17:23:17,606.152,
644,08/22/2025 15:20:23,08/22/2025 15:30:58,635.088,
645,08/22/2025 16:53:56,08/22/2025 17:04:51,654.979,
646,08/23/2025 15:02:17,08/23/2025 15:11:59,582.643,
647,08/23/2025 16:34:54,08/23/2025 16:46:17,683.221,
648,08/23/2025 18:14:01,08/23/2025 18:16:33,151.524,
649,08/24/2025 14:44:24,08/24/2025 14:52:52,508.752,
650,08/24/2025 16:16:04,08/24/2025 16:27:38,694.306,
651,08/24/2025 17:52:53,08/24/2025 17:59:40,406.85,
652,08/25/2025 14:26:49,08/25/2025 14:33:33,403.594,
653,08/25/2025 15:57:24,08/25/2025 16:08:54,689.905,
654,08/25/2025 17:32:56,08/25/2025 17:41:45,528.635,
655,08/26/2025 14:09:52,08/26/2025 14:13:43,231.095,
656,08/26/2025 15:38:55,08/26/2025 15:50:05,670.509,
657,08/26/2025 17:13:24,08/26/2025 17:23:29,605.434,
658,08/27/2025 15:20:36,08/27/2025 15:31:12,635.604,
659,08/27/2025 16:54:09,08/27/2025 17:05:04,654.539,
660,08/28/2025 15:02:29,08/28/2025 15:12:13,583.376,
661,08/28/2025 16:35:07,08/28/2025 16:46:30,682.992,
662,08/28/2025 18:14:18,08/28/2025 18:16:43,145.247,
663,08/29/2025 14:44:36,08/29/2025 14:53:06,509.78,
664,08/29/2025 16:16:17,08/29/2025 16:27:51,694.268,
665,08/29/2025 17:53:08,08/29/2025 17:59:53,404.985,
666,08/30/2025 14:27:02,08/30/2025 14:33:47,405.092,
667,08/30/2025 15:57:37,08/30/2025 16:09:07,690.043,
668,08/30/2025 17:33:10,08/30/2025 17:41:57,527.508,
669,08/31/2025 14:10:04,08/31/2025 14:13:58,234.037,
670,08/31/2025 15:39:08,08/31/2025 15:50:19,670.825,
671,08/31/2025 17:13:38,08/31/2025 17:23:42,604.704,
672,09/01/2025 15:20:49,09/01/2025 15:31:25,636.107,
673,09/01/2025 16:54:23,09/01/2025 17:05:17,654.081,
674,09/02/2025 15:02:42,09/02/2025 15:12:26,584.108,
675,09/02/2025 16:35:21,09/02/2025 16:46:43,682.76,
676,09/02/2025 18:14:34,09/02/2025 18:16:53,138.667,
677,09/03/2025 14:44:49,09/03/2025 14:53:19,510.803,
678,09/03/2025 16:16:30,09/03/2025 16:28:04,694.227,
679,09/03/2025 17:53:22,09/03/2025 18:00:05,403.108,
680,09/04/2025 14:27:14,09/04/2025 14:34:00,406.591,
681,09/04/2025 15:57:50,09/04/2025 16:09:20,690.18,
682,09/04/2025 17:33:24,09/04/2025 17:42:10,526.379,
683,09/05/2025 14:10:15,09/05/2025 14:14:12,236.935,
684,09/05/2025 15:39:21,09/05/2025 15:50:32,671.138,
685,09/05/2025 17:13:51,09/05/2025 17:23:55,603.974,
686,09/06/2025 15:21:02,09/06/2025 15:31:38,636.613,
687,09/06/2025 16:54:36,09/06/2025 17:05:30,653.628,
688,09/07/2025 15:02:55,09/07/2025 15:12:39,584.835,
689,09/07/2025 16:35:34,09/07/2025 16:46:56,682.527,
690,09/07/2025 18:14:51,09/07/2025 18:17:03,131.751,
691,09/08/2025 14:45:01,09/08/2025 14:53:33,511.82,
692,09/08/2025 16:16:43,09/08/2025 16:28:17,694.186,
693,09/08/2025 17:53:36,09/08/2025 18:00:18,401.218,
694,09/09/2025 14:27:26,09/09/2025 14:34:14,408.083,
695,09/09/2025 15:58:03,09/09/2025 16:09:34,690.31,
696,09/09/2025 17:33:38,09/09/2025 17:42:23,525.246,
697,09/10/2025 14:10:27,09/10/2025 14:14:26,239.797,
698,09/10/2025 15:39:34,09/10/2025 15:50:45,671.451,
699,09/10/2025 17:14:05,09/10/2025 17:24:08,603.24,
700,09/11/2025 15:21:15,09/11/2025 15:31:52,637.117,
701,09/11/2025 16:54:49,09/11/2025 17:05:43,653.171,
702,09/12/2025 15:03:07,09/12/2025 15:12:53,585.561,
703,09/12/2025 16:35:47,09/12/2025 16:47:10,682.29,
704,09/12/2025 18:15:08,09/12/2025 18:17:13,124.416,
705,09/13/2025 14:45:14,09/13/2025 14:53:46,512.837,
706,09/13/2025 16:16:57,09/13/2025 16:28:31,694.14,
707,09/13/2025 17:53:51,09/13/2025 18:00:30,399.309,
708,09/14/2025 14:27:38,09/14/2025 14:34:28,409.57,
709,09/14/2025 15:58:16,09/14/2025 16:09:47,690.444,
710,09/14/2025 17:33:52,09/14/2025 17:42:36,524.103,
711,09/15/2025 14:10:38,09/15/2025 14:14:41,242.628,
712,09/15/2025 15:39:47,09/15/2025 15:50:58,671.763,
713,09/15/2025 17:14:19,09/15/2025 17:24:21,602.501,
714,09/16/2025 15:21:28,09/16/2025 15:32:05,637.617,
715,09/16/2025 16:55:03,09/16/2025 17:05:56,652.712,
716,09/17/2025 15:03:20,09/17/2025 15:13:06,586.284,
717,09/17/2025 16:36:01,09/17/2025 16:47:23,682.051,
718,09/17/2025 18:15:26,09/17/2025 18:17:22,116.608,
719,09/18/2025 14:45:26,09/18/2025 14:54:00,513.848,
720,09/18/2025 16:17:10,09/18/2025 16:28:44,694.092,
721,09/18/2025 17:54:05,09/18/2025 18:00:42,397.389,
722,09/19/2025 14:27:51,09/19/2025 14:34:42,411.046,
723,09/19/2025 15:58:29,09/19/2025 16:10:00,690.575,
724,09/19/2025 17:34:05,09/19/2025 17:42:48,522.956,
725,09/20/2025 14:10:50,09/20/2025 14:14:55,245.416,
726,09/20/2025 15:40:00,09/20/2025 15:51:12,672.073,
727,09/20/2025 17:14:32,09/20/2025 17:24:34,601.764,
728,09/21/2025 15:21:40,09/21/2025 15:32:18,638.115,
729,09/21/2025 16:55:16,09/21/2025 17:06:09,652.25,
730,09/22/2025 15:03:33,09/22/2025 15:13:20,587.004,
731,09/22/2025 16:36:14,09/22/2025 16:47:36,681.81,
732,09/22/2025 18:15:43,09/22/2025 18:17:32,108.222,
733,09/23/2025 14:45:39,09/23/2025 14:54:13,514.856,
734,09/23/2025 16:17:23,09/23/2025 16:28:57,694.042,
735,09/23/2025 17:54:19,09/23/2025 18:00:55,395.454,
736,09/24/2025 14:28:03,09/24/2025 14:34:55,412.515,
737,09/24/2025 15:58:43,09/24/2025 16:10:13,690.704,
738,09/24/2025 17:34:19,09/24/2025 17:43:01,521.801,
739,09/25/2025 14:11:01,09/25/2025 14:15:09,248.176,
740,09/25/2025 15:40:13,09/25/2025 15:51:25,672.38,
741,09/25/2025 17:14:46,09/25/2025 17:24:47,601.018,
742,09/26/2025 15:21:53,09/26/2025 15:32:32,638.613,
743,09/26/2025 16:55:30,09/26/2025 17:06:22,651.784,
744,09/27/2025 15:03:45,09/27/2025 15:13:33,587.722,
745,09/27/2025 16:36:27,09/27/2025 16:47:49,681.566,
746,09/27/2025 18:16:01,09/27/2025 18:17:40,99.094,
747,09/28/2025 14:45:51,09/28/2025 14:54:27,515.862,
748,09/28/2025 16:17:36,09/28/2025 16:29:10,693.998,
749,09/28/2025 17:54:34,09/28/2025 18:01:07,393.511,
750,09/29/2025 14:28:15,09/29/2025 14:35:09,413.98,
751,09/29/2025 15:58:56,09/29/2025 16:10:27,690.839,
752,09/29/2025 17:34:33,09/29/2025 17:43:14,520.638,
753,09/30/2025 14:11:13,09/30/2025 14:15:24,250.903,
754,09/30/2025 15:40:26,09/30/2025 15:51:38,672.684,
755,09/30/2025 17:15:00,09/30/2025 17:25:00,600.267,
756,10/01/2025 15:22:06,10/01/2025 15:32:45,639.108,
757,10/01/2025 16:55:43,10/01/2025 17:06:35,651.315,
758,10/02/2025 15:03:58,10/02/2025 15:13:46,588.437,
759,10/02/2025 16:36:41,10/02/2025 16:48:02,681.32,
760,10/02/2025 18:16:20,10/02/2025 18:17:49,89.021,
761,10/03/2025 14:46:04,10/03/2025 14:54:40,516.864,
762,10/03/2025 16:17:49,10/03/2025 16:29:23,693.938,
763,10/03/2025 17:54:48,10/03/2025 18:01:20,391.537,
764,10/04/2025 14:28:27,10/04/2025 14:35:23,415.435,
765,10/04/2025 15:59:09,10/04/2025 16:10:40,690.956,
766,10/04/2025 17:34:47,10/04/2025 17:43:27,519.474,
767,10/05/2025 14:11:24,10/05/2025 14:15:38,253.592,
768,10/05/2025 15:40:39,10/05/2025 15:51:52,672.987,
769,10/05/2025 17:15:13,10/05/2025 17:25:13,599.514,
770,10/06/2025 15:22:19,10/06/2025 15:32:58,639.6,
771,10/06/2025 16:55:57,10/06/2025 17:06:48,650.845,
772,10/07/2025 15:04:11,10/07/2025 15:14:00,589.148,
773,10/07/2025 16:36:54,10/07/2025 16:48:15,681.071,
774,10/07/2025 18:16:39,10/07/2025 18:17:56,77.626,
775,10/08/2025 14:46:16,10/08/2025 14:54:54,517.86,
776,10/08/2025 16:18:03,10/08/2025 16:29:37,693.881,
777,10/08/2025 17:55:02,10/08/2025 18:01:32,389.557,
778,10/09/2025 14:28:40,10/09/2025 14:35:36,416.884,
779,10/09/2025 15:59:22,10/09/2025 16:10:53,691.078,
780,10/09/2025 17:35:01,10/09/2025 17:43:39,518.302,
781,10/10/2025 14:11:36,10/10/2025 14:15:52,256.257,
782,10/10/2025 15:40:52,10/10/2025 15:52:05,673.289,
783,10/10/2025 17:15:27,10/10/2025 17:25:26,598.756,
784,10/11/2025 15:22:32,10/11/2025 15:33:12,640.091,
785,10/11/2025 16:56:10,10/11/2025 17:07:01,650.37,
786,10/12/2025 15:04:23,10/12/2025 15:14:13,589.855,
787,10/12/2025 16:37:07,10/12/2025 16:48:28,680.82,
788,10/12/2025 18:16:59,10/12/2025 18:18:03,64.179,
789,10/13/2025 14:46:29,10/13/2025 14:55:08,518.854,
790,10/13/2025 16:18:16,10/13/2025 16:29:50,693.822,
791,10/13/2025 17:55:17,10/13/2025 18:01:44,387.559,
792,10/14/2025 14:28:52,10/14/2025 14:35:50,418.324,
793,10/14/2025 15:59:35,10/14/2025 16:11:06,691.199,
794,10/14/2025 17:35:15,10/14/2025 17:43:52,517.121,
795,10/15/2025 14:11:48,10/15/2025 14:16:07,258.888,
796,10/15/2025 15:41:04,10/15/2025 15:52:18,673.589,
797,10/15/2025 17:15:41,10/15/2025 17:25:39,597.994,
798,10/16/2025 15:22:45,10/16/2025 15:33:25,640.578,
799,10/16/2025 16:56:24,10/16/2025 17:07:14,649.896,
800,10/17/2025 15:04:36,10/17/2025 15:14:27,590.561,
801,10/17/2025 16:37:21,10/17/2025 16:48:41,680.567,
802,10/17/2025 18:17:21,10/17/2025 18:18:08,47.031,
803,10/18/2025 14:46:41,10/18/2025 14:55:21,519.841,
804,10/18/2025 16:18:29,10/18/2025 16:30:03,693.762,
805,10/18/2025 17:55:31,10/18/2025 18:01:57,385.55,
806,10/19/2025 14:29:04,10/19/2025 14:36:04,419.755,
807,10/19/2025 15:59:48,10/19/2025 16:11:19,691.317,
808,10/19/2025 17:35:29,10/19/2025 17:44:05,515.936,
809,10/20/2025 14:11:59,10/20/2025 14:16:21,261.485,
810,10/20/2025 15:41:17,10/20/2025 15:52:31,673.885,
811,10/20/2025 17:15:54,10/20/2025 17:25:52,597.229,
812,10/21/2025 15:22:57,10/21/2025 15:33:38,641.063,
813,10/21/2025 16:56:37,10/21/2025 17:07:27,649.416,
814,10/22/2025 15:04:49,10/22/2025 15:14:40,591.261,
815,10/22/2025 16:37:34,10/22/2025 16:48:54,680.311,
816,10/22/2025 18:17:49,10/22/2025 18:18:07,17.32,
817,10/23/2025 14:46:54,10/23/2025 14:55:35,520.826,
818,10/23/2025 16:18:42,10/23/2025 16:30:16,693.699,
819,10/23/2025 17:55:46,10/23/2025 18:02:09,383.523,
820,10/24/2025 14:29:16,10/24/2025 14:36:18,421.183,
821,10/24/2025 16:00:01,10/24/2025 16:11:33,691.434,
822,10/24/2025 17:35:43,10/24/2025 17:44:18,514.744,
823,10/25/2025 14:12:11,10/25/2025 14:16:35,264.058,
824,10/25/2025 15:41:30,10/25/2025 15:52:45,674.18,
825,10/25/2025 17:16:08,10/25/2025 17:26:05,596.459,
826,10/26/2025 15:23:10,10/26/2025 15:33:52,641.546,
827,10/26/2025 16:56:51,10/26/2025 17:07:40,648.933,
828,10/27/2025 15:05:02,10/27/2025 15:14:54,591.962,
829,10/27/2025 16:37:47,10/27/2025 16:49:07,680.053,
830,10/28/2025 14:47:06,10/28/2025 14:55:48,521.806,
831,10/28/2025 16:18:56,10/28/2025 16:30:29,693.634,
832,10/28/2025 17:56:00,10/28/2025 18:02:21,381.479,
833,10/29/2025 14:29:29,10/29/2025 14:36:31,422.603,
834,10/29/2025 16:00:14,10/29/2025 16:11:46,691.548,
835,10/29/2025 17:35:57,10/29/2025 17:44:30,513.545,
836,10/30/2025 14:12:23,10/30/2025 14:16:49,266.601,
837,10/30/2025 15:41:43,10/30/2025 15:52:58,674.472,
838,10/30/2025 17:16:22,10/30/2025 17:26:17,595.685,
839,10/31/2025 15:23:23,10/31/2025 15:34:05,642.024,
840,10/31/2025 16:57:04,10/31/2025 17:07:53,648.447,
841,11/01/2025 15:05:14,11/01/2025 15:15:07,592.659,
842,11/01/2025 16:38:01,11/01/2025 16:49:21,679.792,
843,11/02/2025 14:47:19,11/02/2025 14:56:02,522.776,
844,11/02/2025 16:19:09,11/02/2025 16:30:42,693.575,
845,11/02/2025 17:56:14,11/02/2025 18:02:34,379.431,
846,11/03/2025 14:29:41,11/03/2025 14:36:45,424.008,
847,11/03/2025 16:00:27,11/03/2025 16:11:59,691.663,
848,11/03/2025 17:36:11,11/03/2025 17:44:43,512.343,
849,11/04/2025 14:12:34,11/04/2025 14:17:03,269.112,
850,11/04/2025 15:41:56,11/04/2025 15:53:11,674.759,
851,11/04/2025 17:16:35,11/04/2025 17:26:30,594.909,
852,11/05/2025 15:23:36,11/05/2025 15:34:18,642.502,
853,11/05/2025 16:57:18,11/05/2025 17:08:06,647.959,
854,11/06/2025 15:05:27,11/06/2025 15:15:20,593.353,
855,11/06/2025 16:38:14,11/06/2025 16:49:34,679.529,
856,11/07/2025 14:47:31,11/07/2025 14:56:15,523.749,
857,11/07/2025 16:19:22,11/07/2025 16:30:55,693.505,
858,11/07/2025 17:56:29,11/07/2025 18:02:46,377.356,
859,11/08/2025 14:29:53,11/08/2025 14:36:59,425.412,
860,11/08/2025 16:00:40,11/08/2025 16:12:12,691.773,
861,11/08/2025 17:36:25,11/08/2025 17:44:56,511.131,
862,11/09/2025 14:12:46,11/09/2025 14:17:18,271.603,
863,11/09/2025 15:42:09,11/09/2025 15:53:24,675.05,
864,11/09/2025 17:16:49,11/09/2025 17:26:43,594.127,
865,11/10/2025 15:23:49,11/10/2025 15:34:32,642.978,
866,11/10/2025 16:57:31,11/10/2025 17:08:19,647.468,
867,11/11/2025 15:05:40,11/11/2025 15:15:34,594.044,
868,11/11/2025 16:38:27,11/11/2025 16:49:47,679.264,
869,11/12/2025 14:47:44,11/12/2025 14:56:29,524.713,
870,11/12/2025 16:19:35,11/12/2025 16:31:09,693.434,
871,11/12/2025 17:56:43,11/12/2025 18:02:58,375.265,
872,11/13/2025 14:30:05,11/13/2025 14:37:12,426.807,
873,11/13/2025 16:00:54,11/13/2025 16:12:25,691.881,
874,11/13/2025 17:36:39,11/13/2025 17:45:09,509.915,
875,11/14/2025 14:12:58,11/14/2025 14:17:32,274.061,
876,11/14/2025 15:42:22,11/14/2025 15:53:38,675.335,
877,11/14/2025 17:17:03,11/14/2025 17:26:56,593.344,
878,11/15/2025 15:24:02,11/15/2025 15:34:45,643.451,
879,11/15/2025 16:57:45,11/15/2025 17:08:32,646.974,
880,11/16/2025 15:05:52,11/16/2025 15:15:47,594.731,
881,11/16/2025 16:38:41,11/16/2025 16:50:00,678.997,
882,11/17/2025 14:47:56,11/17/2025 14:56:42,525.674,
883,11/17/2025 16:19:48,11/17/2025 16:31:22,693.361,
884,11/17/2025 17:56:58,11/17/2025 18:03:11,373.161,
885,11/18/2025 14:30:18,11/18/2025 14:37:26,428.196,
886,11/18/2025 16:01:07,11/18/2025 16:12:39,691.985,
887,11/18/2025 17:36:53,11/18/2025 17:45:21,508.699,
888,11/19/2025 14:13:09,11/19/2025 14:17:46,276.493,
889,11/19/2025 15:42:35,11/19/2025 15:53:51,675.617,
890,11/19/2025 17:17:16,11/19/2025 17:27:09,592.556,
891,11/20/2025 15:24:15,11/20/2025 15:34:58,643.921,
892,11/20/2025 16:57:58,11/20/2025 17:08:45,646.482,
893,11/21/2025 15:06:05,11/21/2025 15:16:01,595.423,
894,11/21/2025 16:38:54,11/21/2025 16:50:13,678.736,
895,11/22/2025 14:48:09,11/22/2025 14:56:56,526.632,
896,11/22/2025 16:20:02,11/22/2025 16:31:35,693.285,
897,11/22/2025 17:57:12,11/22/2025 18:03:23,371.038,
898,11/23/2025 14:30:30,11/23/2025 14:37:40,429.573,
899,11/23/2025 16:01:20,11/23/2025 16:12:52,692.089,
900,11/23/2025 17:37:06,11/23/2025 17:45:34,507.47,
901,11/24/2025 14:13:21,11/24/2025 14:18:00,278.903,
902,11/24/2025 15:42:48,11/24/2025 15:54:04,675.898,
903,11/24/2025 17:17:30,11/24/2025 17:27:22,591.764,
904,11/25/2025 15:24:27,11/25/2025 15:35:12,644.389,
905,11/25/2025 16:58:12,11/25/2025 17:08:58,645.982,
906,11/26/2025 15:06:18,11/26/2025 15:16:14,596.104,
907,11/26/2025 16:39:08,11/26/2025 16:50:26,678.464,
908,11/27/2025 14:48:21,11/27/2025 14:57:09,527.586,
909,11/27/2025 16:20:15,11/27/2025 16:31:48,693.208,
910,11/27/2025 17:57:26,11/27/2025 18:03:35,368.899,
911,11/28/2025 14:30:42,11/28/2025 14:37:53,430.945,
912,11/28/2025 16:01:33,11/28/2025 16:13:05,692.198,
913,11/28/2025 17:37:20,11/28/2025 17:45:47,506.237,
914,11/29/2025 14:13:33,11/29/2025 14:18:14,281.283,
915,11/29/2025 15:43:01,11/29/2025 15:54:17,676.176,
916,11/29/2025 17:17:44,11/29/2025 17:27:35,590.969,
917,11/30/2025 15:24:40,11/30/2025 15:35:25,644.856,
918,11/30/2025 16:58:25,11/30/2025 17:09:11,645.481,
919,12/01/2025 15:06:31,12/01/2025 15:16:27,596.781,
920,12/01/2025 16:39:21,12/01/2025 16:50:39,678.19,
921,12/02/2025 14:48:34,12/02/2025 14:57:23,528.54,
922,12/02/2025 16:20:28,12/02/2025 16:32:01,693.128,
923,12/02/2025 17:57:41,12/02/2025 18:03:48,366.745,
924,12/03/2025 14:30:55,12/03/2025 14:38:07,432.308,
925,12/03/2025 16:01:46,12/03/2025 16:13:18,692.298,
926,12/03/2025 17:37:34,12/03/2025 17:45:59,504.997,
927,12/04/2025 14:13:45,12/04/2025 14:18:28,283.64,
928,12/04/2025 15:43:14,12/04/2025 15:54:31,676.452,
929,12/04/2025 17:17:58,12/04/2025 17:27:48,590.17,
930,12/05/2025 15:24:53,12/05/2025 15:35:38,645.32,
931,12/05/2025 16:58:39,12/05/2025 17:09:24,644.974,
932,12/06/2025 15:06:43,12/06/2025 15:16:41,597.452,
933,12/06/2025 16:39:34,12/06/2025 16:50:52,677.908,
934,12/07/2025 14:48:47,12/07/2025 14:57:36,529.479,
935,12/07/2025 16:20:41,12/07/2025 16:32:14,693.046,
936,12/07/2025 17:57:55,12/07/2025 18:04:00,364.57,
937,12/08/2025 14:31:07,12/08/2025 14:38:21,433.667,
938,12/08/2025 16:01:59,12/08/2025 16:13:32,692.391,
939,12/08/2025 17:37:48,12/08/2025 17:46:12,503.745,
940,12/09/2025 14:13:56,12/09/2025 14:18:42,285.975,
941,12/09/2025 15:43:27,12/09/2025 15:54:44,676.727,
942,12/09/2025 17:18:11,12/09/2025 17:28:01,589.367,
943,12/10/2025 15:25:06,12/10/2025 15:35:52,645.779,
944,12/10/2025 16:58:53,12/10/2025 17:09:37,644.466,
945,12/11/2025 15:06:56,12/11/2025 15:16:54,598.124,
946,12/11/2025 16:39:48,12/11/2025 16:51:05,677.629,
947,12/12/2025 14:48:59,12/12/2025 14:57:50,530.427,
948,12/12/2025 16:20:55,12/12/2025 16:32:28,692.962,
949,12/12/2025 17:58:10,12/12/2025 18:04:12,362.382,
950,12/13/2025 14:31:19,12/13/2025 14:38:34,435.015,
951,12/13/2025 16:02:12,12/13/2025 16:13:45,692.49,
952,12/13/2025 17:38:02,12/13/2025 17:46:25,502.498,
953,12/14/2025 14:14:08,12/14/2025 14:18:57,288.281,
954,12/14/2025 15:43:40,12/14/2025 15:54:57,676.998,
955,12/14/2025 17:18:25,12/14/2025 17:28:14,588.562,
956,12/15/2025 15:25:19,12/15/2025 15:36:05,646.236,
957,12/15/2025 16:59:06,12/15/2025 17:09:50,643.957,
958,12/16/2025 15:07:09,12/16/2025 15:17:08,598.791,
959,12/16/2025 16:40:01,12/16/2025 16:51:18,677.348,
960,12/17/2025 14:49:12,12/17/2025 14:58:03,531.362,
961,12/17/2025 16:21:08,12/17/2025 16:32:41,692.876,
962,12/17/2025 17:58:24,12/17/2025 18:04:24,360.177,
963,12/18/2025 14:31:32,12/18/2025 14:38:48,436.356,
964,12/18/2025 16:02:25,12/18/2025 16:13:58,692.584,
965,12/18/2025 17:38:16,12/18/2025 17:46:37,501.241,
966,12/19/2025 14:14:20,12/19/2025 14:19:11,290.566,
967,12/19/2025 15:43:53,12/19/2025 15:55:11,677.267,
968,12/19/2025 17:18:39,12/19/2025 17:28:26,587.753,
969,12/20/2025 15:25:32,12/20/2025 15:36:18,646.69,
970,12/20/2025 16:59:20,12/20/2025 17:10:03,643.445,
971,12/21/2025 15:07:21,12/21/2025 15:17:21,599.457,
972,12/21/2025 16:40:14,12/21/2025 16:51:31,677.065,
973,12/22/2025 14:49:24,12/22/2025 14:58:16,532.292,
974,12/22/2025 16:21:21,12/22/2025 16:32:54,692.785,
975,12/22/2025 17:58:39,12/22/2025 18:04:37,357.952,
976,12/23/2025 14:31:44,12/23/2025 14:39:02,437.686,
977,12/23/2025 16:02:38,12/23/2025 16:14:11,692.675,
978,12/23/2025 17:38:30,12/23/2025 17:46:50,499.976,
979,12/24/2025 14:14:32,12/24/2025 14:19:25,292.829,
980,12/24/2025 15:44:06,12/24/2025 15:55:24,677.534,
981,12/24/2025 17:18:52,12/24/2025 17:28:39,586.94,
982,12/25/2025 15:25:45,12/25/2025 15:36:32,647.142,
983,12/25/2025 16:59:33,12/25/2025 17:10:16,642.93,
984,12/26/2025 15:07:34,12/26/2025 15:17:34,600.118,
985,12/26/2025 16:40:28,12/26/2025 16:51:45,676.78,
986,12/27/2025 14:49:37,12/27/2025 14:58:30,533.219,
987,12/27/2025 16:21:34,12/27/2025 16:33:07,692.694,
988,12/27/2025 17:58:53,12/27/2025 18:04:49,355.711,
989,12/28/2025 14:31:56,12/28/2025 14:39:15,439.017,
990,12/28/2025 16:02:52,12/28/2025 16:14:24,692.763,
991,12/28/2025 17:38:44,12/28/2025 17:47:03,498.708,
992,12/29/2025 14:14:44,12/29/2025 14:19:39,295.07,
993,12/29/2025 15:44:19,12/29/2025 15:55:37,677.799,
994,12/29/2025 17:19:06,12/29/2025 17:28:52,586.125,
995,12/30/2025 15:25:57,12/30/2025 15:36:45,647.59,
996,12/30/2025 16:59:47,12/30/2025 17:10:29,642.413,
997,12/31/2025 15:07:47,12/31/2025 15:17:48,600.776,
998,12/31/2025 16:40:41,12/31/2025 16:51:58,676.493,
999,01/01/2026 14:49:49,01/01/2026 14:58:43,534.14,
,,,,
Global Statistics,,,,
Min Duration,03/26/1902 00:00:00,10/22/2025 18:17:49,18:06.5,17.32
Max Duration,01/04/1901 00:00:00,05/16/2025 16:11:40,23:14.3,694.635
Mean Duration,,,,540.969
Total Duration,,,,540428.412
