3UCubedIntegratedSim/Reports & Plots/Comms/Past Comms Data/UNH/CSV/Sat11.csv

Access,Start Time (UTCG),Stop Time (UTCG),Duration (sec),
1,01/01/2025 16:29:56,01/01/2025 16:41:16,680,
2,01/01/2025 18:05:48,01/01/2025 18:11:02,313.607,
3,01/02/2025 14:38:35,01/02/2025 14:46:43,487.396,
4,01/02/2025 16:11:09,01/02/2025 16:22:43,693.452,
5,01/02/2025 17:46:15,01/02/2025 17:53:45,450.218,
6,01/03/2025 14:20:53,01/03/2025 14:26:29,335.401,
7,01/03/2025 15:52:27,01/03/2025 16:03:59,691.832,
8,01/03/2025 17:27:01,01/03/2025 17:36:02,541.075,
9,01/04/2025 15:33:50,01/04/2025 15:45:04,674.211,
10,01/04/2025 17:07:58,01/04/2025 17:18:04,605.725,
11,01/05/2025 15:15:19,01/05/2025 15:25:58,638.344,
12,01/05/2025 16:49:01,01/05/2025 16:59:52,650.952,
13,01/06/2025 14:56:57,01/06/2025 15:06:37,579.724,
14,01/06/2025 16:30:09,01/06/2025 16:41:29,679.761,
15,01/06/2025 18:06:02,01/06/2025 18:11:13,311.528,
16,01/07/2025 14:38:48,01/07/2025 14:46:57,488.734,
17,01/07/2025 16:11:23,01/07/2025 16:22:56,693.381,
18,01/07/2025 17:46:28,01/07/2025 17:53:57,448.941,
19,01/08/2025 14:21:06,01/08/2025 14:26:43,337.832,
20,01/08/2025 15:52:40,01/08/2025 16:04:12,691.936,
21,01/08/2025 17:27:15,01/08/2025 17:36:15,540.174,
22,01/09/2025 15:34:03,01/09/2025 15:45:18,674.518,
23,01/09/2025 17:08:11,01/09/2025 17:18:16,605.086,
24,01/10/2025 15:15:32,01/10/2025 15:26:11,638.887,
25,01/10/2025 16:49:14,01/10/2025 17:00:05,650.519,
26,01/11/2025 14:57:10,01/11/2025 15:06:51,580.576,
27,01/11/2025 16:30:23,01/11/2025 16:41:42,679.511,
28,01/11/2025 18:06:16,01/11/2025 18:11:25,309.42,
29,01/12/2025 14:39:01,01/12/2025 14:47:11,490.064,
30,01/12/2025 16:11:36,01/12/2025 16:23:09,693.308,
31,01/12/2025 17:46:42,01/12/2025 17:54:10,447.656,
32,01/13/2025 14:21:18,01/13/2025 14:26:58,340.249,
33,01/13/2025 15:52:54,01/13/2025 16:04:26,692.048,
34,01/13/2025 17:27:28,01/13/2025 17:36:28,539.275,
35,01/14/2025 15:34:16,01/14/2025 15:45:31,674.823,
36,01/14/2025 17:08:25,01/14/2025 17:18:29,604.442,
37,01/15/2025 15:15:45,01/15/2025 15:26:25,639.424,
38,01/15/2025 16:49:28,01/15/2025 17:00:18,650.083,
39,01/16/2025 14:57:23,01/16/2025 15:07:04,581.423,
40,01/16/2025 16:30:36,01/16/2025 16:41:55,679.259,
41,01/16/2025 18:06:30,01/16/2025 18:11:37,307.295,
42,01/17/2025 14:39:13,01/17/2025 14:47:25,491.385,
43,01/17/2025 16:11:49,01/17/2025 16:23:22,693.232,
44,01/17/2025 17:46:56,01/17/2025 17:54:22,446.366,
45,01/18/2025 14:21:30,01/18/2025 14:27:13,342.636,
46,01/18/2025 15:53:07,01/18/2025 16:04:39,692.152,
47,01/18/2025 17:27:42,01/18/2025 17:36:40,538.371,
48,01/19/2025 15:34:29,01/19/2025 15:45:45,675.127,
49,01/19/2025 17:08:38,01/19/2025 17:18:42,603.797,
50,01/20/2025 15:15:58,01/20/2025 15:26:38,639.962,
51,01/20/2025 16:49:41,01/20/2025 17:00:31,649.646,
52,01/21/2025 14:57:36,01/21/2025 15:07:18,582.265,
53,01/21/2025 16:30:49,01/21/2025 16:42:08,679.006,
54,01/21/2025 18:06:44,01/21/2025 18:11:49,305.155,
55,01/22/2025 14:39:26,01/22/2025 14:47:39,492.698,
56,01/22/2025 16:12:02,01/22/2025 16:23:35,693.155,
57,01/22/2025 17:47:09,01/22/2025 17:54:34,445.072,
58,01/23/2025 14:21:42,01/23/2025 14:27:27,345.002,
59,01/23/2025 15:53:20,01/23/2025 16:04:52,692.255,
60,01/23/2025 17:27:55,01/23/2025 17:36:53,537.463,
61,01/24/2025 15:34:43,01/24/2025 15:45:58,675.427,
62,01/24/2025 17:08:51,01/24/2025 17:18:55,603.15,
63,01/25/2025 15:16:11,01/25/2025 15:26:52,640.501,
64,01/25/2025 16:49:54,01/25/2025 17:00:44,649.214,
65,01/26/2025 14:57:49,01/26/2025 15:07:32,583.101,
66,01/26/2025 16:31:03,01/26/2025 16:42:21,678.75,
67,01/26/2025 18:06:58,01/26/2025 18:12:01,302.997,
68,01/27/2025 14:39:39,01/27/2025 14:47:53,494.005,
69,01/27/2025 16:12:15,01/27/2025 16:23:48,693.075,
70,01/27/2025 17:47:23,01/27/2025 17:54:47,443.77,
71,01/28/2025 14:21:54,01/28/2025 14:27:42,347.348,
72,01/28/2025 15:53:33,01/28/2025 16:05:05,692.355,
73,01/28/2025 17:28:09,01/28/2025 17:37:05,536.551,
74,01/29/2025 15:34:56,01/29/2025 15:46:11,675.725,
75,01/29/2025 17:09:05,01/29/2025 17:19:07,602.499,
76,01/30/2025 15:16:24,01/30/2025 15:27:06,641.032,
77,01/30/2025 16:50:08,01/30/2025 17:00:56,648.771,
78,01/31/2025 14:58:02,01/31/2025 15:07:46,583.936,
79,01/31/2025 16:31:16,01/31/2025 16:42:34,678.492,
80,01/31/2025 18:07:12,01/31/2025 18:12:13,300.814,
81,02/01/2025 14:39:51,02/01/2025 14:48:07,495.3,
82,02/01/2025 16:12:29,02/01/2025 16:24:02,692.994,
83,02/01/2025 17:47:37,02/01/2025 17:54:59,442.462,
84,02/02/2025 14:22:07,02/02/2025 14:27:56,349.671,
85,02/02/2025 15:53:46,02/02/2025 16:05:19,692.452,
86,02/02/2025 17:28:22,02/02/2025 17:37:18,535.635,
87,02/03/2025 15:35:09,02/03/2025 15:46:25,676.018,
88,02/03/2025 17:09:18,02/03/2025 17:19:20,601.847,
89,02/04/2025 15:16:38,02/04/2025 15:27:19,641.553,
90,02/04/2025 16:50:21,02/04/2025 17:01:09,648.32,
91,02/05/2025 14:58:14,02/05/2025 15:07:59,584.764,
92,02/05/2025 16:31:29,02/05/2025 16:42:47,678.233,
93,02/05/2025 18:07:26,02/05/2025 18:12:25,298.622,
94,02/06/2025 14:40:04,02/06/2025 14:48:21,496.591,
95,02/06/2025 16:12:42,02/06/2025 16:24:15,692.91,
96,02/06/2025 17:47:50,02/06/2025 17:55:11,441.15,
97,02/07/2025 14:22:19,02/07/2025 14:28:11,351.972,
98,02/07/2025 15:53:59,02/07/2025 16:05:32,692.547,
99,02/07/2025 17:28:36,02/07/2025 17:37:31,534.716,
100,02/08/2025 15:35:22,02/08/2025 15:46:38,676.31,
101,02/08/2025 17:09:32,02/08/2025 17:19:33,601.191,
102,02/09/2025 15:16:51,02/09/2025 15:27:33,642.075,
103,02/09/2025 16:50:34,02/09/2025 17:01:22,647.877,
104,02/10/2025 14:58:27,02/10/2025 15:08:13,585.59,
105,02/10/2025 16:31:42,02/10/2025 16:43:00,677.971,
106,02/10/2025 18:07:40,02/10/2025 18:12:37,296.405,
107,02/11/2025 14:40:17,02/11/2025 14:48:35,497.877,
108,02/11/2025 16:12:55,02/11/2025 16:24:28,692.824,
109,02/11/2025 17:48:04,02/11/2025 17:55:24,439.83,
110,02/12/2025 14:22:31,02/12/2025 14:28:25,354.253,
111,02/12/2025 15:54:12,02/12/2025 16:05:45,692.638,
112,02/12/2025 17:28:49,02/12/2025 17:37:43,533.791,
113,02/13/2025 15:35:35,02/13/2025 15:46:52,676.6,
114,02/13/2025 17:09:45,02/13/2025 17:19:46,600.533,
115,02/14/2025 15:17:04,02/14/2025 15:27:46,642.596,
116,02/14/2025 16:50:48,02/14/2025 17:01:35,647.428,
117,02/15/2025 14:58:40,02/15/2025 15:08:27,586.411,
118,02/15/2025 16:31:56,02/15/2025 16:43:13,677.707,
119,02/15/2025 18:07:54,02/15/2025 18:12:48,294.173,
120,02/16/2025 14:40:30,02/16/2025 14:48:49,499.154,
121,02/16/2025 16:13:08,02/16/2025 16:24:41,692.735,
122,02/16/2025 17:48:18,02/16/2025 17:55:36,438.505,
123,02/17/2025 14:22:43,02/17/2025 14:28:40,356.51,
124,02/17/2025 15:54:26,02/17/2025 16:05:58,692.728,
125,02/17/2025 17:29:03,02/17/2025 17:37:56,532.867,
126,02/18/2025 15:35:48,02/18/2025 15:47:05,676.887,
127,02/18/2025 17:09:58,02/18/2025 17:19:58,599.873,
128,02/19/2025 15:17:17,02/19/2025 15:28:00,643.113,
129,02/19/2025 16:51:01,02/19/2025 17:01:48,646.978,
130,02/20/2025 14:58:53,02/20/2025 15:08:40,587.227,
131,02/20/2025 16:32:09,02/20/2025 16:43:26,677.441,
132,02/20/2025 18:08:08,02/20/2025 18:13:00,291.924,
133,02/21/2025 14:40:42,02/21/2025 14:49:03,500.426,
134,02/21/2025 16:13:21,02/21/2025 16:24:54,692.642,
135,02/21/2025 17:48:31,02/21/2025 17:55:48,437.173,
136,02/22/2025 14:22:56,02/22/2025 14:28:54,358.743,
137,02/22/2025 15:54:39,02/22/2025 16:06:12,692.817,
138,02/22/2025 17:29:16,02/22/2025 17:38:08,531.94,
139,02/23/2025 15:36:01,02/23/2025 15:47:18,677.172,
140,02/23/2025 17:10:12,02/23/2025 17:20:11,599.21,
141,02/24/2025 15:17:30,02/24/2025 15:28:13,643.626,
142,02/24/2025 16:51:14,02/24/2025 17:02:01,646.525,
143,02/25/2025 14:59:06,02/25/2025 15:08:54,588.04,
144,02/25/2025 16:32:22,02/25/2025 16:43:39,677.173,
145,02/25/2025 18:08:22,02/25/2025 18:13:12,289.65,
146,02/26/2025 14:40:55,02/26/2025 14:49:17,501.69,
147,02/26/2025 16:13:35,02/26/2025 16:25:07,692.554,
148,02/26/2025 17:48:45,02/26/2025 17:56:01,435.835,
149,02/27/2025 14:23:08,02/27/2025 14:29:09,360.963,
150,02/27/2025 15:54:52,02/27/2025 16:06:25,692.904,
151,02/27/2025 17:29:30,02/27/2025 17:38:21,531.007,
152,02/28/2025 15:36:14,02/28/2025 15:47:32,677.454,
153,02/28/2025 17:10:25,02/28/2025 17:20:24,598.544,
154,03/01/2025 15:17:43,03/01/2025 15:28:27,644.138,
155,03/01/2025 16:51:28,03/01/2025 17:02:14,646.07,
156,03/02/2025 14:59:19,03/02/2025 15:09:08,588.847,
157,03/02/2025 16:32:35,03/02/2025 16:43:52,676.903,
158,03/02/2025 18:08:36,03/02/2025 18:13:24,287.359,
159,03/03/2025 14:41:08,03/03/2025 14:49:31,502.944,
160,03/03/2025 16:13:48,03/03/2025 16:25:20,692.46,
161,03/03/2025 17:48:59,03/03/2025 17:56:13,434.492,
162,03/04/2025 14:23:20,03/04/2025 14:29:23,363.16,
163,03/04/2025 15:55:05,03/04/2025 16:06:38,692.998,
164,03/04/2025 17:29:43,03/04/2025 17:38:33,530.073,
165,03/05/2025 15:36:27,03/05/2025 15:47:45,677.734,
166,03/05/2025 17:10:39,03/05/2025 17:20:36,597.876,
167,03/06/2025 15:17:56,03/06/2025 15:28:40,644.654,
168,03/06/2025 16:51:41,03/06/2025 17:02:27,645.614,
169,03/07/2025 14:59:32,03/07/2025 15:09:22,589.649,
170,03/07/2025 16:32:49,03/07/2025 16:44:05,676.631,
171,03/07/2025 18:08:51,03/07/2025 18:13:36,285.049,
172,03/08/2025 14:41:20,03/08/2025 14:49:45,504.19,
173,03/08/2025 16:14:01,03/08/2025 16:25:33,692.365,
174,03/08/2025 17:49:12,03/08/2025 17:56:25,433.148,
175,03/09/2025 14:23:32,03/09/2025 14:29:38,365.344,
176,03/09/2025 15:55:18,03/09/2025 16:06:51,693.072,
177,03/09/2025 17:29:57,03/09/2025 17:38:46,529.13,
178,03/10/2025 15:36:40,03/10/2025 15:47:58,678.011,
179,03/10/2025 17:10:52,03/10/2025 17:20:49,597.205,
180,03/11/2025 15:18:09,03/11/2025 15:28:54,645.152,
181,03/11/2025 16:51:54,03/11/2025 17:02:39,645.153,
182,03/12/2025 14:59:45,03/12/2025 15:09:35,590.448,
183,03/12/2025 16:33:02,03/12/2025 16:44:18,676.352,
184,03/12/2025 18:09:05,03/12/2025 18:13:47,282.714,
185,03/13/2025 14:41:33,03/13/2025 14:49:59,505.431,
186,03/13/2025 16:14:14,03/13/2025 16:25:47,692.267,
187,03/13/2025 17:49:26,03/13/2025 17:56:38,431.792,
188,03/14/2025 14:23:45,03/14/2025 14:29:52,367.505,
189,03/14/2025 15:55:31,03/14/2025 16:07:05,693.154,
190,03/14/2025 17:30:10,03/14/2025 17:38:58,528.188,
191,03/15/2025 15:36:53,03/15/2025 15:48:12,678.286,
192,03/15/2025 17:11:05,03/15/2025 17:21:02,596.532,
193,03/16/2025 15:18:22,03/16/2025 15:29:07,645.655,
194,03/16/2025 16:52:08,03/16/2025 17:02:52,644.692,
195,03/17/2025 14:59:58,03/17/2025 15:09:49,591.242,
196,03/17/2025 16:33:15,03/17/2025 16:44:31,676.081,
197,03/17/2025 18:09:19,03/17/2025 18:13:59,280.363,
198,03/18/2025 14:41:46,03/18/2025 14:50:12,506.663,
199,03/18/2025 16:14:28,03/18/2025 16:26:00,692.167,
200,03/18/2025 17:49:40,03/18/2025 17:56:50,430.433,
201,03/19/2025 14:23:57,03/19/2025 14:30:07,369.644,
202,03/19/2025 15:55:45,03/19/2025 16:07:18,693.231,
203,03/19/2025 17:30:24,03/19/2025 17:39:11,527.245,
204,03/20/2025 15:37:07,03/20/2025 15:48:25,678.558,
205,03/20/2025 17:11:19,03/20/2025 17:21:15,595.857,
206,03/21/2025 15:18:35,03/21/2025 15:29:21,646.153,
207,03/21/2025 16:52:21,03/21/2025 17:03:05,644.228,
208,03/22/2025 15:00:11,03/22/2025 15:10:03,592.03,
209,03/22/2025 16:33:28,03/22/2025 16:44:44,675.803,
210,03/22/2025 18:09:33,03/22/2025 18:14:11,277.989,
211,03/23/2025 14:41:59,03/23/2025 14:50:26,507.89,
212,03/23/2025 16:14:41,03/23/2025 16:26:13,692.064,
213,03/23/2025 17:49:53,03/23/2025 17:57:02,429.067,
214,03/24/2025 14:24:09,03/24/2025 14:30:21,371.768,
215,03/24/2025 15:55:58,03/24/2025 16:07:31,693.307,
216,03/24/2025 17:30:37,03/24/2025 17:39:24,526.296,
217,03/25/2025 15:37:20,03/25/2025 15:48:39,678.827,
218,03/25/2025 17:11:32,03/25/2025 17:21:27,595.178,
219,03/26/2025 15:18:48,03/26/2025 15:29:34,646.651,
220,03/26/2025 16:52:34,03/26/2025 17:03:18,643.764,
221,03/27/2025 15:00:23,03/27/2025 15:10:16,592.821,
222,03/27/2025 16:33:42,03/27/2025 16:44:57,675.519,
223,03/27/2025 18:09:47,03/27/2025 18:14:23,275.588,
224,03/28/2025 14:42:11,03/28/2025 14:50:40,509.108,
225,03/28/2025 16:14:54,03/28/2025 16:26:26,691.96,
226,03/28/2025 17:50:07,03/28/2025 17:57:15,427.693,
227,03/29/2025 14:24:22,03/29/2025 14:30:35,373.874,
228,03/29/2025 15:56:11,03/29/2025 16:07:44,693.381,
229,03/29/2025 17:30:51,03/29/2025 17:39:36,525.342,
230,03/30/2025 15:37:33,03/30/2025 15:48:52,679.094,
231,03/30/2025 17:11:46,03/30/2025 17:21:40,594.497,
232,03/31/2025 15:19:01,03/31/2025 15:29:48,647.143,
233,03/31/2025 16:52:48,03/31/2025 17:03:31,643.296,
234,04/01/2025 15:00:36,04/01/2025 15:10:30,593.602,
235,04/01/2025 16:33:55,04/01/2025 16:45:10,675.237,
236,04/01/2025 18:10:01,04/01/2025 18:14:34,273.175,
237,04/02/2025 14:42:24,04/02/2025 14:50:54,510.32,
238,04/02/2025 16:15:07,04/02/2025 16:26:39,691.854,
239,04/02/2025 17:50:21,04/02/2025 17:57:27,426.314,
240,04/03/2025 14:24:34,04/03/2025 14:30:50,375.958,
241,04/03/2025 15:56:24,04/03/2025 16:07:58,693.461,
242,04/03/2025 17:31:04,04/03/2025 17:39:49,524.388,
243,04/04/2025 15:37:46,04/04/2025 15:49:05,679.359,
244,04/04/2025 17:11:59,04/04/2025 17:21:53,593.815,
245,04/05/2025 15:19:14,04/05/2025 15:30:01,647.633,
246,04/05/2025 16:53:01,04/05/2025 17:03:44,642.826,
247,04/06/2025 15:00:49,04/06/2025 15:10:44,594.377,
248,04/06/2025 16:34:08,04/06/2025 16:45:23,674.956,
249,04/06/2025 18:10:15,04/06/2025 18:14:46,270.727,
250,04/07/2025 14:42:37,04/07/2025 14:51:08,511.53,
251,04/07/2025 16:15:20,04/07/2025 16:26:52,691.738,
252,04/07/2025 17:50:34,04/07/2025 17:57:39,424.934,
253,04/08/2025 14:24:46,04/08/2025 14:31:04,378.029,
254,04/08/2025 15:56:37,04/08/2025 16:08:11,693.522,
255,04/08/2025 17:31:18,04/08/2025 17:40:01,523.427,
256,04/09/2025 15:37:59,04/09/2025 15:49:19,679.621,
257,04/09/2025 17:12:12,04/09/2025 17:22:06,593.128,
258,04/10/2025 15:19:27,04/10/2025 15:30:15,648.119,
259,04/10/2025 16:53:14,04/10/2025 17:03:57,642.353,
260,04/11/2025 15:01:02,04/11/2025 15:10:57,595.152,
261,04/11/2025 16:34:22,04/11/2025 16:45:36,674.669,
262,04/11/2025 18:10:30,04/11/2025 18:14:58,268.258,
263,04/12/2025 14:42:49,04/12/2025 14:51:22,512.725,
264,04/12/2025 16:15:34,04/12/2025 16:27:05,691.627,
265,04/12/2025 17:50:48,04/12/2025 17:57:52,423.543,
266,04/13/2025 14:24:59,04/13/2025 14:31:19,380.081,
267,04/13/2025 15:56:50,04/13/2025 16:08:24,693.59,
268,04/13/2025 17:31:31,04/13/2025 17:40:14,522.464,
269,04/14/2025 15:38:12,04/14/2025 15:49:32,679.876,
270,04/14/2025 17:12:26,04/14/2025 17:22:18,592.437,
271,04/15/2025 15:19:40,04/15/2025 15:30:28,648.602,
272,04/15/2025 16:53:28,04/15/2025 17:04:09,641.879,
273,04/16/2025 15:01:15,04/16/2025 15:11:11,595.92,
274,04/16/2025 16:34:35,04/16/2025 16:45:49,674.381,
275,04/16/2025 18:10:44,04/16/2025 18:15:10,265.769,
276,04/17/2025 14:43:02,04/17/2025 14:51:36,513.916,
277,04/17/2025 16:15:47,04/17/2025 16:27:18,691.515,
278,04/17/2025 17:51:02,04/17/2025 17:58:04,422.148,
279,04/18/2025 14:25:11,04/18/2025 14:31:33,382.115,
280,04/18/2025 15:57:04,04/18/2025 16:08:37,693.655,
281,04/18/2025 17:31:45,04/18/2025 17:40:26,521.498,
282,04/19/2025 15:38:25,04/19/2025 15:49:45,680.133,
283,04/19/2025 17:12:39,04/19/2025 17:22:31,591.746,
284,04/20/2025 15:19:53,04/20/2025 15:30:42,649.082,
285,04/20/2025 16:53:41,04/20/2025 17:04:22,641.403,
286,04/21/2025 15:01:28,04/21/2025 15:11:25,596.686,
287,04/21/2025 16:34:48,04/21/2025 16:46:02,674.09,
288,04/21/2025 18:10:58,04/21/2025 18:15:21,263.25,
289,04/22/2025 14:43:15,04/22/2025 14:51:50,515.103,
290,04/22/2025 16:16:00,04/22/2025 16:27:31,691.404,
291,04/22/2025 17:51:15,04/22/2025 17:58:16,420.739,
292,04/23/2025 14:25:23,04/23/2025 14:31:47,384.136,
293,04/23/2025 15:57:17,04/23/2025 16:08:50,693.718,
294,04/23/2025 17:31:58,04/23/2025 17:40:39,520.527,
295,04/24/2025 14:09:20,04/24/2025 14:09:50,29.419,
296,04/24/2025 15:38:38,04/24/2025 15:49:59,680.388,
297,04/24/2025 17:12:53,04/24/2025 17:22:44,591.056,
298,04/25/2025 15:20:06,04/25/2025 15:30:55,649.56,
299,04/25/2025 16:53:54,04/25/2025 17:04:35,640.924,
300,04/26/2025 15:01:41,04/26/2025 15:11:38,597.448,
301,04/26/2025 16:35:01,04/26/2025 16:46:15,673.797,
302,04/26/2025 18:11:12,04/26/2025 18:15:33,260.699,
303,04/27/2025 14:43:28,04/27/2025 14:52:04,516.286,
304,04/27/2025 16:16:13,04/27/2025 16:27:45,691.292,
305,04/27/2025 17:51:29,04/27/2025 17:58:28,419.33,
306,04/28/2025 14:25:36,04/28/2025 14:32:02,386.136,
307,04/28/2025 15:57:30,04/28/2025 16:09:04,693.779,
308,04/28/2025 17:32:12,04/28/2025 17:40:51,519.554,
309,04/29/2025 14:09:22,04/29/2025 14:10:15,52.5,
310,04/29/2025 15:38:51,04/29/2025 15:50:12,680.64,
311,04/29/2025 17:13:06,04/29/2025 17:22:56,590.358,
312,04/30/2025 15:20:19,04/30/2025 15:31:09,650.035,
313,04/30/2025 16:54:08,04/30/2025 17:04:48,640.447,
314,05/01/2025 15:01:54,05/01/2025 15:11:52,598.204,
315,05/01/2025 16:35:15,05/01/2025 16:46:28,673.503,
316,05/01/2025 18:11:26,05/01/2025 18:15:45,258.126,
317,05/02/2025 14:43:40,05/02/2025 14:52:18,517.456,
318,05/02/2025 16:16:27,05/02/2025 16:27:58,691.174,
319,05/02/2025 17:51:43,05/02/2025 17:58:41,417.915,
320,05/03/2025 14:25:48,05/03/2025 14:32:16,388.123,
321,05/03/2025 15:57:43,05/03/2025 16:09:17,693.838,
322,05/03/2025 17:32:25,05/03/2025 17:41:04,518.577,
323,05/04/2025 14:09:28,05/04/2025 14:10:36,68.15,
324,05/04/2025 15:39:05,05/04/2025 15:50:25,680.89,
325,05/04/2025 17:13:19,05/04/2025 17:23:09,589.661,
326,05/05/2025 15:20:32,05/05/2025 15:31:22,650.507,
327,05/05/2025 16:54:21,05/05/2025 17:05:01,639.963,
328,05/06/2025 15:02:07,05/06/2025 15:12:06,598.957,
329,05/06/2025 16:35:28,05/06/2025 16:46:41,673.206,
330,05/06/2025 18:11:41,05/06/2025 18:15:56,255.523,
331,05/07/2025 14:43:53,05/07/2025 14:52:32,518.622,
332,05/07/2025 16:16:40,05/07/2025 16:28:11,691.053,
333,05/07/2025 17:51:56,05/07/2025 17:58:53,416.491,
334,05/08/2025 14:26:00,05/08/2025 14:32:31,390.096,
335,05/08/2025 15:57:56,05/08/2025 16:09:30,693.895,
336,05/08/2025 17:32:39,05/08/2025 17:41:16,517.596,
337,05/09/2025 14:09:35,05/09/2025 14:10:56,80.798,
338,05/09/2025 15:39:18,05/09/2025 15:50:39,681.137,
339,05/09/2025 17:13:33,05/09/2025 17:23:22,588.959,
340,05/10/2025 15:20:45,05/10/2025 15:31:36,650.975,
341,05/10/2025 16:54:34,05/10/2025 17:05:14,639.478,
342,05/11/2025 15:02:20,05/11/2025 15:12:19,599.706,
343,05/11/2025 16:35:41,05/11/2025 16:46:54,672.908,
344,05/11/2025 18:11:55,05/11/2025 18:16:08,252.893,
345,05/12/2025 14:44:06,05/12/2025 14:52:46,519.78,
346,05/12/2025 16:16:53,05/12/2025 16:28:24,690.93,
347,05/12/2025 17:52:10,05/12/2025 17:59:05,415.062,
348,05/13/2025 14:26:13,05/13/2025 14:32:45,392.051,
349,05/13/2025 15:58:09,05/13/2025 16:09:43,693.949,
350,05/13/2025 17:32:52,05/13/2025 17:41:29,516.611,
351,05/14/2025 14:09:43,05/14/2025 14:11:14,91.686,
352,05/14/2025 15:39:31,05/14/2025 15:50:52,681.382,
353,05/14/2025 17:13:46,05/14/2025 17:23:35,588.255,
354,05/15/2025 15:20:58,05/15/2025 15:31:49,651.435,
355,05/15/2025 16:54:48,05/15/2025 17:05:27,638.991,
356,05/16/2025 15:02:33,05/16/2025 15:12:33,600.45,
357,05/16/2025 16:35:54,05/16/2025 16:47:07,672.608,
358,05/16/2025 18:12:09,05/16/2025 18:16:19,250.236,
359,05/17/2025 14:44:19,05/17/2025 14:53:00,520.932,
360,05/17/2025 16:17:06,05/17/2025 16:28:37,690.805,
361,05/17/2025 17:52:24,05/17/2025 17:59:17,413.626,
362,05/18/2025 14:26:25,05/18/2025 14:32:59,393.992,
363,05/18/2025 15:58:23,05/18/2025 16:09:57,694.002,
364,05/18/2025 17:33:06,05/18/2025 17:41:41,515.619,
365,05/19/2025 14:09:51,05/19/2025 14:11:33,101.396,
366,05/19/2025 15:39:44,05/19/2025 15:51:05,681.625,
367,05/19/2025 17:14:00,05/19/2025 17:23:47,587.548,
368,05/20/2025 15:21:11,05/20/2025 15:32:03,651.899,
369,05/20/2025 16:55:01,05/20/2025 17:05:39,638.501,
370,05/21/2025 15:02:46,05/21/2025 15:12:47,601.192,
371,05/21/2025 16:36:08,05/21/2025 16:47:20,672.306,
372,05/21/2025 18:12:24,05/21/2025 18:16:31,247.542,
373,05/22/2025 14:44:31,05/22/2025 14:53:14,522.079,
374,05/22/2025 16:17:19,05/22/2025 16:28:50,690.678,
375,05/22/2025 17:52:38,05/22/2025 17:59:30,412.18,
376,05/23/2025 14:26:38,05/23/2025 14:33:14,395.92,
377,05/23/2025 15:58:36,05/23/2025 16:10:10,694.052,
378,05/23/2025 17:33:19,05/23/2025 17:41:54,514.627,
379,05/24/2025 14:10:00,05/24/2025 14:11:50,110.236,
380,05/24/2025 15:39:57,05/24/2025 15:51:19,681.865,
381,05/24/2025 17:14:13,05/24/2025 17:24:00,586.838,
382,05/25/2025 15:21:24,05/25/2025 15:32:16,652.361,
383,05/25/2025 16:55:14,05/25/2025 17:05:52,638.009,
384,05/26/2025 15:02:59,05/26/2025 15:13:00,601.929,
385,05/26/2025 16:36:21,05/26/2025 16:47:33,672.001,
386,05/26/2025 18:12:38,05/26/2025 18:16:43,244.819,
387,05/27/2025 14:44:44,05/27/2025 14:53:27,523.219,
388,05/27/2025 16:17:33,05/27/2025 16:29:03,690.549,
389,05/27/2025 17:52:51,05/27/2025 17:59:42,410.731,
390,05/28/2025 14:26:50,05/28/2025 14:33:28,397.829,
391,05/28/2025 15:58:49,05/28/2025 16:10:23,694.1,
392,05/28/2025 17:33:33,05/28/2025 17:42:06,513.632,
393,05/29/2025 14:10:10,05/29/2025 14:12:08,118.384,
394,05/29/2025 15:40:10,05/29/2025 15:51:32,682.102,
395,05/29/2025 17:14:26,05/29/2025 17:24:13,586.129,
396,05/30/2025 15:21:37,05/30/2025 15:32:30,652.818,
397,05/30/2025 16:55:28,05/30/2025 17:06:05,637.515,
398,05/31/2025 15:03:11,05/31/2025 15:13:14,602.662,
399,05/31/2025 16:36:34,05/31/2025 16:47:46,671.695,
400,05/31/2025 18:12:52,05/31/2025 18:16:54,242.063,
401,06/01/2025 14:44:57,06/01/2025 14:53:41,524.353,
402,06/01/2025 16:17:46,06/01/2025 16:29:16,690.418,
403,06/01/2025 17:53:05,06/01/2025 17:59:54,409.273,
404,06/02/2025 14:27:03,06/02/2025 14:33:42,399.728,
405,06/02/2025 15:59:02,06/02/2025 16:10:36,694.146,
406,06/02/2025 17:33:46,06/02/2025 17:42:19,512.632,
407,06/03/2025 14:10:19,06/03/2025 14:12:25,126.004,
408,06/03/2025 15:40:23,06/03/2025 15:51:45,682.342,
409,06/03/2025 17:14:40,06/03/2025 17:24:25,585.419,
410,06/04/2025 15:21:50,06/04/2025 15:32:43,653.27,
411,06/04/2025 16:55:41,06/04/2025 17:06:18,637.015,
412,06/05/2025 15:03:24,06/05/2025 15:13:28,603.392,
413,06/05/2025 16:36:48,06/05/2025 16:47:59,671.386,
414,06/05/2025 18:13:06,06/05/2025 18:17:06,239.266,
415,06/06/2025 14:45:10,06/06/2025 14:53:55,525.482,
416,06/06/2025 16:17:59,06/06/2025 16:29:29,690.284,
417,06/06/2025 17:53:19,06/06/2025 18:00:06,407.805,
418,06/07/2025 14:27:15,06/07/2025 14:33:57,401.613,
419,06/07/2025 15:59:15,06/07/2025 16:10:49,694.19,
420,06/07/2025 17:34:00,06/07/2025 17:42:32,511.627,
421,06/08/2025 14:10:29,06/08/2025 14:12:42,133.175,
422,06/08/2025 15:40:36,06/08/2025 15:51:59,682.576,
423,06/08/2025 17:14:53,06/08/2025 17:24:38,584.701,
424,06/09/2025 15:22:03,06/09/2025 15:32:57,653.721,
425,06/09/2025 16:55:54,06/09/2025 17:06:31,636.516,
426,06/10/2025 15:03:37,06/10/2025 15:13:41,604.118,
427,06/10/2025 16:37:01,06/10/2025 16:48:12,671.075,
428,06/10/2025 18:13:21,06/10/2025 18:17:17,236.437,
429,06/11/2025 14:45:23,06/11/2025 14:54:09,526.6,
430,06/11/2025 16:18:12,06/11/2025 16:29:42,690.15,
431,06/11/2025 17:53:32,06/11/2025 18:00:19,406.332,
432,06/12/2025 14:27:27,06/12/2025 14:34:11,403.482,
433,06/12/2025 15:59:28,06/12/2025 16:11:03,694.232,
434,06/12/2025 17:34:13,06/12/2025 17:42:44,510.623,
435,06/13/2025 14:10:39,06/13/2025 14:12:59,139.957,
436,06/13/2025 15:40:49,06/13/2025 15:52:12,682.806,
437,06/13/2025 17:15:07,06/13/2025 17:24:51,583.98,
438,06/14/2025 15:22:16,06/14/2025 15:33:10,654.169,
439,06/14/2025 16:56:08,06/14/2025 17:06:44,636.015,
440,06/15/2025 15:03:50,06/15/2025 15:13:55,604.84,
441,06/15/2025 16:37:14,06/15/2025 16:48:25,670.763,
442,06/15/2025 18:13:35,06/15/2025 18:17:29,233.57,
443,06/16/2025 14:45:35,06/16/2025 14:54:23,527.72,
444,06/16/2025 16:18:26,06/16/2025 16:29:56,690.015,
445,06/16/2025 17:53:46,06/16/2025 18:00:31,404.855,
446,06/17/2025 14:27:40,06/17/2025 14:34:25,405.336,
447,06/17/2025 15:59:42,06/17/2025 16:11:16,694.273,
448,06/17/2025 17:34:27,06/17/2025 17:42:57,509.607,
449,06/18/2025 14:10:49,06/18/2025 14:13:16,146.42,
450,06/18/2025 15:41:02,06/18/2025 15:52:25,683.039,
451,06/18/2025 17:15:20,06/18/2025 17:25:03,583.257,
452,06/19/2025 15:22:29,06/19/2025 15:33:24,654.617,
453,06/19/2025 16:56:21,06/19/2025 17:06:56,635.51,
454,06/20/2025 15:04:03,06/20/2025 15:14:09,605.559,
455,06/20/2025 16:37:27,06/20/2025 16:48:38,670.447,
456,06/20/2025 18:13:50,06/20/2025 18:17:40,230.658,
457,06/21/2025 14:45:48,06/21/2025 14:54:37,528.832,
458,06/21/2025 16:18:39,06/21/2025 16:30:09,689.875,
459,06/21/2025 17:54:00,06/21/2025 18:00:43,403.364,
460,06/22/2025 14:27:52,06/22/2025 14:34:39,407.181,
461,06/22/2025 15:59:55,06/22/2025 16:11:29,694.311,
462,06/22/2025 17:34:40,06/22/2025 17:43:09,508.591,
463,06/23/2025 14:11:00,06/23/2025 14:13:32,152.587,
464,06/23/2025 15:41:16,06/23/2025 15:52:39,683.265,
465,06/23/2025 17:15:34,06/23/2025 17:25:16,582.53,
466,06/24/2025 15:22:42,06/24/2025 15:33:37,655.06,
467,06/24/2025 16:56:34,06/24/2025 17:07:09,635.004,
468,06/25/2025 15:04:16,06/25/2025 15:14:22,606.274,
469,06/25/2025 16:37:41,06/25/2025 16:48:51,670.132,
470,06/25/2025 18:14:04,06/25/2025 18:17:52,227.715,
471,06/26/2025 14:46:01,06/26/2025 14:54:51,529.932,
472,06/26/2025 16:18:52,06/26/2025 16:30:22,689.734,
473,06/26/2025 17:54:14,06/26/2025 18:00:55,401.863,
474,06/27/2025 14:28:05,06/27/2025 14:34:54,409.011,
475,06/27/2025 16:00:08,06/27/2025 16:11:42,694.345,
476,06/27/2025 17:34:54,06/27/2025 17:43:22,507.572,
477,06/28/2025 14:11:10,06/28/2025 14:13:48,158.505,
478,06/28/2025 15:41:29,06/28/2025 15:52:52,683.488,
479,06/28/2025 17:15:47,06/28/2025 17:25:29,581.801,
480,06/29/2025 15:22:55,06/29/2025 15:33:51,655.5,
481,06/29/2025 16:56:48,06/29/2025 17:07:22,634.496,
482,06/30/2025 15:04:29,06/30/2025 15:14:36,606.986,
483,06/30/2025 16:37:54,06/30/2025 16:49:04,669.812,
484,06/30/2025 18:14:18,06/30/2025 18:18:03,224.721,
485,07/01/2025 14:46:14,07/01/2025 14:55:05,531.034,
486,07/01/2025 16:19:05,07/01/2025 16:30:35,689.591,
487,07/01/2025 17:54:27,07/01/2025 18:01:08,400.356,
488,07/02/2025 14:28:17,07/02/2025 14:35:08,410.832,
489,07/02/2025 16:00:21,07/02/2025 16:11:55,694.378,
490,07/02/2025 17:35:07,07/02/2025 17:43:34,506.546,
491,07/03/2025 14:11:21,07/03/2025 14:14:05,164.209,
492,07/03/2025 15:41:42,07/03/2025 15:53:05,683.71,
493,07/03/2025 17:16:00,07/03/2025 17:25:41,581.067,
494,07/04/2025 15:23:08,07/04/2025 15:34:04,655.938,
495,07/04/2025 16:57:01,07/04/2025 17:07:35,633.984,
496,07/05/2025 15:04:42,07/05/2025 15:14:50,607.694,
497,07/05/2025 16:38:07,07/05/2025 16:49:17,669.489,
498,07/05/2025 18:14:33,07/05/2025 18:18:15,221.679,
499,07/06/2025 14:46:26,07/06/2025 14:55:19,532.129,
500,07/06/2025 16:19:18,07/06/2025 16:30:48,689.447,
501,07/06/2025 17:54:41,07/06/2025 18:01:20,398.839,
502,07/07/2025 14:28:30,07/07/2025 14:35:22,412.639,
503,07/07/2025 16:00:34,07/07/2025 16:12:09,694.411,
504,07/07/2025 17:35:21,07/07/2025 17:43:47,505.516,
505,07/08/2025 14:11:31,07/08/2025 14:14:21,169.702,
506,07/08/2025 15:41:55,07/08/2025 15:53:19,683.93,
507,07/08/2025 17:16:14,07/08/2025 17:25:54,580.331,
508,07/09/2025 15:23:21,07/09/2025 15:34:18,656.373,
509,07/09/2025 16:57:14,07/09/2025 17:07:48,633.47,
510,07/10/2025 15:04:55,07/10/2025 15:15:03,608.399,
511,07/10/2025 16:38:21,07/10/2025 16:49:30,669.165,
512,07/10/2025 18:14:47,07/10/2025 18:18:26,218.595,
513,07/11/2025 14:46:39,07/11/2025 14:55:32,533.218,
514,07/11/2025 16:19:32,07/11/2025 16:31:01,689.3,
515,07/11/2025 17:54:55,07/11/2025 18:01:32,397.314,
516,07/12/2025 14:28:42,07/12/2025 14:35:37,414.433,
517,07/12/2025 16:00:47,07/12/2025 16:12:22,694.44,
518,07/12/2025 17:35:35,07/12/2025 17:43:59,504.482,
519,07/13/2025 14:11:42,07/13/2025 14:14:37,175.01,
520,07/13/2025 15:42:08,07/13/2025 15:53:32,684.147,
521,07/13/2025 17:16:27,07/13/2025 17:26:07,579.592,
522,07/14/2025 15:23:34,07/14/2025 15:34:31,656.805,
523,07/14/2025 16:57:28,07/14/2025 17:08:01,632.957,
524,07/15/2025 15:05:08,07/15/2025 15:15:17,609.1,
525,07/15/2025 16:38:34,07/15/2025 16:49:43,668.841,
526,07/15/2025 18:15:02,07/15/2025 18:18:37,215.458,
527,07/16/2025 14:46:52,07/16/2025 14:55:46,534.306,
528,07/16/2025 16:19:45,07/16/2025 16:31:14,689.15,
529,07/16/2025 17:55:08,07/16/2025 18:01:44,395.781,
530,07/17/2025 14:28:55,07/17/2025 14:35:51,416.218,
531,07/17/2025 16:01:01,07/17/2025 16:12:35,694.468,
532,07/17/2025 17:35:48,07/17/2025 17:44:12,503.442,
533,07/18/2025 14:11:53,07/18/2025 14:14:53,180.158,
534,07/18/2025 15:42:21,07/18/2025 15:53:45,684.362,
535,07/18/2025 17:16:41,07/18/2025 17:26:19,578.849,
536,07/19/2025 15:23:47,07/19/2025 15:34:45,657.235,
537,07/19/2025 16:57:41,07/19/2025 17:08:13,632.436,
538,07/20/2025 15:05:21,07/20/2025 15:15:31,609.799,
539,07/20/2025 16:38:47,07/20/2025 16:49:56,668.512,
540,07/20/2025 18:15:16,07/20/2025 18:18:49,212.269,
541,07/21/2025 14:47:05,07/21/2025 14:56:00,535.39,
542,07/21/2025 16:19:58,07/21/2025 16:31:27,688.994,
543,07/21/2025 17:55:22,07/21/2025 18:01:56,394.245,
544,07/22/2025 14:29:07,07/22/2025 14:36:05,417.988,
545,07/22/2025 16:01:14,07/22/2025 16:12:48,694.492,
546,07/22/2025 17:36:02,07/22/2025 17:44:24,502.398,
547,07/23/2025 14:12:04,07/23/2025 14:15:09,185.149,
548,07/23/2025 15:42:34,07/23/2025 15:53:59,684.571,
549,07/23/2025 17:16:54,07/23/2025 17:26:32,578.1,
550,07/24/2025 15:24:00,07/24/2025 15:34:58,657.662,
551,07/24/2025 16:57:54,07/24/2025 17:08:26,631.912,
552,07/25/2025 15:05:34,07/25/2025 15:15:44,610.49,
553,07/25/2025 16:39:00,07/25/2025 16:50:09,668.182,
554,07/25/2025 18:15:31,07/25/2025 18:19:00,209.032,
555,07/26/2025 14:47:18,07/26/2025 14:56:14,536.455,
556,07/26/2025 16:20:11,07/26/2025 16:31:40,688.845,
557,07/26/2025 17:55:36,07/26/2025 18:02:09,392.687,
558,07/27/2025 14:29:19,07/27/2025 14:36:19,419.748,
559,07/27/2025 16:01:27,07/27/2025 16:13:01,694.516,
560,07/27/2025 17:36:15,07/27/2025 17:44:36,501.348,
561,07/28/2025 14:12:15,07/28/2025 14:15:25,190.003,
562,07/28/2025 15:42:47,07/28/2025 15:54:12,684.781,
563,07/28/2025 17:17:07,07/28/2025 17:26:45,577.35,
564,07/29/2025 15:24:13,07/29/2025 15:35:11,658.087,
565,07/29/2025 16:58:08,07/29/2025 17:08:39,631.392,
566,07/30/2025 15:05:47,07/30/2025 15:15:58,611.182,
567,07/30/2025 16:39:14,07/30/2025 16:50:22,667.848,
568,07/30/2025 18:15:45,07/30/2025 18:19:11,205.729,
569,07/31/2025 14:47:30,07/31/2025 14:56:28,537.525,
570,07/31/2025 16:20:25,07/31/2025 16:31:53,688.69,
571,07/31/2025 17:55:50,07/31/2025 18:02:21,391.129,
572,08/01/2025 14:29:32,08/01/2025 14:36:33,421.499,
573,08/01/2025 16:01:40,08/01/2025 16:13:15,694.537,
574,08/01/2025 17:36:29,08/01/2025 17:44:49,500.292,
575,08/02/2025 14:12:26,08/02/2025 14:15:40,194.731,
576,08/02/2025 15:43:00,08/02/2025 15:54:25,684.99,
577,08/02/2025 17:17:21,08/02/2025 17:26:57,576.601,
578,08/03/2025 15:24:26,08/03/2025 15:35:25,658.504,
579,08/03/2025 16:58:21,08/03/2025 17:08:52,630.865,
580,08/04/2025 15:06:00,08/04/2025 15:16:11,611.871,
581,08/04/2025 16:39:27,08/04/2025 16:50:34,667.513,
582,08/04/2025 18:16:00,08/04/2025 18:19:22,202.368,
583,08/05/2025 14:47:43,08/05/2025 14:56:42,538.597,
584,08/05/2025 16:20:38,08/05/2025 16:32:06,688.531,
585,08/05/2025 17:56:03,08/05/2025 18:02:33,389.561,
586,08/06/2025 14:29:44,08/06/2025 14:36:48,423.237,
587,08/06/2025 16:01:53,08/06/2025 16:13:28,694.556,
588,08/06/2025 17:36:42,08/06/2025 17:45:01,499.236,
589,08/07/2025 14:12:37,08/07/2025 14:15:56,199.332,
590,08/07/2025 15:43:14,08/07/2025 15:54:39,685.196,
591,08/07/2025 17:17:34,08/07/2025 17:27:10,575.845,
592,08/08/2025 15:24:39,08/08/2025 15:35:38,658.924,
593,08/08/2025 16:58:34,08/08/2025 17:09:05,630.335,
594,08/09/2025 15:06:13,08/09/2025 15:16:25,612.555,
595,08/09/2025 16:39:40,08/09/2025 16:50:47,667.175,
596,08/09/2025 18:16:15,08/09/2025 18:19:34,198.95,
597,08/10/2025 14:47:56,08/10/2025 14:56:56,539.656,
598,08/10/2025 16:20:51,08/10/2025 16:32:19,688.372,
599,08/10/2025 17:56:17,08/10/2025 18:02:45,387.982,
600,08/11/2025 14:29:57,08/11/2025 14:37:02,424.964,
601,08/11/2025 16:02:06,08/11/2025 16:13:41,694.573,
602,08/11/2025 17:36:56,08/11/2025 17:45:14,498.173,
603,08/12/2025 14:12:48,08/12/2025 14:16:12,203.824,
604,08/12/2025 15:43:27,08/12/2025 15:54:52,685.4,
605,08/12/2025 17:17:48,08/12/2025 17:27:23,575.085,
606,08/13/2025 15:24:53,08/13/2025 15:35:52,659.342,
607,08/13/2025 16:58:48,08/13/2025 17:09:18,629.802,
608,08/14/2025 15:06:25,08/14/2025 15:16:39,613.238,
609,08/14/2025 16:39:54,08/14/2025 16:51:00,666.835,
610,08/14/2025 18:16:29,08/14/2025 18:19:45,195.457,
611,08/15/2025 14:48:09,08/15/2025 14:57:09,540.711,
612,08/15/2025 16:21:04,08/15/2025 16:32:32,688.21,
613,08/15/2025 17:56:31,08/15/2025 18:02:57,386.389,
614,08/16/2025 14:30:09,08/16/2025 14:37:16,426.682,
615,08/16/2025 16:02:20,08/16/2025 16:13:54,694.588,
616,08/16/2025 17:37:09,08/16/2025 17:45:26,497.103,
617,08/17/2025 14:12:59,08/17/2025 14:16:27,208.215,
618,08/17/2025 15:43:40,08/17/2025 15:55:05,685.602,
619,08/17/2025 17:18:01,08/17/2025 17:27:35,574.322,
620,08/18/2025 15:25:06,08/18/2025 15:36:05,659.757,
621,08/18/2025 16:59:01,08/18/2025 17:09:30,629.266,
622,08/19/2025 15:06:38,08/19/2025 15:16:52,613.916,
623,08/19/2025 16:40:07,08/19/2025 16:51:13,666.492,
624,08/19/2025 18:16:44,08/19/2025 18:19:56,191.899,
625,08/20/2025 14:48:21,08/20/2025 14:57:23,541.76,
626,08/20/2025 16:21:17,08/20/2025 16:32:46,688.046,
627,08/20/2025 17:56:45,08/20/2025 18:03:10,384.79,
628,08/21/2025 14:30:22,08/21/2025 14:37:30,428.386,
629,08/21/2025 16:02:33,08/21/2025 16:14:07,694.6,
630,08/21/2025 17:37:23,08/21/2025 17:45:39,496.026,
631,08/22/2025 14:13:10,08/22/2025 14:16:43,212.5,
632,08/22/2025 15:43:53,08/22/2025 15:55:19,685.801,
633,08/22/2025 17:18:15,08/22/2025 17:27:48,573.555,
634,08/23/2025 15:25:19,08/23/2025 15:36:19,660.169,
635,08/23/2025 16:59:14,08/23/2025 17:09:43,628.727,
636,08/24/2025 15:06:51,08/24/2025 15:17:06,614.592,
637,08/24/2025 16:40:20,08/24/2025 16:51:26,666.15,
638,08/24/2025 18:16:59,08/24/2025 18:20:07,188.27,
639,08/25/2025 14:48:34,08/25/2025 14:57:37,542.804,
640,08/25/2025 16:21:31,08/25/2025 16:32:59,687.877,
641,08/25/2025 17:56:58,08/25/2025 18:03:22,383.179,
642,08/26/2025 14:30:34,08/26/2025 14:37:45,430.083,
643,08/26/2025 16:02:46,08/26/2025 16:14:21,694.612,
644,08/26/2025 17:37:36,08/26/2025 17:45:51,494.95,
645,08/27/2025 14:13:22,08/27/2025 14:16:58,216.698,
646,08/27/2025 15:44:06,08/27/2025 15:55:32,685.999,
647,08/27/2025 17:18:28,08/27/2025 17:28:01,572.784,
648,08/28/2025 15:25:32,08/28/2025 15:36:32,660.579,
649,08/28/2025 16:59:28,08/28/2025 17:09:56,628.185,
650,08/29/2025 15:07:04,08/29/2025 15:17:20,615.265,
651,08/29/2025 16:40:33,08/29/2025 16:51:39,665.803,
652,08/29/2025 18:17:14,08/29/2025 18:20:18,184.553,
653,08/30/2025 14:48:47,08/30/2025 14:57:51,543.845,
654,08/30/2025 16:21:44,08/30/2025 16:33:12,687.708,
655,08/30/2025 17:57:12,08/30/2025 18:03:34,381.556,
656,08/31/2025 14:30:47,08/31/2025 14:37:59,431.77,
657,08/31/2025 16:02:59,08/31/2025 16:14:34,694.621,
658,08/31/2025 17:37:50,08/31/2025 17:46:04,493.864,
659,09/01/2025 14:13:33,09/01/2025 14:17:14,220.81,
660,09/01/2025 15:44:19,09/01/2025 15:55:45,686.195,
661,09/01/2025 17:18:41,09/01/2025 17:28:13,572.009,
662,09/02/2025 15:25:45,09/02/2025 15:36:46,660.986,
663,09/02/2025 16:59:41,09/02/2025 17:10:09,627.643,
664,09/03/2025 15:07:17,09/03/2025 15:17:33,615.934,
665,09/03/2025 16:40:47,09/03/2025 16:51:52,665.454,
666,09/03/2025 18:17:28,09/03/2025 18:20:29,180.758,
667,09/04/2025 14:49:00,09/04/2025 14:58:05,544.879,
668,09/04/2025 16:21:57,09/04/2025 16:33:25,687.538,
669,09/04/2025 17:57:26,09/04/2025 18:03:46,379.925,
670,09/05/2025 14:31:00,09/05/2025 14:38:13,433.444,
671,09/05/2025 16:03:12,09/05/2025 16:14:47,694.628,
672,09/05/2025 17:38:03,09/05/2025 17:46:16,492.775,
673,09/06/2025 14:13:44,09/06/2025 14:17:29,224.835,
674,09/06/2025 15:44:32,09/06/2025 15:55:59,686.387,
675,09/06/2025 17:18:55,09/06/2025 17:28:26,571.232,
676,09/07/2025 15:25:58,09/07/2025 15:36:59,661.39,
677,09/07/2025 16:59:54,09/07/2025 17:10:22,627.097,
678,09/08/2025 15:07:30,09/08/2025 15:17:47,616.6,
679,09/08/2025 16:41:00,09/08/2025 16:52:05,665.105,
680,09/08/2025 18:17:43,09/08/2025 18:20:40,176.878,
681,09/09/2025 14:49:13,09/09/2025 14:58:19,545.909,
682,09/09/2025 16:22:10,09/09/2025 16:33:38,687.365,
683,09/09/2025 17:57:40,09/09/2025 18:03:58,378.282,
684,09/10/2025 14:31:12,09/10/2025 14:38:27,435.11,
685,09/10/2025 16:03:25,09/10/2025 16:15:00,694.632,
686,09/10/2025 17:38:17,09/10/2025 17:46:29,491.675,
687,09/11/2025 14:13:56,09/11/2025 14:17:45,228.788,
688,09/11/2025 15:44:45,09/11/2025 15:56:12,686.579,
689,09/11/2025 17:19:08,09/11/2025 17:28:39,570.45,
690,09/12/2025 15:26:11,09/12/2025 15:37:13,661.793,
691,09/12/2025 17:00:08,09/12/2025 17:10:34,626.547,
692,09/13/2025 15:07:43,09/13/2025 15:18:00,617.264,
693,09/13/2025 16:41:13,09/13/2025 16:52:18,664.75,
694,09/13/2025 18:17:58,09/13/2025 18:20:51,172.893,
695,09/14/2025 14:49:25,09/14/2025 14:58:32,546.936,
696,09/14/2025 16:22:24,09/14/2025 16:33:51,687.194,
697,09/14/2025 17:57:54,09/14/2025 18:04:10,376.626,
698,09/15/2025 14:31:25,09/15/2025 14:38:41,436.766,
699,09/15/2025 16:03:39,09/15/2025 16:15:13,694.634,
700,09/15/2025 17:38:31,09/15/2025 17:46:41,490.575,
701,09/16/2025 14:14:07,09/16/2025 14:18:00,232.664,
702,09/16/2025 15:44:58,09/16/2025 15:56:25,686.767,
703,09/16/2025 17:19:22,09/16/2025 17:28:51,569.665,
704,09/17/2025 15:26:24,09/17/2025 15:37:26,662.193,
705,09/17/2025 17:00:21,09/17/2025 17:10:47,625.995,
706,09/18/2025 15:07:56,09/18/2025 15:18:14,617.923,
707,09/18/2025 16:41:27,09/18/2025 16:52:31,664.394,
708,09/18/2025 18:18:13,09/18/2025 18:21:02,168.817,
709,09/19/2025 14:49:38,09/19/2025 14:58:46,547.955,
710,09/19/2025 16:22:37,09/19/2025 16:34:04,687.014,
711,09/19/2025 17:58:07,09/19/2025 18:04:22,374.963,
712,09/20/2025 14:31:37,09/20/2025 14:38:55,438.411,
713,09/20/2025 16:03:52,09/20/2025 16:15:26,694.635,
714,09/20/2025 17:38:44,09/20/2025 17:46:54,489.47,
715,09/21/2025 14:14:19,09/21/2025 14:18:15,236.467,
716,09/21/2025 15:45:12,09/21/2025 15:56:39,686.954,
717,09/21/2025 17:19:35,09/21/2025 17:29:04,568.879,
718,09/22/2025 15:26:37,09/22/2025 15:37:39,662.59,
719,09/22/2025 17:00:35,09/22/2025 17:11:00,625.44,
720,09/23/2025 15:08:09,09/23/2025 15:18:28,618.58,
721,09/23/2025 16:41:40,09/23/2025 16:52:44,664.036,
722,09/23/2025 18:18:28,09/23/2025 18:21:13,164.627,
723,09/24/2025 14:49:51,09/24/2025 14:59:00,548.972,
724,09/24/2025 16:22:50,09/24/2025 16:34:17,686.835,
725,09/24/2025 17:58:21,09/24/2025 18:04:35,373.285,
726,09/25/2025 14:31:50,09/25/2025 14:39:10,440.048,
727,09/25/2025 16:04:05,09/25/2025 16:15:40,694.633,
728,09/25/2025 17:38:58,09/25/2025 17:47:06,488.357,
729,09/26/2025 14:14:30,09/26/2025 14:18:31,240.21,
730,09/26/2025 15:45:25,09/26/2025 15:56:52,687.138,
731,09/26/2025 17:19:49,09/26/2025 17:29:17,568.087,
732,09/27/2025 15:26:50,09/27/2025 15:37:53,662.98,
733,09/27/2025 17:00:48,09/27/2025 17:11:13,624.884,
734,09/28/2025 15:08:22,09/28/2025 15:18:41,619.234,
735,09/28/2025 16:41:53,09/28/2025 16:52:57,663.674,
736,09/28/2025 18:18:43,09/28/2025 18:21:24,160.313,
737,09/29/2025 14:50:04,09/29/2025 14:59:14,549.984,
738,09/29/2025 16:23:03,09/29/2025 16:34:30,686.656,
739,09/29/2025 17:58:35,09/29/2025 18:04:47,371.596,
740,09/30/2025 14:32:02,09/30/2025 14:39:24,441.674,
741,09/30/2025 16:04:18,09/30/2025 16:15:53,694.629,
742,09/30/2025 17:39:11,09/30/2025 17:47:19,487.241,
743,10/01/2025 14:14:42,10/01/2025 14:18:46,243.885,
744,10/01/2025 15:45:38,10/01/2025 15:57:05,687.32,
745,10/01/2025 17:20:02,10/01/2025 17:29:29,567.291,
746,10/02/2025 15:27:03,10/02/2025 15:38:06,663.373,
747,10/02/2025 17:01:01,10/02/2025 17:11:26,624.323,
748,10/03/2025 15:08:35,10/03/2025 15:18:55,619.883,
749,10/03/2025 16:42:06,10/03/2025 16:53:10,663.308,
750,10/03/2025 18:18:58,10/03/2025 18:21:34,155.884,
751,10/04/2025 14:50:17,10/04/2025 14:59:28,550.99,
752,10/04/2025 16:23:17,10/04/2025 16:34:43,686.476,
753,10/04/2025 17:58:49,10/04/2025 18:04:59,369.9,
754,10/05/2025 14:32:15,10/05/2025 14:39:38,443.289,
755,10/05/2025 16:04:31,10/05/2025 16:16:06,694.623,
756,10/05/2025 17:39:25,10/05/2025 17:47:31,486.12,
757,10/06/2025 14:14:53,10/06/2025 14:19:01,247.495,
758,10/06/2025 15:45:51,10/06/2025 15:57:18,687.5,
759,10/06/2025 17:20:15,10/06/2025 17:29:42,566.493,
760,10/07/2025 15:27:16,10/07/2025 15:38:20,663.763,
761,10/07/2025 17:01:15,10/07/2025 17:11:38,623.76,
762,10/08/2025 15:08:48,10/08/2025 15:19:08,620.53,
763,10/08/2025 16:42:20,10/08/2025 16:53:23,662.942,
764,10/08/2025 18:19:14,10/08/2025 18:21:45,151.307,
765,10/09/2025 14:50:30,10/09/2025 14:59:42,551.992,
766,10/09/2025 16:23:30,10/09/2025 16:34:56,686.291,
767,10/09/2025 17:59:03,10/09/2025 18:05:11,368.189,
768,10/10/2025 14:32:27,10/10/2025 14:39:52,444.899,
769,10/10/2025 16:04:45,10/10/2025 16:16:19,694.615,
770,10/10/2025 17:39:38,10/10/2025 17:47:43,484.991,
771,10/11/2025 14:15:05,10/11/2025 14:19:16,251.052,
772,10/11/2025 15:46:04,10/11/2025 15:57:32,687.678,
773,10/11/2025 17:20:29,10/11/2025 17:29:55,565.689,
774,10/12/2025 15:27:29,10/12/2025 15:38:33,664.151,
775,10/12/2025 17:01:28,10/12/2025 17:11:51,623.194,
776,10/13/2025 15:09:01,10/13/2025 15:19:22,621.177,
777,10/13/2025 16:42:33,10/13/2025 16:53:36,662.573,
778,10/13/2025 18:19:29,10/13/2025 18:21:56,146.584,
779,10/14/2025 14:50:42,10/14/2025 14:59:55,552.982,
780,10/14/2025 16:23:43,10/14/2025 16:35:09,686.101,
781,10/14/2025 17:59:17,10/14/2025 18:05:23,366.474,
782,10/15/2025 14:32:40,10/15/2025 14:40:06,446.49,
783,10/15/2025 16:04:58,10/15/2025 16:16:32,694.6,
784,10/15/2025 17:39:52,10/15/2025 17:47:56,483.867,
785,10/16/2025 14:15:17,10/16/2025 14:19:31,254.547,
786,10/16/2025 15:46:17,10/16/2025 15:57:45,687.854,
787,10/16/2025 17:20:42,10/16/2025 17:30:07,564.886,
788,10/17/2025 15:27:42,10/17/2025 15:38:47,664.535,
789,10/17/2025 17:01:41,10/17/2025 17:12:04,622.626,
790,10/18/2025 15:09:14,10/18/2025 15:19:36,621.817,
791,10/18/2025 16:42:46,10/18/2025 16:53:49,662.203,
792,10/18/2025 18:19:44,10/18/2025 18:22:06,141.705,
793,10/19/2025 14:50:55,10/19/2025 15:00:09,553.974,
794,10/19/2025 16:23:56,10/19/2025 16:35:22,685.911,
795,10/19/2025 17:59:30,10/19/2025 18:05:35,364.744,
796,10/20/2025 14:32:52,10/20/2025 14:40:20,448.077,
797,10/20/2025 16:05:11,10/20/2025 16:16:46,694.588,
798,10/20/2025 17:40:06,10/20/2025 17:48:08,482.73,
799,10/21/2025 14:15:28,10/21/2025 14:19:46,257.989,
800,10/21/2025 15:46:30,10/21/2025 15:57:58,688.027,
801,10/21/2025 17:20:56,10/21/2025 17:30:20,564.077,
802,10/22/2025 15:27:55,10/22/2025 15:39:00,664.916,
803,10/22/2025 17:01:55,10/22/2025 17:12:17,622.055,
804,10/23/2025 15:09:27,10/23/2025 15:19:49,622.449,
805,10/23/2025 16:43:00,10/23/2025 16:54:01,661.83,
806,10/23/2025 18:20:00,10/23/2025 18:22:16,136.633,
807,10/24/2025 14:51:08,10/24/2025 15:00:23,554.963,
808,10/24/2025 16:24:10,10/24/2025 16:35:35,685.719,
809,10/24/2025 17:59:44,10/24/2025 18:05:47,362.997,
810,10/25/2025 14:33:05,10/25/2025 14:40:35,449.656,
811,10/25/2025 16:05:24,10/25/2025 16:16:59,694.573,
812,10/25/2025 17:40:19,10/25/2025 17:48:21,481.585,
813,10/26/2025 14:15:40,10/26/2025 14:20:01,261.382,
814,10/26/2025 15:46:43,10/26/2025 15:58:12,688.198,
815,10/26/2025 17:21:09,10/26/2025 17:30:33,563.263,
816,10/27/2025 15:28:08,10/27/2025 15:39:14,665.296,
817,10/27/2025 17:02:08,10/27/2025 17:12:30,621.481,
818,10/28/2025 15:09:40,10/28/2025 15:20:03,623.084,
819,10/28/2025 16:43:13,10/28/2025 16:54:14,661.455,
820,10/28/2025 18:20:15,10/28/2025 18:22:27,131.36,
821,10/29/2025 14:51:21,10/29/2025 15:00:37,555.946,
822,10/29/2025 16:24:23,10/29/2025 16:35:48,685.525,
823,10/29/2025 17:59:58,10/29/2025 18:05:59,361.241,
824,10/30/2025 14:33:18,10/30/2025 14:40:49,451.224,
825,10/30/2025 16:05:37,10/30/2025 16:17:12,694.556,
826,10/30/2025 17:40:33,10/30/2025 17:48:33,480.438,
827,10/31/2025 14:15:52,10/31/2025 14:20:17,264.718,
828,10/31/2025 15:46:57,10/31/2025 15:58:25,688.367,
829,10/31/2025 17:21:23,10/31/2025 17:30:45,562.448,
830,11/01/2025 15:28:21,11/01/2025 15:39:27,665.673,
831,11/01/2025 17:02:21,11/01/2025 17:12:42,620.905,
832,11/02/2025 15:09:53,11/02/2025 15:20:16,623.715,
833,11/02/2025 16:43:26,11/02/2025 16:54:27,661.078,
834,11/02/2025 18:20:31,11/02/2025 18:22:37,125.87,
835,11/03/2025 14:51:34,11/03/2025 15:00:51,556.924,
836,11/03/2025 16:24:36,11/03/2025 16:36:01,685.329,
837,11/03/2025 18:00:12,11/03/2025 18:06:11,359.476,
838,11/04/2025 14:33:30,11/04/2025 14:41:03,452.788,
839,11/04/2025 16:05:51,11/04/2025 16:17:25,694.542,
840,11/04/2025 17:40:46,11/04/2025 17:48:46,479.281,
841,11/05/2025 14:16:04,11/05/2025 14:20:32,268.009,
842,11/05/2025 15:47:10,11/05/2025 15:58:38,688.534,
843,11/05/2025 17:21:36,11/05/2025 17:30:58,561.628,
844,11/06/2025 15:28:34,11/06/2025 15:39:40,666.049,
845,11/06/2025 17:02:35,11/06/2025 17:12:55,620.326,
846,11/07/2025 15:10:06,11/07/2025 15:20:30,624.345,
847,11/07/2025 16:43:40,11/07/2025 16:54:40,660.698,
848,11/07/2025 18:20:47,11/07/2025 18:22:47,120.102,
849,11/08/2025 14:51:46,11/08/2025 15:01:04,557.899,
850,11/08/2025 16:24:49,11/08/2025 16:36:14,685.131,
851,11/08/2025 18:00:26,11/08/2025 18:06:23,357.697,
852,11/09/2025 14:33:43,11/09/2025 14:41:17,454.34,
853,11/09/2025 16:06:04,11/09/2025 16:17:38,694.521,
854,11/09/2025 17:41:00,11/09/2025 17:48:58,478.121,
855,11/10/2025 14:16:15,11/10/2025 14:20:47,271.254,
856,11/10/2025 15:47:23,11/10/2025 15:58:52,688.698,
857,11/10/2025 17:21:50,11/10/2025 17:31:10,560.805,
858,11/11/2025 15:28:47,11/11/2025 15:39:54,666.419,
859,11/11/2025 17:02:48,11/11/2025 17:13:08,619.744,
860,11/12/2025 15:10:19,11/12/2025 15:20:44,624.97,
861,11/12/2025 16:43:53,11/12/2025 16:54:53,660.316,
862,11/12/2025 18:21:03,11/12/2025 18:22:57,114.051,
863,11/13/2025 14:51:59,11/13/2025 15:01:18,558.867,
864,11/13/2025 16:25:03,11/13/2025 16:36:27,684.931,
865,11/13/2025 18:00:40,11/13/2025 18:06:36,355.912,
866,11/14/2025 14:33:55,11/14/2025 14:41:31,455.879,
867,11/14/2025 16:06:17,11/14/2025 16:17:51,694.497,
868,11/14/2025 17:41:13,11/14/2025 17:49:10,476.962,
869,11/15/2025 14:16:27,11/15/2025 14:21:02,274.447,
870,11/15/2025 15:47:36,11/15/2025 15:59:05,688.86,
871,11/15/2025 17:22:03,11/15/2025 17:31:23,559.98,
872,11/16/2025 15:29:01,11/16/2025 15:40:07,666.788,
873,11/16/2025 17:03:02,11/16/2025 17:13:21,619.161,
874,11/17/2025 15:10:32,11/17/2025 15:20:57,625.59,
875,11/17/2025 16:44:06,11/17/2025 16:55:06,659.933,
876,11/17/2025 18:21:19,11/17/2025 18:23:07,107.655,
877,11/18/2025 14:52:12,11/18/2025 15:01:32,559.83,
878,11/18/2025 16:25:16,11/18/2025 16:36:41,684.728,
879,11/18/2025 18:00:53,11/18/2025 18:06:48,354.111,
880,11/19/2025 14:34:08,11/19/2025 14:41:45,457.411,
881,11/19/2025 16:06:30,11/19/2025 16:18:05,694.472,
882,11/19/2025 17:41:27,11/19/2025 17:49:23,475.794,
883,11/20/2025 14:16:39,11/20/2025 14:21:17,277.601,
884,11/20/2025 15:47:49,11/20/2025 15:59:18,689.02,
885,11/20/2025 17:22:17,11/20/2025 17:31:36,559.15,
886,11/21/2025 15:29:14,11/21/2025 15:40:21,667.155,
887,11/21/2025 17:03:15,11/21/2025 17:13:33,618.574,
888,11/22/2025 15:10:45,11/22/2025 15:21:11,626.208,
889,11/22/2025 16:44:19,11/22/2025 16:55:19,659.544,
890,11/22/2025 18:21:35,11/22/2025 18:23:16,100.838,
891,11/23/2025 14:52:25,11/23/2025 15:01:46,560.788,
892,11/23/2025 16:25:29,11/23/2025 16:36:54,684.523,
893,11/23/2025 18:01:07,11/23/2025 18:07:00,352.298,
894,11/24/2025 14:34:20,11/24/2025 14:41:59,458.933,
895,11/24/2025 16:06:43,11/24/2025 16:18:18,694.445,
896,11/24/2025 17:41:41,11/24/2025 17:49:35,474.62,
897,11/25/2025 14:16:51,11/25/2025 14:21:31,280.709,
898,11/25/2025 15:48:02,11/25/2025 15:59:31,689.178,
899,11/25/2025 17:22:30,11/25/2025 17:31:48,558.317,
900,11/26/2025 15:29:27,11/26/2025 15:40:34,667.519,
901,11/26/2025 17:03:28,11/26/2025 17:13:46,617.985,
902,11/27/2025 15:10:58,11/27/2025 15:21:24,626.821,
903,11/27/2025 16:44:33,11/27/2025 16:55:32,659.162,
904,11/27/2025 18:21:52,11/27/2025 18:23:25,93.536,
905,11/28/2025 14:52:38,11/28/2025 15:02:00,561.74,
906,11/28/2025 16:25:42,11/28/2025 16:37:07,684.317,
907,11/28/2025 18:01:21,11/28/2025 18:07:12,350.475,
908,11/29/2025 14:34:33,11/29/2025 14:42:13,460.44,
909,11/29/2025 16:06:56,11/29/2025 16:18:31,694.418,
910,11/29/2025 17:41:54,11/29/2025 17:49:48,473.441,
911,11/30/2025 14:17:03,11/30/2025 14:21:46,283.77,
912,11/30/2025 15:48:15,11/30/2025 15:59:45,689.332,
913,11/30/2025 17:22:43,11/30/2025 17:32:01,557.483,
914,12/01/2025 15:29:40,12/01/2025 15:40:48,667.881,
915,12/01/2025 17:03:42,12/01/2025 17:13:59,617.394,
916,12/02/2025 15:11:11,12/02/2025 15:21:38,627.431,
917,12/02/2025 16:44:46,12/02/2025 16:55:45,658.772,
918,12/02/2025 18:22:09,12/02/2025 18:23:34,85.606,
919,12/03/2025 14:52:51,12/03/2025 15:02:13,562.688,
920,12/03/2025 16:25:56,12/03/2025 16:37:20,684.108,
921,12/03/2025 18:01:35,12/03/2025 18:07:24,348.641,
922,12/04/2025 14:34:46,12/04/2025 14:42:28,461.942,
923,12/04/2025 16:07:10,12/04/2025 16:18:44,694.386,
924,12/04/2025 17:42:08,12/04/2025 17:50:00,472.257,
925,12/05/2025 14:17:15,12/05/2025 14:22:01,286.798,
926,12/05/2025 15:48:29,12/05/2025 15:59:58,689.486,
927,12/05/2025 17:22:57,12/05/2025 17:32:14,556.644,
928,12/06/2025 15:29:53,12/06/2025 15:41:01,668.24,
929,12/06/2025 17:03:55,12/06/2025 17:14:12,616.796,
930,12/07/2025 15:11:24,12/07/2025 15:21:52,628.037,
931,12/07/2025 16:44:59,12/07/2025 16:55:58,658.372,
932,12/07/2025 18:22:26,12/07/2025 18:23:43,76.835,
933,12/08/2025 14:53:04,12/08/2025 15:02:27,563.631,
934,12/08/2025 16:26:09,12/08/2025 16:37:33,683.897,
935,12/08/2025 18:01:49,12/08/2025 18:07:36,346.794,
936,12/09/2025 14:34:58,12/09/2025 14:42:42,463.435,
937,12/09/2025 16:07:23,12/09/2025 16:18:57,694.353,
938,12/09/2025 17:42:21,12/09/2025 17:50:13,471.068,
939,12/10/2025 14:17:26,12/10/2025 14:22:16,289.782,
940,12/10/2025 15:48:42,12/10/2025 16:00:11,689.634,
941,12/10/2025 17:23:10,12/10/2025 17:32:26,555.802,
942,12/11/2025 15:30:06,12/11/2025 15:41:14,668.595,
943,12/11/2025 17:04:08,12/11/2025 17:14:25,616.2,
944,12/12/2025 15:11:37,12/12/2025 15:22:05,628.64,
945,12/12/2025 16:45:13,12/12/2025 16:56:11,657.977,
946,12/12/2025 18:22:44,12/12/2025 18:23:51,66.949,
947,12/13/2025 14:53:16,12/13/2025 15:02:41,564.568,
948,12/13/2025 16:26:22,12/13/2025 16:37:46,683.685,
949,12/13/2025 18:02:03,12/13/2025 18:07:48,344.939,
950,12/14/2025 14:35:11,12/14/2025 14:42:56,464.916,
951,12/14/2025 16:07:36,12/14/2025 16:19:10,694.317,
952,12/14/2025 17:42:35,12/14/2025 17:50:25,469.877,
953,12/15/2025 14:17:38,12/15/2025 14:22:31,292.726,
954,12/15/2025 15:48:55,12/15/2025 16:00:25,689.783,
955,12/15/2025 17:23:24,12/15/2025 17:32:39,554.959,
956,12/16/2025 15:30:19,12/16/2025 15:41:28,668.948,
957,12/16/2025 17:04:22,12/16/2025 17:14:37,615.602,
958,12/17/2025 15:11:50,12/17/2025 15:22:19,629.239,
959,12/17/2025 16:45:26,12/17/2025 16:56:24,657.58,
960,12/17/2025 18:23:03,12/17/2025 18:23:58,55.296,
961,12/18/2025 14:53:29,12/18/2025 15:02:55,565.5,
962,12/18/2025 16:26:35,12/18/2025 16:37:59,683.47,
963,12/18/2025 18:02:17,12/18/2025 18:08:00,343.07,
964,12/19/2025 14:35:23,12/19/2025 14:43:10,466.39,
965,12/19/2025 16:07:49,12/19/2025 16:19:24,694.279,
966,12/19/2025 17:42:49,12/19/2025 17:50:37,468.68,
967,12/20/2025 14:17:50,12/20/2025 14:22:46,295.636,
968,12/20/2025 15:49:08,12/20/2025 16:00:38,689.929,
969,12/20/2025 17:23:37,12/20/2025 17:32:51,554.111,
970,12/21/2025 15:30:32,12/21/2025 15:41:41,669.298,
971,12/21/2025 17:04:35,12/21/2025 17:14:50,615.006,
972,12/22/2025 15:12:03,12/22/2025 15:22:32,629.835,
973,12/22/2025 16:45:39,12/22/2025 16:56:37,657.18,
974,12/22/2025 18:23:23,12/22/2025 18:24:03,40.416,
975,12/23/2025 14:53:42,12/23/2025 15:03:09,566.427,
976,12/23/2025 16:26:49,12/23/2025 16:38:12,683.256,
977,12/23/2025 18:02:31,12/23/2025 18:08:12,341.19,
978,12/24/2025 14:35:36,12/24/2025 14:43:24,467.853,
979,12/24/2025 16:08:02,12/24/2025 16:19:37,694.239,
980,12/24/2025 17:43:02,12/24/2025 17:50:50,467.479,
981,12/25/2025 14:18:02,12/25/2025 14:23:01,298.507,
982,12/25/2025 15:49:21,12/25/2025 16:00:51,690.071,
983,12/25/2025 17:23:51,12/25/2025 17:33:04,553.262,
984,12/26/2025 15:30:45,12/26/2025 15:41:55,669.645,
985,12/26/2025 17:04:49,12/26/2025 17:15:03,614.403,
986,12/27/2025 15:12:16,12/27/2025 15:22:46,630.427,
987,12/27/2025 16:45:53,12/27/2025 16:56:49,656.78,
988,12/27/2025 18:23:49,12/27/2025 18:24:03,14.525,
989,12/28/2025 14:53:55,12/28/2025 15:03:22,567.348,
990,12/28/2025 16:27:02,12/28/2025 16:38:25,683.038,
991,12/28/2025 18:02:45,12/28/2025 18:08:24,339.301,
992,12/29/2025 14:35:49,12/29/2025 14:43:38,469.305,
993,12/29/2025 16:08:16,12/29/2025 16:19:50,694.196,
994,12/29/2025 17:43:16,12/29/2025 17:51:02,466.28,
995,12/30/2025 14:18:14,12/30/2025 14:23:16,301.341,
996,12/30/2025 15:49:34,12/30/2025 16:01:05,690.213,
997,12/30/2025 17:24:04,12/30/2025 17:33:17,552.414,
998,12/31/2025 15:30:58,12/31/2025 15:42:08,669.989,
999,12/31/2025 17:05:02,12/31/2025 17:15:16,613.798,
1000,01/01/2026 15:12:29,01/01/2026 15:23:00,631.016,
,,,,
Global Statistics,,,,
Min Duration,09/14/1902 00:00:00,12/27/2025 18:23:49,24:03.5,14.525
Max Duration,12/13/1901 00:00:00,09/20/2025 16:03:52,15:26.5,694.635
Mean Duration,,,,540.682
Total Duration,,,,540682.491
