3UCubedIntegratedSim/Reports & Plots/Comms/Past Comms Data/UNH/CSV/Sat12.csv

Access,Start Time (UTCG),Stop Time (UTCG),Duration (sec),
1,01/01/2025 16:30:36,01/01/2025 16:41:46,669.371,
2,01/01/2025 18:04:40,01/01/2025 18:14:55,614.879,
3,01/02/2025 16:12:07,01/02/2025 16:22:37,629.963,
4,01/02/2025 17:45:44,01/02/2025 17:56:41,657.1,
5,01/02/2025 19:23:29,01/02/2025 19:24:06,37.224,
6,01/03/2025 15:53:47,01/03/2025 16:03:13,566.629,
7,01/03/2025 17:26:53,01/03/2025 17:38:16,683.205,
8,01/03/2025 19:02:35,01/03/2025 19:08:16,340.841,
9,01/04/2025 15:35:41,01/04/2025 15:43:29,468.173,
10,01/04/2025 17:08:07,01/04/2025 17:19:41,694.225,
11,01/04/2025 18:43:07,01/04/2025 18:50:54,467.25,
12,01/05/2025 15:18:07,01/05/2025 15:23:06,299.132,
13,01/05/2025 16:49:26,01/05/2025 17:00:56,690.098,
14,01/05/2025 18:23:55,01/05/2025 18:33:08,553.09,
15,01/06/2025 16:30:50,01/06/2025 16:41:59,669.716,
16,01/06/2025 18:04:53,01/06/2025 18:15:07,614.276,
17,01/07/2025 16:12:20,01/07/2025 16:22:51,630.552,
18,01/07/2025 17:45:57,01/07/2025 17:56:54,656.692,
19,01/08/2025 15:53:59,01/08/2025 16:03:27,567.546,
20,01/08/2025 17:27:06,01/08/2025 17:38:29,682.987,
21,01/08/2025 19:02:49,01/08/2025 19:08:28,338.957,
22,01/09/2025 15:35:53,01/09/2025 15:43:43,469.619,
23,01/09/2025 17:08:20,01/09/2025 17:19:54,694.182,
24,01/09/2025 18:43:20,01/09/2025 18:51:06,466.049,
25,01/10/2025 15:18:18,01/10/2025 15:23:20,301.951,
26,01/10/2025 16:49:39,01/10/2025 17:01:09,690.239,
27,01/10/2025 18:24:09,01/10/2025 18:33:21,552.244,
28,01/11/2025 16:31:03,01/11/2025 16:42:13,670.059,
29,01/11/2025 18:05:06,01/11/2025 18:15:20,613.673,
30,01/12/2025 16:12:33,01/12/2025 16:23:04,631.139,
31,01/12/2025 17:46:10,01/12/2025 17:57:07,656.292,
32,01/13/2025 15:54:12,01/13/2025 16:03:41,568.459,
33,01/13/2025 17:27:20,01/13/2025 17:38:42,682.766,
34,01/13/2025 19:03:03,01/13/2025 19:08:40,337.055,
35,01/14/2025 15:36:06,01/14/2025 15:43:57,471.059,
36,01/14/2025 17:08:33,01/14/2025 17:20:08,694.138,
37,01/14/2025 18:43:34,01/14/2025 18:51:19,464.841,
38,01/15/2025 15:18:30,01/15/2025 15:23:35,304.741,
39,01/15/2025 16:49:52,01/15/2025 17:01:22,690.378,
40,01/15/2025 18:24:22,01/15/2025 18:33:34,551.39,
41,01/16/2025 16:31:16,01/16/2025 16:42:26,670.395,
42,01/16/2025 18:05:20,01/16/2025 18:15:33,613.066,
43,01/17/2025 16:12:46,01/17/2025 16:23:18,631.716,
44,01/17/2025 17:46:24,01/17/2025 17:57:20,655.886,
45,01/18/2025 15:54:25,01/18/2025 16:03:54,569.367,
46,01/18/2025 17:27:33,01/18/2025 17:38:55,682.543,
47,01/18/2025 19:03:17,01/18/2025 19:08:52,335.143,
48,01/19/2025 15:36:18,01/19/2025 15:44:11,472.489,
49,01/19/2025 17:08:47,01/19/2025 17:20:21,694.091,
50,01/19/2025 18:43:48,01/19/2025 18:51:31,463.63,
51,01/20/2025 15:18:43,01/20/2025 15:23:50,307.495,
52,01/20/2025 16:50:05,01/20/2025 17:01:36,690.512,
53,01/20/2025 18:24:36,01/20/2025 18:33:46,550.533,
54,01/21/2025 16:31:29,01/21/2025 16:42:39,670.736,
55,01/21/2025 18:05:33,01/21/2025 18:15:46,612.458,
56,01/22/2025 16:12:59,01/22/2025 16:23:31,632.295,
57,01/22/2025 17:46:37,01/22/2025 17:57:33,655.48,
58,01/23/2025 15:54:38,01/23/2025 16:04:08,570.27,
59,01/23/2025 17:27:46,01/23/2025 17:39:08,682.319,
60,01/23/2025 19:03:31,01/23/2025 19:09:04,333.219,
61,01/24/2025 15:36:31,01/24/2025 15:44:25,473.909,
62,01/24/2025 17:09:00,01/24/2025 17:20:34,694.042,
63,01/24/2025 18:44:01,01/24/2025 18:51:44,462.414,
64,01/25/2025 15:18:55,01/25/2025 15:24:05,310.226,
65,01/25/2025 16:50:18,01/25/2025 17:01:49,690.639,
66,01/25/2025 18:24:49,01/25/2025 18:33:59,549.671,
67,01/26/2025 16:31:42,01/26/2025 16:42:53,671.07,
68,01/26/2025 18:05:47,01/26/2025 18:15:58,611.846,
69,01/27/2025 16:13:12,01/27/2025 16:23:45,632.871,
70,01/27/2025 17:46:50,01/27/2025 17:57:45,655.071,
71,01/28/2025 15:54:51,01/28/2025 16:04:22,571.169,
72,01/28/2025 17:27:59,01/28/2025 17:39:21,682.092,
73,01/28/2025 19:03:45,01/28/2025 19:09:16,331.278,
74,01/29/2025 15:36:44,01/29/2025 15:44:39,475.323,
75,01/29/2025 17:09:13,01/29/2025 17:20:47,693.991,
76,01/29/2025 18:44:15,01/29/2025 18:51:56,461.191,
77,01/30/2025 15:19:07,01/30/2025 15:24:19,312.922,
78,01/30/2025 16:50:31,01/30/2025 17:02:02,690.77,
79,01/30/2025 18:25:03,01/30/2025 18:34:11,548.806,
80,01/31/2025 16:31:55,01/31/2025 16:43:06,671.402,
81,01/31/2025 18:06:00,01/31/2025 18:16:11,611.231,
82,02/01/2025 16:13:25,02/01/2025 16:23:58,633.445,
83,02/01/2025 17:47:04,02/01/2025 17:57:58,654.66,
84,02/02/2025 15:55:04,02/02/2025 16:04:36,572.063,
85,02/02/2025 17:28:13,02/02/2025 17:39:34,681.863,
86,02/02/2025 19:03:59,02/02/2025 19:09:28,329.325,
87,02/03/2025 15:36:56,02/03/2025 15:44:53,476.728,
88,02/03/2025 17:09:26,02/03/2025 17:21:00,693.931,
89,02/03/2025 18:44:28,02/03/2025 18:52:08,459.966,
90,02/04/2025 15:19:19,02/04/2025 15:24:34,315.575,
91,02/04/2025 16:50:44,02/04/2025 17:02:15,690.902,
92,02/04/2025 18:25:16,02/04/2025 18:34:24,547.943,
93,02/05/2025 16:32:08,02/05/2025 16:43:20,671.732,
94,02/05/2025 18:06:13,02/05/2025 18:16:24,610.616,
95,02/06/2025 16:13:38,02/06/2025 16:24:12,634.011,
96,02/06/2025 17:47:17,02/06/2025 17:58:11,654.247,
97,02/07/2025 15:55:17,02/07/2025 16:04:49,572.952,
98,02/07/2025 17:28:26,02/07/2025 17:39:47,681.632,
99,02/07/2025 19:04:13,02/07/2025 19:09:40,327.36,
100,02/08/2025 15:37:09,02/08/2025 15:45:07,478.122,
101,02/08/2025 17:09:39,02/08/2025 17:21:13,693.877,
102,02/08/2025 18:44:42,02/08/2025 18:52:21,458.735,
103,02/09/2025 15:19:31,02/09/2025 15:24:49,318.21,
104,02/09/2025 16:50:58,02/09/2025 17:02:29,691.028,
105,02/09/2025 18:25:30,02/09/2025 18:34:37,547.073,
106,02/10/2025 16:32:21,02/10/2025 16:43:33,672.059,
107,02/10/2025 18:06:27,02/10/2025 18:16:37,609.997,
108,02/11/2025 16:13:51,02/11/2025 16:24:25,634.579,
109,02/11/2025 17:47:30,02/11/2025 17:58:24,653.832,
110,02/12/2025 15:55:29,02/12/2025 16:05:03,573.838,
111,02/12/2025 17:28:39,02/12/2025 17:40:00,681.399,
112,02/12/2025 19:04:27,02/12/2025 19:09:52,325.377,
113,02/13/2025 15:37:22,02/13/2025 15:45:21,479.513,
114,02/13/2025 17:09:53,02/13/2025 17:21:26,693.826,
115,02/13/2025 18:44:56,02/13/2025 18:52:33,457.493,
116,02/14/2025 15:19:43,02/14/2025 15:25:04,320.821,
117,02/14/2025 16:51:11,02/14/2025 17:02:42,691.157,
118,02/14/2025 18:25:43,02/14/2025 18:34:49,546.2,
119,02/15/2025 16:32:34,02/15/2025 16:43:47,672.384,
120,02/15/2025 18:06:40,02/15/2025 18:16:49,609.376,
121,02/16/2025 16:14:04,02/16/2025 16:24:39,635.142,
122,02/16/2025 17:47:44,02/16/2025 17:58:37,653.414,
123,02/17/2025 15:55:42,02/17/2025 16:05:17,574.717,
124,02/17/2025 17:28:52,02/17/2025 17:40:14,681.164,
125,02/17/2025 19:04:41,02/17/2025 19:10:04,323.384,
126,02/18/2025 15:37:34,02/18/2025 15:45:35,480.891,
127,02/18/2025 17:10:06,02/18/2025 17:21:40,693.767,
128,02/18/2025 18:45:09,02/18/2025 18:52:46,456.251,
129,02/19/2025 15:19:55,02/19/2025 15:25:18,323.392,
130,02/19/2025 16:51:24,02/19/2025 17:02:55,691.279,
131,02/19/2025 18:25:57,02/19/2025 18:35:02,545.325,
132,02/20/2025 16:32:47,02/20/2025 16:44:00,672.705,
133,02/20/2025 18:06:53,02/20/2025 18:17:02,608.753,
134,02/21/2025 16:14:17,02/21/2025 16:24:53,635.701,
135,02/21/2025 17:47:57,02/21/2025 17:58:50,652.995,
136,02/22/2025 15:55:55,02/22/2025 16:05:31,575.592,
137,02/22/2025 17:29:06,02/22/2025 17:40:27,680.928,
138,02/22/2025 19:04:55,02/22/2025 19:10:16,321.376,
139,02/23/2025 15:37:47,02/23/2025 15:45:49,482.262,
140,02/23/2025 17:10:19,02/23/2025 17:21:53,693.705,
141,02/23/2025 18:45:23,02/23/2025 18:52:58,455.004,
142,02/24/2025 15:20:07,02/24/2025 15:25:33,325.942,
143,02/24/2025 16:51:37,02/24/2025 17:03:08,691.398,
144,02/24/2025 18:26:10,02/24/2025 18:35:14,544.445,
145,02/25/2025 16:33:00,02/25/2025 16:44:13,673.023,
146,02/25/2025 18:07:07,02/25/2025 18:17:15,608.126,
147,02/26/2025 16:14:30,02/26/2025 16:25:06,636.258,
148,02/26/2025 17:48:10,02/26/2025 17:59:03,652.573,
149,02/27/2025 15:56:08,02/27/2025 16:05:44,576.463,
150,02/27/2025 17:29:19,02/27/2025 17:40:40,680.688,
151,02/27/2025 19:05:09,02/27/2025 19:10:28,319.35,
152,02/28/2025 15:38:00,02/28/2025 15:46:03,483.626,
153,02/28/2025 17:10:32,02/28/2025 17:22:06,693.642,
154,02/28/2025 18:45:37,02/28/2025 18:53:10,453.749,
155,03/01/2025 15:20:19,03/01/2025 15:25:48,328.469,
156,03/01/2025 16:51:50,03/01/2025 17:03:22,691.515,
157,03/01/2025 18:26:23,03/01/2025 18:35:27,543.562,
158,03/02/2025 16:33:13,03/02/2025 16:44:27,673.339,
159,03/02/2025 18:07:20,03/02/2025 18:17:28,607.498,
160,03/03/2025 16:14:43,03/03/2025 16:25:20,636.811,
161,03/03/2025 17:48:24,03/03/2025 17:59:16,652.15,
162,03/04/2025 15:56:21,03/04/2025 16:05:58,577.328,
163,03/04/2025 17:29:32,03/04/2025 17:40:53,680.448,
164,03/04/2025 19:05:23,03/04/2025 19:10:40,317.314,
165,03/05/2025 15:38:12,03/05/2025 15:46:17,484.98,
166,03/05/2025 17:10:45,03/05/2025 17:22:19,693.576,
167,03/05/2025 18:45:50,03/05/2025 18:53:23,452.493,
168,03/06/2025 15:20:31,03/06/2025 15:26:02,330.966,
169,03/06/2025 16:52:03,03/06/2025 17:03:35,691.63,
170,03/06/2025 18:26:37,03/06/2025 18:35:40,542.678,
171,03/07/2025 16:33:26,03/07/2025 16:44:40,673.652,
172,03/07/2025 18:07:34,03/07/2025 18:17:40,606.868,
173,03/08/2025 16:14:56,03/08/2025 16:25:33,637.361,
174,03/08/2025 17:48:37,03/08/2025 17:59:29,651.724,
175,03/09/2025 15:56:34,03/09/2025 16:06:12,578.189,
176,03/09/2025 17:29:45,03/09/2025 17:41:06,680.204,
177,03/09/2025 19:05:37,03/09/2025 19:10:52,315.261,
178,03/10/2025 15:38:25,03/10/2025 15:46:31,486.327,
179,03/10/2025 17:10:59,03/10/2025 17:22:32,693.509,
180,03/10/2025 18:46:04,03/10/2025 18:53:35,451.228,
181,03/11/2025 15:20:43,03/11/2025 15:26:17,333.441,
182,03/11/2025 16:52:16,03/11/2025 17:03:48,691.743,
183,03/11/2025 18:26:50,03/11/2025 18:35:52,541.788,
184,03/12/2025 16:33:40,03/12/2025 16:44:54,673.964,
185,03/12/2025 18:07:47,03/12/2025 18:17:53,606.234,
186,03/13/2025 16:15:09,03/13/2025 16:25:47,637.908,
187,03/13/2025 17:48:50,03/13/2025 17:59:41,651.296,
188,03/14/2025 15:56:47,03/14/2025 16:06:26,579.046,
189,03/14/2025 17:29:59,03/14/2025 17:41:19,679.959,
190,03/14/2025 19:05:51,03/14/2025 19:11:04,313.19,
191,03/15/2025 15:38:38,03/15/2025 15:46:45,487.666,
192,03/15/2025 17:11:12,03/15/2025 17:22:45,693.439,
193,03/15/2025 18:46:17,03/15/2025 18:53:47,449.959,
194,03/16/2025 15:20:56,03/16/2025 15:26:31,335.885,
195,03/16/2025 16:52:30,03/16/2025 17:04:01,691.853,
196,03/16/2025 18:27:04,03/16/2025 18:36:05,540.896,
197,03/17/2025 16:33:53,03/17/2025 16:45:07,674.272,
198,03/17/2025 18:08:00,03/17/2025 18:18:06,605.599,
199,03/18/2025 16:15:22,03/18/2025 16:26:00,638.451,
200,03/18/2025 17:49:04,03/18/2025 17:59:54,650.867,
201,03/19/2025 15:57:00,03/19/2025 16:06:39,579.891,
202,03/19/2025 17:30:12,03/19/2025 17:41:32,679.712,
203,03/19/2025 19:06:05,03/19/2025 19:11:16,311.113,
204,03/20/2025 15:38:50,03/20/2025 15:46:59,488.994,
205,03/20/2025 17:11:25,03/20/2025 17:22:58,693.367,
206,03/20/2025 18:46:31,03/20/2025 18:54:00,448.69,
207,03/21/2025 15:21:08,03/21/2025 15:26:46,338.304,
208,03/21/2025 16:52:43,03/21/2025 17:04:15,691.957,
209,03/21/2025 18:27:17,03/21/2025 18:36:17,539.998,
210,03/22/2025 16:34:06,03/22/2025 16:45:20,674.577,
211,03/22/2025 18:08:14,03/22/2025 18:18:19,604.962,
212,03/23/2025 16:15:35,03/23/2025 16:26:14,638.991,
213,03/23/2025 17:49:17,03/23/2025 18:00:07,650.435,
214,03/24/2025 15:57:12,03/24/2025 16:06:53,580.739,
215,03/24/2025 17:30:25,03/24/2025 17:41:45,679.463,
216,03/24/2025 19:06:19,03/24/2025 19:11:28,309.013,
217,03/25/2025 15:39:03,03/25/2025 15:47:13,490.317,
218,03/25/2025 17:11:38,03/25/2025 17:23:12,693.293,
219,03/25/2025 18:46:45,03/25/2025 18:54:12,447.41,
220,03/26/2025 15:21:20,03/26/2025 15:27:01,340.704,
221,03/26/2025 16:52:56,03/26/2025 17:04:28,692.068,
222,03/26/2025 18:27:31,03/26/2025 18:36:30,539.103,
223,03/27/2025 16:34:19,03/27/2025 16:45:34,674.88,
224,03/27/2025 18:08:27,03/27/2025 18:18:31,604.32,
225,03/28/2025 16:15:48,03/28/2025 16:26:27,639.526,
226,03/28/2025 17:49:30,03/28/2025 18:00:20,650,
227,03/29/2025 15:57:25,03/29/2025 16:07:07,581.582,
228,03/29/2025 17:30:38,03/29/2025 17:41:58,679.212,
229,03/29/2025 19:06:33,03/29/2025 19:11:39,306.895,
230,03/30/2025 15:39:16,03/30/2025 15:47:27,491.632,
231,03/30/2025 17:11:51,03/30/2025 17:23:25,693.218,
232,03/30/2025 18:46:58,03/30/2025 18:54:24,446.125,
233,03/31/2025 15:21:32,03/31/2025 15:27:15,343.08,
234,03/31/2025 16:53:09,03/31/2025 17:04:41,692.171,
235,03/31/2025 18:27:44,03/31/2025 18:36:43,538.202,
236,04/01/2025 16:34:32,04/01/2025 16:45:47,675.183,
237,04/01/2025 18:08:41,04/01/2025 18:18:44,603.678,
238,04/02/2025 16:16:01,04/02/2025 16:26:41,640.061,
239,04/02/2025 17:49:43,04/02/2025 18:00:33,649.565,
240,04/03/2025 15:57:38,04/03/2025 16:07:21,582.419,
241,04/03/2025 17:30:52,04/03/2025 17:42:11,678.959,
242,04/03/2025 19:06:47,04/03/2025 19:11:51,304.764,
243,04/04/2025 15:39:28,04/04/2025 15:47:41,492.938,
244,04/04/2025 17:12:05,04/04/2025 17:23:38,693.14,
245,04/04/2025 18:47:12,04/04/2025 18:54:37,444.837,
246,04/05/2025 15:21:44,04/05/2025 15:27:30,345.433,
247,04/05/2025 16:53:22,04/05/2025 17:04:55,692.273,
248,04/05/2025 18:27:58,04/05/2025 18:36:55,537.298,
249,04/06/2025 16:34:45,04/06/2025 16:46:00,675.481,
250,04/06/2025 18:08:54,04/06/2025 18:18:57,603.032,
251,04/07/2025 16:16:14,04/07/2025 16:26:54,640.597,
252,04/07/2025 17:49:57,04/07/2025 18:00:46,649.134,
253,04/08/2025 15:57:51,04/08/2025 16:07:34,583.252,
254,04/08/2025 17:31:05,04/08/2025 17:42:24,678.704,
255,04/08/2025 19:07:01,04/08/2025 19:12:03,302.614,
256,04/09/2025 15:39:41,04/09/2025 15:47:55,494.234,
257,04/09/2025 17:12:18,04/09/2025 17:23:51,693.06,
258,04/09/2025 18:47:26,04/09/2025 18:54:49,443.54,
259,04/10/2025 15:21:57,04/10/2025 15:27:44,347.765,
260,04/10/2025 16:53:35,04/10/2025 17:05:08,692.372,
261,04/10/2025 18:28:11,04/10/2025 18:37:08,536.39,
262,04/11/2025 16:34:58,04/11/2025 16:46:14,675.777,
263,04/11/2025 18:09:07,04/11/2025 18:19:10,602.384,
264,04/12/2025 16:16:27,04/12/2025 16:27:08,641.125,
265,04/12/2025 17:50:10,04/12/2025 18:00:59,648.693,
266,04/13/2025 15:58:04,04/13/2025 16:07:48,584.082,
267,04/13/2025 17:31:18,04/13/2025 17:42:37,678.447,
268,04/13/2025 19:07:15,04/13/2025 19:12:15,300.445,
269,04/14/2025 15:39:54,04/14/2025 15:48:09,495.526,
270,04/14/2025 17:12:31,04/14/2025 17:24:04,692.978,
271,04/14/2025 18:47:39,04/14/2025 18:55:01,442.24,
272,04/15/2025 15:22:09,04/15/2025 15:27:59,350.073,
273,04/15/2025 16:53:49,04/15/2025 17:05:21,692.468,
274,04/15/2025 18:28:25,04/15/2025 18:37:20,535.479,
275,04/16/2025 16:35:11,04/16/2025 16:46:27,676.068,
276,04/16/2025 18:09:21,04/16/2025 18:19:22,601.735,
277,04/17/2025 16:16:40,04/17/2025 16:27:22,641.643,
278,04/17/2025 17:50:23,04/17/2025 18:01:12,648.244,
279,04/18/2025 15:58:17,04/18/2025 16:08:02,584.905,
280,04/18/2025 17:31:31,04/18/2025 17:42:50,678.188,
281,04/18/2025 19:07:29,04/18/2025 19:12:27,298.261,
282,04/19/2025 15:40:06,04/19/2025 15:48:23,496.81,
283,04/19/2025 17:12:44,04/19/2025 17:24:17,692.895,
284,04/19/2025 18:47:53,04/19/2025 18:55:14,440.934,
285,04/20/2025 15:22:21,04/20/2025 15:28:13,352.36,
286,04/20/2025 16:54:02,04/20/2025 17:05:34,692.562,
287,04/20/2025 18:28:38,04/20/2025 18:37:33,534.563,
288,04/21/2025 16:35:24,04/21/2025 16:46:41,676.358,
289,04/21/2025 18:09:34,04/21/2025 18:19:35,601.082,
290,04/22/2025 16:16:53,04/22/2025 16:27:35,642.161,
291,04/22/2025 17:50:37,04/22/2025 18:01:25,647.802,
292,04/23/2025 15:58:30,04/23/2025 16:08:15,585.727,
293,04/23/2025 17:31:45,04/23/2025 17:43:03,677.926,
294,04/23/2025 19:07:43,04/23/2025 19:12:39,296.056,
295,04/24/2025 15:40:19,04/24/2025 15:48:37,498.09,
296,04/24/2025 17:12:57,04/24/2025 17:24:30,692.809,
297,04/24/2025 18:48:06,04/24/2025 18:55:26,439.62,
298,04/25/2025 15:22:33,04/25/2025 15:28:28,354.628,
299,04/25/2025 16:54:15,04/25/2025 17:05:48,692.651,
300,04/25/2025 18:28:52,04/25/2025 18:37:45,533.643,
301,04/26/2025 16:35:37,04/26/2025 16:46:54,676.646,
302,04/26/2025 18:09:47,04/26/2025 18:19:48,600.427,
303,04/27/2025 16:17:06,04/27/2025 16:27:49,642.68,
304,04/27/2025 17:50:50,04/27/2025 18:01:37,647.355,
305,04/28/2025 15:58:43,04/28/2025 16:08:29,586.543,
306,04/28/2025 17:31:58,04/28/2025 17:43:16,677.664,
307,04/28/2025 19:07:57,04/28/2025 19:12:51,293.835,
308,04/29/2025 15:40:32,04/29/2025 15:48:51,499.36,
309,04/29/2025 17:13:11,04/29/2025 17:24:43,692.719,
310,04/29/2025 18:48:20,04/29/2025 18:55:38,438.303,
311,04/30/2025 15:22:46,04/30/2025 15:28:42,356.87,
312,04/30/2025 16:54:28,04/30/2025 17:06:01,692.741,
313,04/30/2025 18:29:05,04/30/2025 18:37:58,532.724,
314,05/01/2025 16:35:50,05/01/2025 16:47:07,676.931,
315,05/01/2025 18:10:01,05/01/2025 18:20:01,599.77,
316,05/02/2025 16:17:19,05/02/2025 16:28:02,643.194,
317,05/02/2025 17:51:03,05/02/2025 18:01:50,646.907,
318,05/03/2025 15:58:56,05/03/2025 16:08:43,587.354,
319,05/03/2025 17:32:11,05/03/2025 17:43:29,677.398,
320,05/03/2025 19:08:11,05/03/2025 19:13:02,291.596,
321,05/04/2025 15:40:45,05/04/2025 15:49:05,500.625,
322,05/04/2025 17:13:24,05/04/2025 17:24:57,692.626,
323,05/04/2025 18:48:34,05/04/2025 18:55:51,436.977,
324,05/05/2025 15:22:58,05/05/2025 15:28:57,359.092,
325,05/05/2025 16:54:41,05/05/2025 17:06:14,692.829,
326,05/05/2025 18:29:19,05/05/2025 18:38:11,531.801,
327,05/06/2025 16:36:04,05/06/2025 16:47:21,677.214,
328,05/06/2025 18:10:14,05/06/2025 18:20:13,599.109,
329,05/07/2025 16:17:32,05/07/2025 16:28:16,643.704,
330,05/07/2025 17:51:17,05/07/2025 18:02:03,646.455,
331,05/08/2025 15:59:08,05/08/2025 16:08:57,588.163,
332,05/08/2025 17:32:25,05/08/2025 17:43:42,677.131,
333,05/08/2025 19:08:25,05/08/2025 19:13:14,289.332,
334,05/09/2025 15:40:57,05/09/2025 15:49:19,501.882,
335,05/09/2025 17:13:37,05/09/2025 17:25:10,692.539,
336,05/09/2025 18:48:47,05/09/2025 18:56:03,435.644,
337,05/10/2025 15:23:10,05/10/2025 15:29:11,361.299,
338,05/10/2025 16:54:54,05/10/2025 17:06:27,692.916,
339,05/10/2025 18:29:32,05/10/2025 18:38:23,530.872,
340,05/11/2025 16:36:17,05/11/2025 16:47:34,677.495,
341,05/11/2025 18:10:28,05/11/2025 18:20:26,598.446,
342,05/12/2025 16:17:45,05/12/2025 16:28:29,644.213,
343,05/12/2025 17:51:30,05/12/2025 18:02:16,646.002,
344,05/13/2025 15:59:21,05/13/2025 16:09:10,588.967,
345,05/13/2025 17:32:38,05/13/2025 17:43:55,676.862,
346,05/13/2025 19:08:39,05/13/2025 19:13:26,287.052,
347,05/14/2025 15:41:10,05/14/2025 15:49:33,503.13,
348,05/14/2025 17:13:50,05/14/2025 17:25:23,692.444,
349,05/14/2025 18:49:01,05/14/2025 18:56:15,434.308,
350,05/15/2025 15:23:22,05/15/2025 15:29:26,363.483,
351,05/15/2025 16:55:07,05/15/2025 17:06:40,693.008,
352,05/15/2025 18:29:46,05/15/2025 18:38:36,529.942,
353,05/16/2025 16:36:30,05/16/2025 16:47:47,677.773,
354,05/16/2025 18:10:41,05/16/2025 18:20:39,597.78,
355,05/17/2025 16:17:58,05/17/2025 16:28:43,644.726,
356,05/17/2025 17:51:43,05/17/2025 18:02:29,645.547,
357,05/18/2025 15:59:34,05/18/2025 16:09:24,589.764,
358,05/18/2025 17:32:51,05/18/2025 17:44:08,676.591,
359,05/18/2025 19:08:53,05/18/2025 19:13:38,284.751,
360,05/19/2025 15:41:23,05/19/2025 15:49:47,504.369,
361,05/19/2025 17:14:04,05/19/2025 17:25:36,692.349,
362,05/19/2025 18:49:15,05/19/2025 18:56:28,432.969,
363,05/20/2025 15:23:35,05/20/2025 15:29:40,365.657,
364,05/20/2025 16:55:21,05/20/2025 17:06:54,693.081,
365,05/20/2025 18:29:59,05/20/2025 18:38:48,529.002,
366,05/21/2025 16:36:43,05/21/2025 16:48:01,678.049,
367,05/21/2025 18:10:54,05/21/2025 18:20:52,597.112,
368,05/22/2025 16:18:11,05/22/2025 16:28:56,645.223,
369,05/22/2025 17:51:57,05/22/2025 18:02:42,645.088,
370,05/23/2025 15:59:47,05/23/2025 16:09:38,590.56,
371,05/23/2025 17:33:04,05/23/2025 17:44:21,676.317,
372,05/23/2025 19:09:07,05/23/2025 19:13:50,282.424,
373,05/24/2025 15:41:35,05/24/2025 15:50:01,505.605,
374,05/24/2025 17:14:17,05/24/2025 17:25:49,692.251,
375,05/24/2025 18:49:28,05/24/2025 18:56:40,431.618,
376,05/25/2025 15:23:47,05/25/2025 15:29:55,367.808,
377,05/25/2025 16:55:34,05/25/2025 17:07:07,693.163,
378,05/25/2025 18:30:13,05/25/2025 18:39:01,528.063,
379,05/26/2025 16:36:56,05/26/2025 16:48:14,678.322,
380,05/26/2025 18:11:08,05/26/2025 18:21:04,596.441,
381,05/27/2025 16:18:24,05/27/2025 16:29:10,645.723,
382,05/27/2025 17:52:10,05/27/2025 18:02:55,644.628,
383,05/28/2025 16:00:00,05/28/2025 16:09:51,591.349,
384,05/28/2025 17:33:18,05/28/2025 17:44:34,676.042,
385,05/28/2025 19:09:21,05/28/2025 19:14:01,280.081,
386,05/29/2025 15:41:48,05/29/2025 15:50:15,506.832,
387,05/29/2025 17:14:30,05/29/2025 17:26:02,692.151,
388,05/29/2025 18:49:42,05/29/2025 18:56:52,430.264,
389,05/30/2025 15:23:59,05/30/2025 15:30:09,369.938,
390,05/30/2025 16:55:47,05/30/2025 17:07:20,693.239,
391,05/30/2025 18:30:26,05/30/2025 18:39:13,527.124,
392,05/31/2025 16:37:09,05/31/2025 16:48:28,678.593,
393,05/31/2025 18:11:21,05/31/2025 18:21:17,595.768,
394,06/01/2025 16:18:37,06/01/2025 16:29:23,646.22,
395,06/01/2025 17:52:23,06/01/2025 18:03:08,644.165,
396,06/02/2025 16:00:13,06/02/2025 16:10:05,592.137,
397,06/02/2025 17:33:31,06/02/2025 17:44:47,675.764,
398,06/02/2025 19:09:35,06/02/2025 19:14:13,277.71,
399,06/03/2025 15:42:01,06/03/2025 15:50:29,508.055,
400,06/03/2025 17:14:43,06/03/2025 17:26:15,692.048,
401,06/03/2025 18:49:56,06/03/2025 18:57:05,428.9,
402,06/04/2025 15:24:12,06/04/2025 15:30:24,372.055,
403,06/04/2025 16:56:00,06/04/2025 17:07:33,693.315,
404,06/04/2025 18:30:40,06/04/2025 18:39:26,526.176,
405,06/05/2025 16:37:22,06/05/2025 16:48:41,678.861,
406,06/05/2025 18:11:35,06/05/2025 18:21:30,595.09,
407,06/06/2025 16:18:50,06/06/2025 16:29:37,646.716,
408,06/06/2025 17:52:37,06/06/2025 18:03:20,643.702,
409,06/07/2025 16:00:26,06/07/2025 16:10:19,592.925,
410,06/07/2025 17:33:44,06/07/2025 17:45:00,675.48,
411,06/07/2025 19:09:50,06/07/2025 19:14:25,275.314,
412,06/08/2025 15:42:14,06/08/2025 15:50:43,509.27,
413,06/08/2025 17:14:56,06/08/2025 17:26:28,691.944,
414,06/08/2025 18:50:09,06/08/2025 18:57:17,427.53,
415,06/09/2025 15:24:24,06/09/2025 15:30:38,374.153,
416,06/09/2025 16:56:13,06/09/2025 17:07:47,693.388,
417,06/09/2025 18:30:53,06/09/2025 18:39:38,525.225,
418,06/10/2025 16:37:35,06/10/2025 16:48:54,679.127,
419,06/10/2025 18:11:48,06/10/2025 18:21:42,594.411,
420,06/11/2025 16:19:03,06/11/2025 16:29:50,647.207,
421,06/11/2025 17:52:50,06/11/2025 18:03:33,643.234,
422,06/12/2025 16:00:39,06/12/2025 16:10:32,593.704,
423,06/12/2025 17:33:57,06/12/2025 17:45:13,675.198,
424,06/12/2025 19:10:04,06/12/2025 19:14:37,272.898,
425,06/13/2025 15:42:26,06/13/2025 15:50:57,510.479,
426,06/13/2025 17:15:10,06/13/2025 17:26:41,691.838,
427,06/13/2025 18:50:23,06/13/2025 18:57:29,426.152,
428,06/14/2025 15:24:36,06/14/2025 15:30:52,376.233,
429,06/14/2025 16:56:26,06/14/2025 17:08:00,693.468,
430,06/14/2025 18:31:07,06/14/2025 18:39:51,524.271,
431,06/15/2025 16:37:48,06/15/2025 16:49:08,679.391,
432,06/15/2025 18:12:01,06/15/2025 18:21:55,593.728,
433,06/16/2025 16:19:16,06/16/2025 16:30:04,647.695,
434,06/16/2025 17:53:03,06/16/2025 18:03:46,642.765,
435,06/17/2025 16:00:52,06/17/2025 16:10:46,594.478,
436,06/17/2025 17:34:11,06/17/2025 17:45:26,674.917,
437,06/17/2025 19:10:18,06/17/2025 19:14:48,270.455,
438,06/18/2025 15:42:39,06/18/2025 15:51:11,511.689,
439,06/18/2025 17:15:23,06/18/2025 17:26:55,691.721,
440,06/18/2025 18:50:37,06/18/2025 18:57:42,424.772,
441,06/19/2025 15:24:49,06/19/2025 15:31:07,378.3,
442,06/19/2025 16:56:40,06/19/2025 17:08:13,693.529,
443,06/19/2025 18:31:20,06/19/2025 18:40:03,523.311,
444,06/20/2025 16:38:01,06/20/2025 16:49:21,679.653,
445,06/20/2025 18:12:15,06/20/2025 18:22:08,593.042,
446,06/21/2025 16:19:29,06/21/2025 16:30:17,648.181,
447,06/21/2025 17:53:17,06/21/2025 18:03:59,642.292,
448,06/22/2025 16:01:05,06/22/2025 16:11:00,595.251,
449,06/22/2025 17:34:24,06/22/2025 17:45:39,674.63,
450,06/22/2025 19:10:32,06/22/2025 19:15:00,267.983,
451,06/23/2025 15:42:52,06/23/2025 15:51:25,512.881,
452,06/23/2025 17:15:36,06/23/2025 17:27:08,691.611,
453,06/23/2025 18:50:50,06/23/2025 18:57:54,423.381,
454,06/24/2025 15:25:01,06/24/2025 15:31:21,380.349,
455,06/24/2025 16:56:53,06/24/2025 17:08:26,693.596,
456,06/24/2025 18:31:34,06/24/2025 18:40:16,522.348,
457,06/25/2025 16:38:14,06/25/2025 16:49:34,679.908,
458,06/25/2025 18:12:28,06/25/2025 18:22:21,592.351,
459,06/26/2025 16:19:42,06/26/2025 16:30:31,648.663,
460,06/26/2025 17:53:30,06/26/2025 18:04:12,641.818,
461,06/27/2025 16:01:18,06/27/2025 16:11:14,596.02,
462,06/27/2025 17:34:37,06/27/2025 17:45:52,674.342,
463,06/27/2025 19:10:46,06/27/2025 19:15:12,265.491,
464,06/28/2025 15:43:05,06/28/2025 15:51:39,514.072,
465,06/28/2025 17:15:49,06/28/2025 17:27:21,691.498,
466,06/28/2025 18:51:04,06/28/2025 18:58:06,421.985,
467,06/29/2025 15:25:13,06/29/2025 15:31:36,382.382,
468,06/29/2025 16:57:06,06/29/2025 17:08:40,693.661,
469,06/29/2025 18:31:47,06/29/2025 18:40:29,521.38,
470,06/30/2025 16:38:28,06/30/2025 16:49:48,680.165,
471,06/30/2025 18:12:42,06/30/2025 18:22:33,591.658,
472,07/01/2025 16:19:55,07/01/2025 16:30:44,649.144,
473,07/01/2025 17:53:43,07/01/2025 18:04:25,641.341,
474,07/02/2025 16:01:30,07/02/2025 16:11:27,596.786,
475,07/02/2025 17:34:50,07/02/2025 17:46:05,674.05,
476,07/02/2025 19:11:00,07/02/2025 19:15:23,262.963,
477,07/03/2025 15:43:17,07/03/2025 15:51:53,515.259,
478,07/03/2025 17:16:02,07/03/2025 17:27:34,691.387,
479,07/03/2025 18:51:18,07/03/2025 18:58:18,420.572,
480,07/04/2025 15:25:26,07/04/2025 15:31:50,384.403,
481,07/04/2025 16:57:19,07/04/2025 17:08:53,693.724,
482,07/04/2025 18:32:01,07/04/2025 18:40:41,520.407,
483,07/05/2025 15:09:21,07/05/2025 15:09:54,33.431,
484,07/05/2025 16:38:41,07/05/2025 16:50:01,680.42,
485,07/05/2025 18:12:55,07/05/2025 18:22:46,590.968,
486,07/06/2025 16:20:08,07/06/2025 16:30:58,649.622,
487,07/06/2025 17:53:57,07/06/2025 18:04:37,640.861,
488,07/07/2025 16:01:43,07/07/2025 16:11:41,597.549,
489,07/07/2025 17:35:04,07/07/2025 17:46:18,673.757,
490,07/07/2025 19:11:15,07/07/2025 19:15:35,260.403,
491,07/08/2025 15:43:30,07/08/2025 15:52:06,516.442,
492,07/08/2025 17:16:16,07/08/2025 17:27:47,691.275,
493,07/08/2025 18:51:31,07/08/2025 18:58:31,419.159,
494,07/09/2025 15:25:38,07/09/2025 15:32:04,386.404,
495,07/09/2025 16:57:32,07/09/2025 17:09:06,693.785,
496,07/09/2025 18:32:14,07/09/2025 18:40:54,519.431,
497,07/10/2025 15:09:23,07/10/2025 15:10:18,54.877,
498,07/10/2025 16:38:54,07/10/2025 16:50:14,680.672,
499,07/10/2025 18:13:08,07/10/2025 18:22:59,590.267,
500,07/11/2025 16:20:21,07/11/2025 16:31:11,650.097,
501,07/11/2025 17:54:10,07/11/2025 18:04:50,640.382,
502,07/12/2025 16:01:56,07/12/2025 16:11:55,598.306,
503,07/12/2025 17:35:17,07/12/2025 17:46:30,673.462,
504,07/12/2025 19:11:29,07/12/2025 19:15:47,257.817,
505,07/13/2025 15:43:43,07/13/2025 15:52:20,517.615,
506,07/13/2025 17:16:29,07/13/2025 17:28:00,691.156,
507,07/13/2025 18:51:45,07/13/2025 18:58:43,417.739,
508,07/14/2025 15:25:50,07/14/2025 15:32:19,388.394,
509,07/14/2025 16:57:45,07/14/2025 17:09:19,693.844,
510,07/14/2025 18:32:28,07/14/2025 18:41:06,518.451,
511,07/15/2025 15:09:29,07/15/2025 15:10:39,70.027,
512,07/15/2025 16:39:07,07/15/2025 16:50:28,680.922,
513,07/15/2025 18:13:22,07/15/2025 18:23:11,589.568,
514,07/16/2025 16:20:34,07/16/2025 16:31:25,650.57,
515,07/16/2025 17:54:23,07/16/2025 18:05:03,639.897,
516,07/17/2025 16:02:09,07/17/2025 16:12:08,599.061,
517,07/17/2025 17:35:30,07/17/2025 17:46:43,673.164,
518,07/17/2025 19:11:43,07/17/2025 19:15:58,255.2,
519,07/18/2025 15:43:56,07/18/2025 15:52:34,518.783,
520,07/18/2025 17:16:42,07/18/2025 17:28:13,691.035,
521,07/18/2025 18:51:59,07/18/2025 18:58:55,416.307,
522,07/19/2025 15:26:03,07/19/2025 15:32:33,390.371,
523,07/19/2025 16:57:59,07/19/2025 17:09:32,693.901,
524,07/19/2025 18:32:41,07/19/2025 18:41:19,517.465,
525,07/20/2025 15:09:36,07/20/2025 15:10:59,82.421,
526,07/20/2025 16:39:20,07/20/2025 16:50:41,681.17,
527,07/20/2025 18:13:35,07/20/2025 18:23:24,588.863,
528,07/21/2025 16:20:47,07/21/2025 16:31:38,651.04,
529,07/21/2025 17:54:37,07/21/2025 18:05:16,639.41,
530,07/22/2025 16:02:22,07/22/2025 16:12:22,599.811,
531,07/22/2025 17:35:44,07/22/2025 17:46:56,672.865,
532,07/22/2025 19:11:57,07/22/2025 19:16:10,252.554,
533,07/23/2025 15:44:08,07/23/2025 15:52:48,519.945,
534,07/23/2025 17:16:55,07/23/2025 17:28:26,690.911,
535,07/23/2025 18:52:13,07/23/2025 18:59:07,414.871,
536,07/24/2025 15:26:15,07/24/2025 15:32:47,392.33,
537,07/24/2025 16:58:12,07/24/2025 17:09:46,693.955,
538,07/24/2025 18:32:55,07/24/2025 18:41:31,516.474,
539,07/25/2025 15:09:44,07/25/2025 15:11:18,93.151,
540,07/25/2025 16:39:33,07/25/2025 16:50:54,681.416,
541,07/25/2025 18:13:49,07/25/2025 18:23:37,588.156,
542,07/26/2025 16:21:00,07/26/2025 16:31:52,651.502,
543,07/26/2025 17:54:50,07/26/2025 18:05:29,638.92,
544,07/27/2025 16:02:35,07/27/2025 16:12:36,600.558,
545,07/27/2025 17:35:57,07/27/2025 17:47:09,672.564,
546,07/27/2025 19:12:12,07/27/2025 19:16:22,249.876,
547,07/28/2025 15:44:21,07/28/2025 15:53:02,521.101,
548,07/28/2025 17:17:09,07/28/2025 17:28:39,690.786,
549,07/28/2025 18:52:26,07/28/2025 18:59:20,413.426,
550,07/29/2025 15:26:28,07/29/2025 15:33:02,394.278,
551,07/29/2025 16:58:25,07/29/2025 17:09:59,694.008,
552,07/29/2025 18:33:08,07/29/2025 18:41:44,515.478,
553,07/30/2025 15:09:53,07/30/2025 15:11:36,102.762,
554,07/30/2025 16:39:46,07/30/2025 16:51:08,681.659,
555,07/30/2025 18:14:02,07/30/2025 18:23:49,587.445,
556,07/31/2025 16:21:13,07/31/2025 16:32:05,651.967,
557,07/31/2025 17:55:03,07/31/2025 18:05:42,638.428,
558,08/01/2025 16:02:48,08/01/2025 16:12:49,601.303,
559,08/01/2025 17:36:10,08/01/2025 17:47:22,672.259,
560,08/01/2025 19:12:26,08/01/2025 19:16:33,247.157,
561,08/02/2025 15:44:34,08/02/2025 15:53:16,522.253,
562,08/02/2025 17:17:22,08/02/2025 17:28:52,690.658,
563,08/02/2025 18:52:40,08/02/2025 18:59:32,411.97,
564,08/03/2025 15:26:40,08/03/2025 15:33:16,396.213,
565,08/03/2025 16:58:38,08/03/2025 17:10:12,694.058,
566,08/03/2025 18:33:22,08/03/2025 18:41:56,514.479,
567,08/04/2025 15:10:02,08/04/2025 15:11:54,111.532,
568,08/04/2025 16:39:59,08/04/2025 16:51:21,681.901,
569,08/04/2025 18:14:15,08/04/2025 18:24:02,586.73,
570,08/05/2025 16:21:26,08/05/2025 16:32:19,652.432,
571,08/05/2025 17:55:17,08/05/2025 18:05:55,637.933,
572,08/06/2025 16:03:01,08/06/2025 16:13:03,602.044,
573,08/06/2025 17:36:23,08/06/2025 17:47:35,671.953,
574,08/06/2025 19:12:40,08/06/2025 19:16:45,244.408,
575,08/07/2025 15:44:47,08/07/2025 15:53:30,523.397,
576,08/07/2025 17:17:35,08/07/2025 17:29:06,690.528,
577,08/07/2025 18:52:54,08/07/2025 18:59:44,410.508,
578,08/08/2025 15:26:52,08/08/2025 15:33:30,398.132,
579,08/08/2025 16:58:51,08/08/2025 17:10:25,694.107,
580,08/08/2025 18:33:35,08/08/2025 18:42:09,513.476,
581,08/09/2025 15:10:11,08/09/2025 15:12:11,119.636,
582,08/09/2025 16:40:12,08/09/2025 16:51:34,682.139,
583,08/09/2025 18:14:29,08/09/2025 18:24:15,586.016,
584,08/10/2025 16:21:39,08/10/2025 16:32:32,652.891,
585,08/10/2025 17:55:30,08/10/2025 18:06:07,637.435,
586,08/11/2025 16:03:14,08/11/2025 16:13:17,602.78,
587,08/11/2025 17:36:37,08/11/2025 17:47:48,671.645,
588,08/11/2025 19:12:55,08/11/2025 19:16:56,241.623,
589,08/12/2025 15:44:59,08/12/2025 15:53:44,524.537,
590,08/12/2025 17:17:48,08/12/2025 17:29:19,690.396,
591,08/12/2025 18:53:07,08/12/2025 18:59:56,409.037,
592,08/13/2025 15:27:05,08/13/2025 15:33:45,400.039,
593,08/13/2025 16:59:04,08/13/2025 17:10:39,694.153,
594,08/13/2025 18:33:49,08/13/2025 18:42:21,512.468,
595,08/14/2025 15:10:21,08/14/2025 15:12:28,127.222,
596,08/14/2025 16:40:25,08/14/2025 16:51:48,682.381,
597,08/14/2025 18:14:42,08/14/2025 18:24:28,585.3,
598,08/15/2025 16:21:52,08/15/2025 16:32:46,653.346,
599,08/15/2025 17:55:43,08/15/2025 18:06:20,636.931,
600,08/16/2025 16:03:27,08/16/2025 16:13:30,603.515,
601,08/16/2025 17:36:50,08/16/2025 17:48:01,671.334,
602,08/16/2025 19:13:09,08/16/2025 19:17:08,238.794,
603,08/17/2025 15:45:12,08/17/2025 15:53:58,525.673,
604,08/17/2025 17:18:01,08/17/2025 17:29:32,690.261,
605,08/17/2025 18:53:21,08/17/2025 19:00:09,407.556,
606,08/18/2025 15:27:17,08/18/2025 15:33:59,401.934,
607,08/18/2025 16:59:18,08/18/2025 17:10:52,694.198,
608,08/18/2025 18:34:02,08/18/2025 18:42:34,511.455,
609,08/19/2025 15:10:31,08/19/2025 15:12:45,134.372,
610,08/19/2025 16:40:39,08/19/2025 16:52:01,682.619,
611,08/19/2025 18:14:56,08/19/2025 18:24:40,584.577,
612,08/20/2025 16:22:05,08/20/2025 16:32:59,653.801,
613,08/20/2025 17:55:57,08/20/2025 18:06:33,636.429,
614,08/21/2025 16:03:40,08/21/2025 16:13:44,604.244,
615,08/21/2025 17:37:03,08/21/2025 17:48:14,671.021,
616,08/21/2025 19:13:23,08/21/2025 19:17:19,235.933,
617,08/22/2025 15:45:25,08/22/2025 15:54:12,526.8,
618,08/22/2025 17:18:15,08/22/2025 17:29:45,690.126,
619,08/22/2025 18:53:35,08/22/2025 19:00:21,406.074,
620,08/23/2025 15:27:30,08/23/2025 15:34:13,403.809,
621,08/23/2025 16:59:31,08/23/2025 17:11:05,694.24,
622,08/23/2025 18:34:16,08/23/2025 18:42:46,510.439,
623,08/24/2025 15:10:41,08/24/2025 15:13:02,141.137,
624,08/24/2025 16:40:52,08/24/2025 16:52:15,682.851,
625,08/24/2025 18:15:09,08/24/2025 18:24:53,583.851,
626,08/25/2025 16:22:18,08/25/2025 16:33:13,654.253,
627,08/25/2025 17:56:10,08/25/2025 18:06:46,635.923,
628,08/26/2025 16:03:53,08/26/2025 16:13:57,604.971,
629,08/26/2025 17:37:17,08/26/2025 17:48:27,670.705,
630,08/26/2025 19:13:38,08/26/2025 19:17:31,233.028,
631,08/27/2025 15:45:38,08/27/2025 15:54:25,527.925,
632,08/27/2025 17:18:28,08/27/2025 17:29:58,689.99,
633,08/27/2025 18:53:49,08/27/2025 19:00:33,404.575,
634,08/28/2025 15:27:42,08/28/2025 15:34:28,405.679,
635,08/28/2025 16:59:44,08/28/2025 17:11:18,694.281,
636,08/28/2025 18:34:29,08/28/2025 18:42:59,509.417,
637,08/29/2025 15:10:51,08/29/2025 15:13:19,147.594,
638,08/29/2025 16:41:05,08/29/2025 16:52:28,683.082,
639,08/29/2025 18:15:23,08/29/2025 18:25:06,583.12,
640,08/30/2025 16:22:31,08/30/2025 16:33:26,654.702,
641,08/30/2025 17:56:23,08/30/2025 18:06:59,635.414,
642,08/31/2025 16:04:05,08/31/2025 16:14:11,605.696,
643,08/31/2025 17:37:30,08/31/2025 17:48:40,670.387,
644,08/31/2025 19:13:52,08/31/2025 19:17:42,230.076,
645,09/01/2025 15:45:50,09/01/2025 15:54:39,529.044,
646,09/01/2025 17:18:41,09/01/2025 17:30:11,689.849,
647,09/01/2025 18:54:02,09/01/2025 19:00:45,403.067,
648,09/02/2025 15:27:54,09/02/2025 15:34:42,407.536,
649,09/02/2025 16:59:57,09/02/2025 17:11:31,694.319,
650,09/02/2025 18:34:43,09/02/2025 18:43:11,508.389,
651,09/03/2025 15:11:01,09/03/2025 15:13:35,153.76,
652,09/03/2025 16:41:18,09/03/2025 16:52:41,683.31,
653,09/03/2025 18:15:36,09/03/2025 18:25:18,582.386,
654,09/04/2025 16:22:44,09/04/2025 16:33:40,655.148,
655,09/04/2025 17:56:37,09/04/2025 18:07:12,634.904,
656,09/05/2025 16:04:18,09/05/2025 16:14:25,606.416,
657,09/05/2025 17:37:43,09/05/2025 17:48:53,670.069,
658,09/05/2025 19:14:07,09/05/2025 19:17:54,227.09,
659,09/06/2025 15:46:03,09/06/2025 15:54:53,530.153,
660,09/06/2025 17:18:54,09/06/2025 17:30:24,689.707,
661,09/06/2025 18:54:16,09/06/2025 19:00:58,401.549,
662,09/07/2025 15:28:07,09/07/2025 15:34:56,409.378,
663,09/07/2025 17:00:10,09/07/2025 17:11:45,694.353,
664,09/07/2025 18:34:56,09/07/2025 18:43:24,507.36,
665,09/08/2025 15:11:12,09/08/2025 15:13:51,159.679,
666,09/08/2025 16:41:31,09/08/2025 16:52:55,683.535,
667,09/08/2025 18:15:49,09/08/2025 18:25:31,581.649,
668,09/09/2025 16:22:57,09/09/2025 16:33:53,655.591,
669,09/09/2025 17:56:50,09/09/2025 18:07:24,634.39,
670,09/10/2025 16:04:31,09/10/2025 16:14:38,607.133,
671,09/10/2025 17:37:56,09/10/2025 17:49:06,669.746,
672,09/10/2025 19:14:21,09/10/2025 19:18:05,224.052,
673,09/11/2025 15:46:16,09/11/2025 15:55:07,531.262,
674,09/11/2025 17:19:08,09/11/2025 17:30:37,689.563,
675,09/11/2025 18:54:30,09/11/2025 19:01:10,400.024,
676,09/12/2025 15:28:19,09/12/2025 15:35:11,411.211,
677,09/12/2025 17:00:23,09/12/2025 17:11:58,694.387,
678,09/12/2025 18:35:10,09/12/2025 18:43:36,506.322,
679,09/13/2025 15:11:22,09/13/2025 15:14:08,165.384,
680,09/13/2025 16:41:44,09/13/2025 16:53:08,683.759,
681,09/13/2025 18:16:03,09/13/2025 18:25:44,580.908,
682,09/14/2025 16:23:11,09/14/2025 16:34:07,656.032,
683,09/14/2025 17:57:03,09/14/2025 18:07:37,633.874,
684,09/15/2025 16:04:44,09/15/2025 16:14:52,607.847,
685,09/15/2025 17:38:10,09/15/2025 17:49:19,669.421,
686,09/15/2025 19:14:36,09/15/2025 19:18:16,220.965,
687,09/16/2025 15:46:29,09/16/2025 15:55:21,532.365,
688,09/16/2025 17:19:21,09/16/2025 17:30:50,689.417,
689,09/16/2025 18:54:43,09/16/2025 19:01:22,398.488,
690,09/17/2025 15:28:32,09/17/2025 15:35:25,413.03,
691,09/17/2025 17:00:37,09/17/2025 17:12:11,694.419,
692,09/17/2025 18:35:23,09/17/2025 18:43:49,505.281,
693,09/18/2025 15:11:33,09/18/2025 15:14:24,170.878,
694,09/18/2025 16:41:57,09/18/2025 16:53:21,683.98,
695,09/18/2025 18:16:16,09/18/2025 18:25:56,580.165,
696,09/19/2025 16:23:24,09/19/2025 16:34:20,656.47,
697,09/19/2025 17:57:17,09/19/2025 18:07:50,633.358,
698,09/20/2025 16:04:57,09/20/2025 16:15:06,608.556,
699,09/20/2025 17:38:23,09/20/2025 17:49:32,669.093,
700,09/20/2025 19:14:50,09/20/2025 19:18:28,217.835,
701,09/21/2025 15:46:41,09/21/2025 15:55:35,533.462,
702,09/21/2025 17:19:34,09/21/2025 17:31:03,689.269,
703,09/21/2025 18:54:57,09/21/2025 19:01:34,396.946,
704,09/22/2025 15:28:44,09/22/2025 15:35:39,414.836,
705,09/22/2025 17:00:50,09/22/2025 17:12:24,694.449,
706,09/22/2025 18:35:37,09/22/2025 18:44:01,504.235,
707,09/23/2025 15:11:44,09/23/2025 15:14:40,176.193,
708,09/23/2025 16:42:10,09/23/2025 16:53:35,684.198,
709,09/23/2025 18:16:30,09/23/2025 18:26:09,579.418,
710,09/24/2025 16:23:37,09/24/2025 16:34:33,656.906,
711,09/24/2025 17:57:30,09/24/2025 18:08:03,632.837,
712,09/25/2025 16:05:10,09/25/2025 16:15:19,609.263,
713,09/25/2025 17:38:36,09/25/2025 17:49:45,668.766,
714,09/25/2025 19:15:05,09/25/2025 19:18:39,214.646,
715,09/26/2025 15:46:54,09/26/2025 15:55:49,534.559,
716,09/26/2025 17:19:47,09/26/2025 17:31:16,689.117,
717,09/26/2025 18:55:11,09/26/2025 19:01:46,395.393,
718,09/27/2025 15:28:57,09/27/2025 15:35:53,416.633,
719,09/27/2025 17:01:03,09/27/2025 17:12:37,694.477,
720,09/27/2025 18:35:51,09/27/2025 18:44:14,503.183,
721,09/28/2025 15:11:55,09/28/2025 15:14:56,181.347,
722,09/28/2025 16:42:23,09/28/2025 16:53:48,684.415,
723,09/28/2025 18:16:43,09/28/2025 18:26:22,578.665,
724,09/29/2025 16:23:50,09/29/2025 16:34:47,657.339,
725,09/29/2025 17:57:43,09/29/2025 18:08:16,632.309,
726,09/30/2025 16:05:23,09/30/2025 16:15:33,609.967,
727,09/30/2025 17:38:49,09/30/2025 17:49:58,668.434,
728,09/30/2025 19:15:19,09/30/2025 19:18:51,211.406,
729,10/01/2025 15:47:07,10/01/2025 15:56:03,535.65,
730,10/01/2025 17:20:00,10/01/2025 17:31:29,688.96,
731,10/01/2025 18:55:25,10/01/2025 19:01:59,393.838,
732,10/02/2025 15:29:09,10/02/2025 15:36:08,418.416,
733,10/02/2025 17:01:16,10/02/2025 17:12:51,694.501,
734,10/02/2025 18:36:04,10/02/2025 18:44:26,502.127,
735,10/03/2025 15:12:05,10/03/2025 15:15:12,186.346,
736,10/03/2025 16:42:37,10/03/2025 16:54:01,684.626,
737,10/03/2025 18:16:56,10/03/2025 18:26:34,577.91,
738,10/04/2025 16:24:03,10/04/2025 16:35:00,657.769,
739,10/04/2025 17:57:57,10/04/2025 18:08:29,631.781,
740,10/05/2025 16:05:36,10/05/2025 16:15:47,610.664,
741,10/05/2025 17:39:03,10/05/2025 17:50:11,668.1,
742,10/05/2025 19:15:34,10/05/2025 19:19:02,208.117,
743,10/06/2025 15:47:20,10/06/2025 15:56:16,536.723,
744,10/06/2025 17:20:14,10/06/2025 17:31:43,688.81,
745,10/06/2025 18:55:38,10/06/2025 19:02:11,392.262,
746,10/07/2025 15:29:22,10/07/2025 15:36:22,420.187,
747,10/07/2025 17:01:29,10/07/2025 17:13:04,694.525,
748,10/07/2025 18:36:18,10/07/2025 18:44:39,501.067,
749,10/08/2025 15:12:16,10/08/2025 15:15:28,191.205,
750,10/08/2025 16:42:50,10/08/2025 16:54:14,684.838,
751,10/08/2025 18:17:10,10/08/2025 18:26:47,577.152,
752,10/09/2025 16:24:16,10/09/2025 16:35:14,658.197,
753,10/09/2025 17:58:10,10/09/2025 18:08:41,631.256,
754,10/10/2025 16:05:49,10/10/2025 16:16:00,611.361,
755,10/10/2025 17:39:16,10/10/2025 17:50:24,667.764,
756,10/10/2025 19:15:48,10/10/2025 19:19:13,204.76,
757,10/11/2025 15:47:33,10/11/2025 15:56:30,537.808,
758,10/11/2025 17:20:27,10/11/2025 17:31:56,688.651,
759,10/11/2025 18:55:52,10/11/2025 19:02:23,390.687,
760,10/12/2025 15:29:34,10/12/2025 15:36:36,421.949,
761,10/12/2025 17:01:42,10/12/2025 17:13:17,694.546,
762,10/12/2025 18:36:31,10/12/2025 18:44:51,500.001,
763,10/13/2025 15:12:27,10/13/2025 15:15:43,195.937,
764,10/13/2025 16:43:03,10/13/2025 16:54:28,685.048,
765,10/13/2025 18:17:23,10/13/2025 18:27:00,576.396,
766,10/14/2025 16:24:29,10/14/2025 16:35:27,658.617,
767,10/14/2025 17:58:23,10/14/2025 18:08:54,630.724,
768,10/15/2025 16:06:02,10/15/2025 16:16:14,612.053,
769,10/15/2025 17:39:29,10/15/2025 17:50:37,667.425,
770,10/15/2025 19:16:03,10/15/2025 19:19:24,201.348,
771,10/16/2025 15:47:45,10/16/2025 15:56:44,538.879,
772,10/16/2025 17:20:40,10/16/2025 17:32:09,688.492,
773,10/16/2025 18:56:06,10/16/2025 19:02:35,389.1,
774,10/17/2025 15:29:47,10/17/2025 15:36:50,423.696,
775,10/17/2025 17:01:56,10/17/2025 17:13:30,694.565,
776,10/17/2025 18:36:45,10/17/2025 18:45:04,498.933,
777,10/18/2025 15:12:39,10/18/2025 15:15:59,200.54,
778,10/18/2025 16:43:16,10/18/2025 16:54:41,685.255,
779,10/18/2025 18:17:37,10/18/2025 18:27:12,575.633,
780,10/19/2025 16:24:42,10/19/2025 16:35:41,659.044,
781,10/19/2025 17:58:37,10/19/2025 18:09:07,630.189,
782,10/20/2025 16:06:15,10/20/2025 16:16:28,612.742,
783,10/20/2025 17:39:43,10/20/2025 17:50:50,667.085,
784,10/20/2025 19:16:18,10/20/2025 19:19:35,197.875,
785,10/21/2025 15:47:58,10/21/2025 15:56:58,539.944,
786,10/21/2025 17:20:53,10/21/2025 17:32:22,688.331,
787,10/21/2025 18:56:20,10/21/2025 19:02:47,387.503,
788,10/22/2025 15:29:59,10/22/2025 15:37:05,425.433,
789,10/22/2025 17:02:09,10/22/2025 17:13:43,694.582,
790,10/22/2025 18:36:58,10/22/2025 18:45:16,497.859,
791,10/23/2025 15:12:50,10/23/2025 15:16:15,205.037,
792,10/23/2025 16:43:29,10/23/2025 16:54:54,685.46,
793,10/23/2025 18:17:50,10/23/2025 18:27:25,574.866,
794,10/24/2025 16:24:55,10/24/2025 16:35:54,659.461,
795,10/24/2025 17:58:50,10/24/2025 18:09:20,629.651,
796,10/25/2025 16:06:28,10/25/2025 16:16:41,613.429,
797,10/25/2025 17:39:56,10/25/2025 17:51:03,666.741,
798,10/25/2025 19:16:32,10/25/2025 19:19:47,194.328,
799,10/26/2025 15:48:11,10/26/2025 15:57:12,541.005,
800,10/26/2025 17:21:07,10/26/2025 17:32:35,688.168,
801,10/26/2025 18:56:34,10/26/2025 19:02:59,385.894,
802,10/27/2025 15:30:12,10/27/2025 15:37:19,427.159,
803,10/27/2025 17:02:22,10/27/2025 17:13:57,694.596,
804,10/27/2025 18:37:12,10/27/2025 18:45:29,496.776,
805,10/28/2025 15:13:01,10/28/2025 15:16:30,209.426,
806,10/28/2025 16:43:42,10/28/2025 16:55:08,685.663,
807,10/28/2025 18:18:04,10/28/2025 18:27:38,574.096,
808,10/29/2025 16:25:08,10/29/2025 16:36:08,659.877,
809,10/29/2025 17:59:04,10/29/2025 18:09:33,629.111,
810,10/30/2025 16:06:41,10/30/2025 16:16:55,614.111,
811,10/30/2025 17:40:09,10/30/2025 17:51:16,666.396,
812,10/30/2025 19:16:47,10/30/2025 19:19:58,190.717,
813,10/31/2025 15:48:24,10/31/2025 15:57:26,542.058,
814,10/31/2025 17:21:20,10/31/2025 17:32:48,687.999,
815,10/31/2025 18:56:47,10/31/2025 19:03:12,384.279,
816,11/01/2025 15:30:24,11/01/2025 15:37:33,428.871,
817,11/01/2025 17:02:35,11/01/2025 17:14:10,694.609,
818,11/01/2025 18:37:25,11/01/2025 18:45:41,495.696,
819,11/02/2025 15:13:12,11/02/2025 15:16:46,213.707,
820,11/02/2025 16:43:55,11/02/2025 16:55:21,685.863,
821,11/02/2025 18:18:17,11/02/2025 18:27:50,573.323,
822,11/03/2025 16:25:21,11/03/2025 16:36:21,660.291,
823,11/03/2025 17:59:17,11/03/2025 18:09:45,628.568,
824,11/04/2025 16:06:54,11/04/2025 16:17:08,614.789,
825,11/04/2025 17:40:23,11/04/2025 17:51:29,666.052,
826,11/04/2025 19:17:02,11/04/2025 19:20:09,187.036,
827,11/05/2025 15:48:37,11/05/2025 15:57:40,543.107,
828,11/05/2025 17:21:33,11/05/2025 17:33:01,687.832,
829,11/05/2025 18:57:01,11/05/2025 19:03:24,382.654,
830,11/06/2025 15:30:37,11/06/2025 15:37:47,430.574,
831,11/06/2025 17:02:48,11/06/2025 17:14:23,694.62,
832,11/06/2025 18:37:39,11/06/2025 18:45:54,494.608,
833,11/07/2025 15:13:23,11/07/2025 15:17:01,217.905,
834,11/07/2025 16:44:08,11/07/2025 16:55:34,686.061,
835,11/07/2025 18:18:31,11/07/2025 18:28:03,572.546,
836,11/08/2025 16:25:34,11/08/2025 16:36:35,660.702,
837,11/08/2025 17:59:30,11/08/2025 18:09:58,628.022,
838,11/09/2025 16:07:07,11/09/2025 16:17:22,615.465,
839,11/09/2025 17:40:36,11/09/2025 17:51:42,665.702,
840,11/09/2025 19:17:17,11/09/2025 19:20:20,183.267,
841,11/10/2025 15:48:49,11/10/2025 15:57:53,544.152,
842,11/10/2025 17:21:46,11/10/2025 17:33:14,687.662,
843,11/10/2025 18:57:15,11/10/2025 19:03:36,381.018,
844,11/11/2025 15:30:49,11/11/2025 15:38:01,432.265,
845,11/11/2025 17:03:02,11/11/2025 17:14:36,694.628,
846,11/11/2025 18:37:52,11/11/2025 18:46:06,493.515,
847,11/12/2025 15:13:35,11/12/2025 15:17:17,222.009,
848,11/12/2025 16:44:22,11/12/2025 16:55:48,686.257,
849,11/12/2025 18:18:44,11/12/2025 18:28:16,571.767,
850,11/13/2025 16:25:47,11/13/2025 16:36:48,661.111,
851,11/13/2025 17:59:44,11/13/2025 18:10:11,627.478,
852,11/14/2025 16:07:20,11/14/2025 16:17:36,616.135,
853,11/14/2025 17:40:49,11/14/2025 17:51:54,665.351,
854,11/14/2025 19:17:32,11/14/2025 19:20:31,179.426,
855,11/15/2025 15:49:02,11/15/2025 15:58:07,545.188,
856,11/15/2025 17:22:00,11/15/2025 17:33:27,687.491,
857,11/15/2025 18:57:29,11/15/2025 19:03:48,379.377,
858,11/16/2025 15:31:02,11/16/2025 15:38:16,433.943,
859,11/16/2025 17:03:15,11/16/2025 17:14:49,694.634,
860,11/16/2025 18:38:06,11/16/2025 18:46:18,492.42,
861,11/17/2025 15:13:46,11/17/2025 15:17:32,226.025,
862,11/17/2025 16:44:35,11/17/2025 16:56:01,686.45,
863,11/17/2025 18:18:57,11/17/2025 18:28:28,570.985,
864,11/18/2025 16:26:00,11/18/2025 16:37:02,661.516,
865,11/18/2025 17:59:57,11/18/2025 18:10:24,626.928,
866,11/19/2025 16:07:33,11/19/2025 16:17:49,616.803,
867,11/19/2025 17:41:02,11/19/2025 17:52:07,664.999,
868,11/19/2025 19:17:46,11/19/2025 19:20:42,175.495,
869,11/20/2025 15:49:15,11/20/2025 15:58:21,546.221,
870,11/20/2025 17:22:13,11/20/2025 17:33:40,687.317,
871,11/20/2025 18:57:43,11/20/2025 19:04:00,377.724,
872,11/21/2025 15:31:14,11/21/2025 15:38:30,435.611,
873,11/21/2025 17:03:28,11/21/2025 17:15:03,694.638,
874,11/21/2025 18:38:20,11/21/2025 18:46:31,491.315,
875,11/22/2025 15:13:58,11/22/2025 15:17:48,229.967,
876,11/22/2025 16:44:48,11/22/2025 16:56:14,686.641,
877,11/22/2025 18:19:11,11/22/2025 18:28:41,570.2,
878,11/23/2025 16:26:13,11/23/2025 16:37:15,661.919,
879,11/23/2025 18:00:10,11/23/2025 18:10:37,626.376,
880,11/24/2025 16:07:45,11/24/2025 16:18:03,617.467,
881,11/24/2025 17:41:16,11/24/2025 17:52:20,664.644,
882,11/24/2025 19:18:01,11/24/2025 19:20:53,171.466,
883,11/25/2025 15:49:28,11/25/2025 15:58:35,547.248,
884,11/25/2025 17:22:26,11/25/2025 17:33:53,687.144,
885,11/25/2025 18:57:56,11/25/2025 19:04:12,376.06,
886,11/26/2025 15:31:27,11/26/2025 15:38:44,437.267,
887,11/26/2025 17:03:41,11/26/2025 17:15:16,694.64,
888,11/26/2025 18:38:33,11/26/2025 18:46:43,490.21,
889,11/27/2025 15:14:09,11/27/2025 15:18:03,233.828,
890,11/27/2025 16:45:01,11/27/2025 16:56:28,686.829,
891,11/27/2025 18:19:24,11/27/2025 18:28:54,569.415,
892,11/28/2025 16:26:26,11/28/2025 16:37:29,662.318,
893,11/28/2025 18:00:24,11/28/2025 18:10:49,625.822,
894,11/29/2025 16:07:58,11/29/2025 16:18:17,618.127,
895,11/29/2025 17:41:29,11/29/2025 17:52:33,664.286,
896,11/29/2025 19:18:16,11/29/2025 19:21:04,167.347,
897,11/30/2025 15:49:41,11/30/2025 15:58:49,548.267,
898,11/30/2025 17:22:39,11/30/2025 17:34:06,686.963,
899,11/30/2025 18:58:10,11/30/2025 19:04:25,374.392,
900,12/01/2025 15:31:39,12/01/2025 15:38:58,438.911,
901,12/01/2025 17:03:54,12/01/2025 17:15:29,694.639,
902,12/01/2025 18:38:47,12/01/2025 18:46:56,489.103,
903,12/02/2025 15:14:21,12/02/2025 15:18:18,237.614,
904,12/02/2025 16:45:14,12/02/2025 16:56:41,687.015,
905,12/02/2025 18:19:38,12/02/2025 18:29:06,568.625,
906,12/03/2025 16:26:39,12/03/2025 16:37:42,662.715,
907,12/03/2025 18:00:37,12/03/2025 18:11:02,625.268,
908,12/04/2025 16:08:11,12/04/2025 16:18:30,618.783,
909,12/04/2025 17:41:42,12/04/2025 17:52:46,663.927,
910,12/04/2025 19:18:31,12/04/2025 19:21:15,163.116,
911,12/05/2025 15:49:53,12/05/2025 15:59:03,549.283,
912,12/05/2025 17:22:53,12/05/2025 17:34:19,686.786,
913,12/05/2025 18:58:24,12/05/2025 19:04:37,372.71,
914,12/06/2025 15:31:52,12/06/2025 15:39:12,440.546,
915,12/06/2025 17:04:07,12/06/2025 17:15:42,694.637,
916,12/06/2025 18:39:00,12/06/2025 18:47:08,487.988,
917,12/07/2025 15:14:32,12/07/2025 15:18:34,241.337,
918,12/07/2025 16:45:27,12/07/2025 16:56:54,687.199,
919,12/07/2025 18:19:51,12/07/2025 18:29:19,567.831,
920,12/08/2025 16:26:52,12/08/2025 16:37:55,663.105,
921,12/08/2025 18:00:50,12/08/2025 18:11:15,624.709,
922,12/09/2025 16:08:24,12/09/2025 16:18:44,619.436,
923,12/09/2025 17:41:56,12/09/2025 17:52:59,663.565,
924,12/09/2025 19:18:47,12/09/2025 19:21:25,158.766,
925,12/10/2025 15:50:06,12/10/2025 15:59:16,550.293,
926,12/10/2025 17:23:06,12/10/2025 17:34:32,686.608,
927,12/10/2025 18:58:38,12/10/2025 19:04:49,371.021,
928,12/11/2025 15:32:04,12/11/2025 15:39:27,442.167,
929,12/11/2025 17:04:21,12/11/2025 17:15:55,694.632,
930,12/11/2025 18:39:14,12/11/2025 18:47:21,486.872,
931,12/12/2025 15:14:44,12/12/2025 15:18:49,244.987,
932,12/12/2025 16:45:40,12/12/2025 16:57:08,687.38,
933,12/12/2025 18:20:05,12/12/2025 18:29:32,567.036,
934,12/13/2025 16:27:05,12/13/2025 16:38:09,663.496,
935,12/13/2025 18:01:04,12/13/2025 18:11:28,624.148,
936,12/14/2025 16:08:37,12/14/2025 16:18:57,620.082,
937,12/14/2025 17:42:09,12/14/2025 17:53:12,663.198,
938,12/14/2025 19:19:02,12/14/2025 19:21:36,154.304,
939,12/15/2025 15:50:19,12/15/2025 15:59:30,551.295,
940,12/15/2025 17:23:19,12/15/2025 17:34:45,686.424,
941,12/15/2025 18:58:52,12/15/2025 19:05:01,369.325,
942,12/16/2025 15:32:17,12/16/2025 15:39:41,443.777,
943,12/16/2025 17:04:34,12/16/2025 17:16:08,694.625,
944,12/16/2025 18:39:27,12/16/2025 18:47:33,485.752,
945,12/17/2025 15:14:55,12/17/2025 15:19:04,248.573,
946,12/17/2025 16:45:53,12/17/2025 16:57:21,687.559,
947,12/17/2025 18:20:18,12/17/2025 18:29:44,566.238,
948,12/18/2025 16:27:18,12/18/2025 16:38:22,663.884,
949,12/18/2025 18:01:17,12/18/2025 18:11:41,623.585,
950,12/19/2025 16:08:50,12/19/2025 16:19:11,620.727,
951,12/19/2025 17:42:22,12/19/2025 17:53:25,662.832,
952,12/19/2025 19:19:17,12/19/2025 19:21:47,149.699,
953,12/20/2025 15:50:32,12/20/2025 15:59:44,552.293,
954,12/20/2025 17:23:32,12/20/2025 17:34:59,686.238,
955,12/20/2025 18:59:05,12/20/2025 19:05:13,367.618,
956,12/21/2025 15:32:30,12/21/2025 15:39:55,445.378,
957,12/21/2025 17:04:47,12/21/2025 17:16:22,694.616,
958,12/21/2025 18:39:41,12/21/2025 18:47:46,484.632,
959,12/22/2025 15:15:07,12/22/2025 15:19:19,252.101,
960,12/22/2025 16:46:07,12/22/2025 16:57:34,687.735,
961,12/22/2025 18:20:32,12/22/2025 18:29:57,565.437,
962,12/23/2025 16:27:32,12/23/2025 16:38:36,664.27,
963,12/23/2025 18:01:31,12/23/2025 18:11:54,623.021,
964,12/24/2025 16:09:03,12/24/2025 16:19:25,621.37,
965,12/24/2025 17:42:36,12/24/2025 17:53:38,662.464,
966,12/24/2025 19:19:32,12/24/2025 19:21:57,144.951,
967,12/25/2025 15:50:45,12/25/2025 15:59:58,553.278,
968,12/25/2025 17:23:46,12/25/2025 17:35:12,686.048,
969,12/25/2025 18:59:19,12/25/2025 19:05:25,365.909,
970,12/26/2025 15:32:42,12/26/2025 15:40:09,446.96,
971,12/26/2025 17:05:00,12/26/2025 17:16:35,694.601,
972,12/26/2025 18:39:55,12/26/2025 18:47:58,483.507,
973,12/27/2025 15:15:19,12/27/2025 15:19:34,255.564,
974,12/27/2025 16:46:20,12/27/2025 16:57:48,687.909,
975,12/27/2025 18:20:45,12/27/2025 18:30:10,564.637,
976,12/28/2025 16:27:45,12/28/2025 16:38:49,664.651,
977,12/28/2025 18:01:44,12/28/2025 18:12:06,622.455,
978,12/29/2025 16:09:16,12/29/2025 16:19:38,622.006,
979,12/29/2025 17:42:49,12/29/2025 17:53:51,662.095,
980,12/29/2025 19:19:48,12/29/2025 19:22:08,140.05,
981,12/30/2025 15:50:58,12/30/2025 16:00:12,554.263,
982,12/30/2025 17:23:59,12/30/2025 17:35:25,685.859,
983,12/30/2025 18:59:33,12/30/2025 19:05:37,364.187,
984,12/31/2025 15:32:55,12/31/2025 15:40:23,448.536,
985,12/31/2025 17:05:13,12/31/2025 17:16:48,694.587,
986,12/31/2025 18:40:08,12/31/2025 18:48:11,482.376,
987,01/01/2026 15:15:30,01/01/2026 15:19:49,258.974,
,,,,
Global Statistics,,,,
Min Duration,04/27/1901 00:00:00,07/05/2025 15:09:21,09:54.0,33.431
Max Duration,06/05/1902 00:00:00,11/26/2025 17:03:41,15:15.7,694.64
Mean Duration,,,,546.735
Total Duration,,,,539627.853
