3UCubedIntegratedSim/Reports & Plots/Comms/Past Comms Data/UNH/CSV/Sat10.csv

Access,Start Time (UTCG),Stop Time (UTCG),Duration (sec),
1,01/01/2025 16:30:08,01/01/2025 16:38:56,528.381,
2,01/02/2025 14:36:51,01/02/2025 14:48:09,678.23,
3,01/02/2025 16:11:03,01/02/2025 16:21:00,596.669,
4,01/03/2025 14:18:19,01/03/2025 14:29:05,645.555,
5,01/03/2025 15:52:05,01/03/2025 16:02:50,644.787,
6,01/04/2025 13:59:55,01/04/2025 14:09:46,591.089,
7,01/04/2025 15:33:13,01/04/2025 15:44:29,676.133,
8,01/04/2025 17:09:16,01/04/2025 17:13:57,280.851,
9,01/05/2025 13:41:43,01/05/2025 13:50:10,506.414,
10,01/05/2025 15:14:25,01/05/2025 15:25:57,692.187,
11,01/05/2025 16:49:37,01/05/2025 16:56:48,430.712,
12,01/06/2025 13:23:55,01/06/2025 13:30:04,369.215,
13,01/06/2025 14:55:42,01/06/2025 15:07:15,693.216,
14,01/06/2025 16:30:21,01/06/2025 16:39:09,527.435,
15,01/07/2025 14:37:04,01/07/2025 14:48:23,678.503,
16,01/07/2025 16:11:16,01/07/2025 16:21:12,595.993,
17,01/08/2025 14:18:32,01/08/2025 14:29:18,646.053,
18,01/08/2025 15:52:18,01/08/2025 16:03:03,644.321,
19,01/09/2025 14:00:08,01/09/2025 14:10:00,591.873,
20,01/09/2025 15:33:26,01/09/2025 15:44:42,675.859,
21,01/09/2025 17:09:30,01/09/2025 17:14:09,278.473,
22,01/10/2025 13:41:56,01/10/2025 13:50:24,507.645,
23,01/10/2025 15:14:38,01/10/2025 15:26:10,692.085,
24,01/10/2025 16:49:51,01/10/2025 16:57:00,429.342,
25,01/11/2025 13:24:07,01/11/2025 13:30:18,371.348,
26,01/11/2025 14:55:55,01/11/2025 15:07:29,693.292,
27,01/11/2025 16:30:35,01/11/2025 16:39:21,526.485,
28,01/12/2025 14:37:17,01/12/2025 14:48:36,678.774,
29,01/12/2025 16:11:30,01/12/2025 16:21:25,595.313,
30,01/13/2025 14:18:45,01/13/2025 14:29:32,646.553,
31,01/13/2025 15:52:32,01/13/2025 16:03:16,643.856,
32,01/14/2025 14:00:21,01/14/2025 14:10:14,592.667,
33,01/14/2025 15:33:39,01/14/2025 15:44:55,675.574,
34,01/14/2025 17:09:44,01/14/2025 17:14:21,276.066,
35,01/15/2025 13:42:09,01/15/2025 13:50:38,508.869,
36,01/15/2025 15:14:52,01/15/2025 15:26:24,691.981,
37,01/15/2025 16:50:04,01/15/2025 16:57:12,427.964,
38,01/16/2025 13:24:19,01/16/2025 13:30:33,373.464,
39,01/16/2025 14:56:08,01/16/2025 15:07:42,693.367,
40,01/16/2025 16:30:48,01/16/2025 16:39:34,525.53,
41,01/17/2025 14:37:30,01/17/2025 14:48:49,679.042,
42,01/17/2025 16:11:43,01/17/2025 16:21:38,594.63,
43,01/18/2025 14:18:58,01/18/2025 14:29:45,647.048,
44,01/18/2025 15:52:45,01/18/2025 16:03:29,643.387,
45,01/19/2025 14:00:34,01/19/2025 14:10:27,593.452,
46,01/19/2025 15:33:53,01/19/2025 15:45:08,675.292,
47,01/19/2025 17:09:59,01/19/2025 17:14:32,273.642,
48,01/20/2025 13:42:22,01/20/2025 13:50:52,510.087,
49,01/20/2025 15:15:05,01/20/2025 15:26:37,691.875,
50,01/20/2025 16:50:18,01/20/2025 16:57:25,426.58,
51,01/21/2025 13:24:32,01/21/2025 13:30:47,375.559,
52,01/21/2025 14:56:22,01/21/2025 15:07:55,693.448,
53,01/21/2025 16:31:02,01/21/2025 16:39:46,524.571,
54,01/22/2025 14:37:43,01/22/2025 14:49:03,679.308,
55,01/22/2025 16:11:57,01/22/2025 16:21:50,593.945,
56,01/23/2025 14:19:11,01/23/2025 14:29:59,647.54,
57,01/23/2025 15:52:58,01/23/2025 16:03:41,642.916,
58,01/24/2025 14:00:47,01/24/2025 14:10:41,594.23,
59,01/24/2025 15:34:06,01/24/2025 15:45:21,675.01,
60,01/24/2025 17:10:13,01/24/2025 17:14:44,271.191,
61,01/25/2025 13:42:34,01/25/2025 13:51:06,511.301,
62,01/25/2025 15:15:18,01/25/2025 15:26:50,691.759,
63,01/25/2025 16:50:32,01/25/2025 16:57:37,425.195,
64,01/26/2025 13:24:44,01/26/2025 13:31:02,377.64,
65,01/26/2025 14:56:35,01/26/2025 15:08:08,693.51,
66,01/26/2025 16:31:15,01/26/2025 16:39:59,523.608,
67,01/27/2025 14:37:57,01/27/2025 14:49:16,679.572,
68,01/27/2025 16:12:10,01/27/2025 16:22:03,593.257,
69,01/28/2025 14:19:24,01/28/2025 14:30:12,648.029,
70,01/28/2025 15:53:12,01/28/2025 16:03:54,642.442,
71,01/29/2025 14:01:00,01/29/2025 14:10:55,595.008,
72,01/29/2025 15:34:19,01/29/2025 15:45:34,674.723,
73,01/29/2025 17:10:27,01/29/2025 17:14:56,268.711,
74,01/30/2025 13:42:47,01/30/2025 13:51:20,512.504,
75,01/30/2025 15:15:31,01/30/2025 15:27:03,691.648,
76,01/30/2025 16:50:45,01/30/2025 16:57:49,423.797,
77,01/31/2025 13:24:56,01/31/2025 13:31:16,379.705,
78,01/31/2025 14:56:48,01/31/2025 15:08:22,693.578,
79,01/31/2025 16:31:29,01/31/2025 16:40:11,522.64,
80,02/01/2025 14:38:10,02/01/2025 14:49:30,679.829,
81,02/01/2025 16:12:23,02/01/2025 16:22:16,592.563,
82,02/02/2025 14:19:37,02/02/2025 14:30:26,648.515,
83,02/02/2025 15:53:25,02/02/2025 16:04:07,641.966,
84,02/03/2025 14:01:13,02/03/2025 14:11:09,595.781,
85,02/03/2025 15:34:32,02/03/2025 15:45:47,674.434,
86,02/03/2025 17:10:41,02/03/2025 17:15:07,266.211,
87,02/04/2025 13:43:00,02/04/2025 13:51:34,513.702,
88,02/04/2025 15:15:44,02/04/2025 15:27:16,691.536,
89,02/04/2025 16:50:59,02/04/2025 16:58:02,422.395,
90,02/05/2025 13:25:09,02/05/2025 13:31:30,381.751,
91,02/05/2025 14:57:01,02/05/2025 15:08:35,693.644,
92,02/05/2025 16:31:42,02/05/2025 16:40:24,521.669,
93,02/06/2025 14:38:23,02/06/2025 14:49:43,680.088,
94,02/06/2025 16:12:37,02/06/2025 16:22:29,591.868,
95,02/07/2025 14:19:50,02/07/2025 14:30:39,648.998,
96,02/07/2025 15:53:38,02/07/2025 16:04:20,641.488,
97,02/08/2025 14:01:26,02/08/2025 14:11:22,596.551,
98,02/08/2025 15:34:46,02/08/2025 15:46:00,674.142,
99,02/08/2025 17:10:55,02/08/2025 17:15:19,263.681,
100,02/09/2025 13:43:13,02/09/2025 13:51:47,514.895,
101,02/09/2025 15:15:58,02/09/2025 15:27:29,691.425,
102,02/09/2025 16:51:13,02/09/2025 16:58:14,420.979,
103,02/10/2025 13:25:21,02/10/2025 13:31:45,383.783,
104,02/10/2025 14:57:14,02/10/2025 15:08:48,693.708,
105,02/10/2025 16:31:56,02/10/2025 16:40:36,520.694,
106,02/11/2025 13:09:21,02/11/2025 13:09:44,23.133,
107,02/11/2025 14:38:36,02/11/2025 14:49:56,680.345,
108,02/11/2025 16:12:50,02/11/2025 16:22:41,591.176,
109,02/12/2025 14:20:03,02/12/2025 14:30:53,649.478,
110,02/12/2025 15:53:52,02/12/2025 16:04:33,641.007,
111,02/13/2025 14:01:39,02/13/2025 14:11:36,597.317,
112,02/13/2025 15:34:59,02/13/2025 15:46:13,673.848,
113,02/13/2025 17:11:10,02/13/2025 17:15:31,261.122,
114,02/14/2025 13:43:25,02/14/2025 13:52:01,516.08,
115,02/14/2025 15:16:11,02/14/2025 15:27:42,691.308,
116,02/14/2025 16:51:27,02/14/2025 16:58:26,419.562,
117,02/15/2025 13:25:33,02/15/2025 13:31:59,385.797,
118,02/15/2025 14:57:27,02/15/2025 15:09:01,693.77,
119,02/15/2025 16:32:09,02/15/2025 16:40:49,519.715,
120,02/16/2025 13:09:21,02/16/2025 13:10:10,49.356,
121,02/16/2025 14:38:49,02/16/2025 14:50:10,680.599,
122,02/16/2025 16:13:04,02/16/2025 16:22:54,590.477,
123,02/17/2025 14:20:16,02/17/2025 14:31:06,649.955,
124,02/17/2025 15:54:05,02/17/2025 16:04:46,640.524,
125,02/18/2025 14:01:52,02/18/2025 14:11:50,598.078,
126,02/18/2025 15:35:12,02/18/2025 15:46:26,673.553,
127,02/18/2025 17:11:24,02/18/2025 17:15:42,258.532,
128,02/19/2025 13:43:38,02/19/2025 13:52:15,517.261,
129,02/19/2025 15:16:24,02/19/2025 15:27:55,691.195,
130,02/19/2025 16:51:40,02/19/2025 16:58:38,418.14,
131,02/20/2025 13:25:46,02/20/2025 13:32:14,387.794,
132,02/20/2025 14:57:41,02/20/2025 15:09:14,693.83,
133,02/20/2025 16:32:23,02/20/2025 16:41:02,518.734,
134,02/21/2025 13:09:26,02/21/2025 13:10:32,65.824,
135,02/21/2025 14:39:02,02/21/2025 14:50:23,680.85,
136,02/21/2025 16:13:17,02/21/2025 16:23:07,589.774,
137,02/22/2025 14:20:29,02/22/2025 14:31:20,650.43,
138,02/22/2025 15:54:18,02/22/2025 16:04:59,640.042,
139,02/23/2025 14:02:04,02/23/2025 14:12:03,598.835,
140,02/23/2025 15:35:26,02/23/2025 15:46:39,673.255,
141,02/23/2025 17:11:38,02/23/2025 17:15:54,255.918,
142,02/24/2025 13:43:51,02/24/2025 13:52:29,518.434,
143,02/24/2025 15:16:37,02/24/2025 15:28:08,691.074,
144,02/24/2025 16:51:54,02/24/2025 16:58:51,416.709,
145,02/25/2025 13:25:58,02/25/2025 13:32:28,389.779,
146,02/25/2025 14:57:54,02/25/2025 15:09:28,693.887,
147,02/25/2025 16:32:36,02/25/2025 16:41:14,517.748,
148,02/26/2025 13:09:33,02/26/2025 13:10:52,78.915,
149,02/26/2025 14:39:15,02/26/2025 14:50:36,681.099,
150,02/26/2025 16:13:30,02/26/2025 16:23:19,589.069,
151,02/27/2025 14:20:42,02/27/2025 14:31:33,650.902,
152,02/27/2025 15:54:32,02/27/2025 16:05:11,639.554,
153,02/28/2025 14:02:17,02/28/2025 14:12:17,599.589,
154,02/28/2025 15:35:39,02/28/2025 15:46:52,672.956,
155,02/28/2025 17:11:52,02/28/2025 17:16:06,253.274,
156,03/01/2025 13:44:04,03/01/2025 13:52:43,519.599,
157,03/01/2025 15:16:51,03/01/2025 15:28:21,690.951,
158,03/01/2025 16:52:08,03/01/2025 16:59:03,415.271,
159,03/02/2025 13:26:11,03/02/2025 13:32:42,391.746,
160,03/02/2025 14:58:07,03/02/2025 15:09:41,693.943,
161,03/02/2025 16:32:50,03/02/2025 16:41:27,516.756,
162,03/03/2025 13:09:41,03/03/2025 13:11:11,90.081,
163,03/03/2025 14:39:28,03/03/2025 14:50:50,681.346,
164,03/03/2025 16:13:44,03/03/2025 16:23:32,588.362,
165,03/04/2025 14:20:55,03/04/2025 14:31:47,651.365,
166,03/04/2025 15:54:45,03/04/2025 16:05:24,639.065,
167,03/05/2025 14:02:30,03/05/2025 14:12:31,600.337,
168,03/05/2025 15:35:52,03/05/2025 15:47:05,672.655,
169,03/05/2025 17:12:07,03/05/2025 17:16:17,250.605,
170,03/06/2025 13:44:16,03/06/2025 13:52:57,520.757,
171,03/06/2025 15:17:04,03/06/2025 15:28:35,690.826,
172,03/06/2025 16:52:21,03/06/2025 16:59:15,413.829,
173,03/07/2025 13:26:23,03/07/2025 13:32:57,393.698,
174,03/07/2025 14:58:20,03/07/2025 15:09:54,693.996,
175,03/07/2025 16:33:03,03/07/2025 16:41:39,515.762,
176,03/08/2025 13:09:49,03/08/2025 13:11:29,99.993,
177,03/08/2025 14:39:41,03/08/2025 14:51:03,681.59,
178,03/08/2025 16:13:57,03/08/2025 16:23:45,587.651,
179,03/09/2025 14:21:09,03/09/2025 14:32:00,651.831,
180,03/09/2025 15:54:58,03/09/2025 16:05:37,638.573,
181,03/10/2025 14:02:43,03/10/2025 14:12:44,601.083,
182,03/10/2025 15:36:05,03/10/2025 15:47:18,672.351,
183,03/10/2025 17:12:21,03/10/2025 17:16:29,247.898,
184,03/11/2025 13:44:29,03/11/2025 13:53:11,521.91,
185,03/11/2025 15:17:17,03/11/2025 15:28:48,690.699,
186,03/11/2025 16:52:35,03/11/2025 16:59:27,412.376,
187,03/12/2025 13:26:35,03/12/2025 13:33:11,395.636,
188,03/12/2025 14:58:33,03/12/2025 15:10:07,694.047,
189,03/12/2025 16:33:17,03/12/2025 16:41:52,514.764,
190,03/13/2025 13:09:58,03/13/2025 13:11:47,108.986,
191,03/13/2025 14:39:55,03/13/2025 14:51:16,681.832,
192,03/13/2025 16:14:11,03/13/2025 16:23:58,586.938,
193,03/14/2025 14:21:22,03/14/2025 14:32:14,652.295,
194,03/14/2025 15:55:12,03/14/2025 16:05:50,638.08,
195,03/15/2025 14:02:56,03/15/2025 14:12:58,601.823,
196,03/15/2025 15:36:19,03/15/2025 15:47:31,672.046,
197,03/15/2025 17:12:35,03/15/2025 17:16:40,245.163,
198,03/16/2025 13:44:42,03/16/2025 13:53:25,523.055,
199,03/16/2025 15:17:30,03/16/2025 15:29:01,690.57,
200,03/16/2025 16:52:49,03/16/2025 16:59:40,410.919,
201,03/17/2025 13:26:48,03/17/2025 13:33:25,397.557,
202,03/17/2025 14:58:46,03/17/2025 15:10:21,694.095,
203,03/17/2025 16:33:30,03/17/2025 16:42:04,513.765,
204,03/18/2025 13:10:08,03/18/2025 13:12:05,117.258,
205,03/18/2025 14:40:08,03/18/2025 14:51:30,682.071,
206,03/18/2025 16:14:24,03/18/2025 16:24:10,586.226,
207,03/19/2025 14:21:35,03/19/2025 14:32:27,652.756,
208,03/19/2025 15:55:25,03/19/2025 16:06:03,637.584,
209,03/20/2025 14:03:09,03/20/2025 14:13:12,602.56,
210,03/20/2025 15:36:32,03/20/2025 15:47:44,671.739,
211,03/20/2025 17:12:50,03/20/2025 17:16:52,242.398,
212,03/21/2025 13:44:55,03/21/2025 13:53:39,524.194,
213,03/21/2025 15:17:43,03/21/2025 15:29:14,690.438,
214,03/21/2025 16:53:02,03/21/2025 16:59:52,409.456,
215,03/22/2025 13:27:00,03/22/2025 13:33:40,399.463,
216,03/22/2025 14:59:00,03/22/2025 15:10:34,694.142,
217,03/22/2025 16:33:44,03/22/2025 16:42:17,512.761,
218,03/23/2025 13:10:17,03/23/2025 13:12:22,124.973,
219,03/23/2025 14:40:21,03/23/2025 14:51:43,682.312,
220,03/23/2025 16:14:37,03/23/2025 16:24:23,585.514,
221,03/24/2025 14:21:48,03/24/2025 14:32:41,653.209,
222,03/24/2025 15:55:39,03/24/2025 16:06:16,637.082,
223,03/25/2025 14:03:22,03/25/2025 14:13:25,603.293,
224,03/25/2025 15:36:45,03/25/2025 15:47:57,671.429,
225,03/25/2025 17:13:04,03/25/2025 17:17:04,239.593,
226,03/26/2025 13:45:07,03/26/2025 13:53:53,525.328,
227,03/26/2025 15:17:57,03/26/2025 15:29:27,690.305,
228,03/26/2025 16:53:16,03/26/2025 17:00:04,407.983,
229,03/27/2025 13:27:13,03/27/2025 13:33:54,401.357,
230,03/27/2025 14:59:13,03/27/2025 15:10:47,694.187,
231,03/27/2025 16:33:57,03/27/2025 16:42:29,511.753,
232,03/28/2025 13:10:27,03/28/2025 13:12:39,132.227,
233,03/28/2025 14:40:34,03/28/2025 14:51:56,682.547,
234,03/28/2025 16:14:51,03/28/2025 16:24:36,584.793,
235,03/29/2025 14:22:01,03/29/2025 14:32:54,653.663,
236,03/29/2025 15:55:52,03/29/2025 16:06:28,636.582,
237,03/30/2025 14:03:35,03/30/2025 14:13:39,604.022,
238,03/30/2025 15:36:58,03/30/2025 15:48:10,671.118,
239,03/30/2025 17:13:18,03/30/2025 17:17:15,236.756,
240,03/31/2025 13:45:20,03/31/2025 13:54:07,526.454,
241,03/31/2025 15:18:10,03/31/2025 15:29:40,690.171,
242,03/31/2025 16:53:30,03/31/2025 17:00:16,406.51,
243,04/01/2025 13:27:25,04/01/2025 13:34:08,403.234,
244,04/01/2025 14:59:26,04/01/2025 15:11:00,694.229,
245,04/01/2025 16:34:11,04/01/2025 16:42:42,510.743,
246,04/02/2025 13:10:37,04/02/2025 13:12:56,139.072,
247,04/02/2025 14:40:47,04/02/2025 14:52:10,682.782,
248,04/02/2025 16:15:04,04/02/2025 16:24:48,584.072,
249,04/03/2025 14:22:14,04/03/2025 14:33:08,654.114,
250,04/03/2025 15:56:05,04/03/2025 16:06:41,636.08,
251,04/04/2025 14:03:48,04/04/2025 14:13:53,604.746,
252,04/04/2025 15:37:12,04/04/2025 15:48:23,670.805,
253,04/04/2025 17:13:33,04/04/2025 17:17:27,233.884,
254,04/05/2025 13:45:33,04/05/2025 13:54:21,527.574,
255,04/05/2025 15:18:23,04/05/2025 15:29:53,690.035,
256,04/05/2025 16:53:44,04/05/2025 17:00:29,405.024,
257,04/06/2025 13:27:37,04/06/2025 13:34:23,405.094,
258,04/06/2025 14:59:39,04/06/2025 15:11:13,694.27,
259,04/06/2025 16:34:25,04/06/2025 16:42:54,509.728,
260,04/07/2025 13:10:47,04/07/2025 13:13:13,145.595,
261,04/07/2025 14:41:00,04/07/2025 14:52:23,683.011,
262,04/07/2025 16:15:18,04/07/2025 16:25:01,583.346,
263,04/08/2025 14:22:27,04/08/2025 14:33:21,654.562,
264,04/08/2025 15:56:19,04/08/2025 16:06:54,635.574,
265,04/09/2025 14:04:01,04/09/2025 14:14:06,605.468,
266,04/09/2025 15:37:25,04/09/2025 15:48:36,670.489,
267,04/09/2025 17:13:47,04/09/2025 17:17:38,230.968,
268,04/10/2025 13:45:46,04/10/2025 13:54:34,528.689,
269,04/10/2025 15:18:36,04/10/2025 15:30:06,689.896,
270,04/10/2025 16:53:57,04/10/2025 17:00:41,403.53,
271,04/11/2025 13:27:50,04/11/2025 13:34:37,406.944,
272,04/11/2025 14:59:52,04/11/2025 15:11:27,694.309,
273,04/11/2025 16:34:38,04/11/2025 16:43:07,508.71,
274,04/12/2025 13:10:57,04/12/2025 13:13:29,151.808,
275,04/12/2025 14:41:13,04/12/2025 14:52:36,683.238,
276,04/12/2025 16:15:31,04/12/2025 16:25:14,582.618,
277,04/13/2025 14:22:40,04/13/2025 14:33:35,655.006,
278,04/13/2025 15:56:32,04/13/2025 16:07:07,635.068,
279,04/14/2025 14:04:14,04/14/2025 14:14:20,606.184,
280,04/14/2025 15:37:38,04/14/2025 15:48:48,670.173,
281,04/14/2025 17:14:01,04/14/2025 17:17:50,228.023,
282,04/15/2025 13:45:58,04/15/2025 13:54:48,529.793,
283,04/15/2025 15:18:50,04/15/2025 15:30:19,689.754,
284,04/15/2025 16:54:11,04/15/2025 17:00:53,402.028,
285,04/16/2025 13:28:02,04/16/2025 13:34:51,408.783,
286,04/16/2025 15:00:05,04/16/2025 15:11:40,694.343,
287,04/16/2025 16:34:52,04/16/2025 16:43:19,507.69,
288,04/17/2025 13:11:08,04/17/2025 13:13:46,157.766,
289,04/17/2025 14:41:26,04/17/2025 14:52:50,683.463,
290,04/17/2025 16:15:45,04/17/2025 16:25:26,581.888,
291,04/18/2025 14:22:53,04/18/2025 14:33:48,655.446,
292,04/18/2025 15:56:45,04/18/2025 16:07:20,634.559,
293,04/19/2025 14:04:27,04/19/2025 14:14:34,606.897,
294,04/19/2025 15:37:52,04/19/2025 15:49:01,669.853,
295,04/19/2025 17:14:16,04/19/2025 17:18:01,225.032,
296,04/20/2025 13:46:11,04/20/2025 13:55:02,530.895,
297,04/20/2025 15:19:03,04/20/2025 15:30:32,689.611,
298,04/20/2025 16:54:25,04/20/2025 17:01:05,400.521,
299,04/21/2025 13:28:15,04/21/2025 13:35:05,410.601,
300,04/21/2025 15:00:19,04/21/2025 15:11:53,694.377,
301,04/21/2025 16:35:05,04/21/2025 16:43:32,506.664,
302,04/22/2025 13:11:18,04/22/2025 13:14:02,163.498,
303,04/22/2025 14:41:39,04/22/2025 14:53:03,683.685,
304,04/22/2025 16:15:58,04/22/2025 16:25:39,581.155,
305,04/23/2025 14:23:06,04/23/2025 14:34:02,655.885,
306,04/23/2025 15:56:59,04/23/2025 16:07:33,634.047,
307,04/24/2025 14:04:40,04/24/2025 14:14:47,607.607,
308,04/24/2025 15:38:05,04/24/2025 15:49:14,669.531,
309,04/24/2025 17:14:30,04/24/2025 17:18:12,221.993,
310,04/25/2025 13:46:24,04/25/2025 13:55:16,531.992,
311,04/25/2025 15:19:16,04/25/2025 15:30:46,689.467,
312,04/25/2025 16:54:39,04/25/2025 17:01:18,399.004,
313,04/26/2025 13:28:27,04/26/2025 13:35:20,412.411,
314,04/26/2025 15:00:32,04/26/2025 15:12:06,694.409,
315,04/26/2025 16:35:19,04/26/2025 16:43:44,505.634,
316,04/27/2025 13:11:29,04/27/2025 13:14:18,169.016,
317,04/27/2025 14:41:53,04/27/2025 14:53:16,683.905,
318,04/27/2025 16:16:11,04/27/2025 16:25:52,580.419,
319,04/28/2025 14:23:19,04/28/2025 14:34:15,656.32,
320,04/28/2025 15:57:12,04/28/2025 16:07:45,633.534,
321,04/29/2025 14:04:53,04/29/2025 14:15:01,608.311,
322,04/29/2025 15:38:18,04/29/2025 15:49:27,669.207,
323,04/29/2025 17:14:45,04/29/2025 17:18:24,218.919,
324,04/30/2025 13:46:37,04/30/2025 13:55:30,533.081,
325,04/30/2025 15:19:29,04/30/2025 15:30:59,689.321,
326,04/30/2025 16:54:52,04/30/2025 17:01:30,397.483,
327,05/01/2025 13:28:40,05/01/2025 13:35:34,414.205,
328,05/01/2025 15:00:45,05/01/2025 15:12:19,694.439,
329,05/01/2025 16:35:32,05/01/2025 16:43:57,504.602,
330,05/02/2025 13:11:40,05/02/2025 13:14:34,174.342,
331,05/02/2025 14:42:06,05/02/2025 14:53:30,684.122,
332,05/02/2025 16:16:25,05/02/2025 16:26:04,579.681,
333,05/03/2025 14:23:32,05/03/2025 14:34:29,656.752,
334,05/03/2025 15:57:25,05/03/2025 16:07:58,633.022,
335,05/04/2025 14:05:05,05/04/2025 14:15:15,609.012,
336,05/04/2025 15:38:31,05/04/2025 15:49:40,668.883,
337,05/04/2025 17:14:59,05/04/2025 17:18:35,215.792,
338,05/05/2025 13:46:50,05/05/2025 13:55:44,534.168,
339,05/05/2025 15:19:43,05/05/2025 15:31:12,689.171,
340,05/05/2025 16:55:06,05/05/2025 17:01:42,395.954,
341,05/06/2025 13:28:52,05/06/2025 13:35:48,415.989,
342,05/06/2025 15:00:58,05/06/2025 15:12:33,694.466,
343,05/06/2025 16:35:46,05/06/2025 16:44:09,503.564,
344,05/07/2025 13:11:51,05/07/2025 13:14:50,179.505,
345,05/07/2025 14:42:19,05/07/2025 14:53:43,684.337,
346,05/07/2025 16:16:38,05/07/2025 16:26:17,578.939,
347,05/08/2025 14:23:45,05/08/2025 14:34:42,657.182,
348,05/08/2025 15:57:39,05/08/2025 16:08:11,632.502,
349,05/09/2025 14:05:18,05/09/2025 14:15:28,609.71,
350,05/09/2025 15:38:45,05/09/2025 15:49:53,668.555,
351,05/09/2025 17:15:14,05/09/2025 17:18:46,212.617,
352,05/10/2025 13:47:02,05/10/2025 13:55:58,535.251,
353,05/10/2025 15:19:56,05/10/2025 15:31:25,689.016,
354,05/10/2025 16:55:20,05/10/2025 17:01:54,394.421,
355,05/11/2025 13:29:05,05/11/2025 13:36:02,417.759,
356,05/11/2025 15:01:11,05/11/2025 15:12:46,694.491,
357,05/11/2025 16:35:59,05/11/2025 16:44:22,502.523,
358,05/12/2025 13:12:02,05/12/2025 13:15:06,184.506,
359,05/12/2025 14:42:32,05/12/2025 14:53:56,684.545,
360,05/12/2025 16:16:52,05/12/2025 16:26:30,578.193,
361,05/13/2025 14:23:58,05/13/2025 14:34:56,657.608,
362,05/13/2025 15:57:52,05/13/2025 16:08:24,631.98,
363,05/14/2025 14:05:31,05/14/2025 14:15:42,610.403,
364,05/14/2025 15:38:58,05/14/2025 15:50:06,668.226,
365,05/14/2025 17:15:28,05/14/2025 17:18:58,209.396,
366,05/15/2025 13:47:15,05/15/2025 13:56:12,536.314,
367,05/15/2025 15:20:09,05/15/2025 15:31:38,688.867,
368,05/15/2025 16:55:34,05/15/2025 17:02:06,392.87,
369,05/16/2025 13:29:17,05/16/2025 13:36:17,419.515,
370,05/16/2025 15:01:25,05/16/2025 15:12:59,694.515,
371,05/16/2025 16:36:13,05/16/2025 16:44:34,501.48,
372,05/17/2025 13:12:13,05/17/2025 13:15:22,189.363,
373,05/17/2025 14:42:45,05/17/2025 14:54:10,684.755,
374,05/17/2025 16:17:05,05/17/2025 16:26:43,577.446,
375,05/18/2025 14:24:11,05/18/2025 14:35:09,658.032,
376,05/18/2025 15:58:05,05/18/2025 16:08:37,631.461,
377,05/19/2025 14:05:44,05/19/2025 14:15:55,611.091,
378,05/19/2025 15:39:11,05/19/2025 15:50:19,667.894,
379,05/19/2025 17:15:43,05/19/2025 17:19:09,206.117,
380,05/20/2025 13:47:28,05/20/2025 13:56:25,537.382,
381,05/20/2025 15:20:22,05/20/2025 15:31:51,688.713,
382,05/20/2025 16:55:47,05/20/2025 17:02:19,391.32,
383,05/21/2025 13:29:30,05/21/2025 13:36:31,421.262,
384,05/21/2025 15:01:38,05/21/2025 15:13:12,694.536,
385,05/21/2025 16:36:26,05/21/2025 16:44:47,500.426,
386,05/22/2025 13:12:24,05/22/2025 13:15:38,194.094,
387,05/22/2025 14:42:58,05/22/2025 14:54:23,684.963,
388,05/22/2025 16:17:19,05/22/2025 16:26:55,576.7,
389,05/23/2025 14:24:24,05/23/2025 14:35:23,658.45,
390,05/23/2025 15:58:19,05/23/2025 16:08:50,630.936,
391,05/24/2025 14:05:57,05/24/2025 14:16:09,611.777,
392,05/24/2025 15:39:25,05/24/2025 15:50:32,667.559,
393,05/24/2025 17:15:58,05/24/2025 17:19:20,202.782,
394,05/25/2025 13:47:41,05/25/2025 13:56:39,538.45,
395,05/25/2025 15:20:35,05/25/2025 15:32:04,688.555,
396,05/25/2025 16:56:01,05/25/2025 17:02:31,389.762,
397,05/26/2025 13:29:42,05/26/2025 13:36:45,422.994,
398,05/26/2025 15:01:51,05/26/2025 15:13:25,694.555,
399,05/26/2025 16:36:40,05/26/2025 16:44:59,499.376,
400,05/27/2025 13:12:35,05/27/2025 13:15:53,198.691,
401,05/27/2025 14:43:11,05/27/2025 14:54:36,685.169,
402,05/27/2025 16:17:32,05/27/2025 16:27:08,575.948,
403,05/28/2025 14:24:37,05/28/2025 14:35:36,658.866,
404,05/28/2025 15:58:32,05/28/2025 16:09:02,630.41,
405,05/29/2025 14:06:10,05/29/2025 14:16:23,612.459,
406,05/29/2025 15:39:38,05/29/2025 15:50:45,667.224,
407,05/29/2025 17:16:12,05/29/2025 17:19:32,199.395,
408,05/30/2025 13:47:54,05/30/2025 13:56:53,539.505,
409,05/30/2025 15:20:49,05/30/2025 15:32:17,688.396,
410,05/30/2025 16:56:15,05/30/2025 17:02:43,388.194,
411,05/31/2025 13:29:55,05/31/2025 13:36:59,424.715,
412,05/31/2025 15:02:04,05/31/2025 15:13:39,694.572,
413,05/31/2025 16:36:53,05/31/2025 16:45:12,498.32,
414,06/01/2025 13:12:46,06/01/2025 13:16:09,203.179,
415,06/01/2025 14:43:24,06/01/2025 14:54:50,685.372,
416,06/01/2025 16:17:45,06/01/2025 16:27:21,575.193,
417,06/02/2025 14:24:50,06/02/2025 14:35:49,659.282,
418,06/02/2025 15:58:45,06/02/2025 16:09:15,629.879,
419,06/03/2025 14:06:23,06/03/2025 14:16:36,613.138,
420,06/03/2025 15:39:51,06/03/2025 15:50:58,666.885,
421,06/03/2025 17:16:27,06/03/2025 17:19:43,195.936,
422,06/04/2025 13:48:06,06/04/2025 13:57:07,540.555,
423,06/04/2025 15:21:02,06/04/2025 15:32:30,688.235,
424,06/04/2025 16:56:29,06/04/2025 17:02:55,386.613,
425,06/05/2025 13:30:07,06/05/2025 13:37:14,426.426,
426,06/05/2025 15:02:17,06/05/2025 15:13:52,694.587,
427,06/05/2025 16:37:07,06/05/2025 16:45:24,497.257,
428,06/06/2025 13:12:57,06/06/2025 13:16:25,207.562,
429,06/06/2025 14:43:37,06/06/2025 14:55:03,685.573,
430,06/06/2025 16:17:59,06/06/2025 16:27:33,574.434,
431,06/07/2025 14:25:03,06/07/2025 14:36:03,659.695,
432,06/07/2025 15:58:59,06/07/2025 16:09:28,629.346,
433,06/08/2025 14:06:36,06/08/2025 14:16:50,613.814,
434,06/08/2025 15:40:04,06/08/2025 15:51:11,666.545,
435,06/08/2025 17:16:42,06/08/2025 17:19:54,192.416,
436,06/09/2025 13:48:19,06/09/2025 13:57:21,541.599,
437,06/09/2025 15:21:15,06/09/2025 15:32:43,688.072,
438,06/09/2025 16:56:42,06/09/2025 17:03:07,385.027,
439,06/10/2025 13:30:20,06/10/2025 13:37:28,428.123,
440,06/10/2025 15:02:30,06/10/2025 15:14:05,694.599,
441,06/10/2025 16:37:20,06/10/2025 16:45:37,496.188,
442,06/11/2025 13:13:08,06/11/2025 13:16:40,211.838,
443,06/11/2025 14:43:51,06/11/2025 14:55:16,685.771,
444,06/11/2025 16:18:12,06/11/2025 16:27:46,573.674,
445,06/12/2025 14:25:16,06/12/2025 14:36:16,660.105,
446,06/12/2025 15:59:12,06/12/2025 16:09:41,628.812,
447,06/13/2025 14:06:49,06/13/2025 14:17:04,614.485,
448,06/13/2025 15:40:18,06/13/2025 15:51:24,666.205,
449,06/13/2025 17:16:56,06/13/2025 17:20:05,188.829,
450,06/14/2025 13:48:32,06/14/2025 13:57:35,542.638,
451,06/14/2025 15:21:28,06/14/2025 15:32:56,687.904,
452,06/14/2025 16:56:56,06/14/2025 17:03:20,383.432,
453,06/15/2025 13:30:32,06/15/2025 13:37:42,429.81,
454,06/15/2025 15:02:44,06/15/2025 15:14:18,694.611,
455,06/15/2025 16:37:34,06/15/2025 16:45:49,495.121,
456,06/16/2025 13:13:20,06/16/2025 13:16:56,216.022,
457,06/16/2025 14:44:04,06/16/2025 14:55:30,685.968,
458,06/16/2025 16:18:26,06/16/2025 16:27:59,572.909,
459,06/17/2025 14:25:29,06/17/2025 14:36:30,660.512,
460,06/17/2025 15:59:25,06/17/2025 16:09:54,628.274,
461,06/18/2025 14:07:02,06/18/2025 14:17:17,615.154,
462,06/18/2025 15:40:31,06/18/2025 15:51:37,665.861,
463,06/18/2025 17:17:11,06/18/2025 17:20:16,185.163,
464,06/19/2025 13:48:45,06/19/2025 13:57:48,543.672,
465,06/19/2025 15:21:42,06/19/2025 15:33:09,687.737,
466,06/19/2025 16:57:10,06/19/2025 17:03:32,381.824,
467,06/20/2025 13:30:45,06/20/2025 13:37:56,431.488,
468,06/20/2025 15:02:57,06/20/2025 15:14:31,694.62,
469,06/20/2025 16:37:48,06/20/2025 16:46:02,494.046,
470,06/21/2025 13:13:31,06/21/2025 13:17:11,220.121,
471,06/21/2025 14:44:17,06/21/2025 14:55:43,686.162,
472,06/21/2025 16:18:39,06/21/2025 16:28:11,572.141,
473,06/22/2025 14:25:42,06/22/2025 14:36:43,660.917,
474,06/22/2025 15:59:39,06/22/2025 16:10:06,627.734,
475,06/23/2025 14:07:15,06/23/2025 14:17:31,615.819,
476,06/23/2025 15:40:44,06/23/2025 15:51:50,665.514,
477,06/23/2025 17:17:26,06/23/2025 17:20:27,181.423,
478,06/24/2025 13:48:58,06/24/2025 13:58:02,544.7,
479,06/24/2025 15:21:55,06/24/2025 15:33:22,687.568,
480,06/24/2025 16:57:24,06/24/2025 17:03:44,380.211,
481,06/25/2025 13:30:57,06/25/2025 13:38:10,433.151,
482,06/25/2025 15:03:10,06/25/2025 15:14:45,694.626,
483,06/25/2025 16:38:01,06/25/2025 16:46:14,492.968,
484,06/26/2025 13:13:42,06/26/2025 13:17:27,224.129,
485,06/26/2025 14:44:30,06/26/2025 14:55:56,686.353,
486,06/26/2025 16:18:52,06/26/2025 16:28:24,571.371,
487,06/27/2025 14:25:55,06/27/2025 14:36:57,661.318,
488,06/27/2025 15:59:52,06/27/2025 16:10:19,627.195,
489,06/28/2025 14:07:28,06/28/2025 14:17:44,616.48,
490,06/28/2025 15:40:58,06/28/2025 15:52:03,665.166,
491,06/28/2025 17:17:41,06/28/2025 17:20:38,177.599,
492,06/29/2025 13:49:10,06/29/2025 13:58:16,545.723,
493,06/29/2025 15:22:08,06/29/2025 15:33:35,687.397,
494,06/29/2025 16:57:37,06/29/2025 17:03:56,378.587,
495,06/30/2025 13:31:10,06/30/2025 13:38:25,434.806,
496,06/30/2025 15:03:23,06/30/2025 15:14:58,694.631,
497,06/30/2025 16:38:15,06/30/2025 16:46:27,491.881,
498,07/01/2025 13:13:54,07/01/2025 13:17:42,228.066,
499,07/01/2025 14:44:43,07/01/2025 14:56:10,686.543,
500,07/01/2025 16:19:06,07/01/2025 16:28:37,570.596,
501,07/02/2025 14:26:08,07/02/2025 14:37:10,661.718,
502,07/02/2025 16:00:05,07/02/2025 16:10:32,626.65,
503,07/03/2025 14:07:41,07/03/2025 14:17:58,617.139,
504,07/03/2025 15:41:11,07/03/2025 15:52:16,664.817,
505,07/03/2025 17:17:56,07/03/2025 17:20:49,173.679,
506,07/04/2025 13:49:23,07/04/2025 13:58:30,546.742,
507,07/04/2025 15:22:21,07/04/2025 15:33:49,687.226,
508,07/04/2025 16:57:51,07/04/2025 17:04:08,376.95,
509,07/05/2025 13:31:22,07/05/2025 13:38:39,436.452,
510,07/05/2025 15:03:36,07/05/2025 15:15:11,694.633,
511,07/05/2025 16:38:28,07/05/2025 16:46:39,490.79,
512,07/06/2025 13:14:05,07/06/2025 13:17:57,231.925,
513,07/06/2025 14:44:56,07/06/2025 14:56:23,686.73,
514,07/06/2025 16:19:19,07/06/2025 16:28:49,569.819,
515,07/07/2025 14:26:22,07/07/2025 14:37:24,662.114,
516,07/07/2025 16:00:19,07/07/2025 16:10:45,626.103,
517,07/08/2025 14:07:54,07/08/2025 14:18:12,617.794,
518,07/08/2025 15:41:24,07/08/2025 15:52:29,664.464,
519,07/08/2025 17:18:11,07/08/2025 17:21:00,169.67,
520,07/09/2025 13:49:36,07/09/2025 13:58:44,547.754,
521,07/09/2025 15:22:35,07/09/2025 15:34:02,687.048,
522,07/09/2025 16:58:05,07/09/2025 17:04:20,375.308,
523,07/10/2025 13:31:35,07/10/2025 13:38:53,438.084,
524,07/10/2025 15:03:50,07/10/2025 15:15:24,694.634,
525,07/10/2025 16:38:42,07/10/2025 16:46:51,489.697,
526,07/11/2025 13:14:17,07/11/2025 13:18:13,235.711,
527,07/11/2025 14:45:09,07/11/2025 14:56:36,686.915,
528,07/11/2025 16:19:33,07/11/2025 16:29:02,569.041,
529,07/12/2025 14:26:35,07/12/2025 14:37:37,662.508,
530,07/12/2025 16:00:32,07/12/2025 16:10:58,625.554,
531,07/13/2025 14:08:07,07/13/2025 14:18:25,618.445,
532,07/13/2025 15:41:37,07/13/2025 15:52:42,664.109,
533,07/13/2025 17:18:25,07/13/2025 17:21:11,165.556,
534,07/14/2025 13:49:49,07/14/2025 13:58:58,548.763,
535,07/14/2025 15:22:48,07/14/2025 15:34:15,686.871,
536,07/14/2025 16:58:19,07/14/2025 17:04:32,373.651,
537,07/15/2025 13:31:47,07/15/2025 13:39:07,439.709,
538,07/15/2025 15:04:03,07/15/2025 15:15:37,694.632,
539,07/15/2025 16:38:55,07/15/2025 16:47:04,488.599,
540,07/16/2025 13:14:28,07/16/2025 13:18:28,239.434,
541,07/16/2025 14:45:22,07/16/2025 14:56:50,687.098,
542,07/16/2025 16:19:46,07/16/2025 16:29:14,568.257,
543,07/17/2025 14:26:48,07/17/2025 14:37:51,662.896,
544,07/17/2025 16:00:45,07/17/2025 16:11:11,625.002,
545,07/18/2025 14:08:20,07/18/2025 14:18:39,619.093,
546,07/18/2025 15:41:51,07/18/2025 15:52:55,663.748,
547,07/18/2025 17:18:41,07/18/2025 17:21:22,161.321,
548,07/19/2025 13:50:02,07/19/2025 13:59:11,549.759,
549,07/19/2025 15:23:01,07/19/2025 15:34:28,686.695,
550,07/19/2025 16:58:33,07/19/2025 17:04:45,371.988,
551,07/20/2025 13:32:00,07/20/2025 13:39:21,441.325,
552,07/20/2025 15:04:16,07/20/2025 15:15:50,694.628,
553,07/20/2025 16:39:09,07/20/2025 16:47:16,487.498,
554,07/21/2025 13:14:40,07/21/2025 13:18:43,243.09,
555,07/21/2025 14:45:36,07/21/2025 14:57:03,687.279,
556,07/21/2025 16:20:00,07/21/2025 16:29:27,567.471,
557,07/22/2025 14:27:01,07/22/2025 14:38:04,663.285,
558,07/22/2025 16:00:59,07/22/2025 16:11:23,624.448,
559,07/23/2025 14:08:33,07/23/2025 14:18:52,619.737,
560,07/23/2025 15:42:04,07/23/2025 15:53:07,663.388,
561,07/23/2025 17:18:56,07/23/2025 17:21:33,156.98,
562,07/24/2025 13:50:14,07/24/2025 13:59:25,550.765,
563,07/24/2025 15:23:14,07/24/2025 15:34:41,686.516,
564,07/24/2025 16:58:46,07/24/2025 17:04:57,370.31,
565,07/25/2025 13:32:13,07/25/2025 13:39:35,442.927,
566,07/25/2025 15:04:29,07/25/2025 15:16:04,694.622,
567,07/25/2025 16:39:22,07/25/2025 16:47:29,486.387,
568,07/26/2025 13:14:51,07/26/2025 13:18:58,246.682,
569,07/26/2025 14:45:49,07/26/2025 14:57:16,687.457,
570,07/26/2025 16:20:13,07/26/2025 16:29:40,566.681,
571,07/27/2025 14:27:14,07/27/2025 14:38:17,663.672,
572,07/27/2025 16:01:12,07/27/2025 16:11:36,623.891,
573,07/28/2025 14:08:46,07/28/2025 14:19:06,620.379,
574,07/28/2025 15:42:17,07/28/2025 15:53:20,663.026,
575,07/28/2025 17:19:11,07/28/2025 17:21:43,152.497,
576,07/29/2025 13:50:27,07/29/2025 13:59:39,551.759,
577,07/29/2025 15:23:27,07/29/2025 15:34:54,686.332,
578,07/29/2025 16:59:00,07/29/2025 17:05:09,368.622,
579,07/30/2025 13:32:25,07/30/2025 13:39:50,444.524,
580,07/30/2025 15:04:42,07/30/2025 15:16:17,694.614,
581,07/30/2025 16:39:36,07/30/2025 16:47:41,485.272,
582,07/31/2025 13:15:03,07/31/2025 13:19:13,250.222,
583,07/31/2025 14:46:02,07/31/2025 14:57:29,687.634,
584,07/31/2025 16:20:27,07/31/2025 16:29:52,565.886,
585,08/01/2025 14:27:27,08/01/2025 14:38:31,664.057,
586,08/01/2025 16:01:26,08/01/2025 16:11:49,623.331,
587,08/02/2025 14:08:59,08/02/2025 14:19:20,621.021,
588,08/02/2025 15:42:31,08/02/2025 15:53:33,662.661,
589,08/02/2025 17:19:26,08/02/2025 17:21:54,147.869,
590,08/03/2025 13:50:40,08/03/2025 13:59:53,552.741,
591,08/03/2025 15:23:41,08/03/2025 15:35:07,686.144,
592,08/03/2025 16:59:14,08/03/2025 17:05:21,366.928,
593,08/04/2025 13:32:38,08/04/2025 13:40:04,446.109,
594,08/04/2025 15:04:55,08/04/2025 15:16:30,694.603,
595,08/04/2025 16:39:50,08/04/2025 16:47:54,484.155,
596,08/05/2025 13:15:15,08/05/2025 13:19:28,253.701,
597,08/05/2025 14:46:15,08/05/2025 14:57:43,687.808,
598,08/05/2025 16:20:40,08/05/2025 16:30:05,565.089,
599,08/06/2025 14:27:40,08/06/2025 14:38:44,664.438,
600,08/06/2025 16:01:39,08/06/2025 16:12:02,622.769,
601,08/07/2025 14:09:12,08/07/2025 14:19:33,621.656,
602,08/07/2025 15:42:44,08/07/2025 15:53:46,662.294,
603,08/07/2025 17:19:41,08/07/2025 17:22:04,143.094,
604,08/08/2025 13:50:53,08/08/2025 14:00:07,553.726,
605,08/08/2025 15:23:54,08/08/2025 15:35:20,685.956,
606,08/08/2025 16:59:28,08/08/2025 17:05:33,365.22,
607,08/09/2025 13:32:50,08/09/2025 13:40:18,447.68,
608,08/09/2025 15:05:09,08/09/2025 15:16:43,694.588,
609,08/09/2025 16:40:03,08/09/2025 16:48:06,483.037,
610,08/10/2025 13:15:26,08/10/2025 13:19:44,257.126,
611,08/10/2025 14:46:28,08/10/2025 14:57:56,687.98,
612,08/10/2025 16:20:53,08/10/2025 16:30:18,564.291,
613,08/11/2025 14:27:53,08/11/2025 14:38:58,664.815,
614,08/11/2025 16:01:52,08/11/2025 16:12:14,622.204,
615,08/12/2025 14:09:25,08/12/2025 14:19:47,622.287,
616,08/12/2025 15:42:57,08/12/2025 15:53:59,661.925,
617,08/12/2025 17:19:57,08/12/2025 17:22:15,138.137,
618,08/13/2025 13:51:06,08/13/2025 14:00:20,554.708,
619,08/13/2025 15:24:07,08/13/2025 15:35:33,685.766,
620,08/13/2025 16:59:42,08/13/2025 17:05:45,363.496,
621,08/14/2025 13:33:03,08/14/2025 13:40:32,449.249,
622,08/14/2025 15:05:22,08/14/2025 15:16:56,694.573,
623,08/14/2025 16:40:17,08/14/2025 16:48:19,481.906,
624,08/15/2025 13:15:38,08/15/2025 13:19:59,260.505,
625,08/15/2025 14:46:41,08/15/2025 14:58:09,688.15,
626,08/15/2025 16:21:07,08/15/2025 16:30:30,563.486,
627,08/16/2025 14:28:06,08/16/2025 14:39:11,665.193,
628,08/16/2025 16:02:06,08/16/2025 16:12:27,621.635,
629,08/17/2025 14:09:38,08/17/2025 14:20:00,622.914,
630,08/17/2025 15:43:11,08/17/2025 15:54:12,661.554,
631,08/17/2025 17:20:12,08/17/2025 17:22:25,132.985,
632,08/18/2025 13:51:19,08/18/2025 14:00:34,555.684,
633,08/18/2025 15:24:20,08/18/2025 15:35:46,685.574,
634,08/18/2025 16:59:55,08/18/2025 17:05:57,361.762,
635,08/19/2025 13:33:15,08/19/2025 13:40:46,450.806,
636,08/19/2025 15:05:35,08/19/2025 15:17:10,694.556,
637,08/19/2025 16:40:30,08/19/2025 16:48:31,480.771,
638,08/20/2025 13:15:50,08/20/2025 13:20:14,263.828,
639,08/20/2025 14:46:54,08/20/2025 14:58:23,688.317,
640,08/20/2025 16:21:20,08/20/2025 16:30:43,562.679,
641,08/21/2025 14:28:19,08/21/2025 14:39:25,665.567,
642,08/21/2025 16:02:19,08/21/2025 16:12:40,621.065,
643,08/22/2025 14:09:50,08/22/2025 14:20:14,623.541,
644,08/22/2025 15:43:24,08/22/2025 15:54:25,661.18,
645,08/22/2025 17:20:28,08/22/2025 17:22:35,127.626,
646,08/23/2025 13:51:31,08/23/2025 14:00:48,556.655,
647,08/23/2025 15:24:34,08/23/2025 15:35:59,685.38,
648,08/23/2025 17:00:09,08/23/2025 17:06:09,360.018,
649,08/24/2025 13:33:28,08/24/2025 13:41:00,452.361,
650,08/24/2025 15:05:48,08/24/2025 15:17:23,694.543,
651,08/24/2025 16:40:44,08/24/2025 16:48:43,479.626,
652,08/25/2025 13:16:02,08/25/2025 13:20:29,267.107,
653,08/25/2025 14:47:07,08/25/2025 14:58:36,688.483,
654,08/25/2025 16:21:34,08/25/2025 16:30:56,561.867,
655,08/26/2025 14:28:32,08/26/2025 14:39:38,665.942,
656,08/26/2025 16:02:32,08/26/2025 16:12:53,620.491,
657,08/27/2025 14:10:03,08/27/2025 14:20:28,624.167,
658,08/27/2025 15:43:37,08/27/2025 15:54:38,660.804,
659,08/27/2025 17:20:44,08/27/2025 17:22:46,122.005,
660,08/28/2025 13:51:44,08/28/2025 14:01:02,557.624,
661,08/28/2025 15:24:47,08/28/2025 15:36:12,685.183,
662,08/28/2025 17:00:23,08/28/2025 17:06:21,358.258,
663,08/29/2025 13:33:41,08/29/2025 13:41:14,453.904,
664,08/29/2025 15:06:01,08/29/2025 15:17:36,694.522,
665,08/29/2025 16:40:57,08/29/2025 16:48:56,478.477,
666,08/30/2025 13:16:13,08/30/2025 13:20:44,270.343,
667,08/30/2025 14:47:21,08/30/2025 14:58:49,688.646,
668,08/30/2025 16:21:47,08/30/2025 16:31:08,561.051,
669,08/31/2025 14:28:45,08/31/2025 14:39:51,666.31,
670,08/31/2025 16:02:46,08/31/2025 16:13:06,619.914,
671,09/01/2025 14:10:16,09/01/2025 14:20:41,624.789,
672,09/01/2025 15:43:50,09/01/2025 15:54:51,660.425,
673,09/01/2025 17:20:59,09/01/2025 17:22:56,116.104,
674,09/02/2025 13:51:57,09/02/2025 14:01:16,558.588,
675,09/02/2025 15:25:00,09/02/2025 15:36:25,684.985,
676,09/02/2025 17:00:37,09/02/2025 17:06:33,356.492,
677,09/03/2025 13:33:53,09/03/2025 13:41:29,455.437,
678,09/03/2025 15:06:15,09/03/2025 15:17:49,694.5,
679,09/03/2025 16:41:11,09/03/2025 16:49:08,477.325,
680,09/04/2025 13:16:25,09/04/2025 13:20:59,273.53,
681,09/04/2025 14:47:34,09/04/2025 14:59:02,688.808,
682,09/04/2025 16:22:01,09/04/2025 16:31:21,560.233,
683,09/05/2025 14:28:58,09/05/2025 14:40:05,666.677,
684,09/05/2025 16:02:59,09/05/2025 16:13:18,619.335,
685,09/06/2025 14:10:29,09/06/2025 14:20:55,625.406,
686,09/06/2025 15:44:04,09/06/2025 15:55:04,660.044,
687,09/06/2025 17:21:15,09/06/2025 17:23:05,109.886,
688,09/07/2025 13:52:10,09/07/2025 14:01:29,559.546,
689,09/07/2025 15:25:13,09/07/2025 15:36:38,684.784,
690,09/07/2025 17:00:51,09/07/2025 17:06:46,354.707,
691,09/08/2025 13:34:06,09/08/2025 13:41:43,456.961,
692,09/08/2025 15:06:28,09/08/2025 15:18:02,694.475,
693,09/08/2025 16:41:24,09/08/2025 16:49:21,476.17,
694,09/09/2025 13:16:37,09/09/2025 13:21:14,276.677,
695,09/09/2025 14:47:47,09/09/2025 14:59:16,688.968,
696,09/09/2025 16:22:14,09/09/2025 16:31:33,559.41,
697,09/10/2025 14:29:11,09/10/2025 14:40:18,667.04,
698,09/10/2025 16:03:12,09/10/2025 16:13:31,618.753,
699,09/11/2025 14:10:42,09/11/2025 14:21:08,626.021,
700,09/11/2025 15:44:17,09/11/2025 15:55:17,659.66,
701,09/11/2025 17:21:32,09/11/2025 17:23:15,103.266,
702,09/12/2025 13:52:23,09/12/2025 14:01:43,560.502,
703,09/12/2025 15:25:27,09/12/2025 15:36:51,684.581,
704,09/12/2025 17:01:05,09/12/2025 17:06:58,352.91,
705,09/13/2025 13:34:18,09/13/2025 13:41:57,458.479,
706,09/13/2025 15:06:41,09/13/2025 15:18:15,694.448,
707,09/13/2025 16:41:38,09/13/2025 16:49:33,475.004,
708,09/14/2025 13:16:49,09/14/2025 13:21:29,279.783,
709,09/14/2025 14:48:00,09/14/2025 14:59:29,689.125,
710,09/14/2025 16:22:28,09/14/2025 16:31:46,558.583,
711,09/15/2025 14:29:24,09/15/2025 14:40:32,667.405,
712,09/15/2025 16:03:26,09/15/2025 16:13:44,618.168,
713,09/16/2025 14:10:55,09/16/2025 14:21:22,626.633,
714,09/16/2025 15:44:30,09/16/2025 15:55:30,659.279,
715,09/16/2025 17:21:48,09/16/2025 17:23:24,96.194,
716,09/17/2025 13:52:36,09/17/2025 14:01:57,561.451,
717,09/17/2025 15:25:40,09/17/2025 15:37:04,684.376,
718,09/17/2025 17:01:19,09/17/2025 17:07:10,351.101,
719,09/18/2025 13:34:31,09/18/2025 13:42:11,459.985,
720,09/18/2025 15:06:54,09/18/2025 15:18:29,694.419,
721,09/18/2025 16:41:52,09/18/2025 16:49:45,473.836,
722,09/19/2025 13:17:01,09/19/2025 13:21:44,282.844,
723,09/19/2025 14:48:13,09/19/2025 14:59:42,689.28,
724,09/19/2025 16:22:41,09/19/2025 16:31:59,557.753,
725,09/20/2025 14:29:37,09/20/2025 14:40:45,667.766,
726,09/20/2025 16:03:39,09/20/2025 16:13:57,617.58,
727,09/21/2025 14:11:08,09/21/2025 14:21:36,627.241,
728,09/21/2025 15:44:44,09/21/2025 15:55:42,658.891,
729,09/21/2025 17:22:05,09/21/2025 17:23:33,88.542,
730,09/22/2025 13:52:48,09/22/2025 14:02:11,562.397,
731,09/22/2025 15:25:53,09/22/2025 15:37:17,684.169,
732,09/22/2025 17:01:32,09/22/2025 17:07:22,349.279,
733,09/23/2025 13:34:43,09/23/2025 13:42:25,461.482,
734,09/23/2025 15:07:07,09/23/2025 15:18:42,694.391,
735,09/23/2025 16:42:05,09/23/2025 16:49:58,472.655,
736,09/24/2025 13:17:13,09/24/2025 13:21:58,285.873,
737,09/24/2025 14:48:26,09/24/2025 14:59:56,689.433,
738,09/24/2025 16:22:54,09/24/2025 16:32:11,556.918,
739,09/25/2025 14:29:50,09/25/2025 14:40:59,668.125,
740,09/25/2025 16:03:53,09/25/2025 16:14:10,616.985,
741,09/26/2025 14:11:21,09/26/2025 14:21:49,627.847,
742,09/26/2025 15:44:57,09/26/2025 15:55:55,658.493,
743,09/26/2025 17:22:22,09/26/2025 17:23:42,80.127,
744,09/27/2025 13:53:01,09/27/2025 14:02:25,563.339,
745,09/27/2025 15:26:06,09/27/2025 15:37:30,683.959,
746,09/27/2025 17:01:46,09/27/2025 17:07:34,347.441,
747,09/28/2025 13:34:56,09/28/2025 13:42:39,462.974,
748,09/28/2025 15:07:20,09/28/2025 15:18:55,694.358,
749,09/28/2025 16:42:19,09/28/2025 16:50:10,471.472,
750,09/29/2025 13:17:24,09/29/2025 13:22:13,288.864,
751,09/29/2025 14:48:39,09/29/2025 15:00:09,689.582,
752,09/29/2025 16:23:08,09/29/2025 16:32:24,556.079,
753,09/30/2025 14:30:03,09/30/2025 14:41:12,668.481,
754,09/30/2025 16:04:06,09/30/2025 16:14:22,616.391,
755,10/01/2025 14:11:34,10/01/2025 14:22:03,628.45,
756,10/01/2025 15:45:10,10/01/2025 15:56:08,658.099,
757,10/01/2025 17:22:40,10/01/2025 17:23:50,70.722,
758,10/02/2025 13:53:14,10/02/2025 14:02:38,564.275,
759,10/02/2025 15:26:20,10/02/2025 15:37:43,683.747,
760,10/02/2025 17:02:00,10/02/2025 17:07:46,345.593,
761,10/03/2025 13:35:09,10/03/2025 13:42:53,464.456,
762,10/03/2025 15:07:34,10/03/2025 15:19:08,694.323,
763,10/03/2025 16:42:32,10/03/2025 16:50:23,470.283,
764,10/04/2025 13:17:36,10/04/2025 13:22:28,291.815,
765,10/04/2025 14:48:52,10/04/2025 15:00:22,689.731,
766,10/04/2025 16:23:21,10/04/2025 16:32:37,555.238,
767,10/05/2025 14:30:17,10/05/2025 14:41:25,668.834,
768,10/05/2025 16:04:19,10/05/2025 16:14:35,615.795,
769,10/06/2025 14:11:47,10/06/2025 14:22:16,629.049,
770,10/06/2025 15:45:24,10/06/2025 15:56:21,657.704,
771,10/06/2025 17:22:58,10/06/2025 17:23:58,59.833,
772,10/07/2025 13:53:27,10/07/2025 14:02:52,565.208,
773,10/07/2025 15:26:33,10/07/2025 15:37:56,683.533,
774,10/07/2025 17:02:14,10/07/2025 17:07:58,343.73,
775,10/08/2025 13:35:21,10/08/2025 13:43:07,465.932,
776,10/08/2025 15:07:47,10/08/2025 15:19:21,694.286,
777,10/08/2025 16:42:46,10/08/2025 16:50:35,469.088,
778,10/09/2025 13:17:48,10/09/2025 13:22:43,294.736,
779,10/09/2025 14:49:06,10/09/2025 15:00:35,689.879,
780,10/09/2025 16:23:35,10/09/2025 16:32:49,554.391,
781,10/10/2025 14:30:30,10/10/2025 14:41:39,669.185,
782,10/10/2025 16:04:33,10/10/2025 16:14:48,615.199,
783,10/11/2025 14:12:00,10/11/2025 14:22:30,629.647,
784,10/11/2025 15:45:37,10/11/2025 15:56:34,657.305,
785,10/11/2025 17:23:18,10/11/2025 17:24:04,46.396,
786,10/12/2025 13:53:40,10/12/2025 14:03:06,566.138,
787,10/12/2025 15:26:46,10/12/2025 15:38:09,683.317,
788,10/12/2025 17:02:28,10/12/2025 17:08:10,341.851,
789,10/13/2025 13:35:34,10/13/2025 13:43:21,467.399,
790,10/13/2025 15:08:00,10/13/2025 15:19:34,694.246,
791,10/13/2025 16:43:00,10/13/2025 16:50:48,467.888,
792,10/14/2025 13:18:00,10/14/2025 13:22:58,297.62,
793,10/14/2025 14:49:19,10/14/2025 15:00:49,690.021,
794,10/14/2025 16:23:48,10/14/2025 16:33:02,553.542,
795,10/15/2025 14:30:43,10/15/2025 14:41:52,669.533,
796,10/15/2025 16:04:46,10/15/2025 16:15:01,614.596,
797,10/16/2025 14:12:13,10/16/2025 14:22:43,630.24,
798,10/16/2025 15:45:50,10/16/2025 15:56:47,656.904,
799,10/16/2025 17:23:40,10/16/2025 17:24:07,26.965,
800,10/17/2025 13:53:53,10/17/2025 14:03:20,567.061,
801,10/17/2025 15:26:59,10/17/2025 15:38:22,683.102,
802,10/17/2025 17:02:42,10/17/2025 17:08:22,339.962,
803,10/18/2025 13:35:47,10/18/2025 13:43:35,468.856,
804,10/18/2025 15:08:13,10/18/2025 15:19:47,694.205,
805,10/18/2025 16:43:13,10/18/2025 16:51:00,466.687,
806,10/19/2025 13:18:12,10/19/2025 13:23:13,300.47,
807,10/19/2025 14:49:32,10/19/2025 15:01:02,690.164,
808,10/19/2025 16:24:02,10/19/2025 16:33:14,552.694,
809,10/20/2025 14:30:56,10/20/2025 14:42:06,669.879,
810,10/20/2025 16:04:59,10/20/2025 16:15:13,613.991,
811,10/21/2025 14:12:26,10/21/2025 14:22:57,630.831,
812,10/21/2025 15:46:03,10/21/2025 15:57:00,656.501,
813,10/22/2025 13:54:05,10/22/2025 14:03:33,567.981,
814,10/22/2025 15:27:13,10/22/2025 15:38:35,682.882,
815,10/22/2025 17:02:56,10/22/2025 17:08:34,338.055,
816,10/23/2025 13:35:59,10/23/2025 13:43:49,470.308,
817,10/23/2025 15:08:26,10/23/2025 15:20:01,694.161,
818,10/23/2025 16:43:27,10/23/2025 16:51:12,465.474,
819,10/24/2025 13:18:24,10/24/2025 13:23:27,303.292,
820,10/24/2025 14:49:45,10/24/2025 15:01:15,690.306,
821,10/24/2025 16:24:15,10/24/2025 16:33:27,551.835,
822,10/25/2025 14:31:09,10/25/2025 14:42:19,670.218,
823,10/25/2025 16:05:13,10/25/2025 16:15:26,613.382,
824,10/26/2025 14:12:39,10/26/2025 14:23:11,631.42,
825,10/26/2025 15:46:17,10/26/2025 15:57:13,656.097,
826,10/27/2025 13:54:18,10/27/2025 14:03:47,568.898,
827,10/27/2025 15:27:26,10/27/2025 15:38:49,682.659,
828,10/27/2025 17:03:10,10/27/2025 17:08:46,336.133,
829,10/28/2025 13:36:12,10/28/2025 13:44:03,471.751,
830,10/28/2025 15:08:40,10/28/2025 15:20:14,694.116,
831,10/28/2025 16:43:40,10/28/2025 16:51:25,464.256,
832,10/29/2025 13:18:36,10/29/2025 13:23:42,306.078,
833,10/29/2025 14:49:58,10/29/2025 15:01:29,690.442,
834,10/29/2025 16:24:29,10/29/2025 16:33:40,550.975,
835,10/30/2025 14:31:22,10/30/2025 14:42:32,670.56,
836,10/30/2025 16:05:26,10/30/2025 16:15:39,612.771,
837,10/31/2025 14:12:52,10/31/2025 14:23:24,631.998,
838,10/31/2025 15:46:30,10/31/2025 15:57:26,655.689,
839,11/01/2025 13:54:31,11/01/2025 14:04:01,569.808,
840,11/01/2025 15:27:39,11/01/2025 15:39:02,682.434,
841,11/01/2025 17:03:24,11/01/2025 17:08:58,334.201,
842,11/02/2025 13:36:24,11/02/2025 13:44:18,473.184,
843,11/02/2025 15:08:53,11/02/2025 15:20:27,694.068,
844,11/02/2025 16:43:54,11/02/2025 16:51:37,463.034,
845,11/03/2025 13:18:48,11/03/2025 13:23:57,308.842,
846,11/03/2025 14:50:11,11/03/2025 15:01:42,690.572,
847,11/03/2025 16:24:42,11/03/2025 16:33:52,550.108,
848,11/04/2025 14:31:35,11/04/2025 14:42:46,670.9,
849,11/04/2025 16:05:40,11/04/2025 16:15:52,612.156,
850,11/05/2025 14:13:05,11/05/2025 14:23:38,632.58,
851,11/05/2025 15:46:43,11/05/2025 15:57:39,655.278,
852,11/06/2025 13:54:44,11/06/2025 14:04:15,570.716,
853,11/06/2025 15:27:52,11/06/2025 15:39:15,682.207,
854,11/06/2025 17:03:38,11/06/2025 17:09:10,332.249,
855,11/07/2025 13:36:37,11/07/2025 13:44:32,474.612,
856,11/07/2025 15:09:06,11/07/2025 15:20:40,694.018,
857,11/07/2025 16:44:08,11/07/2025 16:51:49,461.803,
858,11/08/2025 13:19:00,11/08/2025 13:24:12,311.571,
859,11/08/2025 14:50:24,11/08/2025 15:01:55,690.705,
860,11/08/2025 16:24:56,11/08/2025 16:34:05,549.238,
861,11/09/2025 14:31:48,11/09/2025 14:42:59,671.236,
862,11/09/2025 16:05:53,11/09/2025 16:16:04,611.538,
863,11/10/2025 14:13:18,11/10/2025 14:23:51,633.159,
864,11/10/2025 15:46:57,11/10/2025 15:57:52,654.866,
865,11/11/2025 13:54:57,11/11/2025 14:04:29,571.618,
866,11/11/2025 15:28:06,11/11/2025 15:39:28,681.978,
867,11/11/2025 17:03:52,11/11/2025 17:09:22,330.286,
868,11/12/2025 13:36:50,11/12/2025 13:44:46,476.03,
869,11/12/2025 15:09:19,11/12/2025 15:20:53,693.959,
870,11/12/2025 16:44:21,11/12/2025 16:52:02,460.568,
871,11/13/2025 13:19:12,11/13/2025 13:24:27,314.256,
872,11/13/2025 14:50:38,11/13/2025 15:02:08,690.839,
873,11/13/2025 16:25:09,11/13/2025 16:34:17,548.37,
874,11/14/2025 14:32:01,11/14/2025 14:43:13,671.571,
875,11/14/2025 16:06:06,11/14/2025 16:16:17,610.92,
876,11/15/2025 14:13:31,11/15/2025 14:24:05,633.732,
877,11/15/2025 15:47:10,11/15/2025 15:58:04,654.451,
878,11/16/2025 13:55:10,11/16/2025 14:04:42,572.516,
879,11/16/2025 15:28:19,11/16/2025 15:39:41,681.747,
880,11/16/2025 17:04:05,11/16/2025 17:09:34,328.309,
881,11/17/2025 13:37:02,11/17/2025 13:45:00,477.438,
882,11/17/2025 15:09:32,11/17/2025 15:21:06,693.904,
883,11/17/2025 16:44:35,11/17/2025 16:52:14,459.331,
884,11/18/2025 13:19:24,11/18/2025 13:24:41,316.924,
885,11/18/2025 14:50:51,11/18/2025 15:02:22,690.968,
886,11/18/2025 16:25:23,11/18/2025 16:34:30,547.494,
887,11/19/2025 14:32:14,11/19/2025 14:43:26,671.902,
888,11/19/2025 16:06:20,11/19/2025 16:16:30,610.297,
889,11/20/2025 14:13:44,11/20/2025 14:24:18,634.304,
890,11/20/2025 15:47:23,11/20/2025 15:58:17,654.034,
891,11/21/2025 13:55:23,11/21/2025 14:04:56,573.41,
892,11/21/2025 15:28:32,11/21/2025 15:39:54,681.513,
893,11/21/2025 17:04:19,11/21/2025 17:09:46,326.313,
894,11/22/2025 13:37:15,11/22/2025 13:45:14,478.842,
895,11/22/2025 15:09:46,11/22/2025 15:21:19,693.849,
896,11/22/2025 16:44:49,11/22/2025 16:52:27,458.083,
897,11/23/2025 13:19:36,11/23/2025 13:24:56,319.564,
898,11/23/2025 14:51:04,11/23/2025 15:02:35,691.095,
899,11/23/2025 16:25:36,11/23/2025 16:34:43,546.615,
900,11/24/2025 14:32:27,11/24/2025 14:43:39,672.228,
901,11/24/2025 16:06:33,11/24/2025 16:16:43,609.672,
902,11/25/2025 14:13:57,11/25/2025 14:24:32,634.874,
903,11/25/2025 15:47:37,11/25/2025 15:58:30,653.614,
904,11/26/2025 13:55:35,11/26/2025 14:05:10,574.299,
905,11/26/2025 15:28:45,11/26/2025 15:40:07,681.278,
906,11/26/2025 17:04:33,11/26/2025 17:09:58,324.305,
907,11/27/2025 13:37:28,11/27/2025 13:45:28,480.236,
908,11/27/2025 15:09:59,11/27/2025 15:21:33,693.797,
909,11/27/2025 16:45:02,11/27/2025 16:52:39,456.828,
910,11/28/2025 13:19:48,11/28/2025 13:25:11,322.182,
911,11/28/2025 14:51:17,11/28/2025 15:02:48,691.215,
912,11/28/2025 16:25:49,11/28/2025 16:34:55,545.73,
913,11/29/2025 14:32:40,11/29/2025 14:43:53,672.554,
914,11/29/2025 16:06:46,11/29/2025 16:16:55,609.047,
915,11/30/2025 14:14:10,11/30/2025 14:24:45,635.439,
916,11/30/2025 15:47:50,11/30/2025 15:58:43,653.193,
917,12/01/2025 13:55:48,12/01/2025 14:05:24,575.183,
918,12/01/2025 15:28:59,12/01/2025 15:40:20,681.04,
919,12/01/2025 17:04:47,12/01/2025 17:10:10,322.283,
920,12/02/2025 13:37:40,12/02/2025 13:45:42,481.622,
921,12/02/2025 15:10:12,12/02/2025 15:21:46,693.736,
922,12/02/2025 16:45:16,12/02/2025 16:52:51,455.57,
923,12/03/2025 13:20:01,12/03/2025 13:25:25,324.756,
924,12/03/2025 14:51:30,12/03/2025 15:03:01,691.345,
925,12/03/2025 16:26:03,12/03/2025 16:35:08,544.847,
926,12/04/2025 14:32:53,12/04/2025 14:44:06,672.878,
927,12/04/2025 16:07:00,12/04/2025 16:17:08,608.414,
928,12/05/2025 14:14:23,12/05/2025 14:24:59,636.003,
929,12/05/2025 15:48:03,12/05/2025 15:58:56,652.768,
930,12/06/2025 13:56:01,12/06/2025 14:05:37,576.064,
931,12/06/2025 15:29:12,12/06/2025 15:40:33,680.8,
932,12/06/2025 17:05:01,12/06/2025 17:10:22,320.241,
933,12/07/2025 13:37:53,12/07/2025 13:45:56,483.001,
934,12/07/2025 15:10:25,12/07/2025 15:21:59,693.674,
935,12/07/2025 16:45:29,12/07/2025 16:53:04,454.305,
936,12/08/2025 13:20:13,12/08/2025 13:25:40,327.315,
937,12/08/2025 14:51:43,12/08/2025 15:03:15,691.465,
938,12/08/2025 16:26:16,12/08/2025 16:35:20,543.957,
939,12/09/2025 14:33:06,12/09/2025 14:44:20,673.198,
940,12/09/2025 16:07:13,12/09/2025 16:17:21,607.781,
941,12/10/2025 14:14:36,12/10/2025 14:25:13,636.562,
942,12/10/2025 15:48:17,12/10/2025 15:59:09,652.343,
943,12/11/2025 13:56:14,12/11/2025 14:05:51,576.938,
944,12/11/2025 15:29:25,12/11/2025 15:40:46,680.559,
945,12/11/2025 17:05:15,12/11/2025 17:10:34,318.189,
946,12/12/2025 13:38:06,12/12/2025 13:46:10,484.37,
947,12/12/2025 15:10:38,12/12/2025 15:22:12,693.609,
948,12/12/2025 16:45:43,12/12/2025 16:53:16,453.038,
949,12/13/2025 13:20:25,12/13/2025 13:25:55,329.842,
950,12/13/2025 14:51:56,12/13/2025 15:03:28,691.582,
951,12/13/2025 16:26:30,12/13/2025 16:35:33,543.065,
952,12/14/2025 14:33:20,12/14/2025 14:44:33,673.515,
953,12/14/2025 16:07:27,12/14/2025 16:17:34,607.146,
954,12/15/2025 14:14:49,12/15/2025 14:25:26,637.118,
955,12/15/2025 15:48:30,12/15/2025 15:59:22,651.914,
956,12/16/2025 13:56:27,12/16/2025 14:06:05,577.808,
957,12/16/2025 15:29:38,12/16/2025 15:40:59,680.315,
958,12/16/2025 17:05:29,12/16/2025 17:10:45,316.12,
959,12/17/2025 13:38:18,12/17/2025 13:46:24,485.731,
960,12/17/2025 15:10:52,12/17/2025 15:22:25,693.542,
961,12/17/2025 16:45:57,12/17/2025 16:53:28,451.764,
962,12/18/2025 13:20:37,12/18/2025 13:26:09,332.348,
963,12/18/2025 14:52:10,12/18/2025 15:03:41,691.697,
964,12/18/2025 16:26:43,12/18/2025 16:35:46,542.169,
965,12/19/2025 14:33:33,12/19/2025 14:44:46,673.83,
966,12/19/2025 16:07:40,12/19/2025 16:17:47,606.508,
967,12/20/2025 14:15:02,12/20/2025 14:25:40,637.671,
968,12/20/2025 15:48:43,12/20/2025 15:59:35,651.484,
969,12/21/2025 13:56:40,12/21/2025 14:06:19,578.674,
970,12/21/2025 15:29:52,12/21/2025 15:41:12,680.069,
971,12/21/2025 17:05:43,12/21/2025 17:10:57,314.033,
972,12/22/2025 13:38:31,12/22/2025 13:46:38,487.085,
973,12/22/2025 15:11:05,12/22/2025 15:22:38,693.473,
974,12/22/2025 16:46:10,12/22/2025 16:53:41,450.484,
975,12/23/2025 13:20:49,12/23/2025 13:26:24,334.83,
976,12/23/2025 14:52:23,12/23/2025 15:03:55,691.809,
977,12/23/2025 16:26:57,12/23/2025 16:35:58,541.27,
978,12/24/2025 14:33:46,12/24/2025 14:45:00,674.142,
979,12/24/2025 16:07:53,12/24/2025 16:17:59,605.868,
980,12/25/2025 14:15:15,12/25/2025 14:25:53,638.221,
981,12/25/2025 15:48:57,12/25/2025 15:59:48,651.051,
982,12/26/2025 13:56:53,12/26/2025 14:06:32,579.528,
983,12/26/2025 15:30:05,12/26/2025 15:41:25,679.821,
984,12/26/2025 17:05:57,12/26/2025 17:11:09,311.94,
985,12/27/2025 13:38:44,12/27/2025 13:46:52,488.43,
986,12/27/2025 15:11:18,12/27/2025 15:22:51,693.394,
987,12/27/2025 16:46:24,12/27/2025 16:53:53,449.199,
988,12/28/2025 13:21:01,12/28/2025 13:26:39,337.275,
989,12/28/2025 14:52:36,12/28/2025 15:04:08,691.916,
990,12/28/2025 16:27:10,12/28/2025 16:36:11,540.364,
991,12/29/2025 14:33:59,12/29/2025 14:45:13,674.452,
992,12/29/2025 16:08:07,12/29/2025 16:18:12,605.227,
993,12/30/2025 14:15:28,12/30/2025 14:26:07,638.767,
994,12/30/2025 15:49:10,12/30/2025 16:00:01,650.617,
995,12/31/2025 13:57:06,12/31/2025 14:06:46,580.385,
996,12/31/2025 15:30:18,12/31/2025 15:41:38,679.57,
997,12/31/2025 17:06:11,12/31/2025 17:11:21,309.824,
998,01/01/2026 13:38:56,01/01/2026 13:47:06,489.764,
999,01/01/2026 15:11:31,01/01/2026 15:23:05,693.329,
,,,,
Global Statistics,,,,
Min Duration,04/15/1900 00:00:00,02/11/2025 13:09:21,09:44.0,23.133
Max Duration,06/07/1901 00:00:00,07/10/2025 15:03:50,15:24.1,694.634
Mean Duration,,,,541.007
Total Duration,,,,540466.361
