3UCubedIntegratedSim/Reports & Plots/Comms/Past Comms Data/UNH/CSV/Sat13.csv

Access,Start Time (UTCG),Stop Time (UTCG),Duration (sec),
1,01/01/2025 16:32:34,01/01/2025 16:40:00,445.713,
2,01/01/2025 18:05:11,01/01/2025 18:16:26,674.947,
3,01/01/2025 19:39:56,01/01/2025 19:47:50,474.403,
4,01/02/2025 16:15:11,01/02/2025 16:19:24,252.848,
5,01/02/2025 17:46:17,01/02/2025 17:57:39,681.822,
6,01/02/2025 19:21:01,01/02/2025 19:30:01,539.952,
7,01/03/2025 17:27:36,01/03/2025 17:38:40,664.347,
8,01/03/2025 19:02:07,01/03/2025 19:11:58,590.765,
9,01/04/2025 17:09:08,01/04/2025 17:19:29,621.503,
10,01/04/2025 18:43:13,01/04/2025 18:53:42,629.484,
11,01/04/2025 20:19:37,01/04/2025 20:22:01,144.14,
12,01/05/2025 16:50:49,01/05/2025 17:00:03,553.487,
13,01/05/2025 18:24:19,01/05/2025 18:35:16,657.341,
14,01/05/2025 19:59:24,01/05/2025 20:05:29,365.602,
15,01/06/2025 16:32:46,01/06/2025 16:40:14,447.296,
16,01/06/2025 18:05:24,01/06/2025 18:16:39,674.809,
17,01/06/2025 19:40:09,01/06/2025 19:48:02,473.531,
18,01/07/2025 16:15:23,01/07/2025 16:19:39,256.296,
19,01/07/2025 17:46:30,01/07/2025 17:57:52,681.808,
20,01/07/2025 19:21:15,01/07/2025 19:30:14,539.278,
21,01/08/2025 17:27:49,01/08/2025 17:38:54,664.726,
22,01/08/2025 19:02:20,01/08/2025 19:12:11,590.245,
23,01/09/2025 17:09:21,01/09/2025 17:19:43,622.138,
24,01/09/2025 18:43:26,01/09/2025 18:53:55,629.096,
25,01/09/2025 20:19:52,01/09/2025 20:22:12,139.212,
26,01/10/2025 16:51:02,01/10/2025 17:00:16,554.471,
27,01/10/2025 18:24:32,01/10/2025 18:35:29,657.077,
28,01/10/2025 19:59:38,01/10/2025 20:05:41,363.878,
29,01/11/2025 16:32:59,01/11/2025 16:40:28,448.87,
30,01/11/2025 18:05:38,01/11/2025 18:16:52,674.668,
31,01/11/2025 19:40:22,01/11/2025 19:48:15,472.655,
32,01/12/2025 16:15:35,01/12/2025 16:19:54,259.693,
33,01/12/2025 17:46:44,01/12/2025 17:58:05,681.794,
34,01/12/2025 19:21:28,01/12/2025 19:30:27,538.603,
35,01/13/2025 17:28:02,01/13/2025 17:39:07,665.105,
36,01/13/2025 19:02:34,01/13/2025 19:12:23,589.725,
37,01/14/2025 17:09:34,01/14/2025 17:19:56,622.765,
38,01/14/2025 18:43:40,01/14/2025 18:54:08,628.711,
39,01/14/2025 20:20:08,01/14/2025 20:22:22,134.085,
40,01/15/2025 16:51:15,01/15/2025 17:00:30,555.452,
41,01/15/2025 18:24:45,01/15/2025 18:35:42,656.816,
42,01/15/2025 19:59:51,01/15/2025 20:05:54,362.139,
43,01/16/2025 16:33:12,01/16/2025 16:40:42,450.435,
44,01/16/2025 18:05:51,01/16/2025 18:17:06,674.528,
45,01/16/2025 19:40:35,01/16/2025 19:48:27,471.778,
46,01/17/2025 16:15:46,01/17/2025 16:20:09,263.039,
47,01/17/2025 17:46:57,01/17/2025 17:58:19,681.779,
48,01/17/2025 19:21:41,01/17/2025 19:30:39,537.928,
49,01/18/2025 17:28:15,01/18/2025 17:39:21,665.481,
50,01/18/2025 19:02:47,01/18/2025 19:12:36,589.204,
51,01/19/2025 17:09:47,01/19/2025 17:20:10,623.394,
52,01/19/2025 18:43:53,01/19/2025 18:54:21,628.321,
53,01/19/2025 20:20:23,01/19/2025 20:22:32,128.758,
54,01/20/2025 16:51:28,01/20/2025 17:00:44,556.426,
55,01/20/2025 18:24:59,01/20/2025 18:35:55,656.55,
56,01/20/2025 20:00:05,01/20/2025 20:06:06,360.394,
57,01/21/2025 16:33:24,01/21/2025 16:40:56,451.992,
58,01/21/2025 18:06:04,01/21/2025 18:17:19,674.386,
59,01/21/2025 19:40:49,01/21/2025 19:48:40,470.894,
60,01/22/2025 16:15:58,01/22/2025 16:20:24,266.329,
61,01/22/2025 17:47:10,01/22/2025 17:58:32,681.758,
62,01/22/2025 19:21:55,01/22/2025 19:30:52,537.246,
63,01/23/2025 17:28:28,01/23/2025 17:39:34,665.856,
64,01/23/2025 19:03:00,01/23/2025 19:12:49,588.676,
65,01/24/2025 17:10:00,01/24/2025 17:20:24,624.02,
66,01/24/2025 18:44:06,01/24/2025 18:54:34,627.928,
67,01/24/2025 20:20:39,01/24/2025 20:22:42,123.201,
68,01/25/2025 16:51:40,01/25/2025 17:00:58,557.395,
69,01/25/2025 18:25:12,01/25/2025 18:36:08,656.281,
70,01/25/2025 20:00:19,01/25/2025 20:06:18,358.639,
71,01/26/2025 16:33:37,01/26/2025 16:41:10,453.537,
72,01/26/2025 18:06:18,01/26/2025 18:17:32,674.24,
73,01/26/2025 19:41:02,01/26/2025 19:48:52,470.007,
74,01/27/2025 16:16:10,01/27/2025 16:20:39,269.575,
75,01/27/2025 17:47:24,01/27/2025 17:58:45,681.737,
76,01/27/2025 19:22:08,01/27/2025 19:31:04,536.564,
77,01/28/2025 17:28:41,01/28/2025 17:39:47,666.224,
78,01/28/2025 19:03:14,01/28/2025 19:13:02,588.15,
79,01/29/2025 17:10:13,01/29/2025 17:20:37,624.644,
80,01/29/2025 18:44:19,01/29/2025 18:54:47,627.537,
81,01/29/2025 20:20:55,01/29/2025 20:22:52,117.358,
82,01/30/2025 16:51:53,01/30/2025 17:01:12,558.36,
83,01/30/2025 18:25:25,01/30/2025 18:36:21,656.014,
84,01/30/2025 20:00:33,01/30/2025 20:06:30,356.875,
85,01/31/2025 16:33:49,01/31/2025 16:41:24,455.074,
86,01/31/2025 18:06:31,01/31/2025 18:17:45,674.094,
87,01/31/2025 19:41:15,01/31/2025 19:49:05,469.12,
88,02/01/2025 16:16:22,02/01/2025 16:20:54,272.776,
89,02/01/2025 17:47:37,02/01/2025 17:58:59,681.717,
90,02/01/2025 19:22:21,02/01/2025 19:31:17,535.881,
91,02/02/2025 17:28:54,02/02/2025 17:40:01,666.592,
92,02/02/2025 19:03:27,02/02/2025 19:13:15,587.622,
93,02/03/2025 17:10:26,02/03/2025 17:20:51,625.261,
94,02/03/2025 18:44:33,02/03/2025 18:55:00,627.141,
95,02/03/2025 20:21:11,02/03/2025 20:23:02,111.22,
96,02/04/2025 16:52:06,02/04/2025 17:01:25,559.319,
97,02/04/2025 18:25:39,02/04/2025 18:36:34,655.741,
98,02/04/2025 20:00:47,02/04/2025 20:06:42,355.097,
99,02/05/2025 16:34:02,02/05/2025 16:41:39,456.598,
100,02/05/2025 18:06:44,02/05/2025 18:17:58,673.942,
101,02/05/2025 19:41:29,02/05/2025 19:49:17,468.228,
102,02/06/2025 16:16:33,02/06/2025 16:21:09,275.925,
103,02/06/2025 17:47:50,02/06/2025 17:59:12,681.689,
104,02/06/2025 19:22:35,02/06/2025 19:31:30,535.191,
105,02/07/2025 17:29:07,02/07/2025 17:40:14,666.957,
106,02/07/2025 19:03:40,02/07/2025 19:13:27,587.088,
107,02/08/2025 17:10:39,02/08/2025 17:21:04,625.875,
108,02/08/2025 18:44:46,02/08/2025 18:55:13,626.742,
109,02/08/2025 20:21:27,02/08/2025 20:23:12,104.72,
110,02/09/2025 16:52:19,02/09/2025 17:01:39,560.273,
111,02/09/2025 18:25:52,02/09/2025 18:36:47,655.467,
112,02/09/2025 20:01:01,02/09/2025 20:06:54,353.307,
113,02/10/2025 16:34:15,02/10/2025 16:41:53,458.114,
114,02/10/2025 18:06:58,02/10/2025 18:18:11,673.79,
115,02/10/2025 19:41:42,02/10/2025 19:49:29,467.333,
116,02/11/2025 16:16:45,02/11/2025 16:21:24,279.036,
117,02/11/2025 17:48:03,02/11/2025 17:59:25,681.664,
118,02/11/2025 19:22:48,02/11/2025 19:31:42,534.502,
119,02/12/2025 17:29:20,02/12/2025 17:40:28,667.32,
120,02/12/2025 19:03:54,02/12/2025 19:13:40,586.556,
121,02/13/2025 17:10:51,02/13/2025 17:21:18,626.487,
122,02/13/2025 18:44:59,02/13/2025 18:55:26,626.349,
123,02/13/2025 20:21:44,02/13/2025 20:23:21,97.774,
124,02/14/2025 16:52:32,02/14/2025 17:01:53,561.222,
125,02/14/2025 18:26:05,02/14/2025 18:37:00,655.193,
126,02/14/2025 20:01:15,02/14/2025 20:07:06,351.507,
127,02/15/2025 16:34:27,02/15/2025 16:42:07,459.62,
128,02/15/2025 18:07:11,02/15/2025 18:18:25,673.637,
129,02/15/2025 19:41:55,02/15/2025 19:49:42,466.435,
130,02/16/2025 16:16:57,02/16/2025 16:21:39,282.1,
131,02/16/2025 17:48:17,02/16/2025 17:59:38,681.635,
132,02/16/2025 19:23:01,02/16/2025 19:31:55,533.809,
133,02/17/2025 17:29:34,02/17/2025 17:40:41,667.68,
134,02/17/2025 19:04:07,02/17/2025 19:13:53,586.019,
135,02/18/2025 17:11:04,02/18/2025 17:21:32,627.093,
136,02/18/2025 18:45:13,02/18/2025 18:55:39,625.945,
137,02/18/2025 20:22:00,02/18/2025 20:23:31,90.304,
138,02/19/2025 16:52:45,02/19/2025 17:02:07,562.164,
139,02/19/2025 18:26:19,02/19/2025 18:37:13,654.913,
140,02/19/2025 20:01:28,02/19/2025 20:07:18,349.7,
141,02/20/2025 16:34:40,02/20/2025 16:42:21,461.111,
142,02/20/2025 18:07:24,02/20/2025 18:18:38,673.477,
143,02/20/2025 19:42:09,02/20/2025 19:49:54,465.525,
144,02/21/2025 16:17:09,02/21/2025 16:21:54,285.122,
145,02/21/2025 17:48:30,02/21/2025 17:59:52,681.601,
146,02/21/2025 19:23:15,02/21/2025 19:32:08,533.111,
147,02/22/2025 17:29:47,02/22/2025 17:40:55,668.037,
148,02/22/2025 19:04:20,02/22/2025 19:14:06,585.478,
149,02/23/2025 17:11:17,02/23/2025 17:21:45,627.697,
150,02/23/2025 18:45:26,02/23/2025 18:55:52,625.539,
151,02/23/2025 20:22:17,02/23/2025 20:23:39,82.154,
152,02/24/2025 16:52:57,02/24/2025 17:02:21,563.102,
153,02/24/2025 18:26:32,02/24/2025 18:37:27,654.632,
154,02/24/2025 20:01:42,02/24/2025 20:07:30,347.879,
155,02/25/2025 16:34:52,02/25/2025 16:42:35,462.598,
156,02/25/2025 18:07:38,02/25/2025 18:18:51,673.319,
157,02/25/2025 19:42:22,02/25/2025 19:50:07,464.622,
158,02/26/2025 16:17:21,02/26/2025 16:22:09,288.109,
159,02/26/2025 17:48:43,02/26/2025 18:00:05,681.566,
160,02/26/2025 19:23:28,02/26/2025 19:32:20,532.414,
161,02/27/2025 17:30:00,02/27/2025 17:41:08,668.392,
162,02/27/2025 19:04:34,02/27/2025 19:14:19,584.936,
163,02/28/2025 17:11:30,02/28/2025 17:21:59,628.297,
164,02/28/2025 18:45:39,02/28/2025 18:56:05,625.131,
165,02/28/2025 20:22:35,02/28/2025 20:23:48,73.069,
166,03/01/2025 16:53:10,03/01/2025 17:02:34,564.037,
167,03/01/2025 18:26:45,03/01/2025 18:37:40,654.352,
168,03/01/2025 20:01:56,03/01/2025 20:07:42,346.045,
169,03/02/2025 16:35:05,03/02/2025 16:42:49,464.076,
170,03/02/2025 18:07:51,03/02/2025 18:19:04,673.159,
171,03/02/2025 19:42:35,03/02/2025 19:50:19,463.712,
172,03/03/2025 16:17:33,03/03/2025 16:22:24,291.055,
173,03/03/2025 17:48:57,03/03/2025 18:00:18,681.53,
174,03/03/2025 19:23:41,03/03/2025 19:32:33,531.713,
175,03/04/2025 17:30:13,03/04/2025 17:41:21,668.743,
176,03/04/2025 19:04:47,03/04/2025 19:14:31,584.39,
177,03/05/2025 17:11:43,03/05/2025 17:22:12,628.894,
178,03/05/2025 18:45:53,03/05/2025 18:56:17,624.719,
179,03/05/2025 20:22:53,03/05/2025 20:23:56,62.709,
180,03/06/2025 16:53:23,03/06/2025 17:02:48,564.964,
181,03/06/2025 18:26:59,03/06/2025 18:37:53,654.064,
182,03/06/2025 20:02:10,03/06/2025 20:07:54,344.204,
183,03/07/2025 16:35:18,03/07/2025 16:43:03,465.542,
184,03/07/2025 18:08:04,03/07/2025 18:19:17,672.992,
185,03/07/2025 19:42:49,03/07/2025 19:50:31,462.796,
186,03/08/2025 16:17:45,03/08/2025 16:22:39,293.962,
187,03/08/2025 17:49:10,03/08/2025 18:00:32,681.489,
188,03/08/2025 19:23:54,03/08/2025 19:32:45,531.007,
189,03/09/2025 17:30:26,03/09/2025 17:41:35,669.092,
190,03/09/2025 19:05:00,03/09/2025 19:14:44,583.843,
191,03/10/2025 17:11:56,03/10/2025 17:22:26,629.487,
192,03/10/2025 18:46:06,03/10/2025 18:56:30,624.308,
193,03/10/2025 20:23:12,03/10/2025 20:24:02,50.215,
194,03/11/2025 16:53:36,03/11/2025 17:03:02,565.887,
195,03/11/2025 18:27:12,03/11/2025 18:38:06,653.778,
196,03/11/2025 20:02:24,03/11/2025 20:08:06,342.346,
197,03/12/2025 16:35:30,03/12/2025 16:43:17,467.002,
198,03/12/2025 18:08:18,03/12/2025 18:19:30,672.829,
199,03/12/2025 19:43:02,03/12/2025 19:50:44,461.88,
200,03/13/2025 16:17:57,03/13/2025 16:22:54,296.837,
201,03/13/2025 17:49:23,03/13/2025 18:00:45,681.449,
202,03/13/2025 19:24:08,03/13/2025 19:32:58,530.302,
203,03/14/2025 17:30:39,03/14/2025 17:41:48,669.439,
204,03/14/2025 19:05:14,03/14/2025 19:14:57,583.296,
205,03/15/2025 17:12:09,03/15/2025 17:22:39,630.077,
206,03/15/2025 18:46:19,03/15/2025 18:56:43,623.896,
207,03/15/2025 20:23:33,03/15/2025 20:24:07,33.324,
208,03/16/2025 16:53:49,03/16/2025 17:03:16,566.806,
209,03/16/2025 18:27:25,03/16/2025 18:38:19,653.493,
210,03/16/2025 20:02:38,03/16/2025 20:08:18,340.479,
211,03/17/2025 16:35:43,03/17/2025 16:43:31,468.451,
212,03/17/2025 18:08:31,03/17/2025 18:19:44,672.66,
213,03/17/2025 19:43:15,03/17/2025 19:50:56,460.963,
214,03/18/2025 16:18:09,03/18/2025 16:23:08,299.673,
215,03/18/2025 17:49:37,03/18/2025 18:00:58,681.405,
216,03/18/2025 19:24:21,03/18/2025 19:33:11,529.591,
217,03/19/2025 17:30:52,03/19/2025 17:42:02,669.782,
218,03/19/2025 19:05:27,03/19/2025 19:15:10,582.743,
219,03/20/2025 17:12:22,03/20/2025 17:22:53,630.663,
220,03/20/2025 18:46:33,03/20/2025 18:56:56,623.477,
221,03/21/2025 16:54:02,03/21/2025 17:03:29,567.718,
222,03/21/2025 18:27:38,03/21/2025 18:38:32,653.199,
223,03/21/2025 20:02:52,03/21/2025 20:08:30,338.602,
224,03/22/2025 16:35:55,03/22/2025 16:43:45,469.89,
225,03/22/2025 18:08:44,03/22/2025 18:19:57,672.488,
226,03/22/2025 19:43:29,03/22/2025 19:51:09,460.037,
227,03/23/2025 16:18:21,03/23/2025 16:23:23,302.475,
228,03/23/2025 17:49:50,03/23/2025 18:01:11,681.359,
229,03/23/2025 19:24:34,03/23/2025 19:33:23,528.877,
230,03/24/2025 17:31:05,03/24/2025 17:42:15,670.117,
231,03/24/2025 19:05:40,03/24/2025 19:15:22,582.189,
232,03/25/2025 17:12:35,03/25/2025 17:23:07,631.247,
233,03/25/2025 18:46:46,03/25/2025 18:57:09,623.06,
234,03/26/2025 16:54:15,03/26/2025 17:03:43,568.627,
235,03/26/2025 18:27:52,03/26/2025 18:38:45,652.907,
236,03/26/2025 20:03:06,03/26/2025 20:08:42,336.708,
237,03/27/2025 16:36:08,03/27/2025 16:43:59,471.323,
238,03/27/2025 18:08:58,03/27/2025 18:20:10,672.318,
239,03/27/2025 19:43:42,03/27/2025 19:51:21,459.111,
240,03/28/2025 16:18:33,03/28/2025 16:23:38,305.248,
241,03/28/2025 17:50:03,03/28/2025 18:01:25,681.312,
242,03/28/2025 19:24:48,03/28/2025 19:33:36,528.164,
243,03/29/2025 17:31:18,03/29/2025 17:42:29,670.457,
244,03/29/2025 19:05:54,03/29/2025 19:15:35,581.635,
245,03/30/2025 17:12:48,03/30/2025 17:23:20,631.821,
246,03/30/2025 18:46:59,03/30/2025 18:57:22,622.641,
247,03/31/2025 16:54:27,03/31/2025 17:03:57,569.53,
248,03/31/2025 18:28:05,03/31/2025 18:38:58,652.611,
249,03/31/2025 20:03:20,03/31/2025 20:08:54,334.804,
250,04/01/2025 16:36:21,04/01/2025 16:44:13,472.744,
251,04/01/2025 18:09:11,04/01/2025 18:20:23,672.141,
252,04/01/2025 19:43:55,04/01/2025 19:51:33,458.178,
253,04/02/2025 16:18:45,04/02/2025 16:23:53,307.984,
254,04/02/2025 17:50:17,04/02/2025 18:01:38,681.259,
255,04/02/2025 19:25:01,04/02/2025 19:33:49,527.444,
256,04/03/2025 17:31:31,04/03/2025 17:42:42,670.795,
257,04/03/2025 19:06:07,04/03/2025 19:15:48,581.074,
258,04/04/2025 17:13:01,04/04/2025 17:23:34,632.397,
259,04/04/2025 18:47:13,04/04/2025 18:57:35,622.216,
260,04/05/2025 16:54:40,04/05/2025 17:04:11,570.428,
261,04/05/2025 18:28:18,04/05/2025 18:39:11,652.311,
262,04/05/2025 20:03:33,04/05/2025 20:09:06,332.889,
263,04/06/2025 16:36:33,04/06/2025 16:44:28,474.158,
264,04/06/2025 18:09:24,04/06/2025 18:20:36,671.964,
265,04/06/2025 19:44:09,04/06/2025 19:51:46,457.242,
266,04/07/2025 16:18:57,04/07/2025 16:24:07,310.7,
267,04/07/2025 17:50:30,04/07/2025 18:01:51,681.205,
268,04/07/2025 19:25:14,04/07/2025 19:34:01,526.721,
269,04/08/2025 17:31:44,04/08/2025 17:42:55,671.127,
270,04/08/2025 19:06:20,04/08/2025 19:16:01,580.514,
271,04/09/2025 17:13:14,04/09/2025 17:23:47,632.97,
272,04/09/2025 18:47:26,04/09/2025 18:57:48,621.794,
273,04/10/2025 16:54:53,04/10/2025 17:04:24,571.323,
274,04/10/2025 18:28:32,04/10/2025 18:39:24,652.014,
275,04/10/2025 20:03:47,04/10/2025 20:09:18,330.956,
276,04/11/2025 16:36:46,04/11/2025 16:44:42,475.564,
277,04/11/2025 18:09:38,04/11/2025 18:20:49,671.788,
278,04/11/2025 19:44:22,04/11/2025 19:51:58,456.303,
279,04/12/2025 16:19:09,04/12/2025 16:24:22,313.378,
280,04/12/2025 17:50:43,04/12/2025 18:02:05,681.152,
281,04/12/2025 19:25:28,04/12/2025 19:34:14,526,
282,04/13/2025 17:31:57,04/13/2025 17:43:09,671.457,
283,04/13/2025 19:06:34,04/13/2025 19:16:14,579.953,
284,04/14/2025 17:13:27,04/14/2025 17:24:01,633.537,
285,04/14/2025 18:47:39,04/14/2025 18:58:01,621.367,
286,04/15/2025 16:55:06,04/15/2025 17:04:38,572.212,
287,04/15/2025 18:28:45,04/15/2025 18:39:37,651.712,
288,04/15/2025 20:04:01,04/15/2025 20:09:30,329.014,
289,04/16/2025 16:36:59,04/16/2025 16:44:56,476.958,
290,04/16/2025 18:09:51,04/16/2025 18:21:03,671.602,
291,04/16/2025 19:44:35,04/16/2025 19:52:11,455.357,
292,04/17/2025 16:19:21,04/17/2025 16:24:37,316.014,
293,04/17/2025 17:50:57,04/17/2025 18:02:18,681.098,
294,04/17/2025 19:25:41,04/17/2025 19:34:26,525.276,
295,04/18/2025 17:32:10,04/18/2025 17:43:22,671.785,
296,04/18/2025 19:06:47,04/18/2025 19:16:26,579.387,
297,04/19/2025 17:13:40,04/19/2025 17:24:14,634.104,
298,04/19/2025 18:47:53,04/19/2025 18:58:14,620.937,
299,04/20/2025 16:55:19,04/20/2025 17:04:52,573.096,
300,04/20/2025 18:28:58,04/20/2025 18:39:50,651.407,
301,04/20/2025 20:04:15,04/20/2025 20:09:42,327.058,
302,04/21/2025 16:37:11,04/21/2025 16:45:10,478.348,
303,04/21/2025 18:10:04,04/21/2025 18:21:16,671.421,
304,04/21/2025 19:44:49,04/21/2025 19:52:23,454.415,
305,04/22/2025 16:19:33,04/22/2025 16:24:52,318.632,
306,04/22/2025 17:51:10,04/22/2025 18:02:31,681.04,
307,04/22/2025 19:25:54,04/22/2025 19:34:39,524.549,
308,04/23/2025 17:32:23,04/23/2025 17:43:36,672.11,
309,04/23/2025 19:07:00,04/23/2025 19:16:39,578.822,
310,04/24/2025 17:13:53,04/24/2025 17:24:28,634.668,
311,04/24/2025 18:48:06,04/24/2025 18:58:27,620.51,
312,04/25/2025 16:55:32,04/25/2025 17:05:06,573.977,
313,04/25/2025 18:29:12,04/25/2025 18:40:03,651.105,
314,04/25/2025 20:04:29,04/25/2025 20:09:54,325.083,
315,04/26/2025 16:37:24,04/26/2025 16:45:24,479.731,
316,04/26/2025 18:10:18,04/26/2025 18:21:29,671.242,
317,04/26/2025 19:45:02,04/26/2025 19:52:35,453.468,
318,04/27/2025 16:19:45,04/27/2025 16:25:06,321.224,
319,04/27/2025 17:51:23,04/27/2025 18:02:44,680.982,
320,04/27/2025 19:26:08,04/27/2025 19:34:52,523.82,
321,04/28/2025 17:32:37,04/28/2025 17:43:49,672.433,
322,04/28/2025 19:07:14,04/28/2025 19:16:52,578.254,
323,04/29/2025 17:14:06,04/29/2025 17:24:42,635.228,
324,04/29/2025 18:48:19,04/29/2025 18:58:39,620.077,
325,04/30/2025 16:55:45,04/30/2025 17:05:20,574.852,
326,04/30/2025 18:29:25,04/30/2025 18:40:16,650.796,
327,04/30/2025 20:04:43,04/30/2025 20:10:06,323.1,
328,05/01/2025 16:37:37,05/01/2025 16:45:38,481.102,
329,05/01/2025 18:10:31,05/01/2025 18:21:42,671.054,
330,05/01/2025 19:45:15,05/01/2025 19:52:48,452.514,
331,05/02/2025 16:19:57,05/02/2025 16:25:21,323.784,
332,05/02/2025 17:51:37,05/02/2025 18:02:58,680.917,
333,05/02/2025 19:26:21,05/02/2025 19:35:04,523.086,
334,05/03/2025 17:32:50,05/03/2025 17:44:02,672.752,
335,05/03/2025 19:07:27,05/03/2025 19:17:05,577.682,
336,05/04/2025 17:14:19,05/04/2025 17:24:55,635.785,
337,05/04/2025 18:48:33,05/04/2025 18:58:52,619.643,
338,05/05/2025 16:55:58,05/05/2025 17:05:33,575.723,
339,05/05/2025 18:29:38,05/05/2025 18:40:29,650.488,
340,05/05/2025 20:04:57,05/05/2025 20:10:18,321.099,
341,05/06/2025 16:37:49,05/06/2025 16:45:52,482.468,
342,05/06/2025 18:10:44,05/06/2025 18:21:55,670.868,
343,05/06/2025 19:45:29,05/06/2025 19:53:00,451.558,
344,05/07/2025 16:20:09,05/07/2025 16:25:36,326.322,
345,05/07/2025 17:51:50,05/07/2025 18:03:11,680.856,
346,05/07/2025 19:26:34,05/07/2025 19:35:17,522.353,
347,05/08/2025 17:33:03,05/08/2025 17:44:16,673.069,
348,05/08/2025 19:07:40,05/08/2025 19:17:17,577.113,
349,05/09/2025 17:14:32,05/09/2025 17:25:09,636.339,
350,05/09/2025 18:48:46,05/09/2025 18:59:05,619.211,
351,05/10/2025 16:56:10,05/10/2025 17:05:47,576.59,
352,05/10/2025 18:29:52,05/10/2025 18:40:42,650.182,
353,05/10/2025 20:05:11,05/10/2025 20:10:30,319.081,
354,05/11/2025 16:38:02,05/11/2025 16:46:06,483.826,
355,05/11/2025 18:10:58,05/11/2025 18:22:08,670.682,
356,05/11/2025 19:45:42,05/11/2025 19:53:13,450.602,
357,05/12/2025 16:20:21,05/12/2025 16:25:50,328.836,
358,05/12/2025 17:52:03,05/12/2025 18:03:24,680.793,
359,05/12/2025 19:26:48,05/12/2025 19:35:29,521.618,
360,05/13/2025 17:33:16,05/13/2025 17:44:29,673.383,
361,05/13/2025 19:07:54,05/13/2025 19:17:30,576.54,
362,05/14/2025 17:14:45,05/14/2025 17:25:22,636.89,
363,05/14/2025 18:48:59,05/14/2025 18:59:18,618.774,
364,05/15/2025 16:56:23,05/15/2025 17:06:01,577.452,
365,05/15/2025 18:30:05,05/15/2025 18:40:55,649.87,
366,05/15/2025 20:05:25,05/15/2025 20:10:42,317.051,
367,05/16/2025 16:38:15,05/16/2025 16:46:20,485.174,
368,05/16/2025 18:11:11,05/16/2025 18:22:21,670.491,
369,05/16/2025 19:45:55,05/16/2025 19:53:25,449.64,
370,05/17/2025 16:20:34,05/17/2025 16:26:05,331.321,
371,05/17/2025 17:52:17,05/17/2025 18:03:37,680.725,
372,05/17/2025 19:27:01,05/17/2025 19:35:42,520.879,
373,05/18/2025 17:33:29,05/18/2025 17:44:43,673.695,
374,05/18/2025 19:08:07,05/18/2025 19:17:43,575.964,
375,05/19/2025 17:14:58,05/19/2025 17:25:36,637.438,
376,05/19/2025 18:49:13,05/19/2025 18:59:31,618.337,
377,05/20/2025 16:56:36,05/20/2025 17:06:14,578.31,
378,05/20/2025 18:30:18,05/20/2025 18:41:08,649.559,
379,05/20/2025 20:05:39,05/20/2025 20:10:54,315.003,
380,05/21/2025 16:38:27,05/21/2025 16:46:34,486.517,
381,05/21/2025 18:11:24,05/21/2025 18:22:35,670.303,
382,05/21/2025 19:46:09,05/21/2025 19:53:37,448.677,
383,05/22/2025 16:20:46,05/22/2025 16:26:19,333.786,
384,05/22/2025 17:52:30,05/22/2025 18:03:51,680.661,
385,05/22/2025 19:27:14,05/22/2025 19:35:55,520.141,
386,05/23/2025 17:33:42,05/23/2025 17:44:56,674.005,
387,05/23/2025 19:08:20,05/23/2025 19:17:56,575.391,
388,05/24/2025 17:15:11,05/24/2025 17:25:49,637.983,
389,05/24/2025 18:49:26,05/24/2025 18:59:44,617.901,
390,05/25/2025 16:56:49,05/25/2025 17:06:28,579.165,
391,05/25/2025 18:30:32,05/25/2025 18:41:21,649.249,
392,05/25/2025 20:05:53,05/25/2025 20:11:06,312.936,
393,05/26/2025 16:38:40,05/26/2025 16:46:48,487.851,
394,05/26/2025 18:11:38,05/26/2025 18:22:48,670.112,
395,05/26/2025 19:46:22,05/26/2025 19:53:50,447.712,
396,05/27/2025 16:20:58,05/27/2025 16:26:34,336.223,
397,05/27/2025 17:52:43,05/27/2025 18:04:04,680.593,
398,05/27/2025 19:27:28,05/27/2025 19:36:07,519.399,
399,05/28/2025 17:33:55,05/28/2025 17:45:09,674.312,
400,05/28/2025 19:08:33,05/28/2025 19:18:08,574.812,
401,05/29/2025 17:15:24,05/29/2025 17:26:03,638.524,
402,05/29/2025 18:49:39,05/29/2025 18:59:57,617.46,
403,05/30/2025 16:57:02,05/30/2025 17:06:42,580.007,
404,05/30/2025 18:30:45,05/30/2025 18:41:34,648.933,
405,05/30/2025 20:06:07,05/30/2025 20:11:18,310.862,
406,05/31/2025 16:38:53,05/31/2025 16:47:02,489.176,
407,05/31/2025 18:11:51,05/31/2025 18:23:01,669.918,
408,05/31/2025 19:46:35,05/31/2025 19:54:02,446.74,
409,06/01/2025 16:21:10,06/01/2025 16:26:49,338.636,
410,06/01/2025 17:52:57,06/01/2025 18:04:17,680.522,
411,06/01/2025 19:27:41,06/01/2025 19:36:20,518.655,
412,06/02/2025 17:34:08,06/02/2025 17:45:23,674.617,
413,06/02/2025 19:08:47,06/02/2025 19:18:21,574.234,
414,06/03/2025 17:15:37,06/03/2025 17:26:16,639.063,
415,06/03/2025 18:49:53,06/03/2025 19:00:10,617.021,
416,06/04/2025 16:57:15,06/04/2025 17:06:56,580.853,
417,06/04/2025 18:30:58,06/04/2025 18:41:47,648.621,
418,06/04/2025 20:06:21,06/04/2025 20:11:30,308.761,
419,06/05/2025 16:39:05,06/05/2025 16:47:16,490.497,
420,06/05/2025 18:12:04,06/05/2025 18:23:14,669.728,
421,06/05/2025 19:46:49,06/05/2025 19:54:14,445.77,
422,06/06/2025 16:21:22,06/06/2025 16:27:03,341.03,
423,06/06/2025 17:53:10,06/06/2025 18:04:30,680.456,
424,06/06/2025 19:27:54,06/06/2025 19:36:32,517.913,
425,06/07/2025 17:34:21,06/07/2025 17:45:36,674.922,
426,06/07/2025 19:09:00,06/07/2025 19:18:34,573.657,
427,06/08/2025 17:15:50,06/08/2025 17:26:30,639.599,
428,06/08/2025 18:50:06,06/08/2025 19:00:22,616.583,
429,06/09/2025 16:57:28,06/09/2025 17:07:09,581.695,
430,06/09/2025 18:31:12,06/09/2025 18:42:00,648.308,
431,06/09/2025 20:06:35,06/09/2025 20:11:42,306.643,
432,06/10/2025 16:39:18,06/10/2025 16:47:30,491.81,
433,06/10/2025 18:12:17,06/10/2025 18:23:27,669.536,
434,06/10/2025 19:47:02,06/10/2025 19:54:27,444.796,
435,06/11/2025 16:21:34,06/11/2025 16:27:18,343.403,
436,06/11/2025 17:53:23,06/11/2025 18:04:44,680.387,
437,06/11/2025 19:28:08,06/11/2025 19:36:45,517.167,
438,06/12/2025 17:34:34,06/12/2025 17:45:49,675.222,
439,06/12/2025 19:09:13,06/12/2025 19:18:47,573.076,
440,06/13/2025 17:16:03,06/13/2025 17:26:43,640.132,
441,06/13/2025 18:50:19,06/13/2025 19:00:35,616.14,
442,06/14/2025 16:57:41,06/14/2025 17:07:23,582.532,
443,06/14/2025 18:31:25,06/14/2025 18:42:13,647.991,
444,06/14/2025 20:06:49,06/14/2025 20:11:54,304.508,
445,06/15/2025 16:39:31,06/15/2025 16:47:44,493.116,
446,06/15/2025 18:12:31,06/15/2025 18:23:40,669.341,
447,06/15/2025 19:47:15,06/15/2025 19:54:39,443.817,
448,06/16/2025 16:21:47,06/16/2025 16:27:32,345.752,
449,06/16/2025 17:53:37,06/16/2025 18:04:57,680.315,
450,06/16/2025 19:28:21,06/16/2025 19:36:57,516.419,
451,06/17/2025 17:34:47,06/17/2025 17:46:03,675.52,
452,06/17/2025 19:09:27,06/17/2025 19:18:59,572.495,
453,06/18/2025 17:16:16,06/18/2025 17:26:57,640.668,
454,06/18/2025 18:50:33,06/18/2025 19:00:48,615.702,
455,06/19/2025 16:57:53,06/19/2025 17:07:37,583.365,
456,06/19/2025 18:31:38,06/19/2025 18:42:26,647.677,
457,06/19/2025 20:07:03,06/19/2025 20:12:05,302.354,
458,06/20/2025 16:39:43,06/20/2025 16:47:58,494.411,
459,06/20/2025 18:12:44,06/20/2025 18:23:53,669.149,
460,06/20/2025 19:47:29,06/20/2025 19:54:51,442.838,
461,06/21/2025 16:21:59,06/21/2025 16:27:47,348.084,
462,06/21/2025 17:53:50,06/21/2025 18:05:10,680.247,
463,06/21/2025 19:28:34,06/21/2025 19:37:10,515.673,
464,06/22/2025 17:35:00,06/22/2025 17:46:16,675.815,
465,06/22/2025 19:09:40,06/22/2025 19:19:12,571.915,
466,06/23/2025 17:16:29,06/23/2025 17:27:10,641.196,
467,06/23/2025 18:50:46,06/23/2025 19:01:01,615.261,
468,06/24/2025 16:58:06,06/24/2025 17:07:51,584.195,
469,06/24/2025 18:31:52,06/24/2025 18:42:39,647.362,
470,06/24/2025 20:07:17,06/24/2025 20:12:17,300.178,
471,06/25/2025 16:39:56,06/25/2025 16:48:12,495.704,
472,06/25/2025 18:12:57,06/25/2025 18:24:06,668.954,
473,06/25/2025 19:47:42,06/25/2025 19:55:04,441.854,
474,06/26/2025 16:22:11,06/26/2025 16:28:01,350.391,
475,06/26/2025 17:54:03,06/26/2025 18:05:23,680.173,
476,06/26/2025 19:28:48,06/26/2025 19:37:23,514.921,
477,06/27/2025 17:35:14,06/27/2025 17:46:30,676.106,
478,06/27/2025 19:09:53,06/27/2025 19:19:25,571.331,
479,06/28/2025 17:16:42,06/28/2025 17:27:24,641.714,
480,06/28/2025 18:50:59,06/28/2025 19:01:14,614.813,
481,06/29/2025 16:58:19,06/29/2025 17:08:04,585.02,
482,06/29/2025 18:32:05,06/29/2025 18:42:52,647.043,
483,06/29/2025 20:07:31,06/29/2025 20:12:29,297.987,
484,06/30/2025 16:40:09,06/30/2025 16:48:26,496.99,
485,06/30/2025 18:13:11,06/30/2025 18:24:20,668.759,
486,06/30/2025 19:47:55,06/30/2025 19:55:16,440.764,
487,07/01/2025 16:22:23,07/01/2025 16:28:16,352.681,
488,07/01/2025 17:54:17,07/01/2025 18:05:37,680.102,
489,07/01/2025 19:29:01,07/01/2025 19:37:35,514.17,
490,07/02/2025 17:35:27,07/02/2025 17:46:43,676.397,
491,07/02/2025 19:10:07,07/02/2025 19:19:37,570.749,
492,07/03/2025 17:16:55,07/03/2025 17:27:37,642.234,
493,07/03/2025 18:51:13,07/03/2025 19:01:27,614.376,
494,07/04/2025 16:58:32,07/04/2025 17:08:18,585.843,
495,07/04/2025 18:32:18,07/04/2025 18:43:05,646.73,
496,07/04/2025 20:07:45,07/04/2025 20:12:41,295.769,
497,07/05/2025 16:40:21,07/05/2025 16:48:40,498.273,
498,07/05/2025 18:13:24,07/05/2025 18:24:33,668.562,
499,07/05/2025 19:48:09,07/05/2025 19:55:28,439.444,
500,07/06/2025 16:22:36,07/06/2025 16:28:30,354.952,
501,07/06/2025 17:54:30,07/06/2025 18:05:50,680.03,
502,07/06/2025 19:29:14,07/06/2025 19:37:48,513.42,
503,07/07/2025 17:35:40,07/07/2025 17:46:56,676.686,
504,07/07/2025 19:10:20,07/07/2025 19:19:50,570.168,
505,07/08/2025 17:17:08,07/08/2025 17:27:51,642.754,
506,07/08/2025 18:51:26,07/08/2025 19:01:40,613.933,
507,07/09/2025 16:58:45,07/09/2025 17:08:32,586.661,
508,07/09/2025 18:32:32,07/09/2025 18:43:18,646.413,
509,07/09/2025 20:07:59,07/09/2025 20:12:53,293.535,
510,07/10/2025 16:40:34,07/10/2025 16:48:54,499.548,
511,07/10/2025 18:13:37,07/10/2025 18:24:46,668.369,
512,07/10/2025 19:48:23,07/10/2025 19:55:41,438.12,
513,07/11/2025 16:22:48,07/11/2025 16:28:45,357.2,
514,07/11/2025 17:54:43,07/11/2025 18:06:03,679.957,
515,07/11/2025 19:29:28,07/11/2025 19:38:00,512.666,
516,07/12/2025 17:35:53,07/12/2025 17:47:10,676.972,
517,07/12/2025 19:10:33,07/12/2025 19:20:03,569.582,
518,07/13/2025 17:17:21,07/13/2025 17:28:05,643.27,
519,07/13/2025 18:51:39,07/13/2025 19:01:53,613.488,
520,07/14/2025 16:58:58,07/14/2025 17:08:45,587.475,
521,07/14/2025 18:32:45,07/14/2025 18:43:31,646.095,
522,07/14/2025 20:08:13,07/14/2025 20:13:05,291.28,
523,07/15/2025 16:40:47,07/15/2025 16:49:08,500.814,
524,07/15/2025 18:13:51,07/15/2025 18:24:59,668.171,
525,07/15/2025 19:48:36,07/15/2025 19:55:53,436.786,
526,07/16/2025 16:23:00,07/16/2025 16:28:59,359.428,
527,07/16/2025 17:54:56,07/16/2025 18:06:16,679.886,
528,07/16/2025 19:29:41,07/16/2025 19:38:13,511.912,
529,07/17/2025 17:36:06,07/17/2025 17:47:23,677.256,
530,07/17/2025 19:10:47,07/17/2025 19:20:16,568.999,
531,07/18/2025 17:17:34,07/18/2025 17:28:18,643.781,
532,07/18/2025 18:51:52,07/18/2025 19:02:05,613.046,
533,07/19/2025 16:59:11,07/19/2025 17:08:59,588.287,
534,07/19/2025 18:32:58,07/19/2025 18:43:44,645.781,
535,07/19/2025 20:08:27,07/19/2025 20:13:16,288.999,
536,07/20/2025 16:41:00,07/20/2025 16:49:22,502.075,
537,07/20/2025 18:14:04,07/20/2025 18:25:12,667.983,
538,07/20/2025 19:48:50,07/20/2025 19:56:05,435.444,
539,07/21/2025 16:23:12,07/21/2025 16:29:14,361.641,
540,07/21/2025 17:55:10,07/21/2025 18:06:30,679.816,
541,07/21/2025 19:29:54,07/21/2025 19:38:25,511.158,
542,07/22/2025 17:36:19,07/22/2025 17:47:36,677.538,
543,07/22/2025 19:11:00,07/22/2025 19:20:28,568.414,
544,07/23/2025 17:17:47,07/23/2025 17:28:32,644.293,
545,07/23/2025 18:52:06,07/23/2025 19:02:18,612.601,
546,07/24/2025 16:59:24,07/24/2025 17:09:13,589.094,
547,07/24/2025 18:33:12,07/24/2025 18:43:57,645.461,
548,07/24/2025 20:08:41,07/24/2025 20:13:28,286.701,
549,07/25/2025 16:41:12,07/25/2025 16:49:36,503.328,
550,07/25/2025 18:14:17,07/25/2025 18:25:25,667.785,
551,07/25/2025 19:49:03,07/25/2025 19:56:18,434.099,
552,07/26/2025 16:23:25,07/26/2025 16:29:28,363.833,
553,07/26/2025 17:55:23,07/26/2025 18:06:43,679.745,
554,07/26/2025 19:30:07,07/26/2025 19:38:38,510.399,
555,07/27/2025 17:36:32,07/27/2025 17:47:50,677.817,
556,07/27/2025 19:11:13,07/27/2025 19:20:41,567.825,
557,07/28/2025 17:18:00,07/28/2025 17:28:45,644.808,
558,07/28/2025 18:52:19,07/28/2025 19:02:31,612.152,
559,07/29/2025 16:59:37,07/29/2025 17:09:26,589.895,
560,07/29/2025 18:33:25,07/29/2025 18:44:10,645.144,
561,07/29/2025 20:08:56,07/29/2025 20:13:40,284.377,
562,07/30/2025 16:41:25,07/30/2025 16:49:50,504.574,
563,07/30/2025 18:14:31,07/30/2025 18:25:38,667.591,
564,07/30/2025 19:49:17,07/30/2025 19:56:30,432.748,
565,07/31/2025 16:23:37,07/31/2025 16:29:43,366.017,
566,07/31/2025 17:55:36,07/31/2025 18:06:56,679.671,
567,07/31/2025 19:30:21,07/31/2025 19:38:50,509.642,
568,08/01/2025 17:36:45,08/01/2025 17:48:03,678.095,
569,08/01/2025 19:11:27,08/01/2025 19:20:54,567.242,
570,08/02/2025 17:18:13,08/02/2025 17:28:59,645.307,
571,08/02/2025 18:52:32,08/02/2025 19:02:44,611.713,
572,08/03/2025 16:59:49,08/03/2025 17:09:40,590.695,
573,08/03/2025 18:33:38,08/03/2025 18:44:23,644.83,
574,08/03/2025 20:09:10,08/03/2025 20:13:52,282.026,
575,08/04/2025 16:41:38,08/04/2025 16:50:04,505.817,
576,08/04/2025 18:14:44,08/04/2025 18:25:51,667.398,
577,08/04/2025 19:49:31,08/04/2025 19:56:42,431.386,
578,08/05/2025 16:23:49,08/05/2025 16:29:57,368.178,
579,08/05/2025 17:55:50,08/05/2025 18:07:09,679.6,
580,08/05/2025 19:30:34,08/05/2025 19:39:03,508.885,
581,08/06/2025 17:36:58,08/06/2025 17:48:17,678.369,
582,08/06/2025 19:11:40,08/06/2025 19:21:07,566.655,
583,08/07/2025 17:18:26,08/07/2025 17:29:12,645.81,
584,08/07/2025 18:52:46,08/07/2025 19:02:57,611.267,
585,08/08/2025 17:00:02,08/08/2025 17:09:54,591.489,
586,08/08/2025 18:33:51,08/08/2025 18:44:36,644.51,
587,08/08/2025 20:09:24,08/08/2025 20:14:03,279.657,
588,08/09/2025 16:41:50,08/09/2025 16:50:17,507.051,
589,08/09/2025 18:14:57,08/09/2025 18:26:04,667.2,
590,08/09/2025 19:49:44,08/09/2025 19:56:55,430.018,
591,08/10/2025 16:24:01,08/10/2025 16:30:12,370.319,
592,08/10/2025 17:56:03,08/10/2025 18:07:23,679.525,
593,08/10/2025 19:30:47,08/10/2025 19:39:16,508.122,
594,08/11/2025 17:37:11,08/11/2025 17:48:30,678.642,
595,08/11/2025 19:11:53,08/11/2025 19:21:19,566.065,
596,08/12/2025 17:18:39,08/12/2025 17:29:26,646.312,
597,08/12/2025 18:52:59,08/12/2025 19:03:10,610.817,
598,08/13/2025 17:00:15,08/13/2025 17:10:08,592.291,
599,08/13/2025 18:34:05,08/13/2025 18:44:49,644.192,
600,08/13/2025 20:09:38,08/13/2025 20:14:15,277.259,
601,08/14/2025 16:42:03,08/14/2025 16:50:31,508.28,
602,08/14/2025 18:15:11,08/14/2025 18:26:18,667.006,
603,08/14/2025 19:49:58,08/14/2025 19:57:07,428.641,
604,08/15/2025 16:24:14,08/15/2025 16:30:26,372.448,
605,08/15/2025 17:56:16,08/15/2025 18:07:36,679.455,
606,08/15/2025 19:31:01,08/15/2025 19:39:28,507.362,
607,08/16/2025 17:37:24,08/16/2025 17:48:43,678.912,
608,08/16/2025 19:12:06,08/16/2025 19:21:32,565.479,
609,08/17/2025 17:18:52,08/17/2025 17:29:39,646.81,
610,08/17/2025 18:53:12,08/17/2025 19:03:23,610.374,
611,08/18/2025 17:00:28,08/18/2025 17:10:21,593.075,
612,08/18/2025 18:34:18,08/18/2025 18:45:02,643.877,
613,08/18/2025 20:09:52,08/18/2025 20:14:27,274.834,
614,08/19/2025 16:42:16,08/19/2025 16:50:45,509.503,
615,08/19/2025 18:15:24,08/19/2025 18:26:31,666.812,
616,08/19/2025 19:50:12,08/19/2025 19:57:19,427.257,
617,08/20/2025 16:24:26,08/20/2025 16:30:41,374.557,
618,08/20/2025 17:56:30,08/20/2025 18:07:49,679.382,
619,08/20/2025 19:31:14,08/20/2025 19:39:41,506.599,
620,08/21/2025 17:37:37,08/21/2025 17:48:57,679.18,
621,08/21/2025 19:12:20,08/21/2025 19:21:45,564.889,
622,08/22/2025 17:19:05,08/22/2025 17:29:53,647.304,
623,08/22/2025 18:53:26,08/22/2025 19:03:36,609.926,
624,08/23/2025 17:00:41,08/23/2025 17:10:35,593.859,
625,08/23/2025 18:34:31,08/23/2025 18:45:15,643.556,
626,08/23/2025 20:10:06,08/23/2025 20:14:39,272.394,
627,08/24/2025 16:42:29,08/24/2025 16:50:59,510.72,
628,08/24/2025 18:15:37,08/24/2025 18:26:44,666.613,
629,08/24/2025 19:50:26,08/24/2025 19:57:31,425.865,
630,08/25/2025 16:24:38,08/25/2025 16:30:55,376.65,
631,08/25/2025 17:56:43,08/25/2025 18:08:02,679.311,
632,08/25/2025 19:31:27,08/25/2025 19:39:53,505.833,
633,08/26/2025 17:37:51,08/26/2025 17:49:10,679.446,
634,08/26/2025 19:12:33,08/26/2025 19:21:57,564.298,
635,08/27/2025 17:19:18,08/27/2025 17:30:06,647.796,
636,08/27/2025 18:53:39,08/27/2025 19:03:48,609.479,
637,08/28/2025 17:00:54,08/28/2025 17:10:49,594.639,
638,08/28/2025 18:34:45,08/28/2025 18:45:28,643.237,
639,08/28/2025 20:10:20,08/28/2025 20:14:50,269.913,
640,08/29/2025 16:42:41,08/29/2025 16:51:13,511.934,
641,08/29/2025 18:15:50,08/29/2025 18:26:57,666.415,
642,08/29/2025 19:50:39,08/29/2025 19:57:44,424.469,
643,08/30/2025 16:24:51,08/30/2025 16:31:09,378.73,
644,08/30/2025 17:56:56,08/30/2025 18:08:15,679.237,
645,08/30/2025 19:31:41,08/30/2025 19:40:06,505.069,
646,08/31/2025 17:38:04,08/31/2025 17:49:23,679.709,
647,08/31/2025 19:12:46,08/31/2025 19:22:10,563.71,
648,09/01/2025 17:19:31,09/01/2025 17:30:20,648.285,
649,09/01/2025 18:53:52,09/01/2025 19:04:01,609.034,
650,09/02/2025 17:01:07,09/02/2025 17:11:02,595.417,
651,09/02/2025 18:34:58,09/02/2025 18:45:41,642.919,
652,09/02/2025 20:10:35,09/02/2025 20:15:02,267.409,
653,09/03/2025 16:42:54,09/03/2025 16:51:27,513.139,
654,09/03/2025 18:16:04,09/03/2025 18:27:10,666.219,
655,09/03/2025 19:50:53,09/03/2025 19:57:56,423.062,
656,09/04/2025 16:25:03,09/04/2025 16:31:24,380.791,
657,09/04/2025 17:57:10,09/04/2025 18:08:29,679.162,
658,09/04/2025 19:31:54,09/04/2025 19:40:18,504.301,
659,09/05/2025 17:38:17,09/05/2025 17:49:37,679.966,
660,09/05/2025 19:13:00,09/05/2025 19:22:23,563.117,
661,09/06/2025 17:19:44,09/06/2025 17:30:33,648.771,
662,09/06/2025 18:54:05,09/06/2025 19:04:14,608.583,
663,09/07/2025 17:01:20,09/07/2025 17:11:16,596.191,
664,09/07/2025 18:35:11,09/07/2025 18:45:54,642.596,
665,09/07/2025 20:10:49,09/07/2025 20:15:14,264.883,
666,09/08/2025 16:43:07,09/08/2025 16:51:41,514.338,
667,09/08/2025 18:16:17,09/08/2025 18:27:23,666.019,
668,09/08/2025 19:51:07,09/08/2025 19:58:08,421.645,
669,09/09/2025 16:25:15,09/09/2025 16:31:38,382.837,
670,09/09/2025 17:57:23,09/09/2025 18:08:42,679.086,
671,09/09/2025 19:32:07,09/09/2025 19:40:31,503.53,
672,09/10/2025 17:38:30,09/10/2025 17:49:50,680.225,
673,09/10/2025 19:13:13,09/10/2025 19:22:36,562.524,
674,09/11/2025 17:19:57,09/11/2025 17:30:47,649.255,
675,09/11/2025 18:54:19,09/11/2025 19:04:27,608.135,
676,09/12/2025 17:01:33,09/12/2025 17:11:30,596.963,
677,09/12/2025 18:35:25,09/12/2025 18:46:07,642.277,
678,09/12/2025 20:11:03,09/12/2025 20:15:25,262.32,
679,09/13/2025 16:43:20,09/13/2025 16:51:55,515.533,
680,09/13/2025 18:16:30,09/13/2025 18:27:36,665.827,
681,09/13/2025 19:51:20,09/13/2025 19:58:20,420.221,
682,09/14/2025 16:25:28,09/14/2025 16:31:53,384.87,
683,09/14/2025 17:57:36,09/14/2025 18:08:55,679.014,
684,09/14/2025 19:32:21,09/14/2025 19:40:43,502.761,
685,09/15/2025 16:09:20,09/15/2025 16:09:59,39.52,
686,09/15/2025 17:38:43,09/15/2025 17:50:03,680.482,
687,09/15/2025 19:13:26,09/15/2025 19:22:48,561.932,
688,09/16/2025 17:20:10,09/16/2025 17:31:00,649.736,
689,09/16/2025 18:54:32,09/16/2025 19:04:40,607.686,
690,09/17/2025 17:01:46,09/17/2025 17:11:43,597.73,
691,09/17/2025 18:35:38,09/17/2025 18:46:20,641.959,
692,09/17/2025 20:11:17,09/17/2025 20:15:37,259.726,
693,09/18/2025 16:43:32,09/18/2025 16:52:09,516.724,
694,09/18/2025 18:16:44,09/18/2025 18:27:49,665.628,
695,09/18/2025 19:51:34,09/18/2025 19:58:33,418.793,
696,09/19/2025 16:25:40,09/19/2025 16:32:07,386.883,
697,09/19/2025 17:57:49,09/19/2025 18:09:08,678.936,
698,09/19/2025 19:32:34,09/19/2025 19:40:56,501.988,
699,09/20/2025 16:09:24,09/20/2025 16:10:23,58.896,
700,09/20/2025 17:38:56,09/20/2025 17:50:17,680.736,
701,09/20/2025 19:13:40,09/20/2025 19:23:01,561.335,
702,09/21/2025 17:20:23,09/21/2025 17:31:14,650.215,
703,09/21/2025 18:54:45,09/21/2025 19:04:53,607.236,
704,09/22/2025 17:01:59,09/22/2025 17:11:57,598.493,
705,09/22/2025 18:35:51,09/22/2025 18:46:33,641.635,
706,09/22/2025 20:11:32,09/22/2025 20:15:49,257.105,
707,09/23/2025 16:43:45,09/23/2025 16:52:23,517.904,
708,09/23/2025 18:16:57,09/23/2025 18:28:02,665.427,
709,09/23/2025 19:51:48,09/23/2025 19:58:45,417.356,
710,09/24/2025 16:25:52,09/24/2025 16:32:21,388.885,
711,09/24/2025 17:58:03,09/24/2025 18:09:22,678.859,
712,09/24/2025 19:32:47,09/24/2025 19:41:08,501.213,
713,09/25/2025 16:09:30,09/25/2025 16:10:43,73.316,
714,09/25/2025 17:39:09,09/25/2025 17:50:30,680.988,
715,09/25/2025 19:13:53,09/25/2025 19:23:14,560.739,
716,09/26/2025 17:20:36,09/26/2025 17:31:27,650.691,
717,09/26/2025 18:54:59,09/26/2025 19:05:05,606.785,
718,09/27/2025 17:02:11,09/27/2025 17:12:11,599.252,
719,09/27/2025 18:36:04,09/27/2025 18:46:46,641.314,
720,09/27/2025 20:11:46,09/27/2025 20:16:00,254.452,
721,09/28/2025 16:43:58,09/28/2025 16:52:37,519.08,
722,09/28/2025 18:17:10,09/28/2025 18:28:15,665.229,
723,09/28/2025 19:52:01,09/28/2025 19:58:57,415.909,
724,09/29/2025 16:26:05,09/29/2025 16:32:36,390.873,
725,09/29/2025 17:58:16,09/29/2025 18:09:35,678.783,
726,09/29/2025 19:33:00,09/29/2025 19:41:21,500.438,
727,09/30/2025 16:09:37,09/30/2025 16:11:03,85.308,
728,09/30/2025 17:39:22,09/30/2025 17:50:44,681.237,
729,09/30/2025 19:14:06,09/30/2025 19:23:26,560.142,
730,10/01/2025 17:20:50,10/01/2025 17:31:41,651.164,
731,10/01/2025 18:55:12,10/01/2025 19:05:18,606.333,
732,10/02/2025 17:02:24,10/02/2025 17:12:24,600.008,
733,10/02/2025 18:36:18,10/02/2025 18:46:59,640.989,
734,10/02/2025 20:12:00,10/02/2025 20:16:12,251.771,
735,10/03/2025 16:44:10,10/03/2025 16:52:51,520.248,
736,10/03/2025 18:17:24,10/03/2025 18:28:29,665.025,
737,10/03/2025 19:52:15,10/03/2025 19:59:10,414.458,
738,10/04/2025 16:26:17,10/04/2025 16:32:50,392.842,
739,10/04/2025 17:58:29,10/04/2025 18:09:48,678.702,
740,10/04/2025 19:33:14,10/04/2025 19:41:33,499.652,
741,10/05/2025 16:09:45,10/05/2025 16:11:21,95.777,
742,10/05/2025 17:39:35,10/05/2025 17:50:57,681.484,
743,10/05/2025 19:14:20,10/05/2025 19:23:39,559.539,
744,10/06/2025 17:21:03,10/06/2025 17:31:54,651.628,
745,10/06/2025 18:55:25,10/06/2025 19:05:31,605.875,
746,10/07/2025 17:02:37,10/07/2025 17:12:38,600.759,
747,10/07/2025 18:36:31,10/07/2025 18:47:12,640.662,
748,10/07/2025 20:12:14,10/07/2025 20:16:24,249.058,
749,10/08/2025 16:44:23,10/08/2025 16:53:05,521.41,
750,10/08/2025 18:17:37,10/08/2025 18:28:42,664.821,
751,10/08/2025 19:52:29,10/08/2025 19:59:22,412.998,
752,10/09/2025 16:26:30,10/09/2025 16:33:04,394.799,
753,10/09/2025 17:58:43,10/09/2025 18:10:01,678.622,
754,10/09/2025 19:33:27,10/09/2025 19:41:46,498.87,
755,10/10/2025 16:09:54,10/10/2025 16:11:39,105.205,
756,10/10/2025 17:39:49,10/10/2025 17:51:10,681.729,
757,10/10/2025 19:14:33,10/10/2025 19:23:52,558.939,
758,10/11/2025 17:21:16,10/11/2025 17:32:08,652.097,
759,10/11/2025 18:55:39,10/11/2025 19:05:44,605.421,
760,10/12/2025 17:02:50,10/12/2025 17:12:52,601.508,
761,10/12/2025 18:36:44,10/12/2025 18:47:25,640.338,
762,10/12/2025 20:12:29,10/12/2025 20:16:35,246.306,
763,10/13/2025 16:44:36,10/13/2025 16:53:19,522.568,
764,10/13/2025 18:17:50,10/13/2025 18:28:55,664.618,
765,10/13/2025 19:52:43,10/13/2025 19:59:34,411.528,
766,10/14/2025 16:26:42,10/14/2025 16:33:19,396.742,
767,10/14/2025 17:58:56,10/14/2025 18:10:14,678.541,
768,10/14/2025 19:33:40,10/14/2025 19:41:58,498.087,
769,10/15/2025 16:10:03,10/15/2025 16:11:57,113.828,
770,10/15/2025 17:40:02,10/15/2025 17:51:24,681.85,
771,10/15/2025 19:14:46,10/15/2025 19:24:04,558.335,
772,10/16/2025 17:21:29,10/16/2025 17:32:21,652.564,
773,10/16/2025 18:55:52,10/16/2025 19:05:57,604.962,
774,10/17/2025 17:03:03,10/17/2025 17:13:05,602.251,
775,10/17/2025 18:36:58,10/17/2025 18:47:38,640.006,
776,10/17/2025 20:12:43,10/17/2025 20:16:47,243.526,
777,10/18/2025 16:44:49,10/18/2025 16:53:32,523.717,
778,10/18/2025 18:18:03,10/18/2025 18:29:08,664.408,
779,10/18/2025 19:52:56,10/18/2025 19:59:46,410.054,
780,10/19/2025 16:26:54,10/19/2025 16:33:33,398.667,
781,10/19/2025 17:59:09,10/19/2025 18:10:28,678.454,
782,10/19/2025 19:33:54,10/19/2025 19:42:11,497.298,
783,10/20/2025 16:10:13,10/20/2025 16:12:14,121.818,
784,10/20/2025 17:40:15,10/20/2025 17:51:37,681.897,
785,10/20/2025 19:14:59,10/20/2025 19:24:17,557.729,
786,10/21/2025 17:21:42,10/21/2025 17:32:35,653.022,
787,10/21/2025 18:56:05,10/21/2025 19:06:10,604.496,
788,10/22/2025 17:03:16,10/22/2025 17:13:19,602.991,
789,10/22/2025 18:37:11,10/22/2025 18:47:51,639.675,
790,10/22/2025 20:12:57,10/22/2025 20:16:58,240.709,
791,10/23/2025 16:45:02,10/23/2025 16:53:46,524.862,
792,10/23/2025 18:18:17,10/23/2025 18:29:21,664.199,
793,10/23/2025 19:53:10,10/23/2025 19:59:59,408.571,
794,10/24/2025 16:27:07,10/24/2025 16:33:47,400.581,
795,10/24/2025 17:59:23,10/24/2025 18:10:41,678.37,
796,10/24/2025 19:34:07,10/24/2025 19:42:23,496.508,
797,10/25/2025 16:10:22,10/25/2025 16:12:32,129.31,
798,10/25/2025 17:40:28,10/25/2025 17:51:50,681.941,
799,10/25/2025 19:15:13,10/25/2025 19:24:30,557.122,
800,10/26/2025 17:21:55,10/26/2025 17:32:48,653.48,
801,10/26/2025 18:56:19,10/26/2025 19:06:23,604.035,
802,10/27/2025 17:03:29,10/27/2025 17:13:33,603.728,
803,10/27/2025 18:37:24,10/27/2025 18:48:04,639.344,
804,10/27/2025 20:13:12,10/27/2025 20:17:10,237.852,
805,10/28/2025 16:45:14,10/28/2025 16:54:00,526.001,
806,10/28/2025 18:18:30,10/28/2025 18:29:34,663.989,
807,10/28/2025 19:53:24,10/28/2025 20:00:11,407.08,
808,10/29/2025 16:27:19,10/29/2025 16:34:02,402.48,
809,10/29/2025 17:59:36,10/29/2025 18:10:54,678.283,
810,10/29/2025 19:34:20,10/29/2025 19:42:36,495.715,
811,10/30/2025 16:10:32,10/30/2025 16:12:49,136.372,
812,10/30/2025 17:40:42,10/30/2025 17:52:04,681.981,
813,10/30/2025 19:15:26,10/30/2025 19:24:43,556.511,
814,10/31/2025 17:22:08,10/31/2025 17:33:02,653.937,
815,10/31/2025 18:56:32,10/31/2025 19:06:35,603.569,
816,11/01/2025 17:03:42,11/01/2025 17:13:46,604.46,
817,11/01/2025 18:37:38,11/01/2025 18:48:17,639.006,
818,11/01/2025 20:13:26,11/01/2025 20:17:21,234.964,
819,11/02/2025 16:45:27,11/02/2025 16:54:14,527.128,
820,11/02/2025 18:18:43,11/02/2025 18:29:47,663.778,
821,11/02/2025 19:53:37,11/02/2025 20:00:23,405.584,
822,11/03/2025 16:27:32,11/03/2025 16:34:16,404.362,
823,11/03/2025 17:59:49,11/03/2025 18:11:07,678.189,
824,11/03/2025 19:34:34,11/03/2025 19:42:48,494.916,
825,11/04/2025 16:10:42,11/04/2025 16:13:05,143.061,
826,11/04/2025 17:40:55,11/04/2025 17:52:17,682.017,
827,11/04/2025 19:15:39,11/04/2025 19:24:55,555.894,
828,11/05/2025 17:22:21,11/05/2025 17:33:15,654.387,
829,11/05/2025 18:56:45,11/05/2025 19:06:48,603.101,
830,11/06/2025 17:03:55,11/06/2025 17:14:00,605.188,
831,11/06/2025 18:37:51,11/06/2025 18:48:30,638.669,
832,11/06/2025 20:13:41,11/06/2025 20:17:33,232.033,
833,11/07/2025 16:45:40,11/07/2025 16:54:28,528.258,
834,11/07/2025 18:18:57,11/07/2025 18:30:00,663.563,
835,11/07/2025 19:53:51,11/07/2025 20:00:35,404.081,
836,11/08/2025 16:27:44,11/08/2025 16:34:30,406.23,
837,11/08/2025 18:00:02,11/08/2025 18:11:21,678.101,
838,11/08/2025 19:34:47,11/08/2025 19:43:01,494.119,
839,11/09/2025 16:10:52,11/09/2025 16:13:22,149.45,
840,11/09/2025 17:41:08,11/09/2025 17:52:30,682.055,
841,11/09/2025 19:15:53,11/09/2025 19:25:08,555.281,
842,11/10/2025 17:22:34,11/10/2025 17:33:29,654.838,
843,11/10/2025 18:56:58,11/10/2025 19:07:01,602.633,
844,11/11/2025 17:04:08,11/11/2025 17:14:14,605.913,
845,11/11/2025 18:38:04,11/11/2025 18:48:43,638.331,
846,11/11/2025 20:13:55,11/11/2025 20:17:44,229.061,
847,11/12/2025 16:45:53,11/12/2025 16:54:42,529.377,
848,11/12/2025 18:19:10,11/12/2025 18:30:13,663.345,
849,11/12/2025 19:54:05,11/12/2025 20:00:47,402.569,
850,11/13/2025 16:27:57,11/13/2025 16:34:45,408.085,
851,11/13/2025 18:00:16,11/13/2025 18:11:34,678.005,
852,11/13/2025 19:35:00,11/13/2025 19:43:13,493.314,
853,11/14/2025 16:11:03,11/14/2025 16:13:38,155.548,
854,11/14/2025 17:41:22,11/14/2025 17:52:44,682.086,
855,11/14/2025 19:16:06,11/14/2025 19:25:21,554.659,
856,11/15/2025 17:22:47,11/15/2025 17:33:42,655.284,
857,11/15/2025 18:57:12,11/15/2025 19:07:14,602.158,
858,11/16/2025 17:04:21,11/16/2025 17:14:27,606.633,
859,11/16/2025 18:38:18,11/16/2025 18:48:56,637.982,
860,11/16/2025 20:14:10,11/16/2025 20:17:56,226.057,
861,11/17/2025 16:46:05,11/17/2025 16:54:56,530.485,
862,11/17/2025 18:19:23,11/17/2025 18:30:26,663.125,
863,11/17/2025 19:54:19,11/17/2025 20:01:00,401.046,
864,11/18/2025 16:28:09,11/18/2025 16:34:59,409.926,
865,11/18/2025 18:00:29,11/18/2025 18:11:47,677.903,
866,11/18/2025 19:35:13,11/18/2025 19:43:26,492.505,
867,11/19/2025 16:11:13,11/19/2025 16:13:55,161.403,
868,11/19/2025 17:41:35,11/19/2025 17:52:57,682.114,
869,11/19/2025 19:16:19,11/19/2025 19:25:33,554.035,
870,11/20/2025 17:23:00,11/20/2025 17:33:56,655.727,
871,11/20/2025 18:57:25,11/20/2025 19:07:27,601.682,
872,11/21/2025 17:04:34,11/21/2025 17:14:41,607.349,
873,11/21/2025 18:38:31,11/21/2025 18:49:08,637.636,
874,11/21/2025 20:14:24,11/21/2025 20:18:07,223.003,
875,11/22/2025 16:46:18,11/22/2025 16:55:10,531.593,
876,11/22/2025 18:19:37,11/22/2025 18:30:40,662.903,
877,11/22/2025 19:54:32,11/22/2025 20:01:12,399.518,
878,11/23/2025 16:28:22,11/23/2025 16:35:13,411.755,
879,11/23/2025 18:00:42,11/23/2025 18:12:00,677.804,
880,11/23/2025 19:35:27,11/23/2025 19:43:39,491.695,
881,11/24/2025 16:11:24,11/24/2025 16:14:11,167.042,
882,11/24/2025 17:41:48,11/24/2025 17:53:10,682.142,
883,11/24/2025 19:16:33,11/24/2025 19:25:46,553.41,
884,11/25/2025 17:23:13,11/25/2025 17:34:09,656.167,
885,11/25/2025 18:57:38,11/25/2025 19:07:40,601.204,
886,11/26/2025 17:04:47,11/26/2025 17:14:55,608.061,
887,11/26/2025 18:38:44,11/26/2025 18:49:21,637.288,
888,11/26/2025 20:14:38,11/26/2025 20:18:18,219.906,
889,11/27/2025 16:46:31,11/27/2025 16:55:24,532.694,
890,11/27/2025 18:19:50,11/27/2025 18:30:53,662.678,
891,11/27/2025 19:54:46,11/27/2025 20:01:24,397.982,
892,11/28/2025 16:28:34,11/28/2025 16:35:28,413.568,
893,11/28/2025 18:00:56,11/28/2025 18:12:13,677.7,
894,11/28/2025 19:35:40,11/28/2025 19:43:51,490.879,
895,11/29/2025 16:11:35,11/29/2025 16:14:27,172.474,
896,11/29/2025 17:42:02,11/29/2025 17:53:24,682.163,
897,11/29/2025 19:16:46,11/29/2025 19:25:59,552.778,
898,11/30/2025 17:23:26,11/30/2025 17:34:23,656.603,
899,11/30/2025 18:57:52,11/30/2025 19:07:52,600.723,
900,12/01/2025 17:05:00,12/01/2025 17:15:08,608.769,
901,12/01/2025 18:38:57,12/01/2025 18:49:34,636.933,
902,12/01/2025 20:14:53,12/01/2025 20:18:30,216.768,
903,12/02/2025 16:46:44,12/02/2025 16:55:38,533.787,
904,12/02/2025 18:20:03,12/02/2025 18:31:06,662.446,
905,12/02/2025 19:55:00,12/02/2025 20:01:36,396.441,
906,12/03/2025 16:28:46,12/03/2025 16:35:42,415.368,
907,12/03/2025 18:01:09,12/03/2025 18:12:27,677.591,
908,12/03/2025 19:35:53,12/03/2025 19:44:04,490.059,
909,12/04/2025 16:11:45,12/04/2025 16:14:43,177.728,
910,12/04/2025 17:42:15,12/04/2025 17:53:37,682.182,
911,12/04/2025 19:16:59,12/04/2025 19:26:11,552.145,
912,12/05/2025 17:23:39,12/05/2025 17:34:36,657.037,
913,12/05/2025 18:58:05,12/05/2025 19:08:05,600.239,
914,12/06/2025 17:05:12,12/06/2025 17:15:22,609.473,
915,12/06/2025 18:39:11,12/06/2025 18:49:47,636.582,
916,12/06/2025 20:15:08,12/06/2025 20:18:41,213.575,
917,12/07/2025 16:46:57,12/07/2025 16:55:51,534.875,
918,12/07/2025 18:20:17,12/07/2025 18:31:19,662.217,
919,12/07/2025 19:55:14,12/07/2025 20:01:49,394.891,
920,12/08/2025 16:28:59,12/08/2025 16:35:56,417.157,
921,12/08/2025 18:01:22,12/08/2025 18:12:40,677.483,
922,12/08/2025 19:36:07,12/08/2025 19:44:16,489.238,
923,12/09/2025 16:11:56,12/09/2025 16:14:59,182.825,
924,12/09/2025 17:42:28,12/09/2025 17:53:50,682.197,
925,12/09/2025 19:17:13,12/09/2025 19:26:24,551.51,
926,12/10/2025 17:23:52,12/10/2025 17:34:50,657.468,
927,12/10/2025 18:58:18,12/10/2025 19:08:18,599.751,
928,12/11/2025 17:05:25,12/11/2025 17:15:36,610.173,
929,12/11/2025 18:39:24,12/11/2025 18:50:00,636.223,
930,12/11/2025 20:15:22,12/11/2025 20:18:52,210.337,
931,12/12/2025 16:47:09,12/12/2025 16:56:05,535.965,
932,12/12/2025 18:20:30,12/12/2025 18:31:32,661.975,
933,12/12/2025 19:55:27,12/12/2025 20:02:01,393.343,
934,12/13/2025 16:29:11,12/13/2025 16:36:10,418.928,
935,12/13/2025 18:01:36,12/13/2025 18:12:53,677.366,
936,12/13/2025 19:36:20,12/13/2025 19:44:28,488.408,
937,12/14/2025 16:12:07,12/14/2025 16:15:15,187.755,
938,12/14/2025 17:42:41,12/14/2025 17:54:04,682.206,
939,12/14/2025 19:17:26,12/14/2025 19:26:37,550.867,
940,12/15/2025 17:24:05,12/15/2025 17:35:03,657.895,
941,12/15/2025 18:58:32,12/15/2025 19:08:31,599.256,
942,12/16/2025 17:05:38,12/16/2025 17:15:49,610.865,
943,12/16/2025 18:39:37,12/16/2025 18:50:13,635.858,
944,12/16/2025 20:15:37,12/16/2025 20:19:04,207.052,
945,12/17/2025 16:47:22,12/17/2025 16:56:19,537.031,
946,12/17/2025 18:20:43,12/17/2025 18:31:45,661.738,
947,12/17/2025 19:55:41,12/17/2025 20:02:13,391.774,
948,12/18/2025 16:29:24,12/18/2025 16:36:25,420.688,
949,12/18/2025 18:01:49,12/18/2025 18:13:06,677.248,
950,12/18/2025 19:36:33,12/18/2025 19:44:41,487.575,
951,12/19/2025 16:12:18,12/19/2025 16:15:31,192.552,
952,12/19/2025 17:42:55,12/19/2025 17:54:17,682.215,
953,12/19/2025 19:17:39,12/19/2025 19:26:49,550.222,
954,12/20/2025 17:24:18,12/20/2025 17:35:16,658.32,
955,12/20/2025 18:58:45,12/20/2025 19:08:44,598.761,
956,12/21/2025 17:05:51,12/21/2025 17:16:03,611.557,
957,12/21/2025 18:39:51,12/21/2025 18:50:26,635.494,
958,12/21/2025 20:15:51,12/21/2025 20:19:15,203.708,
959,12/22/2025 16:47:35,12/22/2025 16:56:33,538.108,
960,12/22/2025 18:20:57,12/22/2025 18:31:58,661.496,
961,12/22/2025 19:55:55,12/22/2025 20:02:25,390.211,
962,12/23/2025 16:29:36,12/23/2025 16:36:39,422.435,
963,12/23/2025 18:02:02,12/23/2025 18:13:19,677.128,
964,12/23/2025 19:36:47,12/23/2025 19:44:53,486.74,
965,12/24/2025 16:12:29,12/24/2025 16:15:47,197.219,
966,12/24/2025 17:43:08,12/24/2025 17:54:30,682.223,
967,12/24/2025 19:17:53,12/24/2025 19:27:02,549.575,
968,12/25/2025 17:24:31,12/25/2025 17:35:30,658.736,
969,12/25/2025 18:58:58,12/25/2025 19:08:57,598.262,
970,12/26/2025 17:06:04,12/26/2025 17:16:17,612.244,
971,12/26/2025 18:40:04,12/26/2025 18:50:39,635.124,
972,12/26/2025 20:16:06,12/26/2025 20:19:26,200.311,
973,12/27/2025 16:47:48,12/27/2025 16:56:47,539.17,
974,12/27/2025 18:21:10,12/27/2025 18:32:11,661.248,
975,12/27/2025 19:56:09,12/27/2025 20:02:37,388.635,
976,12/28/2025 16:29:49,12/28/2025 16:36:53,424.167,
977,12/28/2025 18:02:16,12/28/2025 18:13:33,677.001,
978,12/28/2025 19:37:00,12/28/2025 19:45:06,485.898,
979,12/29/2025 16:12:40,12/29/2025 16:16:02,201.759,
980,12/29/2025 17:43:21,12/29/2025 17:54:44,682.222,
981,12/29/2025 19:18:06,12/29/2025 19:27:15,548.92,
982,12/30/2025 17:24:44,12/30/2025 17:35:43,659.155,
983,12/30/2025 18:59:12,12/30/2025 19:09:09,597.756,
984,12/31/2025 17:06:17,12/31/2025 17:16:30,612.927,
985,12/31/2025 18:40:17,12/31/2025 18:50:52,634.749,
986,12/31/2025 20:16:21,12/31/2025 20:19:37,196.858,
,,,,
Global Statistics,,,,
Min Duration,07/25/1900 00:00:00,03/15/2025 20:23:33,24:06.7,33.324
Max Duration,08/23/1902 00:00:00,12/24/2025 17:43:08,54:30.4,682.223
Mean Duration,,,,535.204
Total Duration,,,,527711.038
