3UCubedIntegratedSim/Reports & Plots/Comms/Past Comms Data/UNH/CSV/Sat23.csv

Access,Start Time (UTCG),Stop Time (UTCG),Duration (sec),
1,01/01/2025 16:05:52,01/01/2025 16:16:20,627.345,
2,01/02/2025 14:13:31,01/02/2025 14:23:17,585.754,
3,01/02/2025 15:46:43,01/02/2025 15:57:50,667.836,
4,01/03/2025 13:55:29,01/03/2025 14:04:23,533.47,
5,01/03/2025 15:27:45,01/03/2025 15:39:07,681.587,
6,01/03/2025 17:05:44,01/03/2025 17:10:27,283.405,
7,01/04/2025 13:37:42,01/04/2025 13:45:28,466.007,
8,01/04/2025 15:08:59,01/04/2025 15:20:13,673.532,
9,01/04/2025 16:45:17,01/04/2025 16:52:57,460.261,
10,01/05/2025 13:20:18,01/05/2025 13:26:09,350.738,
11,01/05/2025 14:50:24,01/05/2025 15:01:19,655.041,
12,01/05/2025 16:25:31,01/05/2025 16:34:52,561.626,
13,01/06/2025 13:04:04,01/06/2025 13:05:39,94.672,
14,01/06/2025 14:31:58,01/06/2025 14:42:24,626.134,
15,01/06/2025 16:06:06,01/06/2025 16:16:32,626.74,
16,01/07/2025 14:13:44,01/07/2025 14:23:30,586.283,
17,01/07/2025 15:46:56,01/07/2025 15:58:03,667.477,
18,01/08/2025 13:55:42,01/08/2025 14:04:36,534.163,
19,01/08/2025 15:27:59,01/08/2025 15:39:20,681.614,
20,01/08/2025 17:05:59,01/08/2025 17:10:39,280.358,
21,01/09/2025 13:37:55,01/09/2025 13:45:42,466.906,
22,01/09/2025 15:09:12,01/09/2025 15:20:26,673.686,
23,01/09/2025 16:45:31,01/09/2025 16:53:10,458.754,
24,01/10/2025 13:20:30,01/10/2025 13:26:23,352.544,
25,01/10/2025 14:50:37,01/10/2025 15:01:32,655.314,
26,01/10/2025 16:25:44,01/10/2025 16:35:05,560.679,
27,01/11/2025 13:04:14,01/11/2025 13:05:55,101.843,
28,01/11/2025 14:32:11,01/11/2025 14:42:38,626.53,
29,01/11/2025 16:06:19,01/11/2025 16:16:45,626.13,
30,01/12/2025 14:13:57,01/12/2025 14:23:43,586.813,
31,01/12/2025 15:47:09,01/12/2025 15:58:17,667.115,
32,01/13/2025 13:55:54,01/13/2025 14:04:49,534.848,
33,01/13/2025 15:28:12,01/13/2025 15:39:34,681.638,
34,01/13/2025 17:06:14,01/13/2025 17:10:51,277.261,
35,01/14/2025 13:38:07,01/14/2025 13:45:55,467.797,
36,01/14/2025 15:09:26,01/14/2025 15:20:39,673.832,
37,01/14/2025 16:45:45,01/14/2025 16:53:22,457.239,
38,01/15/2025 13:20:42,01/15/2025 13:26:37,354.342,
39,01/15/2025 14:50:50,01/15/2025 15:01:45,655.582,
40,01/15/2025 16:25:58,01/15/2025 16:35:18,559.725,
41,01/16/2025 13:04:23,01/16/2025 13:06:12,108.544,
42,01/16/2025 14:32:24,01/16/2025 14:42:51,626.922,
43,01/16/2025 16:06:33,01/16/2025 16:16:58,625.516,
44,01/17/2025 14:14:09,01/17/2025 14:23:57,587.345,
45,01/17/2025 15:47:23,01/17/2025 15:58:30,666.752,
46,01/18/2025 13:56:07,01/18/2025 14:05:03,535.534,
47,01/18/2025 15:28:25,01/18/2025 15:39:47,681.658,
48,01/18/2025 17:06:29,01/18/2025 17:11:03,274.123,
49,01/19/2025 13:38:20,01/19/2025 13:46:08,468.689,
50,01/19/2025 15:09:39,01/19/2025 15:20:53,673.981,
51,01/19/2025 16:45:59,01/19/2025 16:53:35,455.718,
52,01/20/2025 13:20:55,01/20/2025 13:26:51,356.124,
53,01/20/2025 14:51:03,01/20/2025 15:01:59,655.853,
54,01/20/2025 16:26:12,01/20/2025 16:35:31,558.768,
55,01/21/2025 13:04:33,01/21/2025 13:06:28,114.826,
56,01/21/2025 14:32:37,01/21/2025 14:43:04,627.318,
57,01/21/2025 16:06:47,01/21/2025 16:17:11,624.9,
58,01/22/2025 14:14:22,01/22/2025 14:24:10,587.875,
59,01/22/2025 15:47:36,01/22/2025 15:58:43,666.386,
60,01/23/2025 13:56:20,01/23/2025 14:05:16,536.224,
61,01/23/2025 15:28:39,01/23/2025 15:40:00,681.684,
62,01/23/2025 17:06:44,01/23/2025 17:11:15,270.946,
63,01/24/2025 13:38:32,01/24/2025 13:46:22,469.578,
64,01/24/2025 15:09:52,01/24/2025 15:21:06,674.129,
65,01/24/2025 16:46:13,01/24/2025 16:53:47,454.188,
66,01/25/2025 13:21:07,01/25/2025 13:27:04,357.897,
67,01/25/2025 14:51:16,01/25/2025 15:02:12,656.122,
68,01/25/2025 16:26:26,01/25/2025 16:35:44,557.807,
69,01/26/2025 13:04:43,01/26/2025 13:06:44,120.786,
70,01/26/2025 14:32:50,01/26/2025 14:43:18,627.71,
71,01/26/2025 16:07:00,01/26/2025 16:17:24,624.28,
72,01/27/2025 14:14:35,01/27/2025 14:24:23,588.401,
73,01/27/2025 15:47:50,01/27/2025 15:58:56,666.019,
74,01/28/2025 13:56:32,01/28/2025 14:05:29,536.903,
75,01/28/2025 15:28:52,01/28/2025 15:40:14,681.701,
76,01/28/2025 17:06:59,01/28/2025 17:11:26,267.717,
77,01/29/2025 13:38:44,01/29/2025 13:46:35,470.462,
78,01/29/2025 15:10:05,01/29/2025 15:21:19,674.272,
79,01/29/2025 16:46:27,01/29/2025 16:54:00,452.646,
80,01/30/2025 13:21:19,01/30/2025 13:27:18,359.659,
81,01/30/2025 14:51:29,01/30/2025 15:02:25,656.387,
82,01/30/2025 16:26:40,01/30/2025 16:35:56,556.839,
83,01/31/2025 13:04:53,01/31/2025 13:06:59,126.465,
84,01/31/2025 14:33:03,01/31/2025 14:43:31,628.1,
85,01/31/2025 16:07:14,01/31/2025 16:17:37,623.663,
86,02/01/2025 14:14:48,02/01/2025 14:24:37,588.92,
87,02/01/2025 15:48:03,02/01/2025 15:59:09,665.642,
88,02/02/2025 13:56:45,02/02/2025 14:05:42,537.58,
89,02/02/2025 15:29:05,02/02/2025 15:40:27,681.72,
90,02/02/2025 17:07:14,02/02/2025 17:11:38,264.446,
91,02/03/2025 13:38:57,02/03/2025 13:46:48,471.345,
92,02/03/2025 15:10:18,02/03/2025 15:21:33,674.418,
93,02/03/2025 16:46:41,02/03/2025 16:54:13,451.097,
94,02/04/2025 13:21:31,02/04/2025 13:27:32,361.409,
95,02/04/2025 14:51:42,02/04/2025 15:02:38,656.655,
96,02/04/2025 16:26:53,02/04/2025 16:36:09,555.868,
97,02/05/2025 13:05:03,02/05/2025 13:07:15,131.879,
98,02/05/2025 14:33:16,02/05/2025 14:43:44,628.492,
99,02/05/2025 16:07:27,02/05/2025 16:17:50,623.037,
100,02/06/2025 14:15:01,02/06/2025 14:24:50,589.451,
101,02/06/2025 15:48:17,02/06/2025 15:59:22,665.27,
102,02/07/2025 13:56:58,02/07/2025 14:05:56,538.258,
103,02/07/2025 15:29:18,02/07/2025 15:40:40,681.74,
104,02/07/2025 17:07:29,02/07/2025 17:11:50,261.124,
105,02/08/2025 13:39:09,02/08/2025 13:47:02,472.226,
106,02/08/2025 15:10:31,02/08/2025 15:21:46,674.562,
107,02/08/2025 16:46:56,02/08/2025 16:54:25,449.539,
108,02/09/2025 13:21:43,02/09/2025 13:27:46,363.143,
109,02/09/2025 14:51:55,02/09/2025 15:02:52,656.92,
110,02/09/2025 16:27:07,02/09/2025 16:36:22,554.892,
111,02/10/2025 13:05:13,02/10/2025 13:07:31,137.082,
112,02/10/2025 14:33:29,02/10/2025 14:43:58,628.88,
113,02/10/2025 16:07:41,02/10/2025 16:18:03,622.407,
114,02/11/2025 14:15:13,02/11/2025 14:25:03,589.972,
115,02/11/2025 15:48:30,02/11/2025 15:59:35,664.893,
116,02/12/2025 13:57:10,02/12/2025 14:06:09,538.934,
117,02/12/2025 15:29:32,02/12/2025 15:40:54,681.754,
118,02/12/2025 17:07:44,02/12/2025 17:12:02,257.754,
119,02/13/2025 13:39:22,02/13/2025 13:47:15,473.102,
120,02/13/2025 15:10:45,02/13/2025 15:21:59,674.703,
121,02/13/2025 16:47:10,02/13/2025 16:54:38,447.97,
122,02/14/2025 13:21:55,02/14/2025 13:28:00,364.871,
123,02/14/2025 14:52:08,02/14/2025 15:03:05,657.183,
124,02/14/2025 16:27:21,02/14/2025 16:36:35,553.913,
125,02/15/2025 13:05:24,02/15/2025 13:07:46,142.086,
126,02/15/2025 14:33:42,02/15/2025 14:44:11,629.268,
127,02/15/2025 16:07:54,02/15/2025 16:18:16,621.774,
128,02/16/2025 14:15:26,02/16/2025 14:25:17,590.494,
129,02/16/2025 15:48:43,02/16/2025 15:59:48,664.514,
130,02/17/2025 13:57:23,02/17/2025 14:06:22,539.612,
131,02/17/2025 15:29:45,02/17/2025 15:41:07,681.773,
132,02/17/2025 17:07:59,02/17/2025 17:12:13,254.331,
133,02/18/2025 13:39:34,02/18/2025 13:47:28,473.979,
134,02/18/2025 15:10:58,02/18/2025 15:22:13,674.848,
135,02/18/2025 16:47:24,02/18/2025 16:54:50,446.394,
136,02/19/2025 13:22:07,02/19/2025 13:28:14,366.585,
137,02/19/2025 14:52:21,02/19/2025 15:03:18,657.449,
138,02/19/2025 16:27:35,02/19/2025 16:36:48,552.928,
139,02/20/2025 13:05:34,02/20/2025 13:08:01,146.904,
140,02/20/2025 14:33:55,02/20/2025 14:44:24,629.658,
141,02/20/2025 16:08:08,02/20/2025 16:18:29,621.139,
142,02/21/2025 14:15:39,02/21/2025 14:25:30,591.018,
143,02/21/2025 15:48:57,02/21/2025 16:00:01,664.132,
144,02/22/2025 13:57:35,02/22/2025 14:06:36,540.288,
145,02/22/2025 15:29:58,02/22/2025 15:41:20,681.79,
146,02/22/2025 17:08:14,02/22/2025 17:12:25,250.855,
147,02/23/2025 13:39:47,02/23/2025 13:47:42,474.853,
148,02/23/2025 15:11:11,02/23/2025 15:22:26,674.99,
149,02/23/2025 16:47:38,02/23/2025 16:55:03,444.808,
150,02/24/2025 13:22:19,02/24/2025 13:28:27,368.288,
151,02/24/2025 14:52:34,02/24/2025 15:03:32,657.711,
152,02/24/2025 16:27:49,02/24/2025 16:37:01,551.937,
153,02/25/2025 13:05:45,02/25/2025 13:08:17,151.574,
154,02/25/2025 14:34:07,02/25/2025 14:44:37,630.044,
155,02/25/2025 16:08:22,02/25/2025 16:18:42,620.499,
156,02/26/2025 14:15:52,02/26/2025 14:25:43,591.535,
157,02/26/2025 15:49:10,02/26/2025 16:00:14,663.748,
158,02/27/2025 13:57:48,02/27/2025 14:06:49,540.959,
159,02/27/2025 15:30:12,02/27/2025 15:41:33,681.802,
160,02/27/2025 17:08:29,02/27/2025 17:12:37,247.32,
161,02/28/2025 13:39:59,02/28/2025 13:47:55,475.722,
162,02/28/2025 15:11:24,02/28/2025 15:22:39,675.128,
163,02/28/2025 16:47:52,02/28/2025 16:55:15,443.21,
164,03/01/2025 13:22:31,03/01/2025 13:28:41,369.983,
165,03/01/2025 14:52:47,03/01/2025 15:03:45,657.972,
166,03/01/2025 16:28:02,03/01/2025 16:37:13,550.941,
167,03/02/2025 13:05:56,03/02/2025 13:08:32,156.093,
168,03/02/2025 14:34:20,03/02/2025 14:44:51,630.429,
169,03/02/2025 16:08:35,03/02/2025 16:18:55,619.857,
170,03/03/2025 14:16:05,03/03/2025 14:25:57,592.056,
171,03/03/2025 15:49:24,03/03/2025 16:00:27,663.361,
172,03/04/2025 13:58:01,03/04/2025 14:07:02,541.633,
173,03/04/2025 15:30:25,03/04/2025 15:41:47,681.819,
174,03/04/2025 17:08:44,03/04/2025 17:12:48,243.732,
175,03/05/2025 13:40:12,03/05/2025 13:48:08,476.593,
176,03/05/2025 15:11:37,03/05/2025 15:22:53,675.271,
177,03/05/2025 16:48:06,03/05/2025 16:55:28,441.606,
178,03/06/2025 13:22:43,03/06/2025 13:28:55,371.656,
179,03/06/2025 14:53:00,03/06/2025 15:03:58,658.234,
180,03/06/2025 16:28:16,03/06/2025 16:37:26,549.942,
181,03/07/2025 13:06:06,03/07/2025 13:08:47,160.47,
182,03/07/2025 14:34:33,03/07/2025 14:45:04,630.817,
183,03/07/2025 16:08:49,03/07/2025 16:19:08,619.21,
184,03/08/2025 14:16:17,03/08/2025 14:26:10,592.576,
185,03/08/2025 15:49:37,03/08/2025 16:00:40,662.975,
186,03/09/2025 13:58:13,03/09/2025 14:07:16,542.307,
187,03/09/2025 15:30:38,03/09/2025 15:42:00,681.834,
188,03/09/2025 17:09:00,03/09/2025 17:13:00,240.083,
189,03/10/2025 13:40:24,03/10/2025 13:48:21,477.459,
190,03/10/2025 15:11:50,03/10/2025 15:23:06,675.406,
191,03/10/2025 16:48:20,03/10/2025 16:55:40,439.99,
192,03/11/2025 13:22:56,03/11/2025 13:29:09,373.337,
193,03/11/2025 14:53:13,03/11/2025 15:04:12,658.497,
194,03/11/2025 16:28:30,03/11/2025 16:37:39,548.937,
195,03/12/2025 13:06:17,03/12/2025 13:09:02,164.738,
196,03/12/2025 14:34:46,03/12/2025 14:45:17,631.199,
197,03/12/2025 16:09:02,03/12/2025 16:19:21,618.562,
198,03/13/2025 14:16:30,03/13/2025 14:26:23,593.092,
199,03/13/2025 15:49:51,03/13/2025 16:00:53,662.575,
200,03/14/2025 13:58:26,03/14/2025 14:07:29,542.972,
201,03/14/2025 15:30:52,03/14/2025 15:42:13,681.845,
202,03/14/2025 17:09:15,03/14/2025 17:13:11,236.362,
203,03/15/2025 13:40:36,03/15/2025 13:48:35,478.324,
204,03/15/2025 15:12:04,03/15/2025 15:23:19,675.544,
205,03/15/2025 16:48:35,03/15/2025 16:55:53,438.364,
206,03/16/2025 13:23:08,03/16/2025 13:29:23,374.999,
207,03/16/2025 14:53:26,03/16/2025 15:04:25,658.758,
208,03/16/2025 16:28:44,03/16/2025 16:37:52,547.93,
209,03/17/2025 13:06:28,03/17/2025 13:09:17,168.884,
210,03/17/2025 14:34:59,03/17/2025 14:45:31,631.585,
211,03/17/2025 16:09:16,03/17/2025 16:19:34,617.91,
212,03/18/2025 14:16:43,03/18/2025 14:26:37,593.61,
213,03/18/2025 15:50:04,03/18/2025 16:01:06,662.185,
214,03/19/2025 13:58:39,03/19/2025 14:07:42,543.641,
215,03/19/2025 15:31:05,03/19/2025 15:42:27,681.86,
216,03/19/2025 17:09:30,03/19/2025 17:13:23,232.584,
217,03/20/2025 13:40:49,03/20/2025 13:48:48,479.19,
218,03/20/2025 15:12:17,03/20/2025 15:23:33,675.686,
219,03/20/2025 16:48:49,03/20/2025 16:56:06,436.731,
220,03/21/2025 13:23:20,03/21/2025 13:29:36,376.642,
221,03/21/2025 14:53:39,03/21/2025 15:04:38,659.021,
222,03/21/2025 16:28:58,03/21/2025 16:38:05,546.917,
223,03/22/2025 13:06:39,03/22/2025 13:09:32,172.923,
224,03/22/2025 14:35:12,03/22/2025 14:45:44,631.97,
225,03/22/2025 16:09:30,03/22/2025 16:19:47,617.255,
226,03/23/2025 14:16:56,03/23/2025 14:26:50,594.127,
227,03/23/2025 15:50:18,03/23/2025 16:01:19,661.791,
228,03/24/2025 13:58:51,03/24/2025 14:07:56,544.308,
229,03/24/2025 15:31:18,03/24/2025 15:42:40,681.873,
230,03/24/2025 17:09:46,03/24/2025 17:13:34,228.731,
231,03/25/2025 13:41:01,03/25/2025 13:49:01,480.052,
232,03/25/2025 15:12:30,03/25/2025 15:23:46,675.823,
233,03/25/2025 16:49:03,03/25/2025 16:56:18,435.088,
234,03/26/2025 13:23:32,03/26/2025 13:29:50,378.284,
235,03/26/2025 14:53:52,03/26/2025 15:04:52,659.278,
236,03/26/2025 16:29:12,03/26/2025 16:38:17,545.897,
237,03/27/2025 13:06:50,03/27/2025 13:09:47,176.872,
238,03/27/2025 14:35:25,03/27/2025 14:45:57,632.351,
239,03/27/2025 16:09:43,03/27/2025 16:20:00,616.596,
240,03/28/2025 14:17:09,03/28/2025 14:27:03,594.639,
241,03/28/2025 15:50:31,03/28/2025 16:01:32,661.391,
242,03/29/2025 13:59:04,03/29/2025 14:08:09,544.973,
243,03/29/2025 15:31:31,03/29/2025 15:42:53,681.88,
244,03/29/2025 17:10:01,03/29/2025 17:13:46,224.8,
245,03/30/2025 13:41:14,03/30/2025 13:49:15,480.911,
246,03/30/2025 15:12:43,03/30/2025 15:23:59,675.96,
247,03/30/2025 16:49:17,03/30/2025 16:56:31,433.431,
248,03/31/2025 13:23:44,03/31/2025 13:30:04,379.914,
249,03/31/2025 14:54:05,03/31/2025 15:05:05,659.538,
250,03/31/2025 16:29:25,03/31/2025 16:38:30,544.873,
251,04/01/2025 13:07:01,04/01/2025 13:10:02,180.719,
252,04/01/2025 14:35:38,04/01/2025 14:46:11,632.735,
253,04/01/2025 16:09:57,04/01/2025 16:20:13,615.934,
254,04/02/2025 14:17:21,04/02/2025 14:27:17,595.156,
255,04/02/2025 15:50:44,04/02/2025 16:01:45,660.989,
256,04/03/2025 13:59:17,04/03/2025 14:08:22,545.641,
257,04/03/2025 15:31:45,04/03/2025 15:43:07,681.894,
258,04/03/2025 17:10:16,04/03/2025 17:13:57,220.799,
259,04/04/2025 13:41:26,04/04/2025 13:49:28,481.77,
260,04/04/2025 15:12:56,04/04/2025 15:24:12,676.1,
261,04/04/2025 16:49:31,04/04/2025 16:56:43,431.771,
262,04/05/2025 13:23:56,04/05/2025 13:30:18,381.528,
263,04/05/2025 14:54:18,04/05/2025 15:05:18,659.795,
264,04/05/2025 16:29:39,04/05/2025 16:38:43,543.84,
265,04/06/2025 13:07:12,04/06/2025 13:10:16,184.485,
266,04/06/2025 14:35:51,04/06/2025 14:46:24,633.117,
267,04/06/2025 16:10:11,04/06/2025 16:20:26,615.268,
268,04/07/2025 14:17:34,04/07/2025 14:27:30,595.669,
269,04/07/2025 15:50:58,04/07/2025 16:01:59,660.584,
270,04/08/2025 13:59:29,04/08/2025 14:08:36,546.305,
271,04/08/2025 15:31:58,04/08/2025 15:43:20,681.902,
272,04/08/2025 17:10:32,04/08/2025 17:14:08,216.711,
273,04/09/2025 13:41:39,04/09/2025 13:49:41,482.625,
274,04/09/2025 15:13:10,04/09/2025 15:24:26,676.234,
275,04/09/2025 16:49:46,04/09/2025 16:56:56,430.089,
276,04/10/2025 13:24:08,04/10/2025 13:30:32,383.148,
277,04/10/2025 14:54:32,04/10/2025 15:05:32,660.054,
278,04/10/2025 16:29:53,04/10/2025 16:38:56,542.809,
279,04/11/2025 13:07:23,04/11/2025 13:10:31,188.172,
280,04/11/2025 14:36:04,04/11/2025 14:46:37,633.496,
281,04/11/2025 16:10:24,04/11/2025 16:20:39,614.6,
282,04/12/2025 14:17:47,04/12/2025 14:27:43,596.18,
283,04/12/2025 15:51:11,04/12/2025 16:02:12,660.177,
284,04/13/2025 13:59:42,04/13/2025 14:08:49,546.967,
285,04/13/2025 15:32:11,04/13/2025 15:43:33,681.912,
286,04/13/2025 17:10:47,04/13/2025 17:14:20,212.53,
287,04/14/2025 13:41:51,04/14/2025 13:49:55,483.477,
288,04/14/2025 15:13:23,04/14/2025 15:24:39,676.37,
289,04/14/2025 16:50:00,04/14/2025 16:57:08,428.402,
290,04/15/2025 13:24:21,04/15/2025 13:30:45,384.744,
291,04/15/2025 14:54:45,04/15/2025 15:05:45,660.313,
292,04/15/2025 16:30:07,04/15/2025 16:39:09,541.77,
293,04/16/2025 13:07:34,04/16/2025 13:10:46,191.782,
294,04/16/2025 14:36:17,04/16/2025 14:46:51,633.879,
295,04/16/2025 16:10:38,04/16/2025 16:20:52,613.928,
296,04/17/2025 14:18:00,04/17/2025 14:27:57,596.694,
297,04/17/2025 15:51:25,04/17/2025 16:02:25,659.767,
298,04/18/2025 13:59:55,04/18/2025 14:09:02,547.631,
299,04/18/2025 15:32:25,04/18/2025 15:43:47,681.923,
300,04/18/2025 17:11:03,04/18/2025 17:14:31,208.267,
301,04/19/2025 13:42:04,04/19/2025 13:50:08,484.33,
302,04/19/2025 15:13:36,04/19/2025 15:24:52,676.507,
303,04/19/2025 16:50:14,04/19/2025 16:57:21,426.705,
304,04/20/2025 13:24:33,04/20/2025 13:30:59,386.337,
305,04/20/2025 14:54:58,04/20/2025 15:05:58,660.57,
306,04/20/2025 16:30:21,04/20/2025 16:39:21,540.726,
307,04/21/2025 13:07:45,04/21/2025 13:11:01,195.319,
308,04/21/2025 14:36:30,04/21/2025 14:47:04,634.258,
309,04/21/2025 16:10:51,04/21/2025 16:21:05,613.253,
310,04/22/2025 14:18:13,04/22/2025 14:28:10,597.203,
311,04/22/2025 15:51:38,04/22/2025 16:02:38,659.355,
312,04/23/2025 14:00:07,04/23/2025 14:09:16,548.289,
313,04/23/2025 15:32:38,04/23/2025 15:44:00,681.928,
314,04/23/2025 17:11:18,04/23/2025 17:14:42,203.897,
315,04/24/2025 13:42:16,04/24/2025 13:50:21,485.177,
316,04/24/2025 15:13:49,04/24/2025 15:25:06,676.638,
317,04/24/2025 16:50:28,04/24/2025 16:57:33,424.992,
318,04/25/2025 13:24:45,04/25/2025 13:31:13,387.922,
319,04/25/2025 14:55:11,04/25/2025 15:06:12,660.823,
320,04/25/2025 16:30:35,04/25/2025 16:39:34,539.676,
321,04/26/2025 13:07:57,04/26/2025 13:11:15,198.794,
322,04/26/2025 14:36:43,04/26/2025 14:47:17,634.635,
323,04/26/2025 16:11:05,04/26/2025 16:21:18,612.574,
324,04/27/2025 14:18:25,04/27/2025 14:28:23,597.711,
325,04/27/2025 15:51:52,04/27/2025 16:02:51,658.939,
326,04/28/2025 14:00:20,04/28/2025 14:09:29,548.948,
327,04/28/2025 15:32:51,04/28/2025 15:44:13,681.934,
328,04/28/2025 17:11:34,04/28/2025 17:14:53,199.426,
329,04/29/2025 13:42:29,04/29/2025 13:50:35,486.026,
330,04/29/2025 15:14:02,04/29/2025 15:25:19,676.774,
331,04/29/2025 16:50:42,04/29/2025 16:57:46,423.271,
332,04/30/2025 13:24:57,04/30/2025 13:31:27,389.484,
333,04/30/2025 14:55:24,04/30/2025 15:06:25,661.081,
334,04/30/2025 16:30:48,04/30/2025 16:39:47,538.622,
335,05/01/2025 13:08:08,05/01/2025 13:11:30,202.195,
336,05/01/2025 14:36:56,05/01/2025 14:47:31,635.019,
337,05/01/2025 16:11:19,05/01/2025 16:21:31,611.889,
338,05/02/2025 14:18:38,05/02/2025 14:28:36,598.217,
339,05/02/2025 15:52:05,05/02/2025 16:03:04,658.515,
340,05/03/2025 14:00:33,05/03/2025 14:09:42,549.607,
341,05/03/2025 15:33:05,05/03/2025 15:44:27,681.941,
342,05/03/2025 17:11:50,05/03/2025 17:15:05,194.841,
343,05/04/2025 13:42:41,05/04/2025 13:50:48,486.872,
344,05/04/2025 15:14:16,05/04/2025 15:25:32,676.906,
345,05/04/2025 16:50:57,05/04/2025 16:57:58,421.538,
346,05/05/2025 13:25:09,05/05/2025 13:31:40,391.048,
347,05/05/2025 14:55:37,05/05/2025 15:06:38,661.329,
348,05/05/2025 16:31:02,05/05/2025 16:40:00,537.561,
349,05/06/2025 13:08:19,05/06/2025 13:11:45,205.543,
350,05/06/2025 14:37:09,05/06/2025 14:47:44,635.394,
351,05/06/2025 16:11:32,05/06/2025 16:21:44,611.202,
352,05/07/2025 14:18:51,05/07/2025 14:28:50,598.721,
353,05/07/2025 15:52:19,05/07/2025 16:03:17,658.095,
354,05/08/2025 14:00:45,05/08/2025 14:09:56,550.255,
355,05/08/2025 15:33:18,05/08/2025 15:44:40,681.943,
356,05/08/2025 17:12:05,05/08/2025 17:15:16,190.13,
357,05/09/2025 13:42:54,05/09/2025 13:51:01,487.712,
358,05/09/2025 15:14:29,05/09/2025 15:25:46,677.035,
359,05/09/2025 16:51:11,05/09/2025 16:58:11,419.795,
360,05/10/2025 13:25:22,05/10/2025 13:31:54,392.605,
361,05/10/2025 14:55:50,05/10/2025 15:06:52,661.581,
362,05/10/2025 16:31:16,05/10/2025 16:40:13,536.495,
363,05/11/2025 13:08:30,05/11/2025 13:11:59,208.833,
364,05/11/2025 14:37:22,05/11/2025 14:47:57,635.768,
365,05/11/2025 16:11:46,05/11/2025 16:21:56,610.513,
366,05/12/2025 14:19:04,05/12/2025 14:29:03,599.227,
367,05/12/2025 15:52:32,05/12/2025 16:03:30,657.671,
368,05/13/2025 14:00:58,05/13/2025 14:10:09,550.91,
369,05/13/2025 15:33:31,05/13/2025 15:44:53,681.947,
370,05/13/2025 17:12:21,05/13/2025 17:15:27,185.294,
371,05/14/2025 13:43:06,05/14/2025 13:51:15,488.554,
372,05/14/2025 15:14:42,05/14/2025 15:25:59,677.166,
373,05/14/2025 16:51:25,05/14/2025 16:58:23,418.039,
374,05/15/2025 13:25:34,05/15/2025 13:32:08,394.15,
375,05/15/2025 14:56:03,05/15/2025 15:07:05,661.834,
376,05/15/2025 16:31:30,05/15/2025 16:40:25,535.424,
377,05/16/2025 13:08:42,05/16/2025 13:12:14,212.063,
378,05/16/2025 14:37:35,05/16/2025 14:48:11,636.144,
379,05/16/2025 16:12:00,05/16/2025 16:22:09,609.82,
380,05/17/2025 14:19:17,05/17/2025 14:29:16,599.732,
381,05/17/2025 15:52:46,05/17/2025 16:03:43,657.245,
382,05/18/2025 14:01:11,05/18/2025 14:10:22,551.563,
383,05/18/2025 15:33:45,05/18/2025 15:45:07,681.95,
384,05/18/2025 17:12:37,05/18/2025 17:15:38,180.32,
385,05/19/2025 13:43:19,05/19/2025 13:51:28,489.394,
386,05/19/2025 15:14:55,05/19/2025 15:26:12,677.295,
387,05/19/2025 16:51:39,05/19/2025 16:58:36,416.27,
388,05/20/2025 13:25:46,05/20/2025 13:32:22,395.69,
389,05/20/2025 14:56:16,05/20/2025 15:07:18,662.084,
390,05/20/2025 16:31:44,05/20/2025 16:40:38,534.347,
391,05/21/2025 13:08:53,05/21/2025 13:12:28,215.247,
392,05/21/2025 14:37:48,05/21/2025 14:48:24,636.515,
393,05/21/2025 16:12:13,05/21/2025 16:22:22,609.125,
394,05/22/2025 14:19:30,05/22/2025 14:29:30,600.232,
395,05/22/2025 15:52:59,05/22/2025 16:03:56,656.815,
396,05/23/2025 14:01:23,05/23/2025 14:10:36,552.21,
397,05/23/2025 15:33:58,05/23/2025 15:45:20,681.947,
398,05/23/2025 17:12:53,05/23/2025 17:15:48,175.182,
399,05/24/2025 13:43:31,05/24/2025 13:51:41,490.226,
400,05/24/2025 15:15:08,05/24/2025 15:26:26,677.419,
401,05/24/2025 16:51:54,05/24/2025 16:58:48,414.487,
402,05/25/2025 13:25:58,05/25/2025 13:32:35,397.22,
403,05/25/2025 14:56:29,05/25/2025 15:07:32,662.332,
404,05/25/2025 16:31:58,05/25/2025 16:40:51,533.262,
405,05/26/2025 13:09:04,05/26/2025 13:12:43,218.379,
406,05/26/2025 14:38:00,05/26/2025 14:48:37,636.886,
407,05/26/2025 16:12:27,05/26/2025 16:22:35,608.423,
408,05/27/2025 14:19:42,05/27/2025 14:29:43,600.735,
409,05/27/2025 15:53:13,05/27/2025 16:04:09,656.385,
410,05/28/2025 14:01:36,05/28/2025 14:10:49,552.864,
411,05/28/2025 15:34:11,05/28/2025 15:45:33,681.952,
412,05/28/2025 17:13:09,05/28/2025 17:15:59,169.886,
413,05/29/2025 13:43:44,05/29/2025 13:51:55,491.058,
414,05/29/2025 15:15:22,05/29/2025 15:26:39,677.548,
415,05/29/2025 16:52:08,05/29/2025 16:59:01,412.696,
416,05/30/2025 13:26:10,05/30/2025 13:32:49,398.74,
417,05/30/2025 14:56:42,05/30/2025 15:07:45,662.582,
418,05/30/2025 16:32:12,05/30/2025 16:41:04,532.174,
419,05/31/2025 13:09:16,05/31/2025 13:12:57,221.46,
420,05/31/2025 14:38:13,05/31/2025 14:48:51,637.257,
421,05/31/2025 16:12:41,05/31/2025 16:22:48,607.724,
422,06/01/2025 14:19:55,06/01/2025 14:29:56,601.235,
423,06/01/2025 15:53:26,06/01/2025 16:04:22,655.957,
424,06/02/2025 14:01:49,06/02/2025 14:11:02,553.506,
425,06/02/2025 15:34:25,06/02/2025 15:45:47,681.944,
426,06/02/2025 17:13:25,06/02/2025 17:16:10,164.401,
427,06/03/2025 13:43:56,06/03/2025 13:52:08,491.886,
428,06/03/2025 15:15:35,06/03/2025 15:26:52,677.67,
429,06/03/2025 16:52:22,06/03/2025 16:59:13,410.89,
430,06/04/2025 13:26:23,06/04/2025 13:33:03,400.26,
431,06/04/2025 14:56:55,06/04/2025 15:07:58,662.826,
432,06/04/2025 16:32:26,06/04/2025 16:41:17,531.077,
433,06/05/2025 13:09:27,06/05/2025 13:13:12,224.504,
434,06/05/2025 14:38:26,06/05/2025 14:49:04,637.622,
435,06/05/2025 16:12:54,06/05/2025 16:23:01,607.016,
436,06/06/2025 14:20:08,06/06/2025 14:30:10,601.73,
437,06/06/2025 15:53:40,06/06/2025 16:04:35,655.519,
438,06/07/2025 14:02:01,06/07/2025 14:11:16,554.147,
439,06/07/2025 15:34:38,06/07/2025 15:46:00,681.937,
440,06/07/2025 17:13:42,06/07/2025 17:16:20,158.707,
441,06/08/2025 13:44:09,06/08/2025 13:52:21,492.712,
442,06/08/2025 15:15:48,06/08/2025 15:27:06,677.79,
443,06/08/2025 16:52:36,06/08/2025 16:59:26,409.07,
444,06/09/2025 13:26:35,06/09/2025 13:33:17,401.769,
445,06/09/2025 14:57:08,06/09/2025 15:08:12,663.069,
446,06/09/2025 16:32:39,06/09/2025 16:41:29,529.976,
447,06/10/2025 13:09:39,06/10/2025 13:13:26,227.5,
448,06/10/2025 14:38:39,06/10/2025 14:49:17,637.987,
449,06/10/2025 16:13:08,06/10/2025 16:23:14,606.299,
450,06/11/2025 14:20:21,06/11/2025 14:30:23,602.223,
451,06/11/2025 15:53:53,06/11/2025 16:04:48,655.072,
452,06/12/2025 14:02:14,06/12/2025 14:11:29,554.79,
453,06/12/2025 15:34:51,06/12/2025 15:46:13,681.93,
454,06/12/2025 17:13:58,06/12/2025 17:16:31,152.795,
455,06/13/2025 13:44:21,06/13/2025 13:52:35,493.537,
456,06/13/2025 15:16:01,06/13/2025 15:27:19,677.911,
457,06/13/2025 16:52:51,06/13/2025 16:59:38,407.238,
458,06/14/2025 13:26:47,06/14/2025 13:33:30,403.272,
459,06/14/2025 14:57:22,06/14/2025 15:08:25,663.313,
460,06/14/2025 16:32:53,06/14/2025 16:41:42,528.871,
461,06/15/2025 13:09:50,06/15/2025 13:13:41,230.453,
462,06/15/2025 14:38:52,06/15/2025 14:49:31,638.352,
463,06/15/2025 16:13:21,06/15/2025 16:23:27,605.589,
464,06/16/2025 14:20:34,06/16/2025 14:30:36,602.719,
465,06/16/2025 15:54:06,06/16/2025 16:05:01,654.636,
466,06/17/2025 14:02:27,06/17/2025 14:11:42,555.429,
467,06/17/2025 15:35:05,06/17/2025 15:46:27,681.92,
468,06/17/2025 17:14:15,06/17/2025 17:16:41,146.625,
469,06/18/2025 13:44:34,06/18/2025 13:52:48,494.357,
470,06/18/2025 15:16:14,06/18/2025 15:27:32,678.027,
471,06/18/2025 16:53:05,06/18/2025 16:59:50,405.391,
472,06/19/2025 13:26:59,06/19/2025 13:33:44,404.756,
473,06/19/2025 14:57:35,06/19/2025 15:08:38,663.547,
474,06/19/2025 16:33:07,06/19/2025 16:41:55,527.755,
475,06/20/2025 13:10:02,06/20/2025 13:13:55,233.373,
476,06/20/2025 14:39:05,06/20/2025 14:49:44,638.711,
477,06/20/2025 16:13:35,06/20/2025 16:23:40,604.864,
478,06/21/2025 14:20:47,06/21/2025 14:30:50,603.204,
479,06/21/2025 15:54:20,06/21/2025 16:05:14,654.182,
480,06/22/2025 14:02:40,06/22/2025 14:11:56,556.064,
481,06/22/2025 15:35:18,06/22/2025 15:46:40,681.906,
482,06/22/2025 17:14:31,06/22/2025 17:16:51,140.164,
483,06/23/2025 13:44:46,06/23/2025 13:53:01,495.174,
484,06/23/2025 15:16:28,06/23/2025 15:27:46,678.142,
485,06/23/2025 16:53:19,06/23/2025 17:00:03,403.531,
486,06/24/2025 13:27:12,06/24/2025 13:33:58,406.241,
487,06/24/2025 14:57:48,06/24/2025 15:08:52,663.785,
488,06/24/2025 16:33:21,06/24/2025 16:42:08,526.636,
489,06/25/2025 13:10:13,06/25/2025 13:14:09,236.247,
490,06/25/2025 14:39:18,06/25/2025 14:49:57,639.072,
491,06/25/2025 16:13:49,06/25/2025 16:23:53,604.141,
492,06/26/2025 14:20:59,06/26/2025 14:31:03,603.696,
493,06/26/2025 15:54:33,06/26/2025 16:05:27,653.733,
494,06/27/2025 14:02:52,06/27/2025 14:12:09,556.7,
495,06/27/2025 15:35:31,06/27/2025 15:46:53,681.894,
496,06/27/2025 17:14:48,06/27/2025 17:17:01,133.383,
497,06/28/2025 13:44:59,06/28/2025 13:53:15,495.99,
498,06/28/2025 15:16:41,06/28/2025 15:27:59,678.258,
499,06/28/2025 16:53:34,06/28/2025 17:00:15,401.659,
500,06/29/2025 13:27:24,06/29/2025 13:34:12,407.721,
501,06/29/2025 14:58:01,06/29/2025 15:09:05,664.021,
502,06/29/2025 16:33:35,06/29/2025 16:42:21,525.513,
503,06/30/2025 13:10:25,06/30/2025 13:14:24,239.088,
504,06/30/2025 14:39:31,06/30/2025 14:50:11,639.429,
505,06/30/2025 16:14:02,06/30/2025 16:24:06,603.414,
506,07/01/2025 14:21:12,07/01/2025 14:31:16,604.18,
507,07/01/2025 15:54:47,07/01/2025 16:05:40,653.281,
508,07/02/2025 14:03:05,07/02/2025 14:12:22,557.329,
509,07/02/2025 15:35:45,07/02/2025 15:47:07,681.874,
510,07/02/2025 17:15:05,07/02/2025 17:17:11,126.204,
511,07/03/2025 13:45:11,07/03/2025 13:53:28,496.799,
512,07/03/2025 15:16:54,07/03/2025 15:28:12,678.366,
513,07/03/2025 16:53:48,07/03/2025 17:00:28,399.768,
514,07/04/2025 13:27:36,07/04/2025 13:34:25,409.195,
515,07/04/2025 14:58:14,07/04/2025 15:09:18,664.252,
516,07/04/2025 16:33:49,07/04/2025 16:42:33,524.38,
517,07/05/2025 13:10:36,07/05/2025 13:14:38,241.898,
518,07/05/2025 14:39:44,07/05/2025 14:50:24,639.781,
519,07/05/2025 16:14:16,07/05/2025 16:24:19,602.682,
520,07/06/2025 14:21:25,07/06/2025 14:31:30,604.662,
521,07/06/2025 15:55:00,07/06/2025 16:05:53,652.826,
522,07/07/2025 14:03:18,07/07/2025 14:12:36,557.957,
523,07/07/2025 15:35:58,07/07/2025 15:47:20,681.853,
524,07/07/2025 17:15:22,07/07/2025 17:17:21,118.573,
525,07/08/2025 13:45:24,07/08/2025 13:53:41,497.608,
526,07/08/2025 15:17:07,07/08/2025 15:28:26,678.473,
527,07/08/2025 16:54:02,07/08/2025 17:00:40,397.864,
528,07/09/2025 13:27:48,07/09/2025 13:34:39,410.66,
529,07/09/2025 14:58:27,07/09/2025 15:09:32,664.484,
530,07/09/2025 16:34:03,07/09/2025 16:42:46,523.242,
531,07/10/2025 13:10:48,07/10/2025 13:14:52,244.668,
532,07/10/2025 14:39:57,07/10/2025 14:50:37,640.134,
533,07/10/2025 16:14:30,07/10/2025 16:24:32,601.951,
534,07/11/2025 14:21:38,07/11/2025 14:31:43,605.144,
535,07/11/2025 15:55:14,07/11/2025 16:06:06,652.368,
536,07/12/2025 14:03:30,07/12/2025 14:12:49,558.584,
537,07/12/2025 15:36:11,07/12/2025 15:47:33,681.831,
538,07/12/2025 17:15:40,07/12/2025 17:17:30,110.401,
539,07/13/2025 13:45:36,07/13/2025 13:53:55,498.414,
540,07/13/2025 15:17:20,07/13/2025 15:28:39,678.58,
541,07/13/2025 16:54:17,07/13/2025 17:00:53,395.947,
542,07/14/2025 13:28:01,07/14/2025 13:34:53,412.114,
543,07/14/2025 14:58:40,07/14/2025 15:09:45,664.712,
544,07/14/2025 16:34:17,07/14/2025 16:42:59,522.095,
545,07/15/2025 13:10:59,07/15/2025 13:15:07,247.408,
546,07/15/2025 14:40:10,07/15/2025 14:50:51,640.483,
547,07/15/2025 16:14:43,07/15/2025 16:24:45,601.211,
548,07/16/2025 14:21:51,07/16/2025 14:31:56,605.62,
549,07/16/2025 15:55:27,07/16/2025 16:06:19,651.907,
550,07/17/2025 14:03:43,07/17/2025 14:13:02,559.205,
551,07/17/2025 15:36:25,07/17/2025 15:47:46,681.632,
552,07/17/2025 17:15:58,07/17/2025 17:17:39,101.539,
553,07/18/2025 13:45:49,07/18/2025 13:54:08,499.213,
554,07/18/2025 15:17:34,07/18/2025 15:28:52,678.68,
555,07/18/2025 16:54:31,07/18/2025 17:01:05,394.012,
556,07/19/2025 13:28:13,07/19/2025 13:35:06,413.57,
557,07/19/2025 14:58:53,07/19/2025 15:09:58,664.93,
558,07/19/2025 16:34:31,07/19/2025 16:43:12,520.945,
559,07/20/2025 13:11:11,07/20/2025 13:15:21,250.119,
560,07/20/2025 14:40:23,07/20/2025 14:51:04,640.828,
561,07/20/2025 16:14:57,07/20/2025 16:24:58,600.467,
562,07/21/2025 14:22:04,07/21/2025 14:32:10,606.095,
563,07/21/2025 15:55:41,07/21/2025 16:06:32,651.442,
564,07/22/2025 14:03:56,07/22/2025 14:13:16,559.825,
565,07/22/2025 15:36:38,07/22/2025 15:48:00,681.389,
566,07/22/2025 17:16:16,07/22/2025 17:17:48,91.808,
567,07/23/2025 13:46:01,07/23/2025 13:54:21,500.014,
568,07/23/2025 15:17:47,07/23/2025 15:29:06,678.785,
569,07/23/2025 16:54:45,07/23/2025 17:01:17,392.072,
570,07/24/2025 13:28:25,07/24/2025 13:35:20,415.014,
571,07/24/2025 14:59:06,07/24/2025 15:10:12,665.158,
572,07/24/2025 16:34:45,07/24/2025 16:43:24,519.786,
573,07/25/2025 13:11:22,07/25/2025 13:15:35,252.793,
574,07/25/2025 14:40:36,07/25/2025 14:51:17,641.175,
575,07/25/2025 16:15:11,07/25/2025 16:25:11,599.719,
576,07/26/2025 14:22:17,07/26/2025 14:32:23,606.569,
577,07/26/2025 15:55:54,07/26/2025 16:06:45,650.975,
578,07/27/2025 14:04:08,07/27/2025 14:13:29,560.44,
579,07/27/2025 15:36:52,07/27/2025 15:48:13,681.143,
580,07/27/2025 17:16:35,07/27/2025 17:17:56,80.881,
581,07/28/2025 13:46:14,07/28/2025 13:54:35,500.81,
582,07/28/2025 15:18:00,07/28/2025 15:29:19,678.879,
583,07/28/2025 16:55:00,07/28/2025 17:01:30,390.099,
584,07/29/2025 13:28:37,07/29/2025 13:35:34,416.455,
585,07/29/2025 14:59:19,07/29/2025 15:10:25,665.373,
586,07/29/2025 16:34:58,07/29/2025 16:43:37,518.626,
587,07/30/2025 13:11:34,07/30/2025 13:15:49,255.444,
588,07/30/2025 14:40:49,07/30/2025 14:51:31,641.514,
589,07/30/2025 16:15:24,07/30/2025 16:25:23,598.967,
590,07/31/2025 14:22:29,07/31/2025 14:32:36,607.036,
591,07/31/2025 15:56:08,07/31/2025 16:06:58,650.504,
592,08/01/2025 14:04:21,08/01/2025 14:13:42,561.051,
593,08/01/2025 15:37:05,08/01/2025 15:48:26,680.893,
594,08/01/2025 17:16:54,08/01/2025 17:18:03,68.167,
595,08/02/2025 13:46:26,08/02/2025 13:54:48,501.598,
596,08/02/2025 15:18:13,08/02/2025 15:29:32,678.97,
597,08/02/2025 16:55:14,08/02/2025 17:01:42,388.116,
598,08/03/2025 13:28:50,08/03/2025 13:35:47,417.888,
599,08/03/2025 14:59:33,08/03/2025 15:10:38,665.587,
600,08/03/2025 16:35:12,08/03/2025 16:43:50,517.451,
601,08/04/2025 13:11:46,08/04/2025 13:16:04,258.067,
602,08/04/2025 14:41:02,08/04/2025 14:51:44,641.855,
603,08/04/2025 16:15:38,08/04/2025 16:25:36,598.209,
604,08/05/2025 14:22:42,08/05/2025 14:32:50,607.502,
605,08/05/2025 15:56:21,08/05/2025 16:07:11,650.033,
606,08/06/2025 14:04:34,08/06/2025 14:13:56,561.664,
607,08/06/2025 15:37:18,08/06/2025 15:48:39,680.642,
608,08/06/2025 17:17:16,08/06/2025 17:18:08,52.427,
609,08/07/2025 13:46:39,08/07/2025 13:55:01,502.386,
610,08/07/2025 15:18:27,08/07/2025 15:29:46,679.063,
611,08/07/2025 16:55:28,08/07/2025 17:01:55,386.119,
612,08/08/2025 13:29:02,08/08/2025 13:36:01,419.313,
613,08/08/2025 14:59:46,08/08/2025 15:10:51,665.803,
614,08/08/2025 16:35:26,08/08/2025 16:44:03,516.273,
615,08/09/2025 13:11:57,08/09/2025 13:16:18,260.656,
616,08/09/2025 14:41:15,08/09/2025 14:51:57,642.187,
617,08/09/2025 16:15:52,08/09/2025 16:25:49,597.449,
618,08/10/2025 14:22:55,08/10/2025 14:33:03,607.967,
619,08/10/2025 15:56:35,08/10/2025 16:07:24,649.557,
620,08/11/2025 14:04:47,08/11/2025 14:14:09,562.27,
621,08/11/2025 15:37:32,08/11/2025 15:48:52,680.389,
622,08/11/2025 17:17:41,08/11/2025 17:18:10,29.106,
623,08/12/2025 13:46:51,08/12/2025 13:55:15,503.17,
624,08/12/2025 15:18:40,08/12/2025 15:29:59,679.151,
625,08/12/2025 16:55:43,08/12/2025 17:02:07,384.105,
626,08/13/2025 13:29:14,08/13/2025 13:36:15,420.734,
627,08/13/2025 14:59:59,08/13/2025 15:11:05,666.013,
628,08/13/2025 16:35:40,08/13/2025 16:44:15,515.088,
629,08/14/2025 13:12:09,08/14/2025 13:16:32,263.223,
630,08/14/2025 14:41:28,08/14/2025 14:52:11,642.518,
631,08/14/2025 16:16:06,08/14/2025 16:26:02,596.683,
632,08/15/2025 14:23:08,08/15/2025 14:33:16,608.425,
633,08/15/2025 15:56:48,08/15/2025 16:07:38,649.076,
634,08/16/2025 14:04:59,08/16/2025 14:14:22,562.872,
635,08/16/2025 15:37:45,08/16/2025 15:49:05,680.132,
636,08/17/2025 13:47:04,08/17/2025 13:55:28,503.947,
637,08/17/2025 15:18:53,08/17/2025 15:30:12,679.234,
638,08/17/2025 16:55:57,08/17/2025 17:02:19,382.072,
639,08/18/2025 13:29:26,08/18/2025 13:36:29,422.151,
640,08/18/2025 15:00:12,08/18/2025 15:11:18,666.219,
641,08/18/2025 16:35:54,08/18/2025 16:44:28,513.895,
642,08/19/2025 13:12:21,08/19/2025 13:16:46,265.763,
643,08/19/2025 14:41:41,08/19/2025 14:52:24,642.848,
644,08/19/2025 16:16:19,08/19/2025 16:26:15,595.913,
645,08/20/2025 14:23:21,08/20/2025 14:33:30,608.884,
646,08/20/2025 15:57:02,08/20/2025 16:07:51,648.593,
647,08/21/2025 14:05:12,08/21/2025 14:14:35,563.474,
648,08/21/2025 15:37:58,08/21/2025 15:49:18,679.873,
649,08/22/2025 13:47:17,08/22/2025 13:55:41,504.724,
650,08/22/2025 15:19:06,08/22/2025 15:30:26,679.322,
651,08/22/2025 16:56:12,08/22/2025 17:02:32,380.034,
652,08/23/2025 13:29:39,08/23/2025 13:36:42,423.554,
653,08/23/2025 15:00:25,08/23/2025 15:11:31,666.428,
654,08/23/2025 16:36:08,08/23/2025 16:44:41,512.697,
655,08/24/2025 13:12:32,08/24/2025 13:17:01,268.274,
656,08/24/2025 14:41:54,08/24/2025 14:52:37,643.176,
657,08/24/2025 16:16:33,08/24/2025 16:26:28,595.14,
658,08/25/2025 14:23:34,08/25/2025 14:33:43,609.339,
659,08/25/2025 15:57:15,08/25/2025 16:08:04,648.107,
660,08/26/2025 14:05:25,08/26/2025 14:14:49,564.072,
661,08/26/2025 15:38:12,08/26/2025 15:49:31,679.612,
662,08/27/2025 13:47:29,08/27/2025 13:55:55,505.496,
663,08/27/2025 15:19:20,08/27/2025 15:30:39,679.4,
664,08/27/2025 16:56:26,08/27/2025 17:02:44,377.967,
665,08/28/2025 13:29:51,08/28/2025 13:36:56,424.956,
666,08/28/2025 15:00:38,08/28/2025 15:11:45,666.628,
667,08/28/2025 16:36:22,08/28/2025 16:44:54,511.489,
668,08/29/2025 13:12:44,08/29/2025 13:17:15,270.767,
669,08/29/2025 14:42:07,08/29/2025 14:52:51,643.498,
670,08/29/2025 16:16:47,08/29/2025 16:26:41,594.36,
671,08/30/2025 14:23:47,08/30/2025 14:33:56,609.788,
672,08/30/2025 15:57:29,08/30/2025 16:08:17,647.616,
673,08/31/2025 14:05:37,08/31/2025 14:15:02,564.664,
674,08/31/2025 15:38:25,08/31/2025 15:49:44,679.347,
675,09/01/2025 13:47:42,09/01/2025 13:56:08,506.259,
676,09/01/2025 15:19:33,09/01/2025 15:30:52,679.475,
677,09/01/2025 16:56:40,09/01/2025 17:02:56,375.882,
678,09/02/2025 13:30:03,09/02/2025 13:37:10,426.353,
679,09/02/2025 15:00:51,09/02/2025 15:11:58,666.826,
680,09/02/2025 16:36:36,09/02/2025 16:45:06,510.275,
681,09/03/2025 13:12:56,09/03/2025 13:17:29,273.233,
682,09/03/2025 14:42:20,09/03/2025 14:53:04,643.819,
683,09/03/2025 16:17:00,09/03/2025 16:26:54,593.577,
684,09/04/2025 14:23:59,09/04/2025 14:34:10,610.237,
685,09/04/2025 15:57:42,09/04/2025 16:08:30,647.124,
686,09/05/2025 14:05:50,09/05/2025 14:15:15,565.257,
687,09/05/2025 15:38:38,09/05/2025 15:49:57,679.081,
688,09/06/2025 13:47:54,09/06/2025 13:56:21,507.027,
689,09/06/2025 15:19:46,09/06/2025 15:31:06,679.55,
690,09/06/2025 16:56:55,09/06/2025 17:03:09,373.782,
691,09/07/2025 13:30:16,09/07/2025 13:37:23,427.744,
692,09/07/2025 15:01:04,09/07/2025 15:12:11,667.023,
693,09/07/2025 16:36:50,09/07/2025 16:45:19,509.06,
694,09/08/2025 13:13:08,09/08/2025 13:17:43,275.673,
695,09/08/2025 14:42:33,09/08/2025 14:53:17,644.14,
696,09/08/2025 16:17:14,09/08/2025 16:27:07,592.791,
697,09/09/2025 14:24:12,09/09/2025 14:34:23,610.684,
698,09/09/2025 15:57:56,09/09/2025 16:08:43,646.628,
699,09/10/2025 14:06:03,09/10/2025 14:15:29,565.849,
700,09/10/2025 15:38:52,09/10/2025 15:50:11,678.82,
701,09/11/2025 13:48:07,09/11/2025 13:56:34,507.787,
702,09/11/2025 15:19:59,09/11/2025 15:31:19,679.619,
703,09/11/2025 16:57:09,09/11/2025 17:03:21,371.661,
704,09/12/2025 13:30:28,09/12/2025 13:37:37,429.126,
705,09/12/2025 15:01:17,09/12/2025 15:12:25,667.214,
706,09/12/2025 16:37:04,09/12/2025 16:45:32,507.831,
707,09/13/2025 13:13:19,09/13/2025 13:17:57,278.096,
708,09/13/2025 14:42:46,09/13/2025 14:53:30,644.453,
709,09/13/2025 16:17:28,09/13/2025 16:27:20,591.998,
710,09/14/2025 14:24:25,09/14/2025 14:34:36,611.124,
711,09/14/2025 15:58:10,09/14/2025 16:08:56,646.132,
712,09/15/2025 14:06:16,09/15/2025 14:15:42,566.432,
713,09/15/2025 15:39:05,09/15/2025 15:50:24,678.548,
714,09/16/2025 13:48:19,09/16/2025 13:56:48,508.545,
715,09/16/2025 15:20:12,09/16/2025 15:31:32,679.687,
716,09/16/2025 16:57:24,09/16/2025 17:03:33,369.522,
717,09/17/2025 13:30:40,09/17/2025 13:37:51,430.503,
718,09/17/2025 15:01:31,09/17/2025 15:12:38,667.41,
719,09/17/2025 16:37:18,09/17/2025 16:45:44,506.597,
720,09/18/2025 13:13:31,09/18/2025 13:18:11,280.49,
721,09/18/2025 14:42:59,09/18/2025 14:53:44,644.768,
722,09/18/2025 16:17:41,09/18/2025 16:27:33,591.203,
723,09/19/2025 14:24:38,09/19/2025 14:34:50,611.566,
724,09/19/2025 15:58:23,09/19/2025 16:09:09,645.63,
725,09/20/2025 14:06:28,09/20/2025 14:15:55,567.017,
726,09/20/2025 15:39:19,09/20/2025 15:50:37,678.274,
727,09/21/2025 13:48:32,09/21/2025 13:57:01,509.306,
728,09/21/2025 15:20:26,09/21/2025 15:31:45,679.754,
729,09/21/2025 16:57:38,09/21/2025 17:03:46,367.367,
730,09/22/2025 13:30:52,09/22/2025 13:38:04,431.874,
731,09/22/2025 15:01:44,09/22/2025 15:12:51,667.599,
732,09/22/2025 16:37:32,09/22/2025 16:45:57,505.355,
733,09/23/2025 13:13:43,09/23/2025 13:18:26,282.865,
734,09/23/2025 14:43:12,09/23/2025 14:53:57,645.079,
735,09/23/2025 16:17:55,09/23/2025 16:27:45,590.402,
736,09/24/2025 14:24:51,09/24/2025 14:35:03,612.003,
737,09/24/2025 15:58:37,09/24/2025 16:09:22,645.125,
738,09/25/2025 14:06:41,09/25/2025 14:16:09,567.594,
739,09/25/2025 15:39:32,09/25/2025 15:50:50,677.997,
740,09/26/2025 13:48:44,09/26/2025 13:57:14,510.055,
741,09/26/2025 15:20:39,09/26/2025 15:31:59,679.81,
742,09/26/2025 16:57:53,09/26/2025 17:03:58,365.189,
743,09/27/2025 13:31:05,09/27/2025 13:38:18,433.241,
744,09/27/2025 15:01:57,09/27/2025 15:13:05,667.779,
745,09/27/2025 16:37:46,09/27/2025 16:46:10,504.104,
746,09/28/2025 13:13:55,09/28/2025 13:18:40,285.221,
747,09/28/2025 14:43:25,09/28/2025 14:54:10,645.384,
748,09/28/2025 16:18:09,09/28/2025 16:27:58,589.597,
749,09/29/2025 14:25:04,09/29/2025 14:35:16,612.438,
750,09/29/2025 15:58:50,09/29/2025 16:09:35,644.613,
751,09/30/2025 14:06:54,09/30/2025 14:16:22,568.167,
752,09/30/2025 15:39:45,09/30/2025 15:51:03,677.712,
753,10/01/2025 13:48:57,10/01/2025 13:57:28,510.803,
754,10/01/2025 15:20:52,10/01/2025 15:32:12,679.874,
755,10/01/2025 16:58:07,10/01/2025 17:04:10,362.994,
756,10/02/2025 13:31:17,10/02/2025 13:38:32,434.6,
757,10/02/2025 15:02:10,10/02/2025 15:13:18,667.963,
758,10/02/2025 16:38:00,10/02/2025 16:46:23,502.848,
759,10/03/2025 13:14:06,10/03/2025 13:18:54,287.55,
760,10/03/2025 14:43:38,10/03/2025 14:54:24,645.691,
761,10/03/2025 16:18:23,10/03/2025 16:28:11,588.788,
762,10/04/2025 14:25:17,10/04/2025 14:35:29,612.873,
763,10/04/2025 15:59:04,10/04/2025 16:09:48,644.102,
764,10/05/2025 14:07:06,10/05/2025 14:16:35,568.744,
765,10/05/2025 15:39:59,10/05/2025 15:51:16,677.43,
766,10/06/2025 13:49:09,10/06/2025 13:57:41,511.551,
767,10/06/2025 15:21:05,10/06/2025 15:32:25,679.934,
768,10/06/2025 16:58:22,10/06/2025 17:04:22,360.781,
769,10/07/2025 13:31:29,10/07/2025 13:38:45,435.953,
770,10/07/2025 15:02:23,10/07/2025 15:13:31,668.145,
771,10/07/2025 16:38:14,10/07/2025 16:46:35,501.584,
772,10/08/2025 13:14:18,10/08/2025 13:19:08,289.861,
773,10/08/2025 14:43:51,10/08/2025 14:54:37,645.994,
774,10/08/2025 16:18:36,10/08/2025 16:28:24,587.975,
775,10/09/2025 14:25:29,10/09/2025 14:35:43,613.302,
776,10/09/2025 15:59:17,10/09/2025 16:10:01,643.586,
777,10/10/2025 14:07:19,10/10/2025 14:16:49,569.315,
778,10/10/2025 15:40:12,10/10/2025 15:51:29,677.146,
779,10/11/2025 13:49:22,10/11/2025 13:57:54,512.29,
780,10/11/2025 15:21:19,10/11/2025 15:32:39,679.985,
781,10/11/2025 16:58:36,10/11/2025 17:04:35,358.544,
782,10/12/2025 13:31:42,10/12/2025 13:38:59,437.297,
783,10/12/2025 15:02:36,10/12/2025 15:13:44,668.321,
784,10/12/2025 16:38:28,10/12/2025 16:46:48,500.312,
785,10/13/2025 13:14:30,10/13/2025 13:19:22,292.154,
786,10/13/2025 14:44:04,10/13/2025 14:54:50,646.293,
787,10/13/2025 16:18:50,10/13/2025 16:28:37,587.156,
788,10/14/2025 14:25:42,10/14/2025 14:35:56,613.729,
789,10/14/2025 15:59:31,10/14/2025 16:10:14,643.068,
790,10/15/2025 14:07:32,10/15/2025 14:17:02,569.885,
791,10/15/2025 15:40:25,10/15/2025 15:51:42,676.859,
792,10/16/2025 13:49:35,10/16/2025 13:58:08,513.031,
793,10/16/2025 15:21:32,10/16/2025 15:32:52,680.039,
794,10/16/2025 16:58:51,10/16/2025 17:04:47,356.291,
795,10/17/2025 13:31:54,10/17/2025 13:39:13,438.643,
796,10/17/2025 15:02:49,10/17/2025 15:13:58,668.499,
797,10/17/2025 16:38:42,10/17/2025 16:47:01,499.035,
798,10/18/2025 13:14:42,10/18/2025 13:19:36,294.424,
799,10/18/2025 14:44:17,10/18/2025 14:55:04,646.594,
800,10/18/2025 16:19:04,10/18/2025 16:28:50,586.335,
801,10/19/2025 14:25:55,10/19/2025 14:36:09,614.157,
802,10/19/2025 15:59:44,10/19/2025 16:10:27,642.547,
803,10/20/2025 14:07:45,10/20/2025 14:17:15,570.453,
804,10/20/2025 15:40:39,10/20/2025 15:51:55,676.569,
805,10/21/2025 13:49:47,10/21/2025 13:58:21,513.768,
806,10/21/2025 15:21:45,10/21/2025 15:33:05,680.09,
807,10/21/2025 16:59:05,10/21/2025 17:04:59,354.015,
808,10/22/2025 13:32:06,10/22/2025 13:39:26,439.98,
809,10/22/2025 15:03:02,10/22/2025 15:14:11,668.674,
810,10/22/2025 16:38:56,10/22/2025 16:47:13,497.749,
811,10/23/2025 13:14:54,10/23/2025 13:19:50,296.676,
812,10/23/2025 14:44:30,10/23/2025 14:55:17,646.89,
813,10/23/2025 16:19:17,10/23/2025 16:29:03,585.509,
814,10/24/2025 14:26:08,10/24/2025 14:36:23,614.579,
815,10/24/2025 15:59:58,10/24/2025 16:10:40,642.022,
816,10/25/2025 14:07:57,10/25/2025 14:17:28,571.016,
817,10/25/2025 15:40:52,10/25/2025 15:52:08,676.277,
818,10/26/2025 13:50:00,10/26/2025 13:58:34,514.5,
819,10/26/2025 15:21:58,10/26/2025 15:33:19,680.138,
820,10/26/2025 16:59:20,10/26/2025 17:05:11,351.717,
821,10/27/2025 13:32:19,10/27/2025 13:39:40,441.289,
822,10/27/2025 15:03:16,10/27/2025 15:14:24,668.845,
823,10/27/2025 16:39:10,10/27/2025 16:47:26,496.456,
824,10/28/2025 13:15:05,10/28/2025 13:20:04,298.902,
825,10/28/2025 14:44:43,10/28/2025 14:55:30,647.18,
826,10/28/2025 16:19:31,10/28/2025 16:29:16,584.678,
827,10/29/2025 14:26:21,10/29/2025 14:36:36,615.001,
828,10/29/2025 16:00:11,10/29/2025 16:10:53,641.495,
829,10/30/2025 14:08:10,10/30/2025 14:17:42,571.579,
830,10/30/2025 15:41:06,10/30/2025 15:52:22,675.982,
831,10/31/2025 13:50:12,10/31/2025 13:58:48,515.234,
832,10/31/2025 15:22:12,10/31/2025 15:33:32,680.193,
833,10/31/2025 16:59:34,10/31/2025 17:05:24,349.401,
834,11/01/2025 13:32:31,11/01/2025 13:39:53,442.263,
835,11/01/2025 15:03:29,11/01/2025 15:14:38,669.021,
836,11/01/2025 16:39:24,11/01/2025 16:47:39,495.155,
837,11/02/2025 13:15:17,11/02/2025 13:20:18,301.109,
838,11/02/2025 14:44:56,11/02/2025 14:55:43,647.476,
839,11/02/2025 16:19:45,11/02/2025 16:29:29,583.844,
840,11/03/2025 14:26:34,11/03/2025 14:36:49,615.424,
841,11/03/2025 16:00:25,11/03/2025 16:11:06,640.965,
842,11/04/2025 14:08:23,11/04/2025 14:17:55,572.142,
843,11/04/2025 15:41:19,11/04/2025 15:52:35,675.685,
844,11/05/2025 13:50:25,11/05/2025 13:59:01,515.963,
845,11/05/2025 15:22:25,11/05/2025 15:33:45,680.241,
846,11/05/2025 16:59:49,11/05/2025 17:05:36,347.064,
847,11/06/2025 13:32:43,11/06/2025 13:40:07,443.226,
848,11/06/2025 15:03:42,11/06/2025 15:14:51,669.191,
849,11/06/2025 16:39:38,11/06/2025 16:47:51,493.847,
850,11/07/2025 13:15:29,11/07/2025 13:20:32,303.303,
851,11/07/2025 14:45:09,11/07/2025 14:55:57,647.767,
852,11/07/2025 16:19:59,11/07/2025 16:29:42,583.004,
853,11/08/2025 14:26:47,11/08/2025 14:37:03,615.84,
854,11/08/2025 16:00:38,11/08/2025 16:11:19,640.431,
855,11/09/2025 14:08:36,11/09/2025 14:18:08,572.699,
856,11/09/2025 15:41:32,11/09/2025 15:52:48,675.385,
857,11/10/2025 13:50:37,11/10/2025 13:59:14,516.689,
858,11/10/2025 15:22:38,11/10/2025 15:33:58,680.285,
859,11/10/2025 17:00:03,11/10/2025 17:05:48,344.706,
860,11/11/2025 13:32:56,11/11/2025 13:40:20,444.187,
861,11/11/2025 15:03:55,11/11/2025 15:15:04,669.359,
862,11/11/2025 16:39:52,11/11/2025 16:48:04,492.532,
863,11/12/2025 13:15:41,11/12/2025 13:20:46,305.474,
864,11/12/2025 14:45:22,11/12/2025 14:56:10,648.059,
865,11/12/2025 16:20:12,11/12/2025 16:29:54,582.162,
866,11/13/2025 14:27:00,11/13/2025 14:37:16,616.261,
867,11/13/2025 16:00:52,11/13/2025 16:11:32,639.895,
868,11/14/2025 14:08:48,11/14/2025 14:18:22,573.259,
869,11/14/2025 15:41:46,11/14/2025 15:53:01,675.084,
870,11/15/2025 13:50:50,11/15/2025 13:59:27,517.417,
871,11/15/2025 15:22:51,11/15/2025 15:34:12,680.333,
872,11/15/2025 17:00:18,11/15/2025 17:06:00,342.327,
873,11/16/2025 13:33:08,11/16/2025 13:40:33,445.146,
874,11/16/2025 15:04:08,11/16/2025 15:15:18,669.53,
875,11/16/2025 16:40:06,11/16/2025 16:48:17,491.212,
876,11/17/2025 13:15:53,11/17/2025 13:21:00,307.624,
877,11/17/2025 14:45:35,11/17/2025 14:56:23,648.351,
878,11/17/2025 16:20:26,11/17/2025 16:30:07,581.315,
879,11/18/2025 14:27:12,11/18/2025 14:37:29,616.679,
880,11/18/2025 16:01:05,11/18/2025 16:11:45,639.356,
881,11/19/2025 14:09:01,11/19/2025 14:18:35,573.816,
882,11/19/2025 15:41:59,11/19/2025 15:53:14,674.779,
883,11/20/2025 13:51:03,11/20/2025 13:59:41,518.14,
884,11/20/2025 15:23:05,11/20/2025 15:34:25,680.374,
885,11/20/2025 17:00:32,11/20/2025 17:06:12,339.925,
886,11/21/2025 13:33:20,11/21/2025 13:40:46,446.1,
887,11/21/2025 15:04:21,11/21/2025 15:15:31,669.697,
888,11/21/2025 16:40:20,11/21/2025 16:48:29,489.883,
889,11/22/2025 13:16:05,11/22/2025 13:21:14,309.761,
890,11/22/2025 14:45:48,11/22/2025 14:56:37,648.64,
891,11/22/2025 16:20:40,11/22/2025 16:30:20,580.464,
892,11/23/2025 14:27:25,11/23/2025 14:37:42,617.093,
893,11/23/2025 16:01:19,11/23/2025 16:11:58,638.813,
894,11/24/2025 14:09:14,11/24/2025 14:18:48,574.371,
895,11/24/2025 15:42:12,11/24/2025 15:53:27,674.473,
896,11/25/2025 13:51:15,11/25/2025 13:59:54,518.862,
897,11/25/2025 15:23:18,11/25/2025 15:34:38,680.415,
898,11/25/2025 17:00:47,11/25/2025 17:06:25,337.5,
899,11/26/2025 13:33:33,11/26/2025 13:41:00,447.052,
900,11/26/2025 15:04:34,11/26/2025 15:15:44,669.865,
901,11/26/2025 16:40:34,11/26/2025 16:48:42,488.547,
902,11/27/2025 13:16:17,11/27/2025 13:21:29,311.875,
903,11/27/2025 14:46:01,11/27/2025 14:56:50,648.93,
904,11/27/2025 16:20:53,11/27/2025 16:30:33,579.608,
905,11/28/2025 14:27:38,11/28/2025 14:37:56,617.513,
906,11/28/2025 16:01:32,11/28/2025 16:12:11,638.265,
907,11/29/2025 14:09:27,11/29/2025 14:19:01,574.928,
908,11/29/2025 15:42:26,11/29/2025 15:53:40,674.164,
909,11/30/2025 13:51:28,11/30/2025 14:00:07,519.585,
910,11/30/2025 15:23:31,11/30/2025 15:34:52,680.461,
911,11/30/2025 17:01:02,11/30/2025 17:06:37,335.056,
912,12/01/2025 13:33:45,12/01/2025 13:41:13,448.003,
913,12/01/2025 15:04:47,12/01/2025 15:15:57,670.035,
914,12/01/2025 16:40:48,12/01/2025 16:48:55,487.208,
915,12/02/2025 13:16:29,12/02/2025 13:21:42,313.969,
916,12/02/2025 14:46:14,12/02/2025 14:57:03,649.221,
917,12/02/2025 16:21:07,12/02/2025 16:30:46,578.748,
918,12/03/2025 14:27:51,12/03/2025 14:38:09,617.929,
919,12/03/2025 16:01:46,12/03/2025 16:12:24,637.721,
920,12/04/2025 14:09:39,12/04/2025 14:19:15,575.482,
921,12/04/2025 15:42:39,12/04/2025 15:53:53,673.852,
922,12/05/2025 13:51:40,12/05/2025 14:00:21,520.303,
923,12/05/2025 15:23:44,12/05/2025 15:35:05,680.501,
924,12/05/2025 17:01:16,12/05/2025 17:06:49,332.585,
925,12/06/2025 13:33:57,12/06/2025 13:41:26,448.948,
926,12/06/2025 15:05:01,12/06/2025 15:16:11,670.194,
927,12/06/2025 16:41:02,12/06/2025 16:49:07,485.859,
928,12/07/2025 13:16:40,12/07/2025 13:21:56,316.054,
929,12/07/2025 14:46:27,12/07/2025 14:57:17,649.507,
930,12/07/2025 16:21:21,12/07/2025 16:30:59,577.887,
931,12/08/2025 14:28:04,12/08/2025 14:38:22,618.346,
932,12/08/2025 16:02:00,12/08/2025 16:12:37,637.17,
933,12/09/2025 14:09:52,12/09/2025 14:19:28,576.03,
934,12/09/2025 15:42:53,12/09/2025 15:54:06,673.54,
935,12/10/2025 13:51:53,12/10/2025 14:00:34,521.022,
936,12/10/2025 15:23:58,12/10/2025 15:35:18,680.544,
937,12/10/2025 17:01:31,12/10/2025 17:07:01,330.093,
938,12/11/2025 13:34:10,12/11/2025 13:41:40,449.893,
939,12/11/2025 15:05:14,12/11/2025 15:16:24,670.362,
940,12/11/2025 16:41:16,12/11/2025 16:49:20,484.504,
941,12/12/2025 13:16:52,12/12/2025 13:22:10,318.113,
942,12/12/2025 14:46:40,12/12/2025 14:57:30,649.798,
943,12/12/2025 16:21:35,12/12/2025 16:31:12,577.021,
944,12/13/2025 14:28:17,12/13/2025 14:38:36,618.763,
945,12/13/2025 16:02:13,12/13/2025 16:12:50,636.616,
946,12/14/2025 14:10:05,12/14/2025 14:19:41,576.586,
947,12/14/2025 15:43:06,12/14/2025 15:54:19,673.224,
948,12/15/2025 13:52:05,12/15/2025 14:00:47,521.742,
949,12/15/2025 15:24:11,12/15/2025 15:35:32,680.589,
950,12/15/2025 17:01:46,12/15/2025 17:07:13,327.579,
951,12/16/2025 13:34:22,12/16/2025 13:41:53,450.837,
952,12/16/2025 15:05:27,12/16/2025 15:16:37,670.532,
953,12/16/2025 16:41:30,12/16/2025 16:49:33,483.143,
954,12/17/2025 13:17:04,12/17/2025 13:22:24,320.155,
955,12/17/2025 14:46:53,12/17/2025 14:57:43,650.089,
956,12/17/2025 16:21:48,12/17/2025 16:31:24,576.151,
957,12/18/2025 14:28:30,12/18/2025 14:38:49,619.178,
958,12/18/2025 16:02:27,12/18/2025 16:13:03,636.059,
959,12/19/2025 14:10:18,12/19/2025 14:19:55,577.139,
960,12/19/2025 15:43:19,12/19/2025 15:54:32,672.905,
961,12/20/2025 13:52:18,12/20/2025 14:01:00,522.454,
962,12/20/2025 15:24:24,12/20/2025 15:35:45,680.631,
963,12/20/2025 17:02:00,12/20/2025 17:07:25,325.039,
964,12/21/2025 13:34:34,12/21/2025 13:42:06,451.776,
965,12/21/2025 15:05:40,12/21/2025 15:16:51,670.698,
966,12/21/2025 16:41:44,12/21/2025 16:49:45,481.773,
967,12/22/2025 13:17:16,12/22/2025 13:22:38,322.181,
968,12/22/2025 14:47:06,12/22/2025 14:57:56,650.377,
969,12/22/2025 16:22:02,12/22/2025 16:31:37,575.276,
970,12/23/2025 14:28:43,12/23/2025 14:39:02,619.593,
971,12/23/2025 16:02:40,12/23/2025 16:13:16,635.499,
972,12/24/2025 14:10:30,12/24/2025 14:20:08,577.692,
973,12/24/2025 15:43:33,12/24/2025 15:54:45,672.584,
974,12/25/2025 13:52:31,12/25/2025 14:01:14,523.171,
975,12/25/2025 15:24:37,12/25/2025 15:35:58,680.677,
976,12/25/2025 17:02:15,12/25/2025 17:07:37,322.475,
977,12/26/2025 13:34:47,12/26/2025 13:42:20,452.715,
978,12/26/2025 15:05:53,12/26/2025 15:17:04,670.867,
979,12/26/2025 16:41:58,12/26/2025 16:49:58,480.397,
980,12/27/2025 13:17:28,12/27/2025 13:22:52,324.187,
981,12/27/2025 14:47:19,12/27/2025 14:58:10,650.669,
982,12/27/2025 16:22:16,12/27/2025 16:31:50,574.399,
983,12/28/2025 14:28:56,12/28/2025 14:39:16,620.011,
984,12/28/2025 16:02:54,12/28/2025 16:13:29,634.937,
985,12/29/2025 14:10:43,12/29/2025 14:20:21,578.247,
986,12/29/2025 15:43:46,12/29/2025 15:54:58,672.262,
987,12/30/2025 13:52:43,12/30/2025 14:01:27,523.889,
988,12/30/2025 15:24:51,12/30/2025 15:36:11,680.724,
989,12/30/2025 17:02:30,12/30/2025 17:07:49,319.888,
990,12/31/2025 13:34:59,12/31/2025 13:42:33,453.652,
991,12/31/2025 15:06:06,12/31/2025 15:17:17,671.037,
992,12/31/2025 16:42:12,12/31/2025 16:50:11,479.015,
993,01/01/2026 13:17:40,01/01/2026 13:23:06,326.177,
994,01/01/2026 14:47:32,01/01/2026 14:58:23,650.959,
,,,,
Global Statistics,,,,
Min Duration,09/13/1901 00:00:00,08/11/2025 17:17:41,18:10.0,29.106
Max Duration,02/14/1901 00:00:00,05/28/2025 15:34:11,45:33.3,681.952
Mean Duration,,,,532.439
Total Duration,,,,529244.305
