3UCubedIntegratedSim/Reports & Plots/Comms/Past Comms Data/UNH/CSV/Sat2.csv

Access,Start Time (UTCG),Stop Time (UTCG),Duration (sec),
1,01/01/2025 16:11:42,01/01/2025 16:16:00,257.446,
2,01/01/2025 17:40:58,01/01/2025 17:52:12,673.426,
3,01/01/2025 19:15:34,01/01/2025 19:25:32,598.402,
4,01/02/2025 17:22:38,01/02/2025 17:33:19,640.317,
5,01/02/2025 18:56:17,01/02/2025 19:07:08,650.156,
6,01/03/2025 17:04:30,01/03/2025 17:14:20,590.176,
7,01/03/2025 18:37:14,01/03/2025 18:48:35,680.705,
8,01/03/2025 20:17:09,01/03/2025 20:18:06,56.954,
9,01/04/2025 16:46:35,01/04/2025 16:55:14,519.301,
10,01/04/2025 18:18:23,01/04/2025 18:29:56,693.796,
11,01/04/2025 19:55:24,01/04/2025 20:01:51,386.64,
12,01/05/2025 16:28:58,01/05/2025 16:35:57,418.965,
13,01/05/2025 17:59:42,01/05/2025 18:11:13,691.254,
14,01/05/2025 19:35:22,01/05/2025 19:43:59,516.58,
15,01/06/2025 16:11:54,01/06/2025 16:16:14,260.043,
16,01/06/2025 17:41:11,01/06/2025 17:52:25,673.725,
17,01/06/2025 19:15:48,01/06/2025 19:25:45,597.646,
18,01/07/2025 17:22:51,01/07/2025 17:33:32,640.799,
19,01/07/2025 18:56:31,01/07/2025 19:07:21,649.679,
20,01/08/2025 17:04:43,01/08/2025 17:14:34,590.877,
21,01/08/2025 18:37:28,01/08/2025 18:48:48,680.453,
22,01/08/2025 20:17:33,01/08/2025 20:18:10,36.685,
23,01/09/2025 16:46:48,01/09/2025 16:55:28,520.28,
24,01/09/2025 18:18:36,01/09/2025 18:30:10,693.735,
25,01/09/2025 19:55:39,01/09/2025 20:02:03,384.635,
26,01/10/2025 16:29:10,01/10/2025 16:36:11,420.384,
27,01/10/2025 17:59:55,01/10/2025 18:11:26,691.372,
28,01/10/2025 19:35:36,01/10/2025 19:44:11,515.4,
29,01/11/2025 16:12:05,01/11/2025 16:16:28,262.608,
30,01/11/2025 17:41:24,01/11/2025 17:52:38,674.019,
31,01/11/2025 19:16:01,01/11/2025 19:25:58,596.884,
32,01/12/2025 17:23:04,01/12/2025 17:33:45,641.28,
33,01/12/2025 18:56:44,01/12/2025 19:07:34,649.201,
34,01/13/2025 17:04:55,01/13/2025 17:14:47,591.572,
35,01/13/2025 18:37:41,01/13/2025 18:49:01,680.197,
36,01/14/2025 16:47:00,01/14/2025 16:55:41,521.256,
37,01/14/2025 18:18:49,01/14/2025 18:30:23,693.672,
38,01/14/2025 19:55:53,01/14/2025 20:02:16,382.612,
39,01/15/2025 16:29:23,01/15/2025 16:36:25,421.8,
40,01/15/2025 18:00:08,01/15/2025 18:11:39,691.487,
41,01/15/2025 19:35:50,01/15/2025 19:44:24,514.211,
42,01/16/2025 16:12:17,01/16/2025 16:16:42,265.149,
43,01/16/2025 17:41:37,01/16/2025 17:52:51,674.311,
44,01/16/2025 19:16:15,01/16/2025 19:26:11,596.116,
45,01/17/2025 17:23:17,01/17/2025 17:33:59,641.759,
46,01/17/2025 18:56:58,01/17/2025 19:07:47,648.719,
47,01/18/2025 17:05:08,01/18/2025 17:15:00,592.267,
48,01/18/2025 18:37:54,01/18/2025 18:49:14,679.94,
49,01/19/2025 16:47:13,01/19/2025 16:55:55,522.228,
50,01/19/2025 18:19:02,01/19/2025 18:30:36,693.606,
51,01/19/2025 19:56:07,01/19/2025 20:02:28,380.573,
52,01/20/2025 16:29:35,01/20/2025 16:36:38,423.2,
53,01/20/2025 18:00:21,01/20/2025 18:11:53,691.608,
54,01/20/2025 19:36:04,01/20/2025 19:44:37,513.018,
55,01/21/2025 16:12:29,01/21/2025 16:16:56,267.659,
56,01/21/2025 17:41:50,01/21/2025 17:53:05,674.601,
57,01/21/2025 19:16:29,01/21/2025 19:26:24,595.346,
58,01/22/2025 17:23:30,01/22/2025 17:34:12,642.233,
59,01/22/2025 18:57:11,01/22/2025 19:08:00,648.236,
60,01/23/2025 17:05:21,01/23/2025 17:15:14,592.958,
61,01/23/2025 18:38:08,01/23/2025 18:49:27,679.68,
62,01/24/2025 16:47:25,01/24/2025 16:56:08,523.19,
63,01/24/2025 18:19:16,01/24/2025 18:30:49,693.547,
64,01/24/2025 19:56:22,01/24/2025 20:02:40,378.53,
65,01/25/2025 16:29:47,01/25/2025 16:36:52,424.598,
66,01/25/2025 18:00:34,01/25/2025 18:12:06,691.713,
67,01/25/2025 19:36:18,01/25/2025 19:44:50,511.818,
68,01/26/2025 16:12:40,01/26/2025 16:17:11,270.139,
69,01/26/2025 17:42:03,01/26/2025 17:53:18,674.887,
70,01/26/2025 19:16:42,01/26/2025 19:26:37,594.572,
71,01/27/2025 17:23:43,01/27/2025 17:34:25,642.707,
72,01/27/2025 18:57:25,01/27/2025 19:08:13,647.749,
73,01/28/2025 17:05:34,01/28/2025 17:15:27,593.646,
74,01/28/2025 18:38:21,01/28/2025 18:49:40,679.418,
75,01/29/2025 16:47:38,01/29/2025 16:56:22,524.155,
76,01/29/2025 18:19:29,01/29/2025 18:31:02,693.478,
77,01/29/2025 19:56:36,01/29/2025 20:02:53,376.459,
78,01/30/2025 16:30:00,01/30/2025 16:37:06,425.989,
79,01/30/2025 18:00:47,01/30/2025 18:12:19,691.822,
80,01/30/2025 19:36:32,01/30/2025 19:45:02,510.611,
81,01/31/2025 16:12:52,01/31/2025 16:17:25,272.6,
82,01/31/2025 17:42:16,01/31/2025 17:53:31,675.173,
83,01/31/2025 19:16:56,01/31/2025 19:26:50,593.794,
84,02/01/2025 17:23:55,02/01/2025 17:34:39,643.18,
85,02/01/2025 18:57:38,02/01/2025 19:08:26,647.259,
86,02/02/2025 17:05:46,02/02/2025 17:15:41,594.333,
87,02/02/2025 18:38:34,02/02/2025 18:49:54,679.153,
88,02/03/2025 16:47:50,02/03/2025 16:56:35,525.111,
89,02/03/2025 18:19:42,02/03/2025 18:31:15,693.406,
90,02/03/2025 19:56:51,02/03/2025 20:03:05,374.372,
91,02/04/2025 16:30:12,02/04/2025 16:37:19,427.371,
92,02/04/2025 18:01:00,02/04/2025 18:12:32,691.929,
93,02/04/2025 19:36:46,02/04/2025 19:45:15,509.404,
94,02/05/2025 16:13:04,02/05/2025 16:17:39,275.028,
95,02/05/2025 17:42:29,02/05/2025 17:53:45,675.456,
96,02/05/2025 19:17:10,02/05/2025 19:27:03,593.012,
97,02/06/2025 17:24:08,02/06/2025 17:34:52,643.649,
98,02/06/2025 18:57:52,02/06/2025 19:08:39,646.768,
99,02/07/2025 17:05:59,02/07/2025 17:15:54,595.021,
100,02/07/2025 18:38:48,02/07/2025 18:50:07,678.895,
101,02/08/2025 16:48:03,02/08/2025 16:56:49,526.065,
102,02/08/2025 18:19:55,02/08/2025 18:31:29,693.333,
103,02/08/2025 19:57:05,02/08/2025 20:03:17,372.272,
104,02/09/2025 16:30:24,02/09/2025 16:37:33,428.748,
105,02/09/2025 18:01:13,02/09/2025 18:12:46,692.031,
106,02/09/2025 19:37:00,02/09/2025 19:45:28,508.186,
107,02/10/2025 16:13:16,02/10/2025 16:17:53,277.434,
108,02/10/2025 17:42:42,02/10/2025 17:53:58,675.737,
109,02/10/2025 19:17:24,02/10/2025 19:27:16,592.227,
110,02/11/2025 17:24:21,02/11/2025 17:35:05,644.116,
111,02/11/2025 18:58:05,02/11/2025 19:08:52,646.276,
112,02/12/2025 17:06:12,02/12/2025 17:16:07,595.701,
113,02/12/2025 18:39:01,02/12/2025 18:50:20,678.626,
114,02/13/2025 16:48:15,02/13/2025 16:57:02,527.016,
115,02/13/2025 18:20:08,02/13/2025 18:31:42,693.257,
116,02/13/2025 19:57:19,02/13/2025 20:03:30,370.151,
117,02/14/2025 16:30:36,02/14/2025 16:37:47,430.113,
118,02/14/2025 18:01:27,02/14/2025 18:12:59,692.142,
119,02/14/2025 19:37:14,02/14/2025 19:45:41,506.96,
120,02/15/2025 16:13:27,02/15/2025 16:18:07,279.818,
121,02/15/2025 17:42:55,02/15/2025 17:54:11,676.015,
122,02/15/2025 19:17:37,02/15/2025 19:27:29,591.437,
123,02/16/2025 17:24:34,02/16/2025 17:35:19,644.58,
124,02/16/2025 18:58:19,02/16/2025 19:09:05,645.778,
125,02/17/2025 17:06:24,02/17/2025 17:16:21,596.377,
126,02/17/2025 18:39:14,02/17/2025 18:50:33,678.354,
127,02/18/2025 16:48:28,02/18/2025 16:57:16,527.967,
128,02/18/2025 18:20:22,02/18/2025 18:31:55,693.179,
129,02/18/2025 19:57:34,02/18/2025 20:03:42,368.015,
130,02/19/2025 16:30:49,02/19/2025 16:38:00,431.473,
131,02/19/2025 18:01:40,02/19/2025 18:13:12,692.243,
132,02/19/2025 19:37:28,02/19/2025 19:45:53,505.73,
133,02/20/2025 16:13:39,02/20/2025 16:18:21,282.172,
134,02/20/2025 17:43:08,02/20/2025 17:54:24,676.292,
135,02/20/2025 19:17:51,02/20/2025 19:27:42,590.645,
136,02/21/2025 17:24:47,02/21/2025 17:35:32,645.042,
137,02/21/2025 18:58:32,02/21/2025 19:09:18,645.278,
138,02/22/2025 17:06:37,02/22/2025 17:16:34,597.05,
139,02/22/2025 18:39:28,02/22/2025 18:50:46,678.081,
140,02/23/2025 16:48:41,02/23/2025 16:57:29,528.905,
141,02/23/2025 18:20:35,02/23/2025 18:32:08,693.099,
142,02/23/2025 19:57:48,02/23/2025 20:03:54,365.863,
143,02/24/2025 16:31:01,02/24/2025 16:38:14,432.826,
144,02/24/2025 18:01:53,02/24/2025 18:13:25,692.338,
145,02/24/2025 19:37:42,02/24/2025 19:46:06,504.488,
146,02/25/2025 16:13:51,02/25/2025 16:18:35,284.506,
147,02/25/2025 17:43:21,02/25/2025 17:54:38,676.566,
148,02/25/2025 19:18:05,02/25/2025 19:27:54,589.848,
149,02/26/2025 17:25:00,02/26/2025 17:35:45,645.505,
150,02/26/2025 18:58:46,02/26/2025 19:09:31,644.772,
151,02/27/2025 17:06:50,02/27/2025 17:16:48,597.717,
152,02/27/2025 18:39:41,02/27/2025 18:50:59,677.799,
153,02/28/2025 16:48:53,02/28/2025 16:57:43,529.841,
154,02/28/2025 18:20:48,02/28/2025 18:32:21,693.017,
155,02/28/2025 19:58:03,02/28/2025 20:04:06,363.689,
156,03/01/2025 16:31:13,03/01/2025 16:38:28,434.175,
157,03/01/2025 18:02:06,03/01/2025 18:13:38,692.434,
158,03/01/2025 19:37:55,03/01/2025 19:46:19,503.247,
159,03/02/2025 16:14:03,03/02/2025 16:18:50,286.821,
160,03/02/2025 17:43:34,03/02/2025 17:54:51,676.838,
161,03/02/2025 19:18:18,03/02/2025 19:28:07,589.046,
162,03/03/2025 17:25:13,03/03/2025 17:35:59,645.962,
163,03/03/2025 18:58:59,03/03/2025 19:09:44,644.266,
164,03/04/2025 17:07:03,03/04/2025 17:17:01,598.384,
165,03/04/2025 18:39:55,03/04/2025 18:51:12,677.521,
166,03/05/2025 16:49:06,03/05/2025 16:57:56,530.783,
167,03/05/2025 18:21:01,03/05/2025 18:32:34,692.932,
168,03/05/2025 19:58:17,03/05/2025 20:04:19,361.502,
169,03/06/2025 16:31:26,03/06/2025 16:38:41,435.514,
170,03/06/2025 18:02:19,03/06/2025 18:13:52,692.532,
171,03/06/2025 19:38:09,03/06/2025 19:46:31,501.998,
172,03/07/2025 16:14:15,03/07/2025 16:19:04,289.106,
173,03/07/2025 17:43:47,03/07/2025 17:55:04,677.108,
174,03/07/2025 19:18:32,03/07/2025 19:28:20,588.243,
175,03/08/2025 17:25:26,03/08/2025 17:36:12,646.416,
176,03/08/2025 18:59:13,03/08/2025 19:09:57,643.757,
177,03/09/2025 17:07:15,03/09/2025 17:17:14,599.049,
178,03/09/2025 18:40:08,03/09/2025 18:51:25,677.24,
179,03/10/2025 16:49:18,03/10/2025 16:58:10,531.714,
180,03/10/2025 18:21:15,03/10/2025 18:32:48,692.846,
181,03/10/2025 19:58:32,03/10/2025 20:04:31,359.294,
182,03/11/2025 16:31:38,03/11/2025 16:38:55,436.848,
183,03/11/2025 18:02:32,03/11/2025 18:14:05,692.624,
184,03/11/2025 19:38:23,03/11/2025 19:46:44,500.74,
185,03/12/2025 16:14:26,03/12/2025 16:19:18,291.376,
186,03/12/2025 17:44:00,03/12/2025 17:55:17,677.376,
187,03/12/2025 19:18:46,03/12/2025 19:28:33,587.433,
188,03/13/2025 17:25:38,03/13/2025 17:36:25,646.868,
189,03/13/2025 18:59:27,03/13/2025 19:10:10,643.245,
190,03/14/2025 17:07:28,03/14/2025 17:17:28,599.712,
191,03/14/2025 18:40:21,03/14/2025 18:51:38,676.957,
192,03/15/2025 16:49:31,03/15/2025 16:58:23,532.641,
193,03/15/2025 18:21:28,03/15/2025 18:33:01,692.755,
194,03/15/2025 19:58:46,03/15/2025 20:04:43,357.066,
195,03/16/2025 16:31:50,03/16/2025 16:39:09,438.176,
196,03/16/2025 18:02:45,03/16/2025 18:14:18,692.714,
197,03/16/2025 19:38:37,03/16/2025 19:46:57,499.476,
198,03/17/2025 16:14:38,03/17/2025 16:19:32,293.628,
199,03/17/2025 17:44:13,03/17/2025 17:55:31,677.642,
200,03/17/2025 19:18:59,03/17/2025 19:28:46,586.621,
201,03/18/2025 17:25:51,03/18/2025 17:36:39,647.318,
202,03/18/2025 18:59:40,03/18/2025 19:10:23,642.73,
203,03/19/2025 17:07:41,03/19/2025 17:17:41,600.37,
204,03/19/2025 18:40:35,03/19/2025 18:51:51,676.672,
205,03/20/2025 16:49:43,03/20/2025 16:58:37,533.564,
206,03/20/2025 18:21:41,03/20/2025 18:33:14,692.664,
207,03/20/2025 19:59:01,03/20/2025 20:04:56,354.82,
208,03/21/2025 16:32:03,03/21/2025 16:39:22,439.499,
209,03/21/2025 18:02:58,03/21/2025 18:14:31,692.802,
210,03/21/2025 19:38:51,03/21/2025 19:47:10,498.207,
211,03/22/2025 16:14:50,03/22/2025 16:19:46,295.853,
212,03/22/2025 17:44:26,03/22/2025 17:55:44,677.905,
213,03/22/2025 19:19:13,03/22/2025 19:28:59,585.805,
214,03/23/2025 17:26:04,03/23/2025 17:36:52,647.765,
215,03/23/2025 18:59:54,03/23/2025 19:10:36,642.212,
216,03/24/2025 17:07:54,03/24/2025 17:17:55,601.026,
217,03/24/2025 18:40:48,03/24/2025 18:52:04,676.384,
218,03/25/2025 16:49:56,03/25/2025 16:58:50,534.483,
219,03/25/2025 18:21:54,03/25/2025 18:33:27,692.57,
220,03/25/2025 19:59:15,03/25/2025 20:05:08,352.553,
221,03/26/2025 16:32:15,03/26/2025 16:39:36,440.814,
222,03/26/2025 18:03:12,03/26/2025 18:14:44,692.888,
223,03/26/2025 19:39:05,03/26/2025 19:47:22,496.929,
224,03/27/2025 16:15:02,03/27/2025 16:20:00,298.059,
225,03/27/2025 17:44:39,03/27/2025 17:55:57,678.167,
226,03/27/2025 19:19:27,03/27/2025 19:29:12,584.983,
227,03/28/2025 17:26:17,03/28/2025 17:37:05,648.211,
228,03/28/2025 19:00:07,03/28/2025 19:10:49,641.691,
229,03/29/2025 17:08:06,03/29/2025 17:18:08,601.678,
230,03/29/2025 18:41:01,03/29/2025 18:52:18,676.093,
231,03/30/2025 16:50:08,03/30/2025 16:59:04,535.399,
232,03/30/2025 18:22:08,03/30/2025 18:33:40,692.475,
233,03/30/2025 19:59:30,03/30/2025 20:05:20,350.264,
234,03/31/2025 16:32:27,03/31/2025 16:39:49,442.118,
235,03/31/2025 18:03:25,03/31/2025 18:14:58,692.973,
236,03/31/2025 19:39:19,03/31/2025 19:47:35,495.642,
237,04/01/2025 16:15:14,04/01/2025 16:20:14,300.245,
238,04/01/2025 17:44:52,04/01/2025 17:56:10,678.426,
239,04/01/2025 19:19:41,04/01/2025 19:29:25,584.159,
240,04/02/2025 17:26:30,04/02/2025 17:37:19,648.653,
241,04/02/2025 19:00:21,04/02/2025 19:11:02,641.167,
242,04/03/2025 17:08:19,04/03/2025 17:18:21,602.328,
243,04/03/2025 18:41:15,04/03/2025 18:52:31,675.801,
244,04/04/2025 16:50:21,04/04/2025 16:59:17,536.309,
245,04/04/2025 18:22:21,04/04/2025 18:33:53,692.383,
246,04/04/2025 19:59:44,04/04/2025 20:05:32,347.96,
247,04/05/2025 16:32:40,04/05/2025 16:40:03,443.418,
248,04/05/2025 18:03:38,04/05/2025 18:15:11,693.055,
249,04/05/2025 19:39:33,04/05/2025 19:47:48,494.351,
250,04/06/2025 16:15:26,04/06/2025 16:20:28,302.411,
251,04/06/2025 17:45:05,04/06/2025 17:56:24,678.683,
252,04/06/2025 19:19:54,04/06/2025 19:29:38,583.331,
253,04/07/2025 17:26:43,04/07/2025 17:37:32,649.093,
254,04/07/2025 19:00:34,04/07/2025 19:11:15,640.641,
255,04/08/2025 17:08:32,04/08/2025 17:18:35,602.976,
256,04/08/2025 18:41:28,04/08/2025 18:52:44,675.505,
257,04/09/2025 16:50:34,04/09/2025 16:59:31,537.218,
258,04/09/2025 18:22:34,04/09/2025 18:34:06,692.283,
259,04/09/2025 19:59:59,04/09/2025 20:05:44,345.635,
260,04/10/2025 16:32:52,04/10/2025 16:40:17,444.716,
261,04/10/2025 18:03:51,04/10/2025 18:15:24,693.135,
262,04/10/2025 19:39:47,04/10/2025 19:48:00,493.051,
263,04/11/2025 16:15:37,04/11/2025 16:20:42,304.565,
264,04/11/2025 17:45:18,04/11/2025 17:56:37,678.938,
265,04/11/2025 19:20:08,04/11/2025 19:29:51,582.497,
266,04/12/2025 17:26:56,04/12/2025 17:37:45,649.532,
267,04/12/2025 19:00:48,04/12/2025 19:11:28,640.11,
268,04/13/2025 17:08:45,04/13/2025 17:18:48,603.622,
269,04/13/2025 18:41:42,04/13/2025 18:52:57,675.207,
270,04/14/2025 16:50:46,04/14/2025 16:59:44,538.123,
271,04/14/2025 18:22:47,04/14/2025 18:34:20,692.182,
272,04/14/2025 20:00:13,04/14/2025 20:05:57,343.282,
273,04/15/2025 16:33:04,04/15/2025 16:40:30,446.006,
274,04/15/2025 18:04:04,04/15/2025 18:15:37,693.213,
275,04/15/2025 19:40:01,04/15/2025 19:48:13,491.744,
276,04/16/2025 16:15:49,04/16/2025 16:20:56,306.697,
277,04/16/2025 17:45:31,04/16/2025 17:56:50,679.191,
278,04/16/2025 19:20:22,04/16/2025 19:30:03,581.659,
279,04/17/2025 17:27:09,04/17/2025 17:37:59,649.968,
280,04/17/2025 19:01:01,04/17/2025 19:11:41,639.578,
281,04/18/2025 17:08:57,04/18/2025 17:19:02,604.264,
282,04/18/2025 18:41:55,04/18/2025 18:53:10,674.907,
283,04/19/2025 16:50:59,04/19/2025 16:59:58,539.024,
284,04/19/2025 18:23:01,04/19/2025 18:34:33,692.078,
285,04/19/2025 20:00:28,04/19/2025 20:06:09,340.912,
286,04/20/2025 16:33:17,04/20/2025 16:40:44,447.289,
287,04/20/2025 18:04:17,04/20/2025 18:15:50,693.289,
288,04/20/2025 19:40:15,04/20/2025 19:48:26,490.431,
289,04/21/2025 16:16:01,04/21/2025 16:21:10,308.811,
290,04/21/2025 17:45:44,04/21/2025 17:57:04,679.442,
291,04/21/2025 19:20:35,04/21/2025 19:30:16,580.818,
292,04/22/2025 17:27:21,04/22/2025 17:38:12,650.402,
293,04/22/2025 19:01:15,04/22/2025 19:11:54,639.042,
294,04/23/2025 17:09:10,04/23/2025 17:19:15,604.905,
295,04/23/2025 18:42:08,04/23/2025 18:53:23,674.605,
296,04/24/2025 16:51:11,04/24/2025 17:00:11,539.918,
297,04/24/2025 18:23:14,04/24/2025 18:34:46,691.972,
298,04/24/2025 20:00:43,04/24/2025 20:06:21,338.515,
299,04/25/2025 16:33:29,04/25/2025 16:40:58,448.569,
300,04/25/2025 18:04:30,04/25/2025 18:16:04,693.363,
301,04/25/2025 19:40:29,04/25/2025 19:48:38,489.108,
302,04/26/2025 16:16:13,04/26/2025 16:21:24,310.911,
303,04/26/2025 17:45:57,04/26/2025 17:57:17,679.692,
304,04/26/2025 19:20:49,04/26/2025 19:30:29,579.971,
305,04/27/2025 17:27:34,04/27/2025 17:38:25,650.833,
306,04/27/2025 19:01:28,04/27/2025 19:12:07,638.5,
307,04/28/2025 17:09:23,04/28/2025 17:19:28,605.543,
308,04/28/2025 18:42:22,04/28/2025 18:53:36,674.299,
309,04/29/2025 16:51:24,04/29/2025 17:00:25,540.816,
310,04/29/2025 18:23:27,04/29/2025 18:34:59,691.861,
311,04/29/2025 20:00:57,04/29/2025 20:06:33,336.097,
312,04/30/2025 16:33:41,04/30/2025 16:41:11,449.845,
313,04/30/2025 18:04:43,04/30/2025 18:16:17,693.426,
314,04/30/2025 19:40:43,04/30/2025 19:48:51,487.783,
315,05/01/2025 16:16:25,05/01/2025 16:21:38,312.994,
316,05/01/2025 17:46:10,05/01/2025 17:57:30,679.938,
317,05/01/2025 19:21:03,05/01/2025 19:30:42,579.117,
318,05/02/2025 17:27:47,05/02/2025 17:38:38,651.264,
319,05/02/2025 19:01:42,05/02/2025 19:12:20,637.961,
320,05/03/2025 17:09:36,05/03/2025 17:19:42,606.177,
321,05/03/2025 18:42:35,05/03/2025 18:53:49,673.992,
322,05/04/2025 16:51:37,05/04/2025 17:00:38,541.706,
323,05/04/2025 18:23:40,05/04/2025 18:35:12,691.751,
324,05/04/2025 20:01:12,05/04/2025 20:06:45,333.657,
325,05/05/2025 16:33:54,05/05/2025 16:41:25,451.112,
326,05/05/2025 18:04:57,05/05/2025 18:16:30,693.495,
327,05/05/2025 19:40:57,05/05/2025 19:49:04,486.447,
328,05/06/2025 16:16:37,05/06/2025 16:21:52,315.061,
329,05/06/2025 17:46:23,05/06/2025 17:57:43,680.183,
330,05/06/2025 19:21:17,05/06/2025 19:30:55,578.262,
331,05/07/2025 17:28:00,05/07/2025 17:38:52,651.692,
332,05/07/2025 19:01:55,05/07/2025 19:12:33,637.415,
333,05/08/2025 17:09:48,05/08/2025 17:19:55,606.81,
334,05/08/2025 18:42:49,05/08/2025 18:54:02,673.683,
335,05/09/2025 16:51:49,05/09/2025 17:00:52,542.595,
336,05/09/2025 18:23:54,05/09/2025 18:35:25,691.639,
337,05/09/2025 20:01:26,05/09/2025 20:06:58,331.188,
338,05/10/2025 16:34:06,05/10/2025 16:41:39,452.375,
339,05/10/2025 18:05:10,05/10/2025 18:16:43,693.563,
340,05/10/2025 19:41:11,05/10/2025 19:49:16,485.101,
341,05/11/2025 16:16:49,05/11/2025 16:22:06,317.115,
342,05/11/2025 17:46:36,05/11/2025 17:57:57,680.427,
343,05/11/2025 19:21:30,05/11/2025 19:31:08,577.406,
344,05/12/2025 17:28:13,05/12/2025 17:39:05,652.117,
345,05/12/2025 19:02:09,05/12/2025 19:12:46,636.865,
346,05/13/2025 17:10:01,05/13/2025 17:20:08,607.441,
347,05/13/2025 18:43:02,05/13/2025 18:54:15,673.369,
348,05/14/2025 16:52:02,05/14/2025 17:01:05,543.479,
349,05/14/2025 18:24:07,05/14/2025 18:35:39,691.524,
350,05/14/2025 20:01:41,05/14/2025 20:07:10,328.696,
351,05/15/2025 16:34:19,05/15/2025 16:41:52,453.632,
352,05/15/2025 18:05:23,05/15/2025 18:16:57,693.629,
353,05/15/2025 19:41:25,05/15/2025 19:49:29,483.749,
354,05/16/2025 16:17:01,05/16/2025 16:22:20,319.151,
355,05/16/2025 17:46:49,05/16/2025 17:58:10,680.667,
356,05/16/2025 19:21:44,05/16/2025 19:31:21,576.542,
357,05/17/2025 17:28:26,05/17/2025 17:39:18,652.54,
358,05/17/2025 19:02:23,05/17/2025 19:12:59,636.313,
359,05/18/2025 17:10:14,05/18/2025 17:20:22,608.068,
360,05/18/2025 18:43:15,05/18/2025 18:54:28,673.054,
361,05/19/2025 16:52:14,05/19/2025 17:01:19,544.356,
362,05/19/2025 18:24:20,05/19/2025 18:35:52,691.406,
363,05/19/2025 20:01:56,05/19/2025 20:07:22,326.18,
364,05/20/2025 16:34:31,05/20/2025 16:42:06,454.881,
365,05/20/2025 18:05:36,05/20/2025 18:17:10,693.692,
366,05/20/2025 19:41:39,05/20/2025 19:49:42,482.389,
367,05/21/2025 16:17:13,05/21/2025 16:22:34,321.171,
368,05/21/2025 17:47:02,05/21/2025 17:58:23,680.906,
369,05/21/2025 19:21:58,05/21/2025 19:31:34,575.673,
370,05/22/2025 17:28:39,05/22/2025 17:39:32,652.961,
371,05/22/2025 19:02:36,05/22/2025 19:13:12,635.756,
372,05/23/2025 17:10:27,05/23/2025 17:20:35,608.694,
373,05/23/2025 18:43:29,05/23/2025 18:54:41,672.735,
374,05/24/2025 16:52:27,05/24/2025 17:01:32,545.235,
375,05/24/2025 18:24:34,05/24/2025 18:36:05,691.287,
376,05/24/2025 20:02:10,05/24/2025 20:07:34,323.633,
377,05/25/2025 16:34:43,05/25/2025 16:42:19,456.127,
378,05/25/2025 18:05:49,05/25/2025 18:17:23,693.754,
379,05/25/2025 19:41:53,05/25/2025 19:49:54,481.02,
380,05/26/2025 16:17:25,05/26/2025 16:22:48,323.18,
381,05/26/2025 17:47:15,05/26/2025 17:58:36,681.143,
382,05/26/2025 19:22:12,05/26/2025 19:31:46,574.799,
383,05/27/2025 17:28:52,05/27/2025 17:39:45,653.377,
384,05/27/2025 19:02:50,05/27/2025 19:13:25,635.196,
385,05/28/2025 17:10:39,05/28/2025 17:20:49,609.317,
386,05/28/2025 18:43:42,05/28/2025 18:54:55,672.414,
387,05/29/2025 16:52:40,05/29/2025 17:01:46,546.11,
388,05/29/2025 18:24:47,05/29/2025 18:36:18,691.167,
389,05/29/2025 20:02:25,05/29/2025 20:07:46,321.063,
390,05/30/2025 16:34:56,05/30/2025 16:42:33,457.367,
391,05/30/2025 18:06:02,05/30/2025 18:17:36,693.813,
392,05/30/2025 19:42:07,05/30/2025 19:50:07,479.644,
393,05/31/2025 16:17:37,05/31/2025 16:23:02,325.169,
394,05/31/2025 17:47:28,05/31/2025 17:58:50,681.378,
395,05/31/2025 19:22:25,05/31/2025 19:31:59,573.921,
396,06/01/2025 17:29:05,06/01/2025 17:39:58,653.793,
397,06/01/2025 19:03:03,06/01/2025 19:13:38,634.634,
398,06/02/2025 17:10:52,06/02/2025 17:21:02,609.937,
399,06/02/2025 18:43:56,06/02/2025 18:55:08,672.091,
400,06/03/2025 16:52:52,06/03/2025 17:01:59,546.981,
401,06/03/2025 18:25:00,06/03/2025 18:36:31,691.043,
402,06/03/2025 20:02:40,06/03/2025 20:07:58,318.463,
403,06/04/2025 16:35:08,06/04/2025 16:42:47,458.603,
404,06/04/2025 18:06:15,06/04/2025 18:17:49,693.871,
405,06/04/2025 19:42:22,06/04/2025 19:50:20,478.258,
406,06/05/2025 16:17:49,06/05/2025 16:23:16,327.15,
407,06/05/2025 17:47:41,06/05/2025 17:59:03,681.611,
408,06/05/2025 19:22:39,06/05/2025 19:32:12,573.037,
409,06/06/2025 17:29:17,06/06/2025 17:40:12,654.208,
410,06/06/2025 19:03:17,06/06/2025 19:13:51,634.07,
411,06/07/2025 17:11:05,06/07/2025 17:21:15,610.556,
412,06/07/2025 18:44:09,06/07/2025 18:55:21,671.764,
413,06/08/2025 16:53:05,06/08/2025 17:02:13,547.856,
414,06/08/2025 18:25:13,06/08/2025 18:36:44,690.916,
415,06/08/2025 20:02:54,06/08/2025 20:08:10,315.828,
416,06/09/2025 16:35:20,06/09/2025 16:43:00,459.836,
417,06/09/2025 18:06:29,06/09/2025 18:18:03,693.926,
418,06/09/2025 19:42:36,06/09/2025 19:50:32,476.863,
419,06/10/2025 16:18:01,06/10/2025 16:23:30,329.116,
420,06/10/2025 17:47:54,06/10/2025 17:59:16,681.842,
421,06/10/2025 19:22:53,06/10/2025 19:32:25,572.149,
422,06/11/2025 17:29:30,06/11/2025 17:40:25,654.622,
423,06/11/2025 19:03:30,06/11/2025 19:14:04,633.5,
424,06/12/2025 17:11:18,06/12/2025 17:21:29,611.171,
425,06/12/2025 18:44:22,06/12/2025 18:55:34,671.435,
426,06/13/2025 16:53:17,06/13/2025 17:02:26,548.721,
427,06/13/2025 18:25:27,06/13/2025 18:36:57,690.787,
428,06/13/2025 20:03:09,06/13/2025 20:08:22,313.17,
429,06/14/2025 16:35:33,06/14/2025 16:43:14,461.059,
430,06/14/2025 18:06:42,06/14/2025 18:18:16,693.984,
431,06/14/2025 19:42:50,06/14/2025 19:50:45,475.459,
432,06/15/2025 16:18:13,06/15/2025 16:23:44,331.066,
433,06/15/2025 17:48:07,06/15/2025 17:59:29,682.071,
434,06/15/2025 19:23:07,06/15/2025 19:32:38,571.257,
435,06/16/2025 17:29:43,06/16/2025 17:40:38,655.031,
436,06/16/2025 19:03:44,06/16/2025 19:14:17,632.93,
437,06/17/2025 17:11:30,06/17/2025 17:21:42,611.784,
438,06/17/2025 18:44:36,06/17/2025 18:55:47,671.103,
439,06/18/2025 16:53:30,06/18/2025 17:02:40,549.584,
440,06/18/2025 18:25:40,06/18/2025 18:37:11,690.657,
441,06/18/2025 20:03:24,06/18/2025 20:08:34,310.482,
442,06/19/2025 16:35:45,06/19/2025 16:43:27,462.281,
443,06/19/2025 18:06:55,06/19/2025 18:18:29,694.035,
444,06/19/2025 19:43:04,06/19/2025 19:50:58,474.047,
445,06/20/2025 16:18:25,06/20/2025 16:23:58,333.002,
446,06/20/2025 17:48:20,06/20/2025 17:59:43,682.298,
447,06/20/2025 19:23:20,06/20/2025 19:32:51,570.359,
448,06/21/2025 17:29:56,06/21/2025 17:40:52,655.44,
449,06/21/2025 19:03:57,06/21/2025 19:14:30,632.353,
450,06/22/2025 17:11:43,06/22/2025 17:21:56,612.396,
451,06/22/2025 18:44:49,06/22/2025 18:56:00,670.768,
452,06/23/2025 16:53:43,06/23/2025 17:02:53,550.445,
453,06/23/2025 18:25:53,06/23/2025 18:37:24,690.524,
454,06/23/2025 20:03:39,06/23/2025 20:08:46,307.759,
455,06/24/2025 16:35:58,06/24/2025 16:43:41,463.503,
456,06/24/2025 18:07:08,06/24/2025 18:18:42,694.088,
457,06/24/2025 19:43:18,06/24/2025 19:51:10,472.624,
458,06/25/2025 16:18:37,06/25/2025 16:24:12,334.935,
459,06/25/2025 17:48:33,06/25/2025 17:59:56,682.523,
460,06/25/2025 19:23:34,06/25/2025 19:33:04,569.453,
461,06/26/2025 17:30:09,06/26/2025 17:41:05,655.847,
462,06/26/2025 19:04:11,06/26/2025 19:14:43,631.774,
463,06/27/2025 17:11:56,06/27/2025 17:22:09,613.005,
464,06/27/2025 18:45:03,06/27/2025 18:56:13,670.434,
465,06/28/2025 16:53:55,06/28/2025 17:03:06,551.302,
466,06/28/2025 18:26:06,06/28/2025 18:37:37,690.389,
467,06/28/2025 20:03:53,06/28/2025 20:08:58,305.014,
468,06/29/2025 16:36:10,06/29/2025 16:43:55,464.715,
469,06/29/2025 18:07:21,06/29/2025 18:18:55,694.135,
470,06/29/2025 19:43:32,06/29/2025 19:51:23,471.195,
471,06/30/2025 16:18:49,06/30/2025 16:24:26,336.847,
472,06/30/2025 17:48:46,06/30/2025 18:00:09,682.746,
473,06/30/2025 19:23:48,06/30/2025 19:33:17,568.545,
474,07/01/2025 17:30:22,07/01/2025 17:41:18,656.251,
475,07/01/2025 19:04:25,07/01/2025 19:14:56,631.191,
476,07/02/2025 17:12:09,07/02/2025 17:22:22,613.612,
477,07/02/2025 18:45:16,07/02/2025 18:56:26,670.094,
478,07/03/2025 16:54:08,07/03/2025 17:03:20,552.152,
479,07/03/2025 18:26:20,07/03/2025 18:37:50,690.252,
480,07/03/2025 20:04:08,07/03/2025 20:09:10,302.226,
481,07/04/2025 16:36:22,07/04/2025 16:44:08,465.926,
482,07/04/2025 18:07:34,07/04/2025 18:19:09,694.172,
483,07/04/2025 19:43:46,07/04/2025 19:51:36,469.759,
484,07/05/2025 16:19:01,07/05/2025 16:24:39,338.748,
485,07/05/2025 17:48:59,07/05/2025 18:00:22,682.967,
486,07/05/2025 19:24:02,07/05/2025 19:33:29,567.634,
487,07/06/2025 17:30:35,07/06/2025 17:41:32,656.655,
488,07/06/2025 19:04:38,07/06/2025 19:15:09,630.604,
489,07/07/2025 17:12:21,07/07/2025 17:22:36,614.217,
490,07/07/2025 18:45:29,07/07/2025 18:56:39,669.751,
491,07/08/2025 16:54:20,07/08/2025 17:03:33,553.004,
492,07/08/2025 18:26:33,07/08/2025 18:38:03,690.112,
493,07/08/2025 20:04:23,07/08/2025 20:09:22,299.401,
494,07/09/2025 16:36:35,07/09/2025 16:44:22,467.13,
495,07/09/2025 18:07:48,07/09/2025 18:19:22,694.214,
496,07/09/2025 19:44:00,07/09/2025 19:51:48,468.311,
497,07/10/2025 16:19:13,07/10/2025 16:24:53,340.642,
498,07/10/2025 17:49:12,07/10/2025 18:00:36,683.186,
499,07/10/2025 19:24:16,07/10/2025 19:33:42,566.716,
500,07/11/2025 16:03:24,07/11/2025 16:03:59,35.047,
501,07/11/2025 17:30:48,07/11/2025 17:41:45,657.055,
502,07/11/2025 19:04:52,07/11/2025 19:15:22,630.014,
503,07/12/2025 17:12:34,07/12/2025 17:22:49,614.819,
504,07/12/2025 18:45:43,07/12/2025 18:56:52,669.406,
505,07/13/2025 16:54:33,07/13/2025 17:03:47,553.852,
506,07/13/2025 18:26:46,07/13/2025 18:38:16,689.97,
507,07/13/2025 20:04:38,07/13/2025 20:09:34,296.55,
508,07/14/2025 16:36:47,07/14/2025 16:44:35,468.327,
509,07/14/2025 18:08:01,07/14/2025 18:19:35,694.255,
510,07/14/2025 19:44:14,07/14/2025 19:52:01,466.855,
511,07/15/2025 16:19:25,07/15/2025 16:25:07,342.517,
512,07/15/2025 17:49:26,07/15/2025 18:00:49,683.399,
513,07/15/2025 19:24:29,07/15/2025 19:33:55,565.793,
514,07/16/2025 16:03:28,07/16/2025 16:04:20,51.455,
515,07/16/2025 17:31:01,07/16/2025 17:41:58,657.453,
516,07/16/2025 19:05:05,07/16/2025 19:15:35,629.421,
517,07/17/2025 17:12:47,07/17/2025 17:23:02,615.418,
518,07/17/2025 18:45:56,07/17/2025 18:57:05,669.058,
519,07/18/2025 16:54:46,07/18/2025 17:04:00,554.698,
520,07/18/2025 18:27:00,07/18/2025 18:38:29,689.826,
521,07/18/2025 20:04:53,07/18/2025 20:09:46,293.659,
522,07/19/2025 16:37:00,07/19/2025 16:44:49,469.522,
523,07/19/2025 18:08:14,07/19/2025 18:19:48,694.295,
524,07/19/2025 19:44:28,07/19/2025 19:52:14,465.387,
525,07/20/2025 16:19:37,07/20/2025 16:25:21,344.386,
526,07/20/2025 17:49:39,07/20/2025 18:01:02,683.614,
527,07/20/2025 19:24:43,07/20/2025 19:34:08,564.863,
528,07/21/2025 16:03:35,07/21/2025 16:04:39,63.782,
529,07/21/2025 17:31:14,07/21/2025 17:42:12,657.85,
530,07/21/2025 19:05:19,07/21/2025 19:15:48,628.823,
531,07/22/2025 17:13:00,07/22/2025 17:23:16,616.016,
532,07/22/2025 18:46:10,07/22/2025 18:57:18,668.707,
533,07/23/2025 16:54:58,07/23/2025 17:04:14,555.541,
534,07/23/2025 18:27:13,07/23/2025 18:38:43,689.679,
535,07/23/2025 20:05:07,07/23/2025 20:09:58,290.73,
536,07/24/2025 16:37:12,07/24/2025 16:45:03,470.712,
537,07/24/2025 18:08:27,07/24/2025 18:20:01,694.332,
538,07/24/2025 19:44:42,07/24/2025 19:52:26,463.912,
539,07/25/2025 16:19:49,07/25/2025 16:25:35,346.239,
540,07/25/2025 17:49:52,07/25/2025 18:01:15,683.827,
541,07/25/2025 19:24:57,07/25/2025 19:34:21,563.93,
542,07/26/2025 16:03:43,07/26/2025 16:04:57,74.063,
543,07/26/2025 17:31:27,07/26/2025 17:42:25,658.245,
544,07/26/2025 19:05:32,07/26/2025 19:16:01,628.223,
545,07/27/2025 17:13:13,07/27/2025 17:23:29,616.611,
546,07/27/2025 18:46:23,07/27/2025 18:57:31,668.353,
547,07/28/2025 16:55:11,07/28/2025 17:04:27,556.38,
548,07/28/2025 18:27:26,07/28/2025 18:38:56,689.53,
549,07/28/2025 20:05:22,07/28/2025 20:10:10,287.768,
550,07/29/2025 16:37:24,07/29/2025 16:45:16,471.896,
551,07/29/2025 18:08:40,07/29/2025 18:20:15,694.366,
552,07/29/2025 19:44:56,07/29/2025 19:52:39,462.427,
553,07/30/2025 16:20:01,07/30/2025 16:25:49,348.081,
554,07/30/2025 17:50:05,07/30/2025 18:01:29,684.038,
555,07/30/2025 19:25:11,07/30/2025 19:34:34,562.992,
556,07/31/2025 16:03:51,07/31/2025 16:05:14,83.089,
557,07/31/2025 17:31:40,07/31/2025 17:42:38,658.637,
558,07/31/2025 19:05:46,07/31/2025 19:16:14,627.619,
559,08/01/2025 17:13:25,08/01/2025 17:23:43,617.204,
560,08/01/2025 18:46:37,08/01/2025 18:57:45,667.997,
561,08/02/2025 16:55:23,08/02/2025 17:04:41,557.217,
562,08/02/2025 18:27:39,08/02/2025 18:39:09,689.378,
563,08/02/2025 20:05:37,08/02/2025 20:10:22,284.76,
564,08/03/2025 16:37:37,08/03/2025 16:45:30,473.078,
565,08/03/2025 18:08:53,08/03/2025 18:20:28,694.399,
566,08/03/2025 19:45:10,08/03/2025 19:52:51,460.931,
567,08/04/2025 16:20:13,08/04/2025 16:26:03,349.915,
568,08/04/2025 17:50:18,08/04/2025 18:01:42,684.247,
569,08/04/2025 19:25:24,08/04/2025 19:34:47,562.047,
570,08/05/2025 16:04:00,08/05/2025 16:05:31,91.227,
571,08/05/2025 17:31:52,08/05/2025 17:42:51,659.028,
572,08/05/2025 19:06:00,08/05/2025 19:16:27,627.012,
573,08/06/2025 17:13:38,08/06/2025 17:23:56,617.795,
574,08/06/2025 18:46:50,08/06/2025 18:57:58,667.638,
575,08/07/2025 16:55:36,08/07/2025 17:04:54,558.052,
576,08/07/2025 18:27:53,08/07/2025 18:39:22,689.223,
577,08/07/2025 20:05:52,08/07/2025 20:10:34,281.718,
578,08/08/2025 16:37:49,08/08/2025 16:45:43,474.246,
579,08/08/2025 18:09:07,08/08/2025 18:20:41,694.436,
580,08/08/2025 19:45:25,08/08/2025 19:53:04,459.422,
581,08/09/2025 16:20:25,08/09/2025 16:26:17,351.734,
582,08/09/2025 17:50:31,08/09/2025 18:01:55,684.454,
583,08/09/2025 19:25:38,08/09/2025 19:34:59,561.098,
584,08/10/2025 16:04:09,08/10/2025 16:05:48,98.672,
585,08/10/2025 17:32:05,08/10/2025 17:43:05,659.413,
586,08/10/2025 19:06:13,08/10/2025 19:16:40,626.404,
587,08/11/2025 17:13:51,08/11/2025 17:24:09,618.382,
588,08/11/2025 18:47:03,08/11/2025 18:58:11,667.273,
589,08/12/2025 16:55:49,08/12/2025 17:05:08,558.882,
590,08/12/2025 18:28:06,08/12/2025 18:39:35,689.068,
591,08/12/2025 20:06:07,08/12/2025 20:10:46,278.634,
592,08/13/2025 16:38:02,08/13/2025 16:45:57,475.416,
593,08/13/2025 18:09:20,08/13/2025 18:20:54,694.464,
594,08/13/2025 19:45:39,08/13/2025 19:53:17,457.909,
595,08/14/2025 16:20:37,08/14/2025 16:26:31,353.543,
596,08/14/2025 17:50:44,08/14/2025 18:02:08,684.659,
597,08/14/2025 19:25:52,08/14/2025 19:35:12,560.146,
598,08/15/2025 16:04:19,08/15/2025 16:06:04,105.609,
599,08/15/2025 17:32:18,08/15/2025 17:43:18,659.8,
600,08/15/2025 19:06:27,08/15/2025 19:16:53,625.787,
601,08/16/2025 17:14:04,08/16/2025 17:24:23,618.969,
602,08/16/2025 18:47:17,08/16/2025 18:58:24,666.909,
603,08/17/2025 16:56:01,08/17/2025 17:05:21,559.711,
604,08/17/2025 18:28:19,08/17/2025 18:39:48,688.908,
605,08/17/2025 20:06:22,08/17/2025 20:10:58,275.501,
606,08/18/2025 16:38:14,08/18/2025 16:46:11,476.584,
607,08/18/2025 18:09:33,08/18/2025 18:21:07,694.49,
608,08/18/2025 19:45:53,08/18/2025 19:53:29,456.383,
609,08/19/2025 16:20:49,08/19/2025 16:26:44,355.343,
610,08/19/2025 17:50:57,08/19/2025 18:02:22,684.862,
611,08/19/2025 19:26:06,08/19/2025 19:35:25,559.186,
612,08/20/2025 16:04:28,08/20/2025 16:06:21,112.107,
613,08/20/2025 17:32:31,08/20/2025 17:43:31,660.184,
614,08/20/2025 19:06:40,08/20/2025 19:17:06,625.169,
615,08/21/2025 17:14:16,08/21/2025 17:24:36,619.556,
616,08/21/2025 18:47:30,08/21/2025 18:58:37,666.545,
617,08/22/2025 16:56:14,08/22/2025 17:05:35,560.536,
618,08/22/2025 18:28:33,08/22/2025 18:40:01,688.747,
619,08/22/2025 20:06:37,08/22/2025 20:11:09,272.328,
620,08/23/2025 16:38:26,08/23/2025 16:46:24,477.745,
621,08/23/2025 18:09:46,08/23/2025 18:21:21,694.514,
622,08/23/2025 19:46:07,08/23/2025 19:53:42,454.851,
623,08/24/2025 16:21:01,08/24/2025 16:26:58,357.128,
624,08/24/2025 17:51:10,08/24/2025 18:02:35,685.062,
625,08/24/2025 19:26:20,08/24/2025 19:35:38,558.223,
626,08/25/2025 16:04:38,08/25/2025 16:06:37,118.235,
627,08/25/2025 17:32:44,08/25/2025 17:43:45,660.566,
628,08/25/2025 19:06:54,08/25/2025 19:17:19,624.548,
629,08/26/2025 17:14:29,08/26/2025 17:24:49,620.137,
630,08/26/2025 18:47:44,08/26/2025 18:58:50,666.179,
631,08/27/2025 16:56:27,08/27/2025 17:05:48,561.356,
632,08/27/2025 18:28:46,08/27/2025 18:40:14,688.587,
633,08/27/2025 20:06:52,08/27/2025 20:11:21,269.108,
634,08/28/2025 16:38:39,08/28/2025 16:46:38,478.903,
635,08/28/2025 18:09:59,08/28/2025 18:21:34,694.536,
636,08/28/2025 19:46:21,08/28/2025 19:53:54,453.308,
637,08/29/2025 16:21:13,08/29/2025 16:27:12,358.906,
638,08/29/2025 17:51:23,08/29/2025 18:02:48,685.261,
639,08/29/2025 19:26:33,08/29/2025 19:35:51,557.253,
640,08/30/2025 16:04:48,08/30/2025 16:06:52,124.071,
641,08/30/2025 17:32:57,08/30/2025 17:43:58,660.946,
642,08/30/2025 19:07:08,08/30/2025 19:17:32,623.923,
643,08/31/2025 17:14:42,08/31/2025 17:25:03,620.716,
644,08/31/2025 18:47:57,08/31/2025 18:59:03,665.806,
645,09/01/2025 16:56:39,09/01/2025 17:06:01,562.175,
646,09/01/2025 18:28:59,09/01/2025 18:40:28,688.421,
647,09/01/2025 20:07:07,09/01/2025 20:11:33,265.839,
648,09/02/2025 16:38:51,09/02/2025 16:46:51,480.056,
649,09/02/2025 18:10:12,09/02/2025 18:21:47,694.555,
650,09/02/2025 19:46:35,09/02/2025 19:54:07,451.754,
651,09/03/2025 16:21:25,09/03/2025 16:27:26,360.673,
652,09/03/2025 17:51:36,09/03/2025 18:03:01,685.457,
653,09/03/2025 19:26:47,09/03/2025 19:36:04,556.279,
654,09/04/2025 16:04:58,09/04/2025 16:07:08,129.633,
655,09/04/2025 17:33:10,09/04/2025 17:44:11,661.325,
656,09/04/2025 19:07:21,09/04/2025 19:17:45,623.301,
657,09/05/2025 17:14:55,09/05/2025 17:25:16,621.291,
658,09/05/2025 18:48:11,09/05/2025 18:59:16,665.428,
659,09/06/2025 16:56:52,09/06/2025 17:06:15,562.99,
660,09/06/2025 18:29:13,09/06/2025 18:40:41,688.251,
661,09/06/2025 20:07:22,09/06/2025 20:11:45,262.524,
662,09/07/2025 16:39:04,09/07/2025 16:47:05,481.202,
663,09/07/2025 18:10:26,09/07/2025 18:22:00,694.573,
664,09/07/2025 19:46:49,09/07/2025 19:54:19,450.193,
665,09/08/2025 16:21:37,09/08/2025 16:27:40,362.422,
666,09/08/2025 17:51:49,09/08/2025 18:03:15,685.652,
667,09/08/2025 19:27:01,09/08/2025 19:36:16,555.3,
668,09/09/2025 16:05:09,09/09/2025 16:07:24,134.953,
669,09/09/2025 17:33:23,09/09/2025 17:44:25,661.7,
670,09/09/2025 19:07:35,09/09/2025 19:17:57,622.67,
671,09/10/2025 17:15:08,09/10/2025 17:25:29,621.864,
672,09/10/2025 18:48:24,09/10/2025 18:59:29,665.05,
673,09/11/2025 16:57:05,09/11/2025 17:06:28,563.802,
674,09/11/2025 18:29:26,09/11/2025 18:40:54,688.08,
675,09/11/2025 20:07:37,09/11/2025 20:11:56,259.155,
676,09/12/2025 16:39:16,09/12/2025 16:47:19,482.345,
677,09/12/2025 18:10:39,09/12/2025 18:22:13,694.588,
678,09/12/2025 19:47:03,09/12/2025 19:54:32,448.62,
679,09/13/2025 16:21:50,09/13/2025 16:27:54,364.166,
680,09/13/2025 17:52:02,09/13/2025 18:03:28,685.844,
681,09/13/2025 19:27:15,09/13/2025 19:36:29,554.318,
682,09/14/2025 16:05:19,09/14/2025 16:07:39,140.081,
683,09/14/2025 17:33:36,09/14/2025 17:44:38,662.074,
684,09/14/2025 19:07:48,09/14/2025 19:18:10,622.034,
685,09/15/2025 17:15:20,09/15/2025 17:25:43,622.436,
686,09/15/2025 18:48:37,09/15/2025 18:59:42,664.669,
687,09/16/2025 16:57:17,09/16/2025 17:06:42,564.612,
688,09/16/2025 18:29:39,09/16/2025 18:41:07,687.909,
689,09/16/2025 20:07:52,09/16/2025 20:12:08,255.734,
690,09/17/2025 16:39:29,09/17/2025 16:47:32,483.484,
691,09/17/2025 18:10:52,09/17/2025 18:22:26,694.601,
692,09/17/2025 19:47:18,09/17/2025 19:54:45,447.037,
693,09/18/2025 16:22:02,09/18/2025 16:28:08,365.899,
694,09/18/2025 17:52:15,09/18/2025 18:03:41,686.034,
695,09/18/2025 19:27:29,09/18/2025 19:36:42,553.328,
696,09/19/2025 16:05:30,09/19/2025 16:07:55,145.006,
697,09/19/2025 17:33:49,09/19/2025 17:44:51,662.445,
698,09/19/2025 19:08:02,09/19/2025 19:18:23,621.396,
699,09/20/2025 17:15:33,09/20/2025 17:25:56,623.004,
700,09/20/2025 18:48:51,09/20/2025 18:59:55,664.286,
701,09/21/2025 16:57:30,09/21/2025 17:06:55,565.418,
702,09/21/2025 18:29:52,09/21/2025 18:41:20,687.734,
703,09/21/2025 20:08:07,09/21/2025 20:12:20,252.263,
704,09/22/2025 16:39:41,09/22/2025 16:47:46,484.614,
705,09/22/2025 18:11:05,09/22/2025 18:22:40,694.613,
706,09/22/2025 19:47:32,09/22/2025 19:54:57,445.447,
707,09/23/2025 16:22:14,09/23/2025 16:28:21,367.619,
708,09/23/2025 17:52:28,09/23/2025 18:03:54,686.221,
709,09/23/2025 19:27:42,09/23/2025 19:36:55,552.335,
710,09/24/2025 16:05:40,09/24/2025 16:08:10,149.774,
711,09/24/2025 17:34:02,09/24/2025 17:45:04,662.813,
712,09/24/2025 19:08:16,09/24/2025 19:18:36,620.755,
713,09/25/2025 17:15:46,09/25/2025 17:26:10,623.569,
714,09/25/2025 18:49:04,09/25/2025 19:00:08,663.9,
715,09/26/2025 16:57:42,09/26/2025 17:07:09,566.22,
716,09/26/2025 18:30:06,09/26/2025 18:41:33,687.557,
717,09/26/2025 20:08:23,09/26/2025 20:12:31,248.733,
718,09/27/2025 16:39:54,09/27/2025 16:47:59,485.742,
719,09/27/2025 18:11:18,09/27/2025 18:22:53,694.622,
720,09/27/2025 19:47:46,09/27/2025 19:55:10,443.845,
721,09/28/2025 16:22:26,09/28/2025 16:28:35,369.331,
722,09/28/2025 17:52:41,09/28/2025 18:04:08,686.408,
723,09/28/2025 19:27:56,09/28/2025 19:37:08,551.335,
724,09/29/2025 16:05:51,09/29/2025 16:08:25,154.391,
725,09/29/2025 17:34:15,09/29/2025 17:45:18,663.18,
726,09/29/2025 19:08:29,09/29/2025 19:18:49,620.109,
727,09/30/2025 17:15:59,09/30/2025 17:26:23,624.132,
728,09/30/2025 18:49:18,09/30/2025 19:00:21,663.512,
729,10/01/2025 16:57:55,10/01/2025 17:07:22,567.02,
730,10/01/2025 18:30:19,10/01/2025 18:41:46,687.377,
731,10/01/2025 20:08:38,10/01/2025 20:12:43,245.144,
732,10/02/2025 16:40:06,10/02/2025 16:48:13,486.865,
733,10/02/2025 18:11:31,10/02/2025 18:23:06,694.629,
734,10/02/2025 19:48:00,10/02/2025 19:55:22,442.233,
735,10/03/2025 16:22:38,10/03/2025 16:28:49,371.03,
736,10/03/2025 17:52:54,10/03/2025 18:04:21,686.591,
737,10/03/2025 19:28:10,10/03/2025 19:37:20,550.331,
738,10/04/2025 16:06:01,10/04/2025 16:08:40,158.857,
739,10/04/2025 17:34:28,10/04/2025 17:45:31,663.544,
740,10/04/2025 19:08:43,10/04/2025 19:19:02,619.461,
741,10/05/2025 17:16:12,10/05/2025 17:26:36,624.692,
742,10/05/2025 18:49:31,10/05/2025 19:00:34,663.119,
743,10/06/2025 16:58:08,10/06/2025 17:07:36,567.814,
744,10/06/2025 18:30:32,10/06/2025 18:42:00,687.196,
745,10/06/2025 20:08:53,10/06/2025 20:12:54,241.498,
746,10/07/2025 16:40:18,10/07/2025 16:48:26,487.981,
747,10/07/2025 18:11:45,10/07/2025 18:23:19,694.625,
748,10/07/2025 19:48:14,10/07/2025 19:55:35,440.614,
749,10/08/2025 16:22:50,10/08/2025 16:29:03,372.718,
750,10/08/2025 17:53:07,10/08/2025 18:04:34,686.774,
751,10/08/2025 19:28:24,10/08/2025 19:37:33,549.323,
752,10/09/2025 16:06:12,10/09/2025 16:08:55,163.199,
753,10/09/2025 17:34:40,10/09/2025 17:45:44,663.905,
754,10/09/2025 19:08:56,10/09/2025 19:19:15,618.809,
755,10/10/2025 17:16:24,10/10/2025 17:26:50,625.251,
756,10/10/2025 18:49:45,10/10/2025 19:00:47,662.724,
757,10/11/2025 16:58:20,10/11/2025 17:07:49,568.607,
758,10/11/2025 18:30:46,10/11/2025 18:42:13,687.012,
759,10/11/2025 20:09:08,10/11/2025 20:13:06,237.783,
760,10/12/2025 16:40:31,10/12/2025 16:48:40,489.095,
761,10/12/2025 18:11:58,10/12/2025 18:23:32,694.628,
762,10/12/2025 19:48:28,10/12/2025 19:55:47,438.981,
763,10/13/2025 16:23:02,10/13/2025 16:29:17,374.4,
764,10/13/2025 17:53:20,10/13/2025 18:04:47,686.954,
765,10/13/2025 19:28:38,10/13/2025 19:37:46,548.311,
766,10/14/2025 16:06:23,10/14/2025 16:09:10,167.427,
767,10/14/2025 17:34:53,10/14/2025 17:45:58,664.265,
768,10/14/2025 19:09:10,10/14/2025 19:19:28,618.154,
769,10/15/2025 17:16:37,10/15/2025 17:27:03,625.806,
770,10/15/2025 18:49:58,10/15/2025 19:01:00,662.326,
771,10/16/2025 16:58:33,10/16/2025 17:08:02,569.396,
772,10/16/2025 18:30:59,10/16/2025 18:42:26,686.829,
773,10/16/2025 20:09:24,10/16/2025 20:13:18,234.005,
774,10/17/2025 16:40:43,10/17/2025 16:48:54,490.201,
775,10/17/2025 18:12:11,10/17/2025 18:23:46,694.629,
776,10/17/2025 19:48:43,10/17/2025 19:56:00,437.34,
777,10/18/2025 16:23:14,10/18/2025 16:29:30,376.061,
778,10/18/2025 17:53:33,10/18/2025 18:05:01,687.131,
779,10/18/2025 19:28:52,10/18/2025 19:37:59,547.293,
780,10/19/2025 16:06:34,10/19/2025 16:09:25,171.538,
781,10/19/2025 17:35:06,10/19/2025 17:46:11,664.622,
782,10/19/2025 19:09:24,10/19/2025 19:19:41,617.496,
783,10/20/2025 17:16:50,10/20/2025 17:27:16,626.358,
784,10/20/2025 18:50:12,10/20/2025 19:01:13,661.933,
785,10/21/2025 16:58:46,10/21/2025 17:08:16,570.178,
786,10/21/2025 18:31:12,10/21/2025 18:42:39,686.641,
787,10/21/2025 20:09:39,10/21/2025 20:13:29,230.161,
788,10/22/2025 16:40:56,10/22/2025 16:49:07,491.302,
789,10/22/2025 18:12:24,10/22/2025 18:23:59,694.627,
790,10/22/2025 19:48:57,10/22/2025 19:56:12,435.695,
791,10/23/2025 16:23:26,10/23/2025 16:29:44,377.716,
792,10/23/2025 17:53:46,10/23/2025 18:05:14,687.307,
793,10/23/2025 19:29:05,10/23/2025 19:38:12,546.271,
794,10/24/2025 16:06:45,10/24/2025 16:09:40,175.547,
795,10/24/2025 17:35:19,10/24/2025 17:46:24,664.976,
796,10/24/2025 19:09:37,10/24/2025 19:19:54,616.835,
797,10/25/2025 17:17:03,10/25/2025 17:27:30,626.908,
798,10/25/2025 18:50:25,10/25/2025 19:01:27,661.535,
799,10/26/2025 16:58:58,10/26/2025 17:08:29,570.956,
800,10/26/2025 18:31:26,10/26/2025 18:42:52,686.454,
801,10/26/2025 20:09:54,10/26/2025 20:13:40,226.237,
802,10/27/2025 16:41:08,10/27/2025 16:49:21,492.401,
803,10/27/2025 18:12:37,10/27/2025 18:24:12,694.624,
804,10/27/2025 19:49:11,10/27/2025 19:56:25,434.032,
805,10/28/2025 16:23:39,10/28/2025 16:29:58,379.363,
806,10/28/2025 17:54:00,10/28/2025 18:05:27,687.481,
807,10/28/2025 19:29:19,10/28/2025 19:38:24,545.242,
808,10/29/2025 16:06:56,10/29/2025 16:09:55,179.463,
809,10/29/2025 17:35:32,10/29/2025 17:46:38,665.328,
810,10/29/2025 19:09:51,10/29/2025 19:20:07,616.17,
811,10/30/2025 17:17:16,10/30/2025 17:27:43,627.455,
812,10/30/2025 18:50:38,10/30/2025 19:01:40,661.131,
813,10/31/2025 16:59:11,10/31/2025 17:08:43,571.734,
814,10/31/2025 18:31:39,10/31/2025 18:43:05,686.261,
815,10/31/2025 20:10:10,10/31/2025 20:13:52,222.239,
816,11/01/2025 16:41:21,11/01/2025 16:49:34,493.491,
817,11/01/2025 18:12:50,11/01/2025 18:24:25,694.618,
818,11/01/2025 19:49:25,11/01/2025 19:56:37,432.366,
819,11/02/2025 16:23:51,11/02/2025 16:30:12,380.992,
820,11/02/2025 17:54:13,11/02/2025 18:05:40,687.651,
821,11/02/2025 19:29:33,11/02/2025 19:38:37,544.205,
822,11/03/2025 16:07:07,11/03/2025 16:10:10,183.281,
823,11/03/2025 17:35:45,11/03/2025 17:46:51,665.678,
824,11/03/2025 19:10:04,11/03/2025 19:20:20,615.502,
825,11/04/2025 17:17:28,11/04/2025 17:27:56,627.999,
826,11/04/2025 18:50:52,11/04/2025 19:01:53,660.725,
827,11/05/2025 16:59:24,11/05/2025 17:08:56,572.513,
828,11/05/2025 18:31:52,11/05/2025 18:43:18,686.064,
829,11/05/2025 20:10:25,11/05/2025 20:14:03,218.167,
830,11/06/2025 16:41:33,11/06/2025 16:49:48,494.578,
831,11/06/2025 18:13:04,11/06/2025 18:24:38,694.611,
832,11/06/2025 19:49:39,11/06/2025 19:56:50,430.681,
833,11/07/2025 16:24:03,11/07/2025 16:30:26,382.623,
834,11/07/2025 17:54:26,11/07/2025 18:05:53,687.821,
835,11/07/2025 19:29:47,11/07/2025 19:38:50,543.172,
836,11/08/2025 16:07:18,11/08/2025 16:10:25,187.019,
837,11/08/2025 17:35:58,11/08/2025 17:47:04,666.026,
838,11/08/2025 19:10:18,11/08/2025 19:20:33,614.832,
839,11/09/2025 17:17:41,11/09/2025 17:28:10,628.541,
840,11/09/2025 18:51:05,11/09/2025 19:02:06,660.316,
841,11/10/2025 16:59:36,11/10/2025 17:09:10,573.285,
842,11/10/2025 18:32:05,11/10/2025 18:43:31,685.867,
843,11/10/2025 20:10:40,11/10/2025 20:14:14,213.995,
844,11/11/2025 16:41:46,11/11/2025 16:50:01,495.66,
845,11/11/2025 18:13:17,11/11/2025 18:24:51,694.601,
846,11/11/2025 19:49:53,11/11/2025 19:57:02,428.988,
847,11/12/2025 16:24:15,11/12/2025 16:30:39,384.24,
848,11/12/2025 17:54:39,11/12/2025 18:06:07,687.988,
849,11/12/2025 19:30:01,11/12/2025 19:39:03,542.129,
850,11/13/2025 16:07:29,11/13/2025 16:10:40,190.682,
851,11/13/2025 17:36:11,11/13/2025 17:47:17,666.371,
852,11/13/2025 19:10:32,11/13/2025 19:20:46,614.158,
853,11/14/2025 17:17:54,11/14/2025 17:28:23,629.079,
854,11/14/2025 18:51:19,11/14/2025 19:02:19,659.905,
855,11/15/2025 16:59:49,11/15/2025 17:09:23,574.052,
856,11/15/2025 18:32:19,11/15/2025 18:43:44,685.669,
857,11/15/2025 20:10:56,11/15/2025 20:14:26,209.745,
858,11/16/2025 16:41:58,11/16/2025 16:50:15,496.733,
859,11/16/2025 18:13:30,11/16/2025 18:25:05,694.591,
860,11/16/2025 19:50:08,11/16/2025 19:57:15,427.288,
861,11/17/2025 16:24:27,11/17/2025 16:30:53,385.836,
862,11/17/2025 17:54:52,11/17/2025 18:06:20,688.153,
863,11/17/2025 19:30:15,11/17/2025 19:39:16,541.084,
864,11/18/2025 16:07:40,11/18/2025 16:10:54,194.257,
865,11/18/2025 17:36:24,11/18/2025 17:47:31,666.713,
866,11/18/2025 19:10:45,11/18/2025 19:20:59,613.482,
867,11/19/2025 17:18:07,11/19/2025 17:28:36,629.614,
868,11/19/2025 18:51:32,11/19/2025 19:02:32,659.492,
869,11/20/2025 17:00:02,11/20/2025 17:09:36,574.812,
870,11/20/2025 18:32:32,11/20/2025 18:43:58,685.468,
871,11/20/2025 20:11:12,11/20/2025 20:14:37,205.401,
872,11/21/2025 16:42:11,11/21/2025 16:50:28,497.802,
873,11/21/2025 18:13:43,11/21/2025 18:25:18,694.576,
874,11/21/2025 19:50:22,11/21/2025 19:57:27,425.577,
875,11/22/2025 16:24:39,11/22/2025 16:31:07,387.433,
876,11/22/2025 17:55:05,11/22/2025 18:06:33,688.315,
877,11/22/2025 19:30:28,11/22/2025 19:39:28,540.032,
878,11/23/2025 16:07:51,11/23/2025 16:11:09,197.767,
879,11/23/2025 17:36:37,11/23/2025 17:47:44,667.054,
880,11/23/2025 19:10:59,11/23/2025 19:21:12,612.802,
881,11/24/2025 17:18:20,11/24/2025 17:28:50,630.147,
882,11/24/2025 18:51:46,11/24/2025 19:02:45,659.076,
883,11/25/2025 17:00:14,11/25/2025 17:09:50,575.572,
884,11/25/2025 18:32:45,11/25/2025 18:44:11,685.265,
885,11/25/2025 20:11:27,11/25/2025 20:14:48,200.949,
886,11/26/2025 16:42:23,11/26/2025 16:50:42,498.868,
887,11/26/2025 18:13:56,11/26/2025 18:25:31,694.559,
888,11/26/2025 19:50:36,11/26/2025 19:57:40,423.853,
889,11/27/2025 16:24:52,11/27/2025 16:31:21,389.008,
890,11/27/2025 17:55:18,11/27/2025 18:06:46,688.477,
891,11/27/2025 19:30:42,11/27/2025 19:39:41,538.975,
892,11/28/2025 16:08:02,11/28/2025 16:11:24,201.21,
893,11/28/2025 17:36:50,11/28/2025 17:47:57,667.395,
894,11/28/2025 19:11:13,11/28/2025 19:21:25,612.115,
895,11/29/2025 17:18:32,11/29/2025 17:29:03,630.673,
896,11/29/2025 18:51:59,11/29/2025 19:02:58,658.652,
897,11/30/2025 17:00:27,11/30/2025 17:10:03,576.331,
898,11/30/2025 18:32:59,11/30/2025 18:44:24,685.059,
899,11/30/2025 20:11:43,11/30/2025 20:14:59,196.391,
900,12/01/2025 16:42:35,12/01/2025 16:50:55,499.926,
901,12/01/2025 18:14:10,12/01/2025 18:25:44,694.54,
902,12/01/2025 19:50:50,12/01/2025 19:57:52,422.12,
903,12/02/2025 16:25:04,12/02/2025 16:31:34,390.578,
904,12/02/2025 17:55:31,12/02/2025 18:07:00,688.636,
905,12/02/2025 19:30:56,12/02/2025 19:39:54,537.915,
906,12/03/2025 16:08:14,12/03/2025 16:11:38,204.58,
907,12/03/2025 17:37:03,12/03/2025 17:48:10,667.731,
908,12/03/2025 19:11:26,12/03/2025 19:21:38,611.43,
909,12/04/2025 17:18:45,12/04/2025 17:29:16,631.203,
910,12/04/2025 18:52:13,12/04/2025 19:03:11,658.23,
911,12/05/2025 17:00:40,12/05/2025 17:10:17,577.084,
912,12/05/2025 18:33:12,12/05/2025 18:44:37,684.851,
913,12/05/2025 20:11:59,12/05/2025 20:15:10,191.719,
914,12/06/2025 16:42:48,12/06/2025 16:51:09,500.98,
915,12/06/2025 18:14:23,12/06/2025 18:25:57,694.52,
916,12/06/2025 19:51:05,12/06/2025 19:58:05,420.379,
917,12/07/2025 16:25:16,12/07/2025 16:31:48,392.141,
918,12/07/2025 17:55:44,12/07/2025 18:07:13,688.787,
919,12/07/2025 19:31:10,12/07/2025 19:40:07,536.849,
920,12/08/2025 16:08:25,12/08/2025 16:11:53,207.898,
921,12/08/2025 17:37:16,12/08/2025 17:48:24,668.064,
922,12/08/2025 19:11:40,12/08/2025 19:21:51,610.74,
923,12/09/2025 17:18:58,12/09/2025 17:29:30,631.725,
924,12/09/2025 18:52:26,12/09/2025 19:03:24,657.808,
925,12/10/2025 17:00:52,12/10/2025 17:10:30,577.831,
926,12/10/2025 18:33:25,12/10/2025 18:44:50,684.642,
927,12/10/2025 20:12:14,12/10/2025 20:15:21,186.917,
928,12/11/2025 16:43:00,12/11/2025 16:51:22,502.029,
929,12/11/2025 18:14:36,12/11/2025 18:26:10,694.498,
930,12/11/2025 19:51:19,12/11/2025 19:58:17,418.624,
931,12/12/2025 16:25:28,12/12/2025 16:32:02,393.692,
932,12/12/2025 17:55:57,12/12/2025 18:07:26,688.937,
933,12/12/2025 19:31:24,12/12/2025 19:40:20,535.779,
934,12/13/2025 16:08:36,12/13/2025 16:12:07,211.149,
935,12/13/2025 17:37:29,12/13/2025 17:48:37,668.395,
936,12/13/2025 19:11:53,12/13/2025 19:22:03,610.048,
937,12/14/2025 17:19:11,12/14/2025 17:29:43,632.246,
938,12/14/2025 18:52:40,12/14/2025 19:03:37,657.382,
939,12/15/2025 17:01:05,12/15/2025 17:10:43,578.576,
940,12/15/2025 18:33:39,12/15/2025 18:45:03,684.43,
941,12/15/2025 20:12:30,12/15/2025 20:15:32,181.993,
942,12/16/2025 16:43:13,12/16/2025 16:51:36,503.072,
943,12/16/2025 18:14:49,12/16/2025 18:26:24,694.474,
944,12/16/2025 19:51:33,12/16/2025 19:58:30,416.86,
945,12/17/2025 16:25:40,12/17/2025 16:32:16,395.232,
946,12/17/2025 17:56:10,12/17/2025 18:07:39,689.091,
947,12/17/2025 19:31:38,12/17/2025 19:40:32,534.705,
948,12/18/2025 16:08:48,12/18/2025 16:12:22,214.343,
949,12/18/2025 17:37:42,12/18/2025 17:48:50,668.723,
950,12/18/2025 19:12:07,12/18/2025 19:22:16,609.351,
951,12/19/2025 17:19:24,12/19/2025 17:29:56,632.765,
952,12/19/2025 18:52:53,12/19/2025 19:03:50,656.954,
953,12/20/2025 17:01:18,12/20/2025 17:10:57,579.318,
954,12/20/2025 18:33:52,12/20/2025 18:45:16,684.217,
955,12/20/2025 20:12:46,12/20/2025 20:15:43,176.916,
956,12/21/2025 16:43:25,12/21/2025 16:51:50,504.11,
957,12/21/2025 18:15:02,12/21/2025 18:26:37,694.447,
958,12/21/2025 19:51:47,12/21/2025 19:58:42,415.084,
959,12/22/2025 16:25:53,12/22/2025 16:32:29,396.766,
960,12/22/2025 17:56:23,12/22/2025 18:07:53,689.244,
961,12/22/2025 19:31:52,12/22/2025 19:40:45,533.624,
962,12/23/2025 16:08:59,12/23/2025 16:12:36,217.49,
963,12/23/2025 17:37:55,12/23/2025 17:49:04,669.049,
964,12/23/2025 19:12:21,12/23/2025 19:22:29,608.655,
965,12/24/2025 17:19:37,12/24/2025 17:30:10,633.281,
966,12/24/2025 18:53:06,12/24/2025 19:04:03,656.525,
967,12/25/2025 17:01:30,12/25/2025 17:11:10,580.061,
968,12/25/2025 18:34:05,12/25/2025 18:45:29,684.008,
969,12/25/2025 20:13:02,12/25/2025 20:15:54,171.678,
970,12/26/2025 16:43:38,12/26/2025 16:52:03,505.144,
971,12/26/2025 18:15:16,12/26/2025 18:26:50,694.419,
972,12/26/2025 19:52:02,12/26/2025 19:58:55,413.297,
973,12/27/2025 16:26:05,12/27/2025 16:32:43,398.288,
974,12/27/2025 17:56:36,12/27/2025 18:08:06,689.391,
975,12/27/2025 19:32:05,12/27/2025 19:40:58,532.537,
976,12/28/2025 16:09:10,12/28/2025 16:12:51,220.58,
977,12/28/2025 17:38:08,12/28/2025 17:49:17,669.373,
978,12/28/2025 19:12:34,12/28/2025 19:22:42,607.953,
979,12/29/2025 17:19:49,12/29/2025 17:30:23,633.794,
980,12/29/2025 18:53:20,12/29/2025 19:04:16,656.093,
981,12/30/2025 17:01:43,12/30/2025 17:11:24,580.796,
982,12/30/2025 18:34:19,12/30/2025 18:45:42,683.791,
983,12/30/2025 20:13:18,12/30/2025 20:16:05,166.273,
984,12/31/2025 16:43:50,12/31/2025 16:52:17,506.171,
985,12/31/2025 18:15:29,12/31/2025 18:27:03,694.389,
986,12/31/2025 19:52:16,12/31/2025 19:59:07,411.502,
,,,,
Global Statistics,,,,
Min Duration,05/14/1901 00:00:00,07/11/2025 16:03:24,03:58.6,35.047
Max Duration,01/02/1902 00:00:00,10/02/2025 18:11:31,23:06.0,694.629
Mean Duration,,,,546.926
Total Duration,,,,539269.408
