3UCubedIntegratedSim/Reports & Plots/Comms/Past Comms Data/UNH/CSV/Sat3.csv

"Access","Start Time (UTCG)","Stop Time (UTCG)","Duration (sec)"
1,1 Jan 2025 17:51:39.816,1 Jan 2025 17:51:54.073,14.257
2,1 Jan 2025 19:26:24.197,1 Jan 2025 19:26:41.300,17.103
3,2 Jan 2025 19:07:29.982,2 Jan 2025 19:07:57.024,27.042
4,3 Jan 2025 18:48:35.768,3 Jan 2025 18:49:08.122,32.355
5,4 Jan 2025 18:29:41.553,4 Jan 2025 18:30:14.351,32.798
6,5 Jan 2025 18:10:47.339,5 Jan 2025 18:11:14.855,27.516
7,5 Jan 2025 19:45:31.728,5 Jan 2025 19:45:33.813,2.085
8,6 Jan 2025 17:51:53.125,6 Jan 2025 17:52:07.610,14.485
9,6 Jan 2025 19:26:37.511,6 Jan 2025 19:26:54.473,16.962
10,7 Jan 2025 19:07:43.298,7 Jan 2025 19:08:10.257,26.959
11,8 Jan 2025 18:48:49.085,8 Jan 2025 18:49:21.406,32.321
12,9 Jan 2025 18:29:54.871,9 Jan 2025 18:30:27.697,32.826
13,10 Jan 2025 18:11:00.657,10 Jan 2025 18:11:28.270,27.613
14,10 Jan 2025 19:45:45.046,10 Jan 2025 19:45:46.920,1.874
15,11 Jan 2025 17:52:06.443,11 Jan 2025 17:52:21.140,14.697
16,11 Jan 2025 19:26:50.828,11 Jan 2025 19:27:07.645,16.817
17,12 Jan 2025 19:07:56.614,12 Jan 2025 19:08:23.483,26.870
18,13 Jan 2025 18:49:02.400,13 Jan 2025 18:49:34.687,32.288
19,14 Jan 2025 18:30:08.185,14 Jan 2025 18:30:41.039,32.855
20,15 Jan 2025 18:11:13.970,15 Jan 2025 18:11:41.688,27.718
21,15 Jan 2025 19:45:58.360,15 Jan 2025 19:46:00.030,1.671
22,16 Jan 2025 17:52:19.756,16 Jan 2025 17:52:34.669,14.913
23,16 Jan 2025 19:27:04.142,16 Jan 2025 19:27:20.817,16.675
24,17 Jan 2025 19:08:09.927,17 Jan 2025 19:08:36.711,26.783
25,18 Jan 2025 18:49:15.714,18 Jan 2025 18:49:47.966,32.252
26,19 Jan 2025 18:30:21.500,19 Jan 2025 18:30:54.380,32.879
27,20 Jan 2025 18:11:27.287,20 Jan 2025 18:11:55.107,27.820
28,20 Jan 2025 19:46:11.677,20 Jan 2025 19:46:13.141,1.464
29,21 Jan 2025 17:52:33.074,21 Jan 2025 17:52:48.192,15.118
30,21 Jan 2025 19:27:17.460,21 Jan 2025 19:27:33.989,16.529
31,22 Jan 2025 19:08:23.246,22 Jan 2025 19:08:49.936,26.690
32,23 Jan 2025 18:49:29.033,23 Jan 2025 18:50:01.250,32.217
33,24 Jan 2025 18:30:34.820,24 Jan 2025 18:31:07.723,32.903
34,25 Jan 2025 18:11:40.606,25 Jan 2025 18:12:08.522,27.916
35,25 Jan 2025 19:46:24.996,25 Jan 2025 19:46:26.250,1.254
36,26 Jan 2025 17:52:46.393,26 Jan 2025 17:53:01.716,15.323
37,26 Jan 2025 19:27:30.778,26 Jan 2025 19:27:47.159,16.380
38,27 Jan 2025 19:08:36.564,27 Jan 2025 19:09:03.162,26.598
39,28 Jan 2025 18:49:42.350,28 Jan 2025 18:50:14.527,32.177
40,29 Jan 2025 18:30:48.136,29 Jan 2025 18:31:21.060,32.924
41,30 Jan 2025 18:11:53.922,30 Jan 2025 18:12:21.937,28.016
42,30 Jan 2025 19:46:38.312,30 Jan 2025 19:46:39.358,1.046
43,31 Jan 2025 17:52:59.708,31 Jan 2025 17:53:15.240,15.532
44,31 Jan 2025 19:27:44.093,31 Jan 2025 19:28:00.328,16.235
45,1 Feb 2025 19:08:49.880,1 Feb 2025 19:09:16.387,26.507
46,2 Feb 2025 18:49:55.667,2 Feb 2025 18:50:27.808,32.141
47,3 Feb 2025 18:31:01.454,3 Feb 2025 18:31:34.401,32.946
48,4 Feb 2025 18:12:07.241,4 Feb 2025 18:12:35.352,28.111
49,4 Feb 2025 19:46:51.632,4 Feb 2025 19:46:52.466,0.834
50,5 Feb 2025 17:53:13.029,5 Feb 2025 17:53:28.766,15.737
51,5 Feb 2025 19:27:57.415,5 Feb 2025 19:28:13.500,16.085
52,6 Feb 2025 19:09:03.202,6 Feb 2025 19:09:29.607,26.405
53,7 Feb 2025 18:50:08.989,7 Feb 2025 18:50:41.084,32.095
54,8 Feb 2025 18:31:14.776,8 Feb 2025 18:31:47.739,32.963
55,9 Feb 2025 18:12:20.562,9 Feb 2025 18:12:48.764,28.202
56,9 Feb 2025 19:47:04.953,9 Feb 2025 19:47:05.573,0.620
57,10 Feb 2025 17:53:26.349,10 Feb 2025 17:53:42.280,15.931
58,10 Feb 2025 19:28:10.734,10 Feb 2025 19:28:26.667,15.933
59,11 Feb 2025 19:09:16.525,11 Feb 2025 19:09:42.830,26.305
60,12 Feb 2025 18:50:22.307,12 Feb 2025 18:50:54.362,32.055
61,13 Feb 2025 18:31:28.093,13 Feb 2025 18:32:01.074,32.981
62,14 Feb 2025 18:12:33.880,14 Feb 2025 18:13:02.177,28.297
63,14 Feb 2025 19:47:18.270,14 Feb 2025 19:47:18.679,0.409
64,15 Feb 2025 17:53:39.667,15 Feb 2025 17:53:55.800,16.132
65,15 Feb 2025 19:28:24.053,15 Feb 2025 19:28:39.835,15.782
66,16 Feb 2025 19:09:29.844,16 Feb 2025 19:09:56.054,26.210
67,17 Feb 2025 18:50:35.628,17 Feb 2025 18:51:07.641,32.014
68,18 Feb 2025 18:31:41.415,18 Feb 2025 18:32:14.412,32.997
69,19 Feb 2025 18:12:47.203,19 Feb 2025 18:13:15.588,28.385
70,19 Feb 2025 19:47:31.594,19 Feb 2025 19:47:31.786,0.192
71,20 Feb 2025 17:53:52.991,20 Feb 2025 17:54:09.316,16.325
72,20 Feb 2025 19:28:37.377,20 Feb 2025 19:28:53.003,15.626
73,21 Feb 2025 19:09:43.164,21 Feb 2025 19:10:09.277,26.113
74,22 Feb 2025 18:50:48.952,22 Feb 2025 18:51:20.918,31.967
75,23 Feb 2025 18:31:54.739,23 Feb 2025 18:32:27.748,33.009
76,24 Feb 2025 18:13:00.526,24 Feb 2025 18:13:28.997,28.471
77,25 Feb 2025 17:54:06.313,25 Feb 2025 17:54:22.831,16.518
78,25 Feb 2025 19:28:50.698,25 Feb 2025 19:29:06.169,15.471
79,26 Feb 2025 19:09:56.485,26 Feb 2025 19:10:22.498,26.013
80,27 Feb 2025 18:51:02.272,27 Feb 2025 18:51:34.192,31.921
81,28 Feb 2025 18:32:08.059,28 Feb 2025 18:32:41.084,33.026
82,1 Mar 2025 18:13:13.846,1 Mar 2025 18:13:42.407,28.561
83,2 Mar 2025 17:54:19.634,2 Mar 2025 17:54:36.344,16.710
84,2 Mar 2025 19:29:04.019,2 Mar 2025 19:29:19.340,15.320
85,3 Mar 2025 19:10:09.808,3 Mar 2025 19:10:35.725,25.917
86,4 Mar 2025 18:51:15.596,4 Mar 2025 18:51:47.471,31.875
87,5 Mar 2025 18:32:21.385,5 Mar 2025 18:32:54.420,33.036
88,6 Mar 2025 18:13:27.173,6 Mar 2025 18:13:55.815,28.642
89,7 Mar 2025 17:54:32.961,7 Mar 2025 17:54:49.857,16.895
90,7 Mar 2025 19:29:17.347,7 Mar 2025 19:29:32.503,15.157
91,8 Mar 2025 19:10:23.134,8 Mar 2025 19:10:48.942,25.807
92,9 Mar 2025 18:51:28.922,9 Mar 2025 18:52:00.746,31.824
93,10 Mar 2025 18:32:34.709,10 Mar 2025 18:33:07.754,33.046
94,11 Mar 2025 18:13:40.496,11 Mar 2025 18:14:09.222,28.726
95,12 Mar 2025 17:54:46.283,12 Mar 2025 17:55:03.367,17.084
96,12 Mar 2025 19:29:30.669,12 Mar 2025 19:29:45.668,14.999
97,13 Mar 2025 19:10:36.457,13 Mar 2025 19:11:02.162,25.706
98,14 Mar 2025 18:51:42.248,14 Mar 2025 18:52:14.023,31.774
99,15 Mar 2025 18:32:48.032,15 Mar 2025 18:33:21.089,33.058
100,16 Mar 2025 18:13:53.819,16 Mar 2025 18:14:22.629,28.810
101,17 Mar 2025 17:54:59.608,17 Mar 2025 17:55:16.878,17.270
102,17 Mar 2025 19:29:43.993,17 Mar 2025 19:29:58.834,14.840
103,18 Mar 2025 19:10:49.782,18 Mar 2025 19:11:15.384,25.601
104,19 Mar 2025 18:51:55.570,19 Mar 2025 18:52:27.299,31.728
105,20 Mar 2025 18:33:01.359,20 Mar 2025 18:33:34.424,33.065
106,21 Mar 2025 18:14:07.147,21 Mar 2025 18:14:36.035,28.888
107,22 Mar 2025 17:55:12.936,22 Mar 2025 17:55:30.386,17.450
108,22 Mar 2025 19:29:57.322,22 Mar 2025 19:30:11.999,14.677
109,23 Mar 2025 19:11:03.110,23 Mar 2025 19:11:28.604,25.493
110,24 Mar 2025 18:52:08.897,24 Mar 2025 18:52:40.573,31.676
111,25 Mar 2025 18:33:14.685,25 Mar 2025 18:33:47.757,33.071
112,26 Mar 2025 18:14:20.472,26 Mar 2025 18:14:49.437,28.965
113,27 Mar 2025 17:55:26.260,27 Mar 2025 17:55:43.893,17.633
114,27 Mar 2025 19:30:10.646,27 Mar 2025 19:30:25.162,14.517
115,28 Mar 2025 19:11:16.434,28 Mar 2025 19:11:41.823,25.389
116,29 Mar 2025 18:52:22.221,29 Mar 2025 18:52:53.848,31.626
117,30 Mar 2025 18:33:28.010,30 Mar 2025 18:34:01.090,33.080
118,31 Mar 2025 18:14:33.798,31 Mar 2025 18:15:02.843,29.045
119,1 Apr 2025 17:55:39.587,1 Apr 2025 17:55:57.396,17.809
120,1 Apr 2025 19:30:23.973,1 Apr 2025 19:30:38.332,14.358
121,2 Apr 2025 19:11:29.764,2 Apr 2025 19:11:55.044,25.280
122,3 Apr 2025 18:52:35.552,3 Apr 2025 18:53:07.118,31.566
123,4 Apr 2025 18:33:41.340,4 Apr 2025 18:34:14.420,33.081
124,5 Apr 2025 18:14:47.128,5 Apr 2025 18:15:16.246,29.118
125,6 Apr 2025 17:55:52.916,6 Apr 2025 17:56:10.899,17.983
126,6 Apr 2025 19:30:37.302,6 Apr 2025 19:30:51.495,14.193
127,7 Apr 2025 19:11:43.091,7 Apr 2025 19:12:08.263,25.171
128,8 Apr 2025 18:52:48.878,8 Apr 2025 18:53:20.394,31.516
129,9 Apr 2025 18:33:54.665,9 Apr 2025 18:34:27.752,33.087
130,10 Apr 2025 18:15:00.453,10 Apr 2025 18:15:29.650,29.197
131,11 Apr 2025 17:56:06.240,11 Apr 2025 17:56:24.404,18.163
132,11 Apr 2025 19:30:50.626,11 Apr 2025 19:31:04.658,14.032
133,12 Apr 2025 19:11:56.416,12 Apr 2025 19:12:21.482,25.066
134,13 Apr 2025 18:53:02.204,13 Apr 2025 18:53:33.668,31.464
135,14 Apr 2025 18:34:07.991,14 Apr 2025 18:34:41.085,33.094
136,15 Apr 2025 18:15:13.780,15 Apr 2025 18:15:43.053,29.274
137,16 Apr 2025 17:56:19.568,16 Apr 2025 17:56:37.908,18.340
138,16 Apr 2025 19:31:03.954,16 Apr 2025 19:31:17.822,13.868
139,17 Apr 2025 19:12:09.745,17 Apr 2025 19:12:34.701,24.956
140,18 Apr 2025 18:53:15.534,18 Apr 2025 18:53:46.941,31.408
141,19 Apr 2025 18:34:21.321,19 Apr 2025 18:34:54.417,33.097
142,20 Apr 2025 18:15:27.109,20 Apr 2025 18:15:56.458,29.349
143,21 Apr 2025 17:56:32.897,21 Apr 2025 17:56:51.408,18.511
144,21 Apr 2025 19:31:17.283,21 Apr 2025 19:31:30.985,13.702
145,22 Apr 2025 19:12:23.073,22 Apr 2025 19:12:47.919,24.845
146,23 Apr 2025 18:53:28.861,23 Apr 2025 18:54:00.213,31.352
147,24 Apr 2025 18:34:34.646,24 Apr 2025 18:35:07.747,33.102
148,25 Apr 2025 18:15:40.433,25 Apr 2025 18:16:09.859,29.426
149,26 Apr 2025 17:56:46.221,26 Apr 2025 17:57:04.908,18.687
150,26 Apr 2025 19:31:30.607,26 Apr 2025 19:31:44.147,13.539
151,27 Apr 2025 19:12:36.399,27 Apr 2025 19:13:01.141,24.743
152,28 Apr 2025 18:53:42.187,28 Apr 2025 18:54:13.486,31.298
153,29 Apr 2025 18:34:47.973,29 Apr 2025 18:35:21.079,33.106
154,30 Apr 2025 18:15:53.762,30 Apr 2025 18:16:23.261,29.498
155,1 May 2025 17:56:59.551,1 May 2025 17:57:18.408,18.857
156,1 May 2025 19:31:43.937,1 May 2025 19:31:57.309,13.372
157,2 May 2025 19:12:49.729,2 May 2025 19:13:14.359,24.630
158,3 May 2025 18:53:55.518,3 May 2025 18:54:26.757,31.239
159,4 May 2025 18:35:01.302,4 May 2025 18:35:34.409,33.107
160,5 May 2025 18:16:07.090,5 May 2025 18:16:36.660,29.570
161,6 May 2025 17:57:12.877,6 May 2025 17:57:31.906,19.029
162,6 May 2025 19:31:57.263,6 May 2025 19:32:10.470,13.207
163,7 May 2025 19:13:03.050,7 May 2025 19:13:27.576,24.526
164,8 May 2025 18:54:08.843,8 May 2025 18:54:40.028,31.185
165,9 May 2025 18:35:14.625,9 May 2025 18:35:47.739,33.114
166,10 May 2025 18:16:20.413,10 May 2025 18:16:50.059,29.646
167,11 May 2025 17:57:26.201,11 May 2025 17:57:45.401,19.200
168,11 May 2025 19:32:10.586,11 May 2025 19:32:23.631,13.045
169,12 May 2025 19:13:16.375,12 May 2025 19:13:40.793,24.419
170,13 May 2025 18:54:22.165,13 May 2025 18:54:53.300,31.134
171,14 May 2025 18:35:27.951,14 May 2025 18:36:01.069,33.118
172,15 May 2025 18:16:33.739,15 May 2025 18:17:03.459,29.719
173,16 May 2025 17:57:39.527,16 May 2025 17:57:58.901,19.374
174,16 May 2025 19:32:23.913,16 May 2025 19:32:36.792,12.879
175,17 May 2025 19:13:29.702,17 May 2025 19:13:54.010,24.309
176,18 May 2025 18:54:35.493,18 May 2025 18:55:06.570,31.078
177,19 May 2025 18:35:41.278,19 May 2025 18:36:14.397,33.120
178,20 May 2025 18:16:47.065,20 May 2025 18:17:16.854,29.790
179,21 May 2025 17:57:52.852,21 May 2025 17:58:12.395,19.543
180,21 May 2025 19:32:37.238,21 May 2025 19:32:49.951,12.714
181,22 May 2025 19:13:43.025,22 May 2025 19:14:07.225,24.201
182,23 May 2025 18:54:48.816,23 May 2025 18:55:19.840,31.024
183,24 May 2025 18:35:54.599,24 May 2025 18:36:27.725,33.126
184,25 May 2025 18:17:00.386,25 May 2025 18:17:30.253,29.866
185,26 May 2025 17:58:06.174,26 May 2025 17:58:25.890,19.716
186,26 May 2025 19:32:50.560,26 May 2025 19:33:03.111,12.551
187,27 May 2025 19:13:56.348,27 May 2025 19:14:20.442,24.094
188,28 May 2025 18:55:02.141,28 May 2025 18:55:33.111,30.970
189,29 May 2025 18:36:07.925,29 May 2025 18:36:41.054,33.129
190,30 May 2025 18:17:13.713,30 May 2025 18:17:43.650,29.938
191,31 May 2025 17:58:19.500,31 May 2025 17:58:39.383,19.883
192,31 May 2025 19:33:03.886,31 May 2025 19:33:16.270,12.384
193,1 Jun 2025 19:14:09.673,1 Jun 2025 19:14:33.657,23.983
194,2 Jun 2025 18:55:15.463,2 Jun 2025 18:55:46.379,30.917
195,3 Jun 2025 18:36:21.247,3 Jun 2025 18:36:54.380,33.133
196,4 Jun 2025 18:17:27.034,4 Jun 2025 18:17:57.046,30.013
197,5 Jun 2025 17:58:32.820,5 Jun 2025 17:58:52.875,20.056
198,5 Jun 2025 19:33:17.206,5 Jun 2025 19:33:29.428,12.222
199,6 Jun 2025 19:14:22.992,6 Jun 2025 19:14:46.871,23.878
200,7 Jun 2025 18:55:28.779,7 Jun 2025 18:55:59.648,30.869
201,8 Jun 2025 18:36:34.566,8 Jun 2025 18:37:07.707,33.141
202,9 Jun 2025 18:17:40.353,9 Jun 2025 18:18:10.440,30.088
203,10 Jun 2025 17:58:46.139,10 Jun 2025 17:59:06.368,20.228
204,10 Jun 2025 19:33:30.525,10 Jun 2025 19:33:42.586,12.060
205,11 Jun 2025 17:39:51.931,11 Jun 2025 17:39:51.960,0.029
206,11 Jun 2025 19:14:36.312,11 Jun 2025 19:15:00.085,23.773
207,12 Jun 2025 18:55:42.100,12 Jun 2025 18:56:12.917,30.817
208,13 Jun 2025 18:36:47.887,13 Jun 2025 18:37:21.034,33.146
209,14 Jun 2025 18:17:53.674,14 Jun 2025 18:18:23.836,30.161
210,15 Jun 2025 17:58:59.461,15 Jun 2025 17:59:19.857,20.396
211,15 Jun 2025 19:33:43.847,15 Jun 2025 19:33:55.742,11.895
212,16 Jun 2025 17:40:05.253,16 Jun 2025 17:40:05.608,0.355
213,16 Jun 2025 19:14:49.634,16 Jun 2025 19:15:13.298,23.664
214,17 Jun 2025 18:55:55.420,17 Jun 2025 18:56:26.184,30.764
215,18 Jun 2025 18:37:01.207,18 Jun 2025 18:37:34.358,33.152
216,19 Jun 2025 18:18:06.992,19 Jun 2025 18:18:37.229,30.237
217,20 Jun 2025 17:59:12.778,20 Jun 2025 17:59:33.345,20.567
218,20 Jun 2025 19:33:57.164,20 Jun 2025 19:34:08.897,11.734
219,21 Jun 2025 17:40:18.568,21 Jun 2025 17:40:19.254,0.686
220,21 Jun 2025 19:15:02.949,21 Jun 2025 19:15:26.510,23.561
221,22 Jun 2025 18:56:08.735,22 Jun 2025 18:56:39.451,30.716
222,23 Jun 2025 18:37:14.522,23 Jun 2025 18:37:47.684,33.162
223,24 Jun 2025 18:18:20.309,24 Jun 2025 18:18:50.624,30.315
224,25 Jun 2025 17:59:26.095,25 Jun 2025 17:59:46.834,20.739
225,25 Jun 2025 19:34:10.481,25 Jun 2025 19:34:22.054,11.572
226,26 Jun 2025 17:40:31.887,26 Jun 2025 17:40:32.899,1.012
227,26 Jun 2025 19:15:16.268,26 Jun 2025 19:15:39.723,23.455
228,27 Jun 2025 18:56:22.055,27 Jun 2025 18:56:52.718,30.663
229,28 Jun 2025 18:37:27.842,28 Jun 2025 18:38:01.008,33.166
230,29 Jun 2025 18:18:33.628,29 Jun 2025 18:19:04.016,30.389
231,30 Jun 2025 17:59:39.413,30 Jun 2025 18:00:00.319,20.906
232,30 Jun 2025 19:34:23.799,30 Jun 2025 19:34:35.207,11.408
233,1 Jul 2025 17:40:45.203,1 Jul 2025 17:40:46.539,1.336
234,1 Jul 2025 19:15:29.584,1 Jul 2025 19:15:52.933,23.349
235,2 Jul 2025 18:56:35.370,2 Jul 2025 18:57:05.983,30.613
236,3 Jul 2025 18:37:41.155,3 Jul 2025 18:38:14.331,33.175
237,4 Jul 2025 18:18:46.940,4 Jul 2025 18:19:17.408,30.468
238,5 Jul 2025 17:59:52.725,5 Jul 2025 18:00:13.805,21.080
239,5 Jul 2025 19:34:37.111,5 Jul 2025 19:34:48.360,11.249
240,6 Jul 2025 17:40:58.514,6 Jul 2025 17:41:00.180,1.665
241,6 Jul 2025 19:15:42.896,6 Jul 2025 19:16:06.144,23.248
242,7 Jul 2025 18:56:48.681,7 Jul 2025 18:57:19.248,30.566
243,8 Jul 2025 18:37:54.467,8 Jul 2025 18:38:27.654,33.187
244,9 Jul 2025 18:19:00.253,9 Jul 2025 18:19:30.800,30.547
245,10 Jul 2025 18:00:06.039,10 Jul 2025 18:00:27.289,21.251
246,10 Jul 2025 19:34:50.424,10 Jul 2025 19:35:01.513,11.089
247,11 Jul 2025 17:41:11.829,11 Jul 2025 17:41:13.821,1.992
248,11 Jul 2025 19:15:56.211,11 Jul 2025 19:16:19.350,23.139
249,12 Jul 2025 18:57:01.996,12 Jul 2025 18:57:32.512,30.516
250,13 Jul 2025 18:38:07.782,13 Jul 2025 18:38:40.975,33.193
251,14 Jul 2025 18:19:13.568,14 Jul 2025 18:19:44.189,30.622
252,15 Jul 2025 18:00:19.353,15 Jul 2025 18:00:40.771,21.418
253,15 Jul 2025 19:35:03.738,15 Jul 2025 19:35:14.664,10.926
254,16 Jul 2025 17:41:25.141,16 Jul 2025 17:41:27.454,2.313
255,16 Jul 2025 19:16:09.523,16 Jul 2025 19:16:32.557,23.034
256,17 Jul 2025 18:57:15.307,17 Jul 2025 18:57:45.774,30.467
257,18 Jul 2025 18:38:21.094,18 Jul 2025 18:38:54.295,33.201
258,19 Jul 2025 18:19:26.876,19 Jul 2025 18:19:57.582,30.706
259,20 Jul 2025 18:00:32.660,20 Jul 2025 18:00:54.253,21.592
260,20 Jul 2025 19:35:17.046,20 Jul 2025 19:35:27.814,10.768
261,21 Jul 2025 17:41:38.448,21 Jul 2025 17:41:41.088,2.640
262,21 Jul 2025 19:16:22.831,21 Jul 2025 19:16:45.765,22.934
263,22 Jul 2025 18:57:28.616,22 Jul 2025 18:57:59.037,30.421
264,23 Jul 2025 18:38:34.404,23 Jul 2025 18:39:07.616,33.212
265,24 Jul 2025 18:19:40.187,24 Jul 2025 18:20:10.971,30.784
266,25 Jul 2025 18:00:45.972,25 Jul 2025 18:01:07.733,21.761
267,25 Jul 2025 19:35:30.358,25 Jul 2025 19:35:40.964,10.606
268,26 Jul 2025 17:41:51.760,26 Jul 2025 17:41:54.717,2.957
269,26 Jul 2025 19:16:36.143,26 Jul 2025 19:16:58.972,22.829
270,27 Jul 2025 18:57:41.928,27 Jul 2025 18:58:12.299,30.371
271,28 Jul 2025 18:38:47.716,28 Jul 2025 18:39:20.935,33.219
272,29 Jul 2025 18:19:53.497,29 Jul 2025 18:20:24.357,30.860
273,30 Jul 2025 18:00:59.280,30 Jul 2025 18:01:21.210,21.930
274,30 Jul 2025 19:35:43.666,30 Jul 2025 19:35:54.111,10.445
275,31 Jul 2025 17:42:05.066,31 Jul 2025 17:42:08.340,3.273
276,31 Jul 2025 19:16:49.450,31 Jul 2025 19:17:12.177,22.727
277,1 Aug 2025 18:57:55.234,1 Aug 2025 18:58:25.558,30.325
278,2 Aug 2025 18:39:01.021,2 Aug 2025 18:39:34.252,33.231
279,3 Aug 2025 18:20:06.801,3 Aug 2025 18:20:37.742,30.941
280,4 Aug 2025 18:01:12.585,4 Aug 2025 18:01:34.687,22.102
281,4 Aug 2025 19:35:56.971,4 Aug 2025 19:36:07.258,10.287
282,5 Aug 2025 17:42:18.371,5 Aug 2025 17:42:21.967,3.596
283,5 Aug 2025 19:17:02.755,5 Aug 2025 19:17:25.382,22.627
284,6 Aug 2025 18:58:08.539,6 Aug 2025 18:58:38.818,30.279
285,7 Aug 2025 18:39:14.328,7 Aug 2025 18:39:47.566,33.238
286,8 Aug 2025 18:20:20.109,8 Aug 2025 18:20:51.127,31.019
287,9 Aug 2025 18:01:25.893,9 Aug 2025 18:01:48.163,22.269
288,9 Aug 2025 19:36:10.279,9 Aug 2025 19:36:20.404,10.125
289,10 Aug 2025 17:42:31.679,10 Aug 2025 17:42:35.587,3.908
290,10 Aug 2025 19:17:16.064,10 Aug 2025 19:17:38.586,22.522
291,11 Aug 2025 18:58:21.848,11 Aug 2025 18:58:52.076,30.228
292,12 Aug 2025 18:39:27.634,12 Aug 2025 18:40:00.881,33.247
293,13 Aug 2025 18:20:33.415,13 Aug 2025 18:21:04.510,31.095
294,14 Aug 2025 18:01:39.198,14 Aug 2025 18:02:01.635,22.437
295,14 Aug 2025 19:36:23.587,14 Aug 2025 19:36:33.548,9.961
296,15 Aug 2025 17:42:44.981,15 Aug 2025 17:42:49.205,4.224
297,15 Aug 2025 19:17:29.367,15 Aug 2025 19:17:51.787,22.421
298,16 Aug 2025 18:58:35.150,16 Aug 2025 18:59:05.333,30.183
299,17 Aug 2025 18:39:40.936,17 Aug 2025 18:40:14.196,33.260
300,18 Aug 2025 18:20:46.716,18 Aug 2025 18:21:17.892,31.176
301,19 Aug 2025 18:01:52.500,19 Aug 2025 18:02:15.108,22.608
302,19 Aug 2025 19:36:36.888,19 Aug 2025 19:36:46.692,9.804
303,20 Aug 2025 17:42:58.284,20 Aug 2025 17:43:02.824,4.540
304,20 Aug 2025 19:17:42.670,20 Aug 2025 19:18:04.989,22.320
305,21 Aug 2025 18:58:48.454,21 Aug 2025 18:59:18.590,30.136
306,22 Aug 2025 18:39:54.241,22 Aug 2025 18:40:27.510,33.269
307,23 Aug 2025 18:21:00.022,23 Aug 2025 18:21:31.273,31.250
308,24 Aug 2025 18:02:05.806,24 Aug 2025 18:02:28.578,22.772
309,24 Aug 2025 19:36:50.192,24 Aug 2025 19:36:59.834,9.643
310,25 Aug 2025 17:43:11.590,25 Aug 2025 17:43:16.438,4.848
311,25 Aug 2025 19:17:55.975,25 Aug 2025 19:18:18.190,22.214
312,26 Aug 2025 18:59:01.759,26 Aug 2025 18:59:31.844,30.085
313,27 Aug 2025 18:40:07.545,27 Aug 2025 18:40:40.821,33.276
314,28 Aug 2025 18:21:13.324,28 Aug 2025 18:21:44.651,31.326
315,29 Aug 2025 18:02:19.107,29 Aug 2025 18:02:42.046,22.938
316,29 Aug 2025 19:37:03.493,29 Aug 2025 19:37:12.974,9.482
317,30 Aug 2025 17:43:24.890,30 Aug 2025 17:43:30.049,5.159
318,30 Aug 2025 19:18:09.276,30 Aug 2025 19:18:31.388,22.112
319,31 Aug 2025 18:59:15.058,31 Aug 2025 18:59:45.097,30.039
320,1 Sep 2025 18:40:20.841,1 Sep 2025 18:40:54.132,33.291
321,2 Sep 2025 18:21:26.625,2 Sep 2025 18:21:58.029,31.404
322,3 Sep 2025 18:02:32.408,3 Sep 2025 18:02:55.513,23.105
323,3 Sep 2025 19:37:16.794,3 Sep 2025 19:37:26.114,9.321
324,4 Sep 2025 17:43:38.192,4 Sep 2025 17:43:43.658,5.467
325,4 Sep 2025 19:18:22.577,4 Sep 2025 19:18:44.590,22.013
326,5 Sep 2025 18:59:28.361,5 Sep 2025 18:59:58.350,29.989
327,6 Sep 2025 18:40:34.145,6 Sep 2025 18:41:07.443,33.297
328,7 Sep 2025 18:21:39.929,7 Sep 2025 18:22:11.405,31.476
329,8 Sep 2025 18:02:45.713,8 Sep 2025 18:03:08.977,23.265
330,8 Sep 2025 19:37:30.098,8 Sep 2025 19:37:39.253,9.155
331,9 Sep 2025 17:43:51.496,9 Sep 2025 17:43:57.263,5.768
332,9 Sep 2025 19:18:35.881,9 Sep 2025 19:18:57.786,21.905
333,10 Sep 2025 18:59:41.664,10 Sep 2025 19:00:11.601,29.937
334,11 Sep 2025 18:40:47.446,11 Sep 2025 18:41:20.750,33.304
335,12 Sep 2025 18:21:53.229,12 Sep 2025 18:22:24.779,31.551
336,13 Sep 2025 18:02:59.011,13 Sep 2025 18:03:22.440,23.429
337,13 Sep 2025 19:37:43.396,13 Sep 2025 19:37:52.389,8.993
338,14 Sep 2025 17:44:04.793,14 Sep 2025 17:44:10.869,6.076
339,14 Sep 2025 19:18:49.179,14 Sep 2025 19:19:10.977,21.798
340,15 Sep 2025 18:59:54.962,15 Sep 2025 19:00:24.852,29.889
341,16 Sep 2025 18:41:00.745,16 Sep 2025 18:41:34.058,33.313
342,17 Sep 2025 18:22:06.529,17 Sep 2025 18:22:38.154,31.625
343,18 Sep 2025 18:03:12.313,18 Sep 2025 18:03:35.902,23.589
344,18 Sep 2025 19:37:56.698,18 Sep 2025 19:38:05.526,8.828
345,19 Sep 2025 17:44:18.096,19 Sep 2025 17:44:24.469,6.373
346,19 Sep 2025 19:19:02.482,19 Sep 2025 19:19:24.172,21.690
347,20 Sep 2025 19:00:08.266,20 Sep 2025 19:00:38.101,29.835
348,21 Sep 2025 18:41:14.049,21 Sep 2025 18:41:47.364,33.315
349,22 Sep 2025 18:22:19.832,22 Sep 2025 18:22:51.525,31.693
350,23 Sep 2025 18:03:25.616,23 Sep 2025 18:03:49.360,23.744
351,23 Sep 2025 19:38:10.001,23 Sep 2025 19:38:18.660,8.659
352,24 Sep 2025 17:44:31.398,24 Sep 2025 17:44:38.065,6.667
353,24 Sep 2025 19:19:15.784,24 Sep 2025 19:19:37.364,21.580
354,25 Sep 2025 19:00:21.567,25 Sep 2025 19:00:51.344,29.777
355,26 Sep 2025 18:41:27.349,26 Sep 2025 18:42:00.668,33.318
356,27 Sep 2025 18:22:33.132,27 Sep 2025 18:23:04.894,31.763
357,28 Sep 2025 18:03:38.915,28 Sep 2025 18:04:02.817,23.902
358,28 Sep 2025 19:38:23.300,28 Sep 2025 19:38:31.793,8.492
359,29 Sep 2025 17:44:44.698,29 Sep 2025 17:44:51.659,6.961
360,29 Sep 2025 19:19:29.083,29 Sep 2025 19:19:50.555,21.472
361,30 Sep 2025 19:00:34.866,30 Sep 2025 19:01:04.590,29.724
362,1 Oct 2025 18:41:40.650,1 Oct 2025 18:42:13.971,33.322
363,2 Oct 2025 18:22:46.433,2 Oct 2025 18:23:18.264,31.831
364,3 Oct 2025 18:03:52.217,3 Oct 2025 18:04:16.272,24.055
365,3 Oct 2025 19:38:36.603,3 Oct 2025 19:38:44.925,8.323
366,4 Oct 2025 17:44:58.001,4 Oct 2025 17:45:05.250,7.249
367,4 Oct 2025 19:19:42.387,4 Oct 2025 19:20:03.747,21.360
368,5 Oct 2025 19:00:48.171,5 Oct 2025 19:01:17.836,29.665
369,6 Oct 2025 18:41:53.954,6 Oct 2025 18:42:27.273,33.319
370,7 Oct 2025 18:22:59.740,7 Oct 2025 18:23:31.631,31.891
371,8 Oct 2025 18:04:05.521,8 Oct 2025 18:04:29.725,24.204
372,8 Oct 2025 19:38:49.906,8 Oct 2025 19:38:58.056,8.150
373,9 Oct 2025 17:45:11.303,9 Oct 2025 17:45:18.837,7.534
374,9 Oct 2025 19:19:55.689,9 Oct 2025 19:20:16.935,21.247
375,10 Oct 2025 19:01:01.472,10 Oct 2025 19:01:31.079,29.608
376,11 Oct 2025 18:42:07.254,11 Oct 2025 18:42:40.573,33.319
377,12 Oct 2025 18:23:13.041,12 Oct 2025 18:23:44.996,31.955
378,13 Oct 2025 18:04:18.820,13 Oct 2025 18:04:43.176,24.356
379,13 Oct 2025 19:39:03.206,13 Oct 2025 19:39:11.185,7.980
380,14 Oct 2025 17:45:24.604,14 Oct 2025 17:45:32.423,7.820
381,14 Oct 2025 19:20:08.989,14 Oct 2025 19:20:30.124,21.135
382,15 Oct 2025 19:01:14.773,15 Oct 2025 19:01:44.323,29.550
383,16 Oct 2025 18:42:20.558,16 Oct 2025 18:42:53.874,33.316
384,17 Oct 2025 18:23:26.342,17 Oct 2025 18:23:58.361,32.019
385,18 Oct 2025 18:04:32.126,18 Oct 2025 18:04:56.626,24.500
386,18 Oct 2025 19:39:16.512,18 Oct 2025 19:39:24.313,7.801
387,19 Oct 2025 17:45:37.910,19 Oct 2025 17:45:46.001,8.091
388,19 Oct 2025 19:20:22.296,19 Oct 2025 19:20:43.316,21.020
389,20 Oct 2025 19:01:28.080,20 Oct 2025 19:01:57.565,29.484
390,21 Oct 2025 18:42:33.864,21 Oct 2025 18:43:07.169,33.305
391,22 Oct 2025 18:23:39.648,22 Oct 2025 18:24:11.723,32.075
392,23 Oct 2025 18:04:45.431,23 Oct 2025 18:05:10.072,24.641
393,23 Oct 2025 19:39:29.817,23 Oct 2025 19:39:37.439,7.622
394,24 Oct 2025 17:45:51.215,24 Oct 2025 17:45:59.579,8.364
395,24 Oct 2025 19:20:35.601,24 Oct 2025 19:20:56.501,20.901
396,25 Oct 2025 19:01:41.384,25 Oct 2025 19:02:10.805,29.420
397,26 Oct 2025 18:42:47.168,26 Oct 2025 18:43:20.466,33.298
398,27 Oct 2025 18:23:52.952,27 Oct 2025 18:24:25.084,32.132
399,28 Oct 2025 18:04:58.736,28 Oct 2025 18:05:23.518,24.782
400,28 Oct 2025 19:39:43.121,28 Oct 2025 19:39:50.565,7.444
401,29 Oct 2025 17:46:04.520,29 Oct 2025 17:46:13.157,8.637
402,29 Oct 2025 19:20:48.905,29 Oct 2025 19:21:09.687,20.781
403,30 Oct 2025 19:01:54.690,30 Oct 2025 19:02:24.045,29.355
404,31 Oct 2025 18:43:00.475,31 Oct 2025 18:43:33.763,33.288
405,1 Nov 2025 18:24:06.260,1 Nov 2025 18:24:38.445,32.185
406,2 Nov 2025 18:05:12.049,2 Nov 2025 18:05:36.962,24.913
407,2 Nov 2025 19:39:56.430,2 Nov 2025 19:40:03.690,7.259
408,3 Nov 2025 17:46:17.830,3 Nov 2025 17:46:26.730,8.901
409,3 Nov 2025 19:21:02.216,3 Nov 2025 19:21:22.871,20.656
410,4 Nov 2025 19:02:08.000,4 Nov 2025 19:02:37.283,29.283
411,5 Nov 2025 18:43:13.785,5 Nov 2025 18:43:47.057,33.272
412,6 Nov 2025 18:24:19.569,6 Nov 2025 18:24:51.802,32.233
413,7 Nov 2025 18:05:25.353,7 Nov 2025 18:05:50.399,25.046
414,7 Nov 2025 19:40:09.738,7 Nov 2025 19:40:16.818,7.080
415,8 Nov 2025 17:46:31.136,8 Nov 2025 17:46:40.301,9.164
416,8 Nov 2025 19:21:15.522,8 Nov 2025 19:21:36.054,20.531
417,9 Nov 2025 19:02:21.307,9 Nov 2025 19:02:50.520,29.214
418,10 Nov 2025 18:43:27.091,10 Nov 2025 18:44:00.351,33.260
419,11 Nov 2025 18:24:32.877,11 Nov 2025 18:25:05.160,32.283
420,12 Nov 2025 18:05:38.661,12 Nov 2025 18:06:03.840,25.179
421,12 Nov 2025 19:40:23.047,12 Nov 2025 19:40:29.942,6.895
422,13 Nov 2025 17:46:44.447,13 Nov 2025 17:46:53.870,9.423
423,13 Nov 2025 19:21:28.833,13 Nov 2025 19:21:49.237,20.404
424,14 Nov 2025 19:02:34.619,14 Nov 2025 19:03:03.758,29.140
425,15 Nov 2025 18:43:40.404,15 Nov 2025 18:44:13.645,33.241
426,16 Nov 2025 18:24:46.191,16 Nov 2025 18:25:18.516,32.325
427,17 Nov 2025 18:05:51.976,17 Nov 2025 18:06:17.282,25.306
428,17 Nov 2025 19:40:36.362,17 Nov 2025 19:40:43.063,6.701
429,18 Nov 2025 17:46:57.762,18 Nov 2025 17:47:07.434,9.672
430,18 Nov 2025 19:21:42.148,18 Nov 2025 19:22:02.418,20.271
431,19 Nov 2025 19:02:47.933,19 Nov 2025 19:03:16.994,29.060
432,20 Nov 2025 18:43:53.719,20 Nov 2025 18:44:26.936,33.217
433,21 Nov 2025 18:24:59.506,21 Nov 2025 18:25:31.870,32.364
434,22 Nov 2025 18:06:05.290,22 Nov 2025 18:06:30.718,25.428
435,22 Nov 2025 19:40:49.675,22 Nov 2025 19:40:56.184,6.509
436,23 Nov 2025 17:47:11.075,23 Nov 2025 17:47:20.996,9.921
437,23 Nov 2025 19:21:55.461,23 Nov 2025 19:22:15.599,20.138
438,24 Nov 2025 19:03:01.247,24 Nov 2025 19:03:30.228,28.982
439,25 Nov 2025 18:44:07.032,25 Nov 2025 18:44:40.227,33.195
440,26 Nov 2025 18:25:12.820,26 Nov 2025 18:25:45.224,32.404
441,27 Nov 2025 18:06:18.605,27 Nov 2025 18:06:44.154,25.549
442,27 Nov 2025 19:41:02.990,27 Nov 2025 19:41:09.307,6.316
443,28 Nov 2025 17:47:24.391,28 Nov 2025 17:47:34.557,10.166
444,28 Nov 2025 19:22:08.777,28 Nov 2025 19:22:28.780,20.003
445,29 Nov 2025 19:03:14.564,29 Nov 2025 19:03:43.464,28.900
446,30 Nov 2025 18:44:20.351,30 Nov 2025 18:44:53.518,33.167
447,1 Dec 2025 18:25:26.140,1 Dec 2025 18:25:58.576,32.436
448,2 Dec 2025 18:06:31.925,2 Dec 2025 18:06:57.587,25.661
449,2 Dec 2025 19:41:16.311,2 Dec 2025 19:41:22.428,6.117
450,3 Dec 2025 17:47:37.712,3 Dec 2025 17:47:48.114,10.402
451,3 Dec 2025 19:22:22.098,3 Dec 2025 19:22:41.959,19.862
452,4 Dec 2025 19:03:27.884,4 Dec 2025 19:03:56.697,28.813
453,5 Dec 2025 18:44:33.670,5 Dec 2025 18:45:06.806,33.136
454,6 Dec 2025 18:25:39.459,6 Dec 2025 18:26:11.927,32.468
455,7 Dec 2025 18:06:45.243,7 Dec 2025 18:07:11.018,25.775
456,7 Dec 2025 19:41:29.628,7 Dec 2025 19:41:35.547,5.919
457,8 Dec 2025 17:47:51.029,8 Dec 2025 17:48:01.669,10.640
458,8 Dec 2025 19:22:35.415,8 Dec 2025 19:22:55.138,19.723
459,9 Dec 2025 19:03:41.202,9 Dec 2025 19:04:09.930,28.728
460,10 Dec 2025 18:44:46.990,10 Dec 2025 18:45:20.095,33.106
461,11 Dec 2025 18:25:52.780,11 Dec 2025 18:26:25.278,32.498
462,12 Dec 2025 18:06:58.566,12 Dec 2025 18:07:24.450,25.884
463,12 Dec 2025 19:41:42.951,12 Dec 2025 19:41:48.668,5.717
464,13 Dec 2025 17:48:04.353,13 Dec 2025 17:48:15.223,10.869
465,13 Dec 2025 19:22:48.739,13 Dec 2025 19:23:08.318,19.579
466,14 Dec 2025 19:03:54.528,14 Dec 2025 19:04:23.167,28.640
467,15 Dec 2025 18:45:00.316,15 Dec 2025 18:45:33.382,33.066
468,16 Dec 2025 18:26:06.108,16 Dec 2025 18:26:38.628,32.520
469,17 Dec 2025 18:07:11.893,17 Dec 2025 18:07:37.875,25.982
470,17 Dec 2025 19:41:56.278,17 Dec 2025 19:42:01.792,5.514
471,18 Dec 2025 17:48:17.680,18 Dec 2025 17:48:28.772,11.092
472,18 Dec 2025 19:23:02.066,18 Dec 2025 19:23:21.492,19.426
473,19 Dec 2025 19:04:07.854,19 Dec 2025 19:04:36.395,28.541
474,20 Dec 2025 18:45:13.642,20 Dec 2025 18:45:46.669,33.027
475,21 Dec 2025 18:26:19.434,21 Dec 2025 18:26:51.976,32.542
476,22 Dec 2025 18:07:25.218,22 Dec 2025 18:07:51.307,26.088
477,22 Dec 2025 19:42:09.603,22 Dec 2025 19:42:14.906,5.303
478,23 Dec 2025 17:48:31.005,23 Dec 2025 17:48:42.321,11.315
479,23 Dec 2025 19:23:15.391,23 Dec 2025 19:23:34.670,19.279
480,24 Dec 2025 19:04:21.180,24 Dec 2025 19:04:49.627,28.448
481,25 Dec 2025 18:45:26.968,25 Dec 2025 18:45:59.956,32.988
482,26 Dec 2025 18:26:32.760,26 Dec 2025 18:27:05.325,32.566
483,27 Dec 2025 18:07:38.548,27 Dec 2025 18:08:04.735,26.187
484,27 Dec 2025 19:42:22.932,27 Dec 2025 19:42:28.029,5.096
485,28 Dec 2025 17:48:44.336,28 Dec 2025 17:48:55.868,11.532
486,28 Dec 2025 19:23:28.722,28 Dec 2025 19:23:47.848,19.127
487,29 Dec 2025 19:04:34.512,29 Dec 2025 19:05:02.860,28.348
488,30 Dec 2025 18:45:40.301,30 Dec 2025 18:46:13.243,32.941
489,31 Dec 2025 18:26:46.093,31 Dec 2025 18:27:18.672,32.579

Global Statistics
"Min Duration",205,11 Jun 2025 17:39:51.931,11 Jun 2025 17:39:51.960,0.029
"Max Duration",362,1 Oct 2025 18:41:40.650,1 Oct 2025 18:42:13.971,33.322
"Mean Duration",,,,22.866
"Total Duration",,,,11181.305


