3UCubedIntegratedSim/Reports & Plots/Comms/SSU/Sat0 Comms.csv

"Access","Start Time (UTCG)","Stop Time (UTCG)","Duration (sec)"
1,1 Jan 2025 17:46:47.176,1 Jan 2025 17:47:47.883,60.707
2,1 Jan 2025 19:14:24.917,1 Jan 2025 19:25:37.166,672.249
3,1 Jan 2025 20:49:13.764,1 Jan 2025 20:58:43.435,569.671
4,2 Jan 2025 18:56:06.816,2 Jan 2025 19:06:42.433,635.617
5,2 Jan 2025 20:29:50.686,2 Jan 2025 20:40:25.623,634.938
6,3 Jan 2025 18:38:02.144,3 Jan 2025 18:47:40.266,578.122
7,3 Jan 2025 20:10:43.704,3 Jan 2025 20:21:57.324,673.620
8,4 Jan 2025 18:20:14.116,4 Jan 2025 18:28:27.732,493.615
9,4 Jan 2025 19:51:49.951,4 Jan 2025 20:03:21.303,691.352
10,4 Jan 2025 21:29:46.398,4 Jan 2025 21:34:17.102,270.704
11,5 Jan 2025 18:02:51.253,5 Jan 2025 18:08:56.645,365.391
12,5 Jan 2025 19:33:08.128,5 Jan 2025 19:44:38.865,690.737
13,5 Jan 2025 21:09:13.707,5 Jan 2025 21:16:56.856,463.149
14,6 Jan 2025 17:46:54.087,6 Jan 2025 17:48:06.849,72.762
15,6 Jan 2025 19:14:37.887,6 Jan 2025 19:25:50.453,672.566
16,6 Jan 2025 20:49:27.536,6 Jan 2025 20:58:56.250,568.714
17,7 Jan 2025 18:56:19.637,7 Jan 2025 19:06:55.799,636.161
18,7 Jan 2025 20:30:04.239,7 Jan 2025 20:40:38.583,634.345
19,8 Jan 2025 18:38:14.793,8 Jan 2025 18:47:53.729,578.935
20,8 Jan 2025 20:10:57.092,8 Jan 2025 20:22:10.387,673.294
21,9 Jan 2025 18:20:26.538,9 Jan 2025 18:28:41.348,494.810
22,9 Jan 2025 19:52:03.193,9 Jan 2025 20:03:34.446,691.253
23,9 Jan 2025 21:30:01.493,9 Jan 2025 21:34:28.734,267.241
24,10 Jan 2025 18:03:03.274,10 Jan 2025 18:09:10.581,367.307
25,10 Jan 2025 19:33:21.234,10 Jan 2025 19:44:52.083,690.850
26,10 Jan 2025 21:09:27.827,10 Jan 2025 21:17:09.388,461.560
27,11 Jan 2025 17:47:01.868,11 Jan 2025 17:48:24.940,83.073
28,11 Jan 2025 19:14:50.855,11 Jan 2025 19:26:03.739,672.883
29,11 Jan 2025 20:49:41.312,11 Jan 2025 20:59:09.055,567.744
30,12 Jan 2025 18:56:32.459,12 Jan 2025 19:07:09.162,636.703
31,12 Jan 2025 20:30:17.797,12 Jan 2025 20:40:51.540,633.743
32,13 Jan 2025 18:38:27.444,13 Jan 2025 18:48:07.192,579.748
33,13 Jan 2025 20:11:10.482,13 Jan 2025 20:22:23.447,672.965
34,14 Jan 2025 18:20:38.961,14 Jan 2025 18:28:54.963,496.002
35,14 Jan 2025 19:52:16.437,14 Jan 2025 20:03:47.589,691.152
36,14 Jan 2025 21:30:16.618,14 Jan 2025 21:34:40.338,263.719
37,15 Jan 2025 18:03:15.301,15 Jan 2025 18:09:24.514,369.213
38,15 Jan 2025 19:33:34.341,15 Jan 2025 19:45:05.298,690.957
39,15 Jan 2025 21:09:41.955,15 Jan 2025 21:17:21.914,459.959
40,16 Jan 2025 17:47:10.224,16 Jan 2025 17:48:42.459,92.236
41,16 Jan 2025 19:15:03.826,16 Jan 2025 19:26:17.024,673.198
42,16 Jan 2025 20:49:55.092,16 Jan 2025 20:59:21.859,566.767
43,17 Jan 2025 18:56:45.283,17 Jan 2025 19:07:22.526,637.243
44,17 Jan 2025 20:30:31.360,17 Jan 2025 20:41:04.497,633.137
45,18 Jan 2025 18:38:40.098,18 Jan 2025 18:48:20.655,580.557
46,18 Jan 2025 20:11:23.871,18 Jan 2025 20:22:36.508,672.637
47,19 Jan 2025 18:20:51.390,19 Jan 2025 18:29:08.576,497.186
48,19 Jan 2025 19:52:29.684,19 Jan 2025 20:04:00.731,691.048
49,19 Jan 2025 21:30:31.772,19 Jan 2025 21:34:51.916,260.144
50,20 Jan 2025 18:03:27.337,20 Jan 2025 18:09:38.439,371.102
51,20 Jan 2025 19:33:47.451,20 Jan 2025 19:45:18.512,691.061
52,20 Jan 2025 21:09:56.086,20 Jan 2025 21:17:34.439,458.352
53,21 Jan 2025 17:47:19.009,21 Jan 2025 17:48:59.550,100.540
54,21 Jan 2025 19:15:16.799,21 Jan 2025 19:26:30.308,673.509
55,21 Jan 2025 20:50:08.876,21 Jan 2025 20:59:34.662,565.786
56,22 Jan 2025 18:56:58.109,22 Jan 2025 19:07:35.887,637.778
57,22 Jan 2025 20:30:44.923,22 Jan 2025 20:41:17.452,632.529
58,23 Jan 2025 18:38:52.753,23 Jan 2025 18:48:34.115,581.361
59,23 Jan 2025 20:11:37.265,23 Jan 2025 20:22:49.567,672.303
60,24 Jan 2025 18:21:03.820,24 Jan 2025 18:29:22.184,498.364
61,24 Jan 2025 19:52:42.930,24 Jan 2025 20:04:13.872,690.941
62,24 Jan 2025 21:30:46.953,24 Jan 2025 21:35:03.466,256.513
63,25 Jan 2025 18:03:39.384,25 Jan 2025 18:09:52.356,372.972
64,25 Jan 2025 19:34:00.560,25 Jan 2025 19:45:31.724,691.164
65,25 Jan 2025 21:10:10.224,25 Jan 2025 21:17:46.958,456.734
66,26 Jan 2025 17:47:28.117,26 Jan 2025 17:49:16.318,108.201
67,26 Jan 2025 19:15:29.772,26 Jan 2025 19:26:43.590,673.818
68,26 Jan 2025 20:50:22.661,26 Jan 2025 20:59:47.461,564.800
69,27 Jan 2025 18:57:10.936,27 Jan 2025 19:07:49.247,638.311
70,27 Jan 2025 20:30:58.488,27 Jan 2025 20:41:30.404,631.916
71,28 Jan 2025 18:39:05.406,28 Jan 2025 18:48:47.577,582.171
72,28 Jan 2025 20:11:50.659,28 Jan 2025 20:23:02.624,671.965
73,29 Jan 2025 18:21:16.254,29 Jan 2025 18:29:35.792,499.538
74,29 Jan 2025 19:52:56.179,29 Jan 2025 20:04:27.011,690.832
75,29 Jan 2025 21:31:02.168,29 Jan 2025 21:35:14.982,252.814
76,30 Jan 2025 18:03:51.432,30 Jan 2025 18:10:06.269,374.837
77,30 Jan 2025 19:34:13.672,30 Jan 2025 19:45:44.936,691.264
78,30 Jan 2025 21:10:24.367,30 Jan 2025 21:17:59.470,455.103
79,31 Jan 2025 17:47:37.481,31 Jan 2025 17:49:32.830,115.349
80,31 Jan 2025 19:15:42.748,31 Jan 2025 19:26:56.873,674.125
81,31 Jan 2025 20:50:36.451,31 Jan 2025 21:00:00.258,563.807
82,1 Feb 2025 18:57:23.766,1 Feb 2025 19:08:02.607,638.842
83,1 Feb 2025 20:31:12.057,1 Feb 2025 20:41:43.356,631.299
84,2 Feb 2025 18:39:18.066,2 Feb 2025 18:49:01.035,582.968
85,2 Feb 2025 20:12:04.057,2 Feb 2025 20:23:15.682,671.625
86,3 Feb 2025 18:21:28.691,3 Feb 2025 18:29:49.396,500.705
87,3 Feb 2025 19:53:09.430,3 Feb 2025 20:04:40.151,690.721
88,3 Feb 2025 21:31:17.414,3 Feb 2025 21:35:26.469,249.055
89,4 Feb 2025 18:04:03.489,4 Feb 2025 18:10:20.175,376.687
90,4 Feb 2025 19:34:26.786,4 Feb 2025 19:45:58.147,691.361
91,4 Feb 2025 21:10:38.515,4 Feb 2025 21:18:11.979,453.464
92,5 Feb 2025 17:47:47.066,5 Feb 2025 17:49:49.124,122.058
93,5 Feb 2025 19:15:55.725,5 Feb 2025 19:27:10.154,674.429
94,5 Feb 2025 20:50:50.242,5 Feb 2025 21:00:13.053,562.811
95,6 Feb 2025 18:57:36.596,6 Feb 2025 19:08:15.965,639.368
96,6 Feb 2025 20:31:25.627,6 Feb 2025 20:41:56.306,630.680
97,7 Feb 2025 18:39:30.728,7 Feb 2025 18:49:14.489,583.761
98,7 Feb 2025 20:12:17.454,7 Feb 2025 20:23:28.737,671.283
99,8 Feb 2025 18:21:41.131,8 Feb 2025 18:30:02.997,501.866
100,8 Feb 2025 19:53:22.680,8 Feb 2025 20:04:53.288,690.607
101,8 Feb 2025 21:31:32.692,8 Feb 2025 21:35:37.922,245.230
102,9 Feb 2025 18:04:15.548,9 Feb 2025 18:10:34.074,378.526
103,9 Feb 2025 19:34:39.900,9 Feb 2025 19:46:11.355,691.456
104,9 Feb 2025 21:10:52.667,9 Feb 2025 21:18:24.481,451.814
105,10 Feb 2025 17:47:56.824,10 Feb 2025 17:50:05.239,128.415
106,10 Feb 2025 19:16:08.702,10 Feb 2025 19:27:23.429,674.727
107,10 Feb 2025 20:51:04.038,10 Feb 2025 21:00:25.845,561.807
108,11 Feb 2025 18:57:49.428,11 Feb 2025 19:08:29.321,639.893
109,11 Feb 2025 20:31:39.195,11 Feb 2025 20:42:09.254,630.059
110,12 Feb 2025 18:39:43.392,12 Feb 2025 18:49:27.943,584.552
111,12 Feb 2025 20:12:30.854,12 Feb 2025 20:23:41.791,670.937
112,13 Feb 2025 18:21:53.575,13 Feb 2025 18:30:16.597,503.023
113,13 Feb 2025 19:53:35.934,13 Feb 2025 20:05:06.425,690.491
114,13 Feb 2025 21:31:48.009,13 Feb 2025 21:35:49.339,241.330
115,14 Feb 2025 18:04:27.615,14 Feb 2025 18:10:47.970,380.354
116,14 Feb 2025 19:34:53.017,14 Feb 2025 19:46:24.565,691.548
117,14 Feb 2025 21:11:06.828,14 Feb 2025 21:18:36.980,450.152
118,15 Feb 2025 17:48:06.742,15 Feb 2025 17:50:21.206,134.463
119,15 Feb 2025 19:16:21.682,15 Feb 2025 19:27:36.708,675.026
120,15 Feb 2025 20:51:17.834,15 Feb 2025 21:00:38.636,560.802
121,16 Feb 2025 18:58:02.264,16 Feb 2025 19:08:42.678,640.414
122,16 Feb 2025 20:31:52.770,16 Feb 2025 20:42:22.202,629.432
123,17 Feb 2025 18:39:56.059,17 Feb 2025 18:49:41.396,585.338
124,17 Feb 2025 20:12:44.257,17 Feb 2025 20:23:54.845,670.588
125,18 Feb 2025 18:22:06.022,18 Feb 2025 18:30:30.194,504.172
126,18 Feb 2025 19:53:49.189,18 Feb 2025 20:05:19.561,690.372
127,18 Feb 2025 21:32:03.360,18 Feb 2025 21:36:00.723,237.362
128,19 Feb 2025 18:04:39.696,19 Feb 2025 18:11:01.857,382.160
129,19 Feb 2025 19:35:06.135,19 Feb 2025 19:46:37.773,691.638
130,19 Feb 2025 21:11:20.993,19 Feb 2025 21:18:49.475,448.482
131,20 Feb 2025 17:48:16.800,20 Feb 2025 17:50:37.024,140.225
132,20 Feb 2025 19:16:34.664,20 Feb 2025 19:27:49.986,675.322
133,20 Feb 2025 20:51:31.634,20 Feb 2025 21:00:51.424,559.790
134,21 Feb 2025 18:58:15.100,21 Feb 2025 19:08:56.032,640.932
135,21 Feb 2025 20:32:06.346,21 Feb 2025 20:42:35.151,628.805
136,22 Feb 2025 18:40:08.727,22 Feb 2025 18:49:54.846,586.119
137,22 Feb 2025 20:12:57.660,22 Feb 2025 20:24:07.897,670.237
138,23 Feb 2025 18:22:18.471,23 Feb 2025 18:30:43.787,505.316
139,23 Feb 2025 19:54:02.445,23 Feb 2025 20:05:32.695,690.250
140,23 Feb 2025 21:32:18.750,23 Feb 2025 21:36:12.067,233.317
141,24 Feb 2025 18:04:51.778,24 Feb 2025 18:11:15.738,383.961
142,24 Feb 2025 19:35:19.254,24 Feb 2025 19:46:50.979,691.725
143,24 Feb 2025 21:11:35.163,24 Feb 2025 21:19:01.963,446.800
144,25 Feb 2025 17:48:26.972,25 Feb 2025 17:50:52.737,145.765
145,25 Feb 2025 19:16:47.646,25 Feb 2025 19:28:03.262,675.616
146,25 Feb 2025 20:51:45.437,25 Feb 2025 21:01:04.209,558.772
147,26 Feb 2025 18:58:27.937,26 Feb 2025 19:09:09.385,641.448
148,26 Feb 2025 20:32:19.922,26 Feb 2025 20:42:48.094,628.173
149,27 Feb 2025 18:40:21.397,27 Feb 2025 18:50:08.291,586.894
150,27 Feb 2025 20:13:11.065,27 Feb 2025 20:24:20.948,669.882
151,28 Feb 2025 18:22:30.924,28 Feb 2025 18:30:57.380,506.456
152,28 Feb 2025 19:54:15.703,28 Feb 2025 20:05:45.830,690.126
153,28 Feb 2025 21:32:34.184,28 Feb 2025 21:36:23.369,229.185
154,1 Mar 2025 18:05:03.865,1 Mar 2025 18:11:29.616,385.751
155,1 Mar 2025 19:35:32.375,1 Mar 2025 19:47:04.186,691.811
156,1 Mar 2025 21:11:49.341,1 Mar 2025 21:19:14.446,445.106
157,2 Mar 2025 17:48:37.252,2 Mar 2025 17:51:08.341,151.089
158,2 Mar 2025 19:17:00.632,2 Mar 2025 19:28:16.539,675.908
159,2 Mar 2025 20:51:59.244,2 Mar 2025 21:01:16.993,557.749
160,3 Mar 2025 18:58:40.778,3 Mar 2025 19:09:22.738,641.960
161,3 Mar 2025 20:32:33.503,3 Mar 2025 20:43:01.038,627.535
162,4 Mar 2025 18:40:34.071,4 Mar 2025 18:50:21.744,587.673
163,4 Mar 2025 20:13:24.473,4 Mar 2025 20:24:33.999,669.526
164,5 Mar 2025 18:22:43.381,5 Mar 2025 18:31:10.964,507.583
165,5 Mar 2025 19:54:28.963,5 Mar 2025 20:05:58.963,690.000
166,5 Mar 2025 21:32:49.658,5 Mar 2025 21:36:34.634,224.976
167,6 Mar 2025 18:05:15.960,6 Mar 2025 18:11:43.485,387.525
168,6 Mar 2025 19:35:45.497,6 Mar 2025 19:47:17.391,691.893
169,6 Mar 2025 21:12:03.523,6 Mar 2025 21:19:26.926,443.403
170,7 Mar 2025 17:48:47.631,7 Mar 2025 17:51:23.844,156.213
171,7 Mar 2025 19:17:13.617,7 Mar 2025 19:28:29.814,676.196
172,7 Mar 2025 20:52:13.053,7 Mar 2025 21:01:29.775,556.722
173,8 Mar 2025 18:58:53.619,8 Mar 2025 19:09:36.088,642.470
174,8 Mar 2025 20:32:47.084,8 Mar 2025 20:43:13.979,626.895
175,9 Mar 2025 18:40:46.745,9 Mar 2025 18:50:35.184,588.439
176,9 Mar 2025 20:13:37.881,9 Mar 2025 20:24:47.047,669.166
177,10 Mar 2025 18:22:55.840,10 Mar 2025 18:31:24.551,508.711
178,10 Mar 2025 19:54:42.224,10 Mar 2025 20:06:12.095,689.871
179,10 Mar 2025 21:33:05.179,10 Mar 2025 21:36:45.850,220.671
180,11 Mar 2025 18:05:28.060,11 Mar 2025 18:11:57.351,389.291
181,11 Mar 2025 19:35:58.621,11 Mar 2025 19:47:30.595,691.974
182,11 Mar 2025 21:12:17.711,11 Mar 2025 21:19:39.399,441.687
183,12 Mar 2025 17:48:58.088,12 Mar 2025 17:51:39.267,161.179
184,12 Mar 2025 19:17:26.605,12 Mar 2025 19:28:43.088,676.483
185,12 Mar 2025 20:52:26.866,12 Mar 2025 21:01:42.553,555.687
186,13 Mar 2025 18:59:06.462,13 Mar 2025 19:09:49.436,642.974
187,13 Mar 2025 20:33:00.670,13 Mar 2025 20:43:26.920,626.250
188,14 Mar 2025 18:40:59.423,14 Mar 2025 18:50:48.631,589.208
189,14 Mar 2025 20:13:51.293,14 Mar 2025 20:25:00.096,668.803
190,15 Mar 2025 18:23:08.303,15 Mar 2025 18:31:38.137,509.834
191,15 Mar 2025 19:54:55.488,15 Mar 2025 20:06:25.227,689.740
192,15 Mar 2025 21:33:20.750,15 Mar 2025 21:36:57.020,216.269
193,16 Mar 2025 18:05:40.169,16 Mar 2025 18:12:11.212,391.043
194,16 Mar 2025 19:36:11.748,16 Mar 2025 19:47:43.800,692.052
195,16 Mar 2025 21:12:31.908,16 Mar 2025 21:19:51.868,439.960
196,17 Mar 2025 17:49:08.631,17 Mar 2025 17:51:54.611,165.981
197,17 Mar 2025 19:17:39.596,17 Mar 2025 19:28:56.362,676.766
198,17 Mar 2025 20:52:40.683,17 Mar 2025 21:01:55.331,554.648
199,18 Mar 2025 18:59:19.309,18 Mar 2025 19:10:02.786,643.478
200,18 Mar 2025 20:33:14.257,18 Mar 2025 20:43:39.860,625.602
201,19 Mar 2025 18:41:12.104,19 Mar 2025 18:51:02.076,589.972
202,19 Mar 2025 20:14:04.706,19 Mar 2025 20:25:13.144,668.438
203,20 Mar 2025 18:23:20.770,20 Mar 2025 18:31:51.719,510.949
204,20 Mar 2025 19:55:08.752,20 Mar 2025 20:06:38.358,689.606
205,20 Mar 2025 21:33:36.371,20 Mar 2025 21:37:08.142,211.771
206,21 Mar 2025 18:05:52.284,21 Mar 2025 18:12:25.065,392.781
207,21 Mar 2025 19:36:24.875,21 Mar 2025 19:47:57.003,692.127
208,21 Mar 2025 21:12:46.104,21 Mar 2025 21:20:04.332,438.228
209,22 Mar 2025 17:49:19.246,22 Mar 2025 17:52:09.881,170.635
210,22 Mar 2025 19:17:52.587,22 Mar 2025 19:29:09.635,677.048
211,22 Mar 2025 20:52:54.502,22 Mar 2025 21:02:08.106,553.604
212,23 Mar 2025 18:59:32.156,23 Mar 2025 19:10:16.134,643.978
213,23 Mar 2025 20:33:27.844,23 Mar 2025 20:43:52.797,624.953
214,24 Mar 2025 18:41:24.785,24 Mar 2025 18:51:15.519,590.734
215,24 Mar 2025 20:14:18.121,24 Mar 2025 20:25:26.190,668.070
216,25 Mar 2025 18:23:33.238,25 Mar 2025 18:32:05.299,512.061
217,25 Mar 2025 19:55:22.017,25 Mar 2025 20:06:51.492,689.475
218,25 Mar 2025 21:33:52.050,25 Mar 2025 21:37:19.203,207.154
219,26 Mar 2025 18:06:04.404,26 Mar 2025 18:12:38.915,394.511
220,26 Mar 2025 19:36:38.004,26 Mar 2025 19:48:10.205,692.200
221,26 Mar 2025 21:13:00.312,26 Mar 2025 21:20:16.789,436.477
222,27 Mar 2025 17:49:29.923,27 Mar 2025 17:52:25.090,175.167
223,27 Mar 2025 19:18:05.580,27 Mar 2025 19:29:22.907,677.326
224,27 Mar 2025 20:53:08.325,27 Mar 2025 21:02:20.878,552.554
225,28 Mar 2025 18:59:45.005,28 Mar 2025 19:10:29.482,644.477
226,28 Mar 2025 20:33:41.436,28 Mar 2025 20:44:05.734,624.298
227,29 Mar 2025 18:41:37.470,29 Mar 2025 18:51:28.962,591.492
228,29 Mar 2025 20:14:31.538,29 Mar 2025 20:25:39.236,667.698
229,30 Mar 2025 18:23:45.711,30 Mar 2025 18:32:18.879,513.168
230,30 Mar 2025 19:55:35.287,30 Mar 2025 20:07:04.622,689.336
231,30 Mar 2025 21:34:07.786,30 Mar 2025 21:37:30.216,202.430
232,31 Mar 2025 18:06:16.532,31 Mar 2025 18:12:52.760,396.229
233,31 Mar 2025 19:36:51.136,31 Mar 2025 19:48:23.407,692.271
234,31 Mar 2025 21:13:14.528,31 Mar 2025 21:20:29.243,434.715
235,1 Apr 2025 17:49:40.663,1 Apr 2025 17:52:40.240,179.577
236,1 Apr 2025 19:18:18.576,1 Apr 2025 19:29:36.179,677.603
237,1 Apr 2025 20:53:22.152,1 Apr 2025 21:02:33.650,551.499
238,2 Apr 2025 18:59:57.857,2 Apr 2025 19:10:42.829,644.972
239,2 Apr 2025 20:33:55.030,2 Apr 2025 20:44:18.670,623.640
240,3 Apr 2025 18:41:50.157,3 Apr 2025 18:51:42.401,592.244
241,3 Apr 2025 20:14:44.957,3 Apr 2025 20:25:52.278,667.321
242,4 Apr 2025 18:23:58.187,4 Apr 2025 18:32:32.453,514.266
243,4 Apr 2025 19:55:48.553,4 Apr 2025 20:07:17.748,689.195
244,4 Apr 2025 21:34:23.581,4 Apr 2025 21:37:41.163,197.581
245,5 Apr 2025 18:06:28.665,5 Apr 2025 18:13:06.598,397.934
246,5 Apr 2025 19:37:04.268,5 Apr 2025 19:48:36.608,692.339
247,5 Apr 2025 21:13:28.749,5 Apr 2025 21:20:41.691,432.942
248,6 Apr 2025 17:49:51.461,6 Apr 2025 17:52:55.330,183.869
249,6 Apr 2025 19:18:31.572,6 Apr 2025 19:29:49.448,677.876
250,6 Apr 2025 20:53:35.980,6 Apr 2025 21:02:46.418,550.438
251,7 Apr 2025 19:00:10.709,7 Apr 2025 19:10:56.174,645.465
252,7 Apr 2025 20:34:08.626,7 Apr 2025 20:44:31.603,622.977
253,8 Apr 2025 18:42:02.846,8 Apr 2025 18:51:55.839,592.994
254,8 Apr 2025 20:14:58.377,8 Apr 2025 20:26:05.321,666.944
255,9 Apr 2025 18:24:10.665,9 Apr 2025 18:32:46.028,515.362
256,9 Apr 2025 19:56:01.825,9 Apr 2025 20:07:30.876,689.051
257,9 Apr 2025 21:34:39.447,9 Apr 2025 21:37:52.041,192.594
258,10 Apr 2025 18:06:40.803,10 Apr 2025 18:13:20.434,399.631
259,10 Apr 2025 19:37:17.403,10 Apr 2025 19:48:49.808,692.405
260,10 Apr 2025 21:13:42.978,10 Apr 2025 21:20:54.132,431.155
261,11 Apr 2025 17:50:02.311,11 Apr 2025 17:53:10.373,188.062
262,11 Apr 2025 19:18:44.571,11 Apr 2025 19:30:02.719,678.148
263,11 Apr 2025 20:53:49.811,11 Apr 2025 21:02:59.184,549.373
264,12 Apr 2025 19:00:23.565,12 Apr 2025 19:11:09.520,645.955
265,12 Apr 2025 20:34:22.226,12 Apr 2025 20:44:44.537,622.311
266,13 Apr 2025 18:42:15.538,13 Apr 2025 18:52:09.278,593.740
267,13 Apr 2025 20:15:11.806,13 Apr 2025 20:26:18.366,666.559
268,14 Apr 2025 18:24:23.149,14 Apr 2025 18:32:59.601,516.452
269,14 Apr 2025 19:56:15.100,14 Apr 2025 20:07:44.004,688.904
270,14 Apr 2025 21:34:55.387,14 Apr 2025 21:38:02.851,187.464
271,15 Apr 2025 18:06:52.949,15 Apr 2025 18:13:34.265,401.316
272,15 Apr 2025 19:37:30.540,15 Apr 2025 19:49:03.009,692.469
273,15 Apr 2025 21:13:57.214,15 Apr 2025 21:21:06.570,429.356
274,16 Apr 2025 17:50:13.213,16 Apr 2025 17:53:25.363,192.150
275,16 Apr 2025 19:18:57.573,16 Apr 2025 19:30:15.989,678.416
276,16 Apr 2025 20:54:03.648,16 Apr 2025 21:03:11.950,548.301
277,17 Apr 2025 19:00:36.423,17 Apr 2025 19:11:22.865,646.441
278,17 Apr 2025 20:34:35.828,17 Apr 2025 20:44:57.469,621.641
279,18 Apr 2025 18:42:28.232,18 Apr 2025 18:52:22.714,594.482
280,18 Apr 2025 20:15:25.231,18 Apr 2025 20:26:31.408,666.177
281,19 Apr 2025 18:24:35.634,19 Apr 2025 18:33:13.171,517.537
282,19 Apr 2025 19:56:28.376,19 Apr 2025 20:07:57.131,688.755
283,19 Apr 2025 21:35:11.403,19 Apr 2025 21:38:13.583,182.180
284,20 Apr 2025 18:07:05.100,20 Apr 2025 18:13:48.090,402.989
285,20 Apr 2025 19:37:43.678,20 Apr 2025 19:49:16.208,692.530
286,20 Apr 2025 21:14:11.456,20 Apr 2025 21:21:19.001,427.546
287,21 Apr 2025 17:50:24.160,21 Apr 2025 17:53:40.309,196.149
288,21 Apr 2025 19:19:10.575,21 Apr 2025 19:30:29.258,678.683
289,21 Apr 2025 20:54:17.488,21 Apr 2025 21:03:24.711,547.223
290,22 Apr 2025 19:00:49.282,22 Apr 2025 19:11:36.208,646.926
291,22 Apr 2025 20:34:49.432,22 Apr 2025 20:45:10.399,620.967
292,23 Apr 2025 18:42:40.928,23 Apr 2025 18:52:36.149,595.221
293,23 Apr 2025 20:15:38.658,23 Apr 2025 20:26:44.449,665.791
294,24 Apr 2025 18:24:48.122,24 Apr 2025 18:33:26.740,518.618
295,24 Apr 2025 19:56:41.654,24 Apr 2025 20:08:10.257,688.603
296,24 Apr 2025 21:35:27.509,24 Apr 2025 21:38:24.229,176.720
297,25 Apr 2025 18:07:17.257,25 Apr 2025 18:14:01.912,404.656
298,25 Apr 2025 19:37:56.819,25 Apr 2025 19:49:29.407,692.589
299,25 Apr 2025 21:14:25.706,25 Apr 2025 21:21:31.426,425.720
300,26 Apr 2025 17:50:35.149,26 Apr 2025 17:53:55.215,200.066
301,26 Apr 2025 19:19:23.580,26 Apr 2025 19:30:42.527,678.947
302,26 Apr 2025 20:54:31.333,26 Apr 2025 21:03:37.471,546.138
303,27 Apr 2025 19:01:02.144,27 Apr 2025 19:11:49.552,647.408
304,27 Apr 2025 20:35:03.040,27 Apr 2025 20:45:23.329,620.289
305,28 Apr 2025 18:42:53.628,28 Apr 2025 18:52:49.585,595.957
306,28 Apr 2025 20:15:52.089,28 Apr 2025 20:26:57.491,665.402
307,29 Apr 2025 18:25:00.615,29 Apr 2025 18:33:40.307,519.692
308,29 Apr 2025 19:56:54.934,29 Apr 2025 20:08:23.383,688.449
309,29 Apr 2025 21:35:43.709,29 Apr 2025 21:38:34.785,171.075
310,30 Apr 2025 18:07:29.421,30 Apr 2025 18:14:15.729,406.309
311,30 Apr 2025 19:38:09.961,30 Apr 2025 19:49:42.606,692.645
312,30 Apr 2025 21:14:39.963,30 Apr 2025 21:21:43.847,423.884
313,1 May 2025 17:50:46.184,1 May 2025 17:54:10.077,203.893
314,1 May 2025 19:19:36.586,1 May 2025 19:30:55.794,679.208
315,1 May 2025 20:54:45.181,1 May 2025 21:03:50.229,545.049
316,2 May 2025 19:01:15.008,2 May 2025 19:12:02.893,647.886
317,2 May 2025 20:35:16.649,2 May 2025 20:45:36.258,619.609
318,3 May 2025 18:43:06.329,3 May 2025 18:53:03.017,596.689
319,3 May 2025 20:16:05.520,3 May 2025 20:27:10.531,665.011
320,4 May 2025 18:25:13.109,4 May 2025 18:33:53.871,520.762
321,4 May 2025 19:57:08.215,4 May 2025 20:08:36.508,688.292
322,4 May 2025 21:36:00.016,4 May 2025 21:38:45.235,165.219
323,5 May 2025 18:07:41.588,5 May 2025 18:14:29.541,407.953
324,5 May 2025 19:38:23.105,5 May 2025 19:49:55.803,692.699
325,5 May 2025 21:14:54.227,5 May 2025 21:21:56.260,422.033
326,6 May 2025 17:50:57.252,6 May 2025 17:54:24.905,207.652
327,6 May 2025 19:19:49.591,6 May 2025 19:31:09.066,679.475
328,6 May 2025 20:54:59.032,6 May 2025 21:04:02.980,543.948
329,7 May 2025 19:01:27.873,7 May 2025 19:12:16.235,648.362
330,7 May 2025 20:35:30.260,7 May 2025 20:45:49.184,618.924
331,8 May 2025 18:43:19.032,8 May 2025 18:53:16.450,597.418
332,8 May 2025 20:16:18.954,8 May 2025 20:27:23.570,664.616
333,9 May 2025 18:25:25.605,9 May 2025 18:34:07.436,521.832
334,9 May 2025 19:57:21.500,9 May 2025 20:08:49.632,688.133
335,9 May 2025 21:36:16.436,9 May 2025 21:38:55.568,159.132
336,10 May 2025 18:07:53.762,10 May 2025 18:14:43.352,409.590
337,10 May 2025 19:38:36.251,10 May 2025 19:50:09.002,692.750
338,10 May 2025 21:15:08.501,10 May 2025 21:22:08.672,420.172
339,11 May 2025 17:51:08.360,11 May 2025 17:54:39.699,211.339
340,11 May 2025 19:20:02.602,11 May 2025 19:31:22.334,679.732
341,11 May 2025 20:55:12.888,11 May 2025 21:04:15.733,542.845
342,12 May 2025 19:01:40.742,12 May 2025 19:12:29.577,648.836
343,12 May 2025 20:35:43.876,12 May 2025 20:46:02.110,618.234
344,13 May 2025 18:43:31.739,13 May 2025 18:53:29.883,598.144
345,13 May 2025 20:16:32.391,13 May 2025 20:27:36.609,664.218
346,14 May 2025 18:25:38.107,14 May 2025 18:34:20.999,522.893
347,14 May 2025 19:57:34.786,14 May 2025 20:09:02.757,687.971
348,14 May 2025 21:36:32.989,14 May 2025 21:39:05.777,152.788
349,15 May 2025 18:08:05.942,15 May 2025 18:14:57.157,411.215
350,15 May 2025 19:38:49.400,15 May 2025 19:50:22.199,692.799
351,15 May 2025 21:15:22.781,15 May 2025 21:22:21.075,418.294
352,16 May 2025 17:51:19.504,16 May 2025 17:54:54.457,214.953
353,16 May 2025 19:20:15.615,16 May 2025 19:31:35.600,679.986
354,16 May 2025 20:55:26.748,16 May 2025 21:04:28.484,541.737
355,17 May 2025 19:01:53.611,17 May 2025 19:12:42.918,649.306
356,17 May 2025 20:35:57.494,17 May 2025 20:46:15.035,617.541
357,18 May 2025 18:43:44.447,18 May 2025 18:53:43.313,598.866
358,18 May 2025 20:16:45.829,18 May 2025 20:27:49.647,663.817
359,19 May 2025 18:25:50.610,19 May 2025 18:34:34.562,523.952
360,19 May 2025 19:57:48.073,19 May 2025 20:09:15.880,687.806
361,19 May 2025 21:36:49.687,19 May 2025 21:39:15.836,146.149
362,20 May 2025 18:08:18.127,20 May 2025 18:15:10.955,412.828
363,20 May 2025 19:39:02.552,20 May 2025 19:50:35.394,692.842
364,20 May 2025 21:15:37.073,20 May 2025 21:22:33.469,416.397
365,21 May 2025 17:51:30.679,21 May 2025 17:55:09.185,218.506
366,21 May 2025 19:20:28.628,21 May 2025 19:31:48.866,680.237
367,21 May 2025 20:55:40.611,21 May 2025 21:04:41.231,540.620
368,22 May 2025 19:02:06.483,22 May 2025 19:12:56.258,649.775
369,22 May 2025 20:36:11.114,22 May 2025 20:46:27.957,616.844
370,23 May 2025 18:43:57.157,23 May 2025 18:53:56.744,599.587
371,23 May 2025 20:16:59.270,23 May 2025 20:28:02.683,663.413
372,24 May 2025 18:26:03.117,24 May 2025 18:34:48.123,525.005
373,24 May 2025 19:58:01.364,24 May 2025 20:09:29.003,687.639
374,24 May 2025 21:37:06.556,24 May 2025 21:39:25.729,139.173
375,25 May 2025 18:08:30.317,25 May 2025 18:15:24.752,414.435
376,25 May 2025 19:39:15.704,25 May 2025 19:50:48.587,692.883
377,25 May 2025 21:15:51.365,25 May 2025 21:22:45.854,414.489
378,26 May 2025 17:51:41.886,26 May 2025 17:55:23.884,221.997
379,26 May 2025 19:20:41.645,26 May 2025 19:32:02.132,680.487
380,26 May 2025 20:55:54.479,26 May 2025 21:04:53.978,539.499
381,27 May 2025 19:02:19.357,27 May 2025 19:13:09.598,650.241
382,27 May 2025 20:36:24.738,27 May 2025 20:46:40.880,616.143
383,28 May 2025 18:44:09.871,28 May 2025 18:54:10.174,600.302
384,28 May 2025 20:17:12.714,28 May 2025 20:28:15.720,663.006
385,29 May 2025 18:26:15.628,29 May 2025 18:35:01.680,526.052
386,29 May 2025 19:58:14.656,29 May 2025 20:09:42.125,687.469
387,29 May 2025 21:37:23.616,29 May 2025 21:39:35.435,131.819
388,30 May 2025 18:08:42.518,30 May 2025 18:15:38.544,416.027
389,30 May 2025 19:39:28.857,30 May 2025 19:51:01.783,692.926
390,30 May 2025 21:16:05.669,30 May 2025 21:22:58.237,412.568
391,31 May 2025 17:51:53.125,31 May 2025 17:55:38.550,225.426
392,31 May 2025 19:20:54.663,31 May 2025 19:32:15.396,680.734
393,31 May 2025 20:56:08.349,31 May 2025 21:05:06.721,538.372
394,1 Jun 2025 19:02:32.233,1 Jun 2025 19:13:22.936,650.704
395,1 Jun 2025 20:36:38.363,1 Jun 2025 20:46:53.800,615.438
396,2 Jun 2025 18:44:22.586,2 Jun 2025 18:54:23.601,601.015
397,2 Jun 2025 20:17:26.158,2 Jun 2025 20:28:28.754,662.596
398,3 Jun 2025 18:26:28.141,3 Jun 2025 18:35:15.236,527.095
399,3 Jun 2025 19:58:27.949,3 Jun 2025 20:09:55.246,687.297
400,3 Jun 2025 21:37:40.913,3 Jun 2025 21:39:44.907,123.994
401,4 Jun 2025 18:08:54.717,4 Jun 2025 18:15:52.335,417.618
402,4 Jun 2025 19:39:42.012,4 Jun 2025 19:51:14.977,692.965
403,4 Jun 2025 21:16:19.983,4 Jun 2025 21:23:10.611,410.628
404,5 Jun 2025 17:52:04.389,5 Jun 2025 17:55:53.195,228.806
405,5 Jun 2025 19:21:07.683,5 Jun 2025 19:32:28.661,680.978
406,5 Jun 2025 20:56:22.224,5 Jun 2025 21:05:19.461,537.237
407,6 Jun 2025 19:02:45.111,6 Jun 2025 19:13:36.275,651.165
408,6 Jun 2025 20:36:51.992,6 Jun 2025 20:47:06.719,614.727
409,7 Jun 2025 18:44:35.304,7 Jun 2025 18:54:37.030,601.726
410,7 Jun 2025 20:17:39.606,7 Jun 2025 20:28:41.789,662.182
411,8 Jun 2025 18:26:40.657,8 Jun 2025 18:35:28.792,528.135
412,8 Jun 2025 19:58:41.246,8 Jun 2025 20:10:08.368,687.122
413,8 Jun 2025 21:37:58.481,8 Jun 2025 21:39:54.103,115.622
414,9 Jun 2025 18:09:06.923,9 Jun 2025 18:16:06.123,419.201
415,9 Jun 2025 19:39:55.170,9 Jun 2025 19:51:28.173,693.002
416,9 Jun 2025 21:16:34.306,9 Jun 2025 21:23:22.980,408.673
417,10 Jun 2025 17:52:15.682,10 Jun 2025 17:56:07.813,232.131
418,10 Jun 2025 19:21:20.705,10 Jun 2025 19:32:41.926,681.221
419,10 Jun 2025 20:56:36.105,10 Jun 2025 21:05:32.200,536.095
420,11 Jun 2025 19:02:57.991,11 Jun 2025 19:13:49.612,651.620
421,11 Jun 2025 20:37:05.624,11 Jun 2025 20:47:19.637,614.013
422,12 Jun 2025 18:44:48.024,12 Jun 2025 18:54:50.457,602.433
423,12 Jun 2025 20:17:53.057,12 Jun 2025 20:28:54.823,661.766
424,13 Jun 2025 18:26:53.177,13 Jun 2025 18:35:42.345,529.168
425,13 Jun 2025 19:58:54.544,13 Jun 2025 20:10:21.489,686.945
426,13 Jun 2025 21:38:16.391,13 Jun 2025 21:40:02.964,106.573
427,14 Jun 2025 18:09:19.133,14 Jun 2025 18:16:19.906,420.773
428,14 Jun 2025 19:40:08.332,14 Jun 2025 19:51:41.367,693.035
429,14 Jun 2025 21:16:48.634,14 Jun 2025 21:23:35.342,406.708
430,15 Jun 2025 17:52:27.002,15 Jun 2025 17:56:22.403,235.402
431,15 Jun 2025 19:21:33.728,15 Jun 2025 19:32:55.189,681.460
432,15 Jun 2025 20:56:49.991,15 Jun 2025 21:05:44.935,534.944
433,16 Jun 2025 19:03:10.872,16 Jun 2025 19:14:02.948,652.076
434,16 Jun 2025 20:37:19.257,16 Jun 2025 20:47:32.553,613.296
435,17 Jun 2025 18:45:00.746,17 Jun 2025 18:55:03.883,603.137
436,17 Jun 2025 20:18:06.508,17 Jun 2025 20:29:07.854,661.346
437,18 Jun 2025 18:27:05.698,18 Jun 2025 18:35:55.897,530.199
438,18 Jun 2025 19:59:07.843,18 Jun 2025 20:10:34.607,686.764
439,18 Jun 2025 21:38:34.740,18 Jun 2025 21:40:11.383,96.644
440,19 Jun 2025 18:09:31.346,19 Jun 2025 18:16:33.686,422.340
441,19 Jun 2025 19:40:21.492,19 Jun 2025 19:51:54.560,693.068
442,19 Jun 2025 21:17:02.970,19 Jun 2025 21:23:47.694,404.725
443,20 Jun 2025 17:52:38.344,20 Jun 2025 17:56:36.974,238.630
444,20 Jun 2025 19:21:46.754,20 Jun 2025 19:33:08.452,681.698
445,20 Jun 2025 20:57:03.878,20 Jun 2025 21:05:57.667,533.789
446,21 Jun 2025 19:03:23.756,21 Jun 2025 19:14:16.286,652.529
447,21 Jun 2025 20:37:32.894,21 Jun 2025 20:47:45.467,612.573
448,22 Jun 2025 18:45:13.471,22 Jun 2025 18:55:17.309,603.838
449,22 Jun 2025 20:18:19.958,22 Jun 2025 20:29:20.889,660.931
450,23 Jun 2025 18:27:18.224,23 Jun 2025 18:36:09.445,531.221
451,23 Jun 2025 19:59:21.146,23 Jun 2025 20:10:47.728,686.582
452,23 Jun 2025 21:38:53.679,23 Jun 2025 21:40:19.212,85.534
453,24 Jun 2025 18:09:43.568,24 Jun 2025 18:16:47.464,423.896
454,24 Jun 2025 19:40:34.654,24 Jun 2025 19:52:07.753,693.099
455,24 Jun 2025 21:17:17.319,24 Jun 2025 21:24:00.042,402.723
456,25 Jun 2025 17:52:49.714,25 Jun 2025 17:56:51.520,241.807
457,25 Jun 2025 19:21:59.782,25 Jun 2025 19:33:21.715,681.933
458,25 Jun 2025 20:57:17.770,25 Jun 2025 21:06:10.398,532.627
459,26 Jun 2025 19:03:36.643,26 Jun 2025 19:14:29.623,652.980
460,26 Jun 2025 20:37:46.535,26 Jun 2025 20:47:58.381,611.846
461,27 Jun 2025 18:45:26.198,27 Jun 2025 18:55:30.729,604.531
462,27 Jun 2025 20:18:33.415,27 Jun 2025 20:29:33.920,660.505
463,28 Jun 2025 18:27:30.751,28 Jun 2025 18:36:22.993,532.242
464,28 Jun 2025 19:59:34.449,28 Jun 2025 20:11:00.845,686.396
465,28 Jun 2025 21:39:13.469,28 Jun 2025 21:40:26.194,72.725
466,29 Jun 2025 18:09:55.792,29 Jun 2025 18:17:01.236,425.444
467,29 Jun 2025 19:40:47.821,29 Jun 2025 19:52:20.945,693.124
468,29 Jun 2025 21:17:31.673,29 Jun 2025 21:24:12.381,400.708
469,30 Jun 2025 17:53:01.104,30 Jun 2025 17:57:06.044,244.939
470,30 Jun 2025 19:22:12.810,30 Jun 2025 19:33:34.976,682.166
471,30 Jun 2025 20:57:31.664,30 Jun 2025 21:06:23.124,531.459
472,1 Jul 2025 19:03:49.529,1 Jul 2025 19:14:42.958,653.428
473,1 Jul 2025 20:38:00.171,1 Jul 2025 20:48:11.291,611.120
474,2 Jul 2025 18:45:38.926,2 Jul 2025 18:55:44.153,605.227
475,2 Jul 2025 20:18:46.873,2 Jul 2025 20:29:46.948,660.076
476,3 Jul 2025 18:27:43.281,3 Jul 2025 18:36:36.542,533.261
477,3 Jul 2025 19:59:47.754,3 Jul 2025 20:11:13.962,686.208
478,3 Jul 2025 21:39:34.697,3 Jul 2025 21:40:31.740,57.044
479,4 Jul 2025 18:10:08.025,4 Jul 2025 18:17:15.007,426.982
480,4 Jul 2025 19:41:00.987,4 Jul 2025 19:52:34.136,693.150
481,4 Jul 2025 21:17:46.037,4 Jul 2025 21:24:24.711,398.674
482,5 Jul 2025 17:53:12.516,5 Jul 2025 17:57:20.551,248.034
483,5 Jul 2025 19:22:25.841,5 Jul 2025 19:33:48.238,682.396
484,5 Jul 2025 20:57:45.565,5 Jul 2025 21:06:35.847,530.282
485,6 Jul 2025 19:04:02.419,6 Jul 2025 19:14:56.294,653.874
486,6 Jul 2025 20:38:13.817,6 Jul 2025 20:48:24.201,610.383
487,7 Jul 2025 18:45:51.657,7 Jul 2025 18:55:57.579,605.922
488,7 Jul 2025 20:19:00.334,7 Jul 2025 20:29:59.977,659.643
489,8 Jul 2025 18:27:55.815,8 Jul 2025 18:36:50.090,534.275
490,8 Jul 2025 20:00:01.063,8 Jul 2025 20:11:27.079,686.016
491,8 Jul 2025 21:39:59.184,8 Jul 2025 21:40:34.022,34.838
492,9 Jul 2025 18:10:20.256,9 Jul 2025 18:17:28.775,428.519
493,9 Jul 2025 19:41:14.151,9 Jul 2025 19:52:47.332,693.181
494,9 Jul 2025 21:18:00.406,9 Jul 2025 21:24:37.039,396.633
495,10 Jul 2025 17:53:23.952,10 Jul 2025 17:57:35.035,251.083
496,10 Jul 2025 19:22:38.874,10 Jul 2025 19:34:01.499,682.624
497,10 Jul 2025 20:57:59.468,10 Jul 2025 21:06:48.568,529.100
498,11 Jul 2025 19:04:15.311,11 Jul 2025 19:15:09.628,654.317
499,11 Jul 2025 20:38:27.465,11 Jul 2025 20:48:37.109,609.644
500,12 Jul 2025 18:46:04.390,12 Jul 2025 18:56:11.002,606.612
501,12 Jul 2025 20:19:13.797,12 Jul 2025 20:30:13.004,659.207
502,13 Jul 2025 18:28:08.350,13 Jul 2025 18:37:03.635,535.285
503,13 Jul 2025 20:00:14.371,13 Jul 2025 20:11:40.194,685.822
504,14 Jul 2025 18:10:32.494,14 Jul 2025 18:17:42.537,430.043
505,14 Jul 2025 19:41:27.321,14 Jul 2025 19:53:00.521,693.201
506,14 Jul 2025 21:18:14.787,14 Jul 2025 21:24:49.353,394.567
507,15 Jul 2025 17:53:35.406,15 Jul 2025 17:57:49.499,254.093
508,15 Jul 2025 19:22:51.908,15 Jul 2025 19:34:14.758,682.850
509,15 Jul 2025 20:58:13.374,15 Jul 2025 21:07:01.285,527.910
510,16 Jul 2025 19:04:28.207,16 Jul 2025 19:15:22.960,654.753
511,16 Jul 2025 20:38:41.115,16 Jul 2025 20:48:50.014,608.899
512,17 Jul 2025 18:46:17.127,17 Jul 2025 18:56:24.423,607.295
513,17 Jul 2025 20:19:27.266,17 Jul 2025 20:30:26.025,658.759
514,18 Jul 2025 18:28:20.887,18 Jul 2025 18:37:17.176,536.288
515,18 Jul 2025 20:00:27.682,18 Jul 2025 20:11:53.308,685.626
516,19 Jul 2025 18:10:44.740,19 Jul 2025 18:17:56.304,431.563
517,19 Jul 2025 19:41:40.493,19 Jul 2025 19:53:13.711,693.218
518,19 Jul 2025 21:18:29.179,19 Jul 2025 21:25:01.659,392.480
519,20 Jul 2025 17:53:46.880,20 Jul 2025 17:58:03.948,257.069
520,20 Jul 2025 19:23:04.944,20 Jul 2025 19:34:28.018,683.074
521,20 Jul 2025 20:58:27.286,20 Jul 2025 21:07:13.999,526.712
522,21 Jul 2025 19:04:41.102,21 Jul 2025 19:15:36.294,655.192
523,21 Jul 2025 20:38:54.769,21 Jul 2025 20:49:02.918,608.150
524,22 Jul 2025 18:46:29.865,22 Jul 2025 18:56:37.844,607.979
525,22 Jul 2025 20:19:40.734,22 Jul 2025 20:30:39.050,658.317
526,23 Jul 2025 18:28:33.429,23 Jul 2025 18:37:30.719,537.290
527,23 Jul 2025 20:00:40.996,23 Jul 2025 20:12:06.423,685.427
528,24 Jul 2025 18:10:56.990,24 Jul 2025 18:18:10.061,433.071
529,24 Jul 2025 19:41:53.667,24 Jul 2025 19:53:26.900,693.233
530,24 Jul 2025 21:18:43.579,24 Jul 2025 21:25:13.958,390.379
531,25 Jul 2025 17:53:58.375,25 Jul 2025 17:58:18.376,260.001
532,25 Jul 2025 19:23:17.982,25 Jul 2025 19:34:41.276,683.294
533,25 Jul 2025 20:58:41.201,25 Jul 2025 21:07:26.710,525.509
534,26 Jul 2025 19:04:53.998,26 Jul 2025 19:15:49.626,655.627
535,26 Jul 2025 20:39:08.424,26 Jul 2025 20:49:15.821,607.397
536,27 Jul 2025 18:46:42.603,27 Jul 2025 18:56:51.262,608.659
537,27 Jul 2025 20:19:54.200,27 Jul 2025 20:30:52.076,657.875
538,28 Jul 2025 18:28:45.972,28 Jul 2025 18:37:44.259,538.287
539,28 Jul 2025 20:00:54.310,28 Jul 2025 20:12:19.535,685.225
540,29 Jul 2025 18:11:09.239,29 Jul 2025 18:18:23.814,434.575
541,29 Jul 2025 19:42:06.841,29 Jul 2025 19:53:40.087,693.245
542,29 Jul 2025 21:18:57.988,29 Jul 2025 21:25:26.246,388.258
543,30 Jul 2025 17:54:09.886,30 Jul 2025 17:58:32.788,262.902
544,30 Jul 2025 19:23:31.020,30 Jul 2025 19:34:54.533,683.513
545,30 Jul 2025 20:58:55.119,30 Jul 2025 21:07:39.416,524.297
546,31 Jul 2025 19:05:06.896,31 Jul 2025 19:16:02.957,656.061
547,31 Jul 2025 20:39:22.081,31 Jul 2025 20:49:28.720,606.638
548,1 Aug 2025 18:46:55.343,1 Aug 2025 18:57:04.681,609.337
549,1 Aug 2025 20:20:07.668,1 Aug 2025 20:31:05.097,657.429
550,2 Aug 2025 18:28:58.519,2 Aug 2025 18:37:57.799,539.280
551,2 Aug 2025 20:01:07.626,2 Aug 2025 20:12:32.646,685.020
552,3 Aug 2025 18:11:21.494,3 Aug 2025 18:18:37.567,436.073
553,3 Aug 2025 19:42:20.018,3 Aug 2025 19:53:53.274,693.256
554,3 Aug 2025 21:19:12.408,3 Aug 2025 21:25:38.525,386.117
555,4 Aug 2025 17:54:21.415,4 Aug 2025 17:58:47.185,265.769
556,4 Aug 2025 19:23:44.061,4 Aug 2025 19:35:07.790,683.729
557,4 Aug 2025 20:59:09.043,4 Aug 2025 21:07:52.120,523.077
558,5 Aug 2025 19:05:19.796,5 Aug 2025 19:16:16.286,656.490
559,5 Aug 2025 20:39:35.743,5 Aug 2025 20:49:41.618,605.875
560,6 Aug 2025 18:47:08.086,6 Aug 2025 18:57:18.098,610.012
561,6 Aug 2025 20:20:21.142,6 Aug 2025 20:31:18.117,656.976
562,7 Aug 2025 18:29:11.068,7 Aug 2025 18:38:11.337,540.269
563,7 Aug 2025 20:01:20.945,7 Aug 2025 20:12:45.757,684.812
564,8 Aug 2025 18:11:33.754,8 Aug 2025 18:18:51.314,437.560
565,8 Aug 2025 19:42:33.196,8 Aug 2025 19:54:06.460,693.263
566,8 Aug 2025 21:19:26.837,8 Aug 2025 21:25:50.796,383.959
567,9 Aug 2025 17:54:32.964,9 Aug 2025 17:59:01.562,268.598
568,9 Aug 2025 19:23:57.103,9 Aug 2025 19:35:21.046,683.943
569,9 Aug 2025 20:59:22.969,9 Aug 2025 21:08:04.823,521.854
570,10 Aug 2025 19:05:32.697,10 Aug 2025 19:16:29.615,656.918
571,10 Aug 2025 20:39:49.405,10 Aug 2025 20:49:54.514,605.108
572,11 Aug 2025 18:47:20.830,11 Aug 2025 18:57:31.513,610.684
573,11 Aug 2025 20:20:34.616,11 Aug 2025 20:31:31.135,656.519
574,12 Aug 2025 18:29:23.618,12 Aug 2025 18:38:24.872,541.255
575,12 Aug 2025 20:01:34.263,12 Aug 2025 20:12:58.865,684.602
576,13 Aug 2025 18:11:46.023,13 Aug 2025 18:19:05.054,439.032
577,13 Aug 2025 19:42:46.377,13 Aug 2025 19:54:19.639,693.262
578,13 Aug 2025 21:19:41.279,13 Aug 2025 21:26:03.052,381.773
579,14 Aug 2025 17:54:44.527,14 Aug 2025 17:59:15.922,271.396
580,14 Aug 2025 19:24:10.145,14 Aug 2025 19:35:34.297,684.152
581,14 Aug 2025 20:59:36.897,14 Aug 2025 21:08:17.518,520.621
582,15 Aug 2025 19:05:45.595,15 Aug 2025 19:16:42.946,657.351
583,15 Aug 2025 20:40:03.071,15 Aug 2025 20:50:07.407,604.336
584,16 Aug 2025 18:47:33.575,16 Aug 2025 18:57:44.929,611.354
585,16 Aug 2025 20:20:48.094,16 Aug 2025 20:31:44.152,656.058
586,17 Aug 2025 18:29:36.170,17 Aug 2025 18:38:38.408,542.238
587,17 Aug 2025 20:01:47.585,17 Aug 2025 20:13:11.973,684.389
588,18 Aug 2025 18:11:58.291,18 Aug 2025 18:19:18.798,440.506
589,18 Aug 2025 19:42:59.559,18 Aug 2025 19:54:32.823,693.264
590,18 Aug 2025 21:19:55.729,18 Aug 2025 21:26:15.307,379.579
591,19 Aug 2025 17:54:56.107,19 Aug 2025 17:59:30.271,274.164
592,19 Aug 2025 19:24:23.191,19 Aug 2025 19:35:47.552,684.361
593,19 Aug 2025 20:59:50.833,19 Aug 2025 21:08:30.211,519.379
594,20 Aug 2025 19:05:58.500,20 Aug 2025 19:16:56.275,657.774
595,20 Aug 2025 20:40:16.739,20 Aug 2025 20:50:20.299,603.559
596,21 Aug 2025 18:47:46.323,21 Aug 2025 18:57:58.343,612.019
597,21 Aug 2025 20:21:01.573,21 Aug 2025 20:31:57.168,655.595
598,22 Aug 2025 18:29:48.726,22 Aug 2025 18:38:51.941,543.216
599,22 Aug 2025 20:02:00.907,22 Aug 2025 20:13:25.080,684.173
600,23 Aug 2025 18:12:10.564,23 Aug 2025 18:19:32.535,441.971
601,23 Aug 2025 19:43:12.741,23 Aug 2025 19:54:46.006,693.265
602,23 Aug 2025 21:20:10.186,23 Aug 2025 21:26:27.550,377.364
603,24 Aug 2025 17:55:07.704,24 Aug 2025 17:59:44.602,276.898
604,24 Aug 2025 19:24:36.236,24 Aug 2025 19:36:00.804,684.568
605,24 Aug 2025 21:00:04.770,24 Aug 2025 21:08:42.901,518.130
606,25 Aug 2025 19:06:11.405,25 Aug 2025 19:17:09.600,658.195
607,25 Aug 2025 20:40:30.414,25 Aug 2025 20:50:33.188,602.774
608,26 Aug 2025 18:47:59.072,26 Aug 2025 18:58:11.754,612.683
609,26 Aug 2025 20:21:15.053,26 Aug 2025 20:32:10.181,655.127
610,27 Aug 2025 18:30:01.282,27 Aug 2025 18:39:05.472,544.190
611,27 Aug 2025 20:02:14.230,27 Aug 2025 20:13:38.184,683.954
612,28 Aug 2025 18:12:22.839,28 Aug 2025 18:19:46.267,443.428
613,28 Aug 2025 19:43:25.924,28 Aug 2025 19:54:59.186,693.262
614,28 Aug 2025 21:20:24.654,28 Aug 2025 21:26:39.780,375.126
615,29 Aug 2025 17:55:19.313,29 Aug 2025 17:59:58.921,279.608
616,29 Aug 2025 19:24:49.283,29 Aug 2025 19:36:14.055,684.772
617,29 Aug 2025 21:00:18.712,29 Aug 2025 21:08:55.585,516.873
618,30 Aug 2025 19:06:24.315,30 Aug 2025 19:17:22.925,658.609
619,30 Aug 2025 20:40:44.086,30 Aug 2025 20:50:46.074,601.987
620,31 Aug 2025 18:48:11.823,31 Aug 2025 18:58:25.166,613.344
621,31 Aug 2025 20:21:28.536,31 Aug 2025 20:32:23.193,654.656
622,1 Sep 2025 18:30:13.841,1 Sep 2025 18:39:19.003,545.162
623,1 Sep 2025 20:02:27.556,1 Sep 2025 20:13:51.289,683.732
624,2 Sep 2025 18:12:35.120,2 Sep 2025 18:20:00.000,444.881
625,2 Sep 2025 19:43:39.110,2 Sep 2025 19:55:12.367,693.257
626,2 Sep 2025 21:20:39.133,2 Sep 2025 21:26:52.001,372.868
627,3 Sep 2025 17:55:30.939,3 Sep 2025 18:00:13.225,282.286
628,3 Sep 2025 19:25:02.332,3 Sep 2025 19:36:27.307,684.974
629,3 Sep 2025 21:00:32.659,3 Sep 2025 21:09:08.267,515.608
630,4 Sep 2025 19:06:37.224,4 Sep 2025 19:17:36.249,659.025
631,4 Sep 2025 20:40:57.762,4 Sep 2025 20:50:58.959,601.197
632,5 Sep 2025 18:48:24.575,5 Sep 2025 18:58:38.576,614.001
633,5 Sep 2025 20:21:42.018,5 Sep 2025 20:32:36.203,654.185
634,6 Sep 2025 18:30:26.403,6 Sep 2025 18:39:32.531,546.128
635,6 Sep 2025 20:02:40.883,6 Sep 2025 20:14:04.391,683.508
636,7 Sep 2025 18:12:47.404,7 Sep 2025 18:20:13.728,446.324
637,7 Sep 2025 19:43:52.294,7 Sep 2025 19:55:25.545,693.252
638,7 Sep 2025 21:20:53.621,7 Sep 2025 21:27:04.213,370.592
639,8 Sep 2025 17:55:42.580,8 Sep 2025 18:00:27.513,284.932
640,8 Sep 2025 19:25:15.382,8 Sep 2025 19:36:40.555,685.174
641,8 Sep 2025 21:00:46.608,8 Sep 2025 21:09:20.945,514.337
642,9 Sep 2025 19:06:50.133,9 Sep 2025 19:17:49.571,659.438
643,9 Sep 2025 20:41:11.438,9 Sep 2025 20:51:11.840,600.403
644,10 Sep 2025 18:48:37.329,10 Sep 2025 18:58:51.984,614.655
645,10 Sep 2025 20:21:55.503,10 Sep 2025 20:32:49.211,653.708
646,11 Sep 2025 18:30:38.966,11 Sep 2025 18:39:46.056,547.090
647,11 Sep 2025 20:02:54.210,11 Sep 2025 20:14:17.491,683.281
648,12 Sep 2025 18:12:59.690,12 Sep 2025 18:20:27.453,447.763
649,12 Sep 2025 19:44:05.481,12 Sep 2025 19:55:38.723,693.242
650,12 Sep 2025 21:21:08.120,12 Sep 2025 21:27:16.411,368.291
651,13 Sep 2025 17:55:54.233,13 Sep 2025 18:00:41.791,287.557
652,13 Sep 2025 19:25:28.433,13 Sep 2025 19:36:53.804,685.371
653,13 Sep 2025 21:01:00.561,13 Sep 2025 21:09:33.618,513.056
654,14 Sep 2025 19:07:03.044,14 Sep 2025 19:18:02.893,659.849
655,14 Sep 2025 20:41:25.118,14 Sep 2025 20:51:24.720,599.602
656,15 Sep 2025 18:48:50.085,15 Sep 2025 18:59:05.391,615.307
657,15 Sep 2025 20:22:08.992,15 Sep 2025 20:33:02.218,653.226
658,16 Sep 2025 18:30:51.533,16 Sep 2025 18:39:59.581,548.048
659,16 Sep 2025 20:03:07.541,16 Sep 2025 20:14:30.592,683.051
660,17 Sep 2025 18:13:11.978,17 Sep 2025 18:20:41.175,449.197
661,17 Sep 2025 19:44:18.669,17 Sep 2025 19:55:51.900,693.231
662,17 Sep 2025 21:21:22.631,17 Sep 2025 21:27:28.602,365.971
663,18 Sep 2025 17:56:05.903,18 Sep 2025 18:00:56.053,290.150
664,18 Sep 2025 19:25:41.486,18 Sep 2025 19:37:07.051,685.566
665,18 Sep 2025 21:01:14.519,18 Sep 2025 21:09:46.288,511.769
666,19 Sep 2025 19:07:15.956,19 Sep 2025 19:18:16.210,660.254
667,19 Sep 2025 20:41:38.799,19 Sep 2025 20:51:37.598,598.798
668,20 Sep 2025 18:49:02.842,20 Sep 2025 18:59:18.796,615.955
669,20 Sep 2025 20:22:22.478,20 Sep 2025 20:33:15.223,652.745
670,21 Sep 2025 18:31:04.100,21 Sep 2025 18:40:13.101,549.001
671,21 Sep 2025 20:03:20.871,21 Sep 2025 20:14:43.689,682.818
672,22 Sep 2025 18:13:24.272,22 Sep 2025 18:20:54.889,450.617
673,22 Sep 2025 19:44:31.858,22 Sep 2025 19:56:05.074,693.216
674,22 Sep 2025 21:21:37.150,22 Sep 2025 21:27:40.780,363.630
675,23 Sep 2025 17:56:17.584,23 Sep 2025 18:01:10.301,292.717
676,23 Sep 2025 19:25:54.538,23 Sep 2025 19:37:20.296,685.758
677,23 Sep 2025 21:01:28.479,23 Sep 2025 21:09:58.951,510.471
678,24 Sep 2025 19:07:28.869,24 Sep 2025 19:18:29.526,660.658
679,24 Sep 2025 20:41:52.482,24 Sep 2025 20:51:50.471,597.990
680,25 Sep 2025 18:49:15.599,25 Sep 2025 18:59:32.200,616.600
681,25 Sep 2025 20:22:35.968,25 Sep 2025 20:33:28.225,652.257
682,26 Sep 2025 18:31:16.669,26 Sep 2025 18:40:26.620,549.951
683,26 Sep 2025 20:03:34.203,26 Sep 2025 20:14:56.785,682.582
684,27 Sep 2025 18:13:36.573,27 Sep 2025 18:21:08.608,452.035
685,27 Sep 2025 19:44:45.046,27 Sep 2025 19:56:18.251,693.205
686,27 Sep 2025 21:21:51.677,27 Sep 2025 21:27:52.942,361.265
687,28 Sep 2025 17:56:29.282,28 Sep 2025 18:01:24.540,295.259
688,28 Sep 2025 19:26:07.596,28 Sep 2025 19:37:33.540,685.945
689,28 Sep 2025 21:01:42.446,28 Sep 2025 21:10:11.614,509.167
690,29 Sep 2025 19:07:41.783,29 Sep 2025 19:18:42.844,661.061
691,29 Sep 2025 20:42:06.168,29 Sep 2025 20:52:03.343,597.176
692,30 Sep 2025 18:49:28.359,30 Sep 2025 18:59:45.602,617.243
693,30 Sep 2025 20:22:49.460,30 Sep 2025 20:33:41.227,651.766
694,1 Oct 2025 18:31:29.242,1 Oct 2025 18:40:40.138,550.897
695,1 Oct 2025 20:03:47.538,1 Oct 2025 20:15:09.880,682.343
696,2 Oct 2025 18:13:48.875,2 Oct 2025 18:21:22.318,453.443
697,2 Oct 2025 19:44:58.238,2 Oct 2025 19:56:31.424,693.186
698,2 Oct 2025 21:22:06.220,2 Oct 2025 21:28:05.099,358.879
699,3 Oct 2025 17:56:40.990,3 Oct 2025 18:01:38.763,297.773
700,3 Oct 2025 19:26:20.652,3 Oct 2025 19:37:46.784,686.132
701,3 Oct 2025 21:01:56.415,3 Oct 2025 21:10:24.272,507.857
702,4 Oct 2025 19:07:54.699,4 Oct 2025 19:18:56.160,661.460
703,4 Oct 2025 20:42:19.856,4 Oct 2025 20:52:16.214,596.358
704,5 Oct 2025 18:49:41.121,5 Oct 2025 18:59:59.003,617.882
705,5 Oct 2025 20:23:02.951,5 Oct 2025 20:33:54.226,651.275
706,6 Oct 2025 18:31:41.815,6 Oct 2025 18:40:53.653,551.837
707,6 Oct 2025 20:04:00.872,6 Oct 2025 20:15:22.974,682.101
708,7 Oct 2025 18:14:01.180,7 Oct 2025 18:21:36.024,454.843
709,7 Oct 2025 19:45:11.430,7 Oct 2025 19:56:44.594,693.164
710,7 Oct 2025 21:22:20.772,7 Oct 2025 21:28:17.247,356.475
711,8 Oct 2025 17:56:52.709,8 Oct 2025 18:01:52.973,300.264
712,8 Oct 2025 19:26:33.707,8 Oct 2025 19:38:00.024,686.317
713,8 Oct 2025 21:02:10.386,8 Oct 2025 21:10:36.925,506.539
714,9 Oct 2025 19:08:07.615,9 Oct 2025 19:19:09.474,661.858
715,9 Oct 2025 20:42:33.545,9 Oct 2025 20:52:29.080,595.535
716,10 Oct 2025 18:49:53.883,10 Oct 2025 19:00:12.401,618.519
717,10 Oct 2025 20:23:16.445,10 Oct 2025 20:34:07.223,650.778
718,11 Oct 2025 18:31:54.391,11 Oct 2025 18:41:07.166,552.775
719,11 Oct 2025 20:04:14.208,11 Oct 2025 20:15:36.065,681.857
720,12 Oct 2025 18:14:13.489,12 Oct 2025 18:21:49.728,456.239
721,12 Oct 2025 19:45:24.624,12 Oct 2025 19:56:57.763,693.139
722,12 Oct 2025 21:22:35.338,12 Oct 2025 21:28:29.375,354.037
723,13 Oct 2025 17:57:04.439,13 Oct 2025 18:02:07.174,302.735
724,13 Oct 2025 19:26:46.766,13 Oct 2025 19:38:13.265,686.500
725,13 Oct 2025 21:02:24.361,13 Oct 2025 21:10:49.574,505.214
726,14 Oct 2025 19:08:20.534,14 Oct 2025 19:19:22.787,662.253
727,14 Oct 2025 20:42:47.238,14 Oct 2025 20:52:41.945,594.708
728,15 Oct 2025 18:50:06.648,15 Oct 2025 19:00:25.799,619.152
729,15 Oct 2025 20:23:29.941,15 Oct 2025 20:34:20.219,650.278
730,16 Oct 2025 18:32:06.969,16 Oct 2025 18:41:20.677,553.708
731,16 Oct 2025 20:04:27.544,16 Oct 2025 20:15:49.156,681.612
732,17 Oct 2025 18:14:25.802,17 Oct 2025 18:22:03.426,457.624
733,17 Oct 2025 19:45:37.819,17 Oct 2025 19:57:10.931,693.112
734,17 Oct 2025 21:22:49.914,17 Oct 2025 21:28:41.499,351.585
735,18 Oct 2025 17:57:16.182,18 Oct 2025 18:02:21.361,305.179
736,18 Oct 2025 19:26:59.821,18 Oct 2025 19:38:26.504,686.683
737,18 Oct 2025 21:02:38.340,18 Oct 2025 21:11:02.215,503.875
738,19 Oct 2025 19:08:33.449,19 Oct 2025 19:19:36.103,662.654
739,19 Oct 2025 20:43:00.931,19 Oct 2025 20:52:54.803,593.873
740,20 Oct 2025 18:50:19.413,20 Oct 2025 19:00:39.191,619.778
741,20 Oct 2025 20:23:43.438,20 Oct 2025 20:34:33.212,649.774
742,21 Oct 2025 18:32:19.548,21 Oct 2025 18:41:34.184,554.636
743,21 Oct 2025 20:04:40.881,21 Oct 2025 20:16:02.244,681.362
744,22 Oct 2025 18:14:38.118,22 Oct 2025 18:22:17.121,459.003
745,22 Oct 2025 19:45:51.014,22 Oct 2025 19:57:24.096,693.083
746,22 Oct 2025 21:23:04.500,22 Oct 2025 21:28:53.605,349.105
747,23 Oct 2025 17:57:27.937,23 Oct 2025 18:02:35.536,307.599
748,23 Oct 2025 19:27:12.880,23 Oct 2025 19:38:39.740,686.860
749,23 Oct 2025 21:02:52.322,23 Oct 2025 21:11:14.860,502.538
750,24 Oct 2025 19:08:46.369,24 Oct 2025 19:19:49.412,663.043
751,24 Oct 2025 20:43:14.626,24 Oct 2025 20:53:07.662,593.036
752,25 Oct 2025 18:50:32.179,25 Oct 2025 19:00:52.584,620.405
753,25 Oct 2025 20:23:56.936,25 Oct 2025 20:34:46.203,649.267
754,26 Oct 2025 18:32:32.130,26 Oct 2025 18:41:47.690,555.561
755,26 Oct 2025 20:04:54.220,26 Oct 2025 20:16:15.330,681.110
756,27 Oct 2025 18:14:50.437,27 Oct 2025 18:22:30.813,460.375
757,27 Oct 2025 19:46:04.210,27 Oct 2025 19:57:37.261,693.051
758,27 Oct 2025 21:23:19.100,27 Oct 2025 21:29:05.701,346.600
759,28 Oct 2025 17:57:39.704,28 Oct 2025 18:02:49.695,309.991
760,28 Oct 2025 19:27:25.941,28 Oct 2025 19:38:52.976,687.036
761,28 Oct 2025 21:03:06.309,28 Oct 2025 21:11:27.497,501.188
762,29 Oct 2025 19:08:59.291,29 Oct 2025 19:20:02.721,663.430
763,29 Oct 2025 20:43:28.324,29 Oct 2025 20:53:20.520,592.196
764,30 Oct 2025 18:50:44.944,30 Oct 2025 19:01:05.980,621.036
765,30 Oct 2025 20:24:10.432,30 Oct 2025 20:34:59.189,648.757
766,31 Oct 2025 18:32:44.714,31 Oct 2025 18:42:01.194,556.481
767,31 Oct 2025 20:05:07.560,31 Oct 2025 20:16:28.416,680.856
768,1 Nov 2025 18:15:02.761,1 Nov 2025 18:22:44.500,461.739
769,1 Nov 2025 19:46:17.409,1 Nov 2025 19:57:50.425,693.016
770,1 Nov 2025 21:23:33.712,1 Nov 2025 21:29:17.787,344.075
771,2 Nov 2025 17:57:51.485,2 Nov 2025 18:03:03.845,312.360
772,2 Nov 2025 19:27:39.002,2 Nov 2025 19:39:06.210,687.208
773,2 Nov 2025 21:03:20.299,2 Nov 2025 21:11:40.131,499.832
774,3 Nov 2025 19:09:12.213,3 Nov 2025 19:20:16.027,663.814
775,3 Nov 2025 20:43:42.024,3 Nov 2025 20:53:33.375,591.351
776,4 Nov 2025 18:50:57.713,4 Nov 2025 19:01:19.369,621.656
777,4 Nov 2025 20:24:23.932,4 Nov 2025 20:35:12.179,648.247
778,5 Nov 2025 18:32:57.299,5 Nov 2025 18:42:14.695,557.396
779,5 Nov 2025 20:05:20.900,5 Nov 2025 20:16:41.499,680.599
780,6 Nov 2025 18:15:15.087,6 Nov 2025 18:22:58.183,463.096
781,6 Nov 2025 19:46:30.606,6 Nov 2025 19:58:03.586,692.980
782,6 Nov 2025 21:23:48.335,6 Nov 2025 21:29:29.857,341.522
783,7 Nov 2025 17:58:03.275,7 Nov 2025 18:03:17.986,314.711
784,7 Nov 2025 19:27:52.064,7 Nov 2025 19:39:19.443,687.378
785,7 Nov 2025 21:03:34.292,7 Nov 2025 21:11:52.759,498.467
786,8 Nov 2025 19:09:25.136,8 Nov 2025 19:20:29.332,664.196
787,8 Nov 2025 20:43:55.725,8 Nov 2025 20:53:46.227,590.501
788,9 Nov 2025 18:51:10.484,9 Nov 2025 19:01:32.754,622.270
789,9 Nov 2025 20:24:37.435,9 Nov 2025 20:35:25.165,647.731
790,10 Nov 2025 18:33:09.889,10 Nov 2025 18:42:28.195,558.306
791,10 Nov 2025 20:05:34.243,10 Nov 2025 20:16:54.582,680.339
792,11 Nov 2025 18:15:27.418,11 Nov 2025 18:23:11.864,464.446
793,11 Nov 2025 19:46:43.807,11 Nov 2025 19:58:16.747,692.940
794,11 Nov 2025 21:24:02.973,11 Nov 2025 21:29:41.916,338.943
795,12 Nov 2025 17:58:15.077,12 Nov 2025 18:03:32.116,317.039
796,12 Nov 2025 19:28:05.129,12 Nov 2025 19:39:32.675,687.546
797,12 Nov 2025 21:03:48.291,12 Nov 2025 21:12:05.385,497.094
798,13 Nov 2025 19:09:38.062,13 Nov 2025 19:20:42.636,664.574
799,13 Nov 2025 20:44:09.430,13 Nov 2025 20:53:59.078,589.648
800,14 Nov 2025 18:51:23.257,14 Nov 2025 19:01:46.143,622.885
801,14 Nov 2025 20:24:50.939,14 Nov 2025 20:35:38.151,647.212
802,15 Nov 2025 18:33:22.479,15 Nov 2025 18:42:41.691,559.212
803,15 Nov 2025 20:05:47.587,15 Nov 2025 20:17:07.667,680.080
804,16 Nov 2025 18:15:39.752,16 Nov 2025 18:23:25.539,465.787
805,16 Nov 2025 19:46:57.008,16 Nov 2025 19:58:29.906,692.899
806,16 Nov 2025 21:24:17.622,16 Nov 2025 21:29:53.963,336.341
807,17 Nov 2025 17:58:26.890,17 Nov 2025 18:03:46.232,319.341
808,17 Nov 2025 19:28:18.193,17 Nov 2025 19:39:45.905,687.712
809,17 Nov 2025 21:04:02.291,17 Nov 2025 21:12:18.006,495.715
810,18 Nov 2025 19:09:50.987,18 Nov 2025 19:20:55.937,664.950
811,18 Nov 2025 20:44:23.135,18 Nov 2025 20:54:11.926,588.791
812,19 Nov 2025 18:51:36.031,19 Nov 2025 19:01:59.528,623.497
813,19 Nov 2025 20:25:04.443,19 Nov 2025 20:35:51.133,646.690
814,20 Nov 2025 18:33:35.070,20 Nov 2025 18:42:55.184,560.114
815,20 Nov 2025 20:06:00.931,20 Nov 2025 20:17:20.746,679.815
816,21 Nov 2025 18:15:52.089,21 Nov 2025 18:23:39.211,467.122
817,21 Nov 2025 19:47:10.209,21 Nov 2025 19:58:43.063,692.854
818,21 Nov 2025 21:24:32.283,21 Nov 2025 21:30:05.995,333.711
819,22 Nov 2025 17:58:38.713,22 Nov 2025 18:04:00.340,321.627
820,22 Nov 2025 19:28:31.259,22 Nov 2025 19:39:59.134,687.875
821,22 Nov 2025 21:04:16.295,22 Nov 2025 21:12:30.622,494.327
822,23 Nov 2025 19:10:03.914,23 Nov 2025 19:21:09.238,665.323
823,23 Nov 2025 20:44:36.843,23 Nov 2025 20:54:24.771,587.928
824,24 Nov 2025 18:51:48.807,24 Nov 2025 19:02:12.911,624.105
825,24 Nov 2025 20:25:17.950,24 Nov 2025 20:36:04.114,646.164
826,25 Nov 2025 18:33:47.664,25 Nov 2025 18:43:08.677,561.012
827,25 Nov 2025 20:06:14.275,25 Nov 2025 20:17:33.824,679.549
828,26 Nov 2025 18:16:04.431,26 Nov 2025 18:23:52.880,468.450
829,26 Nov 2025 19:47:23.412,26 Nov 2025 19:58:56.220,692.808
830,26 Nov 2025 21:24:46.960,26 Nov 2025 21:30:18.015,331.054
831,27 Nov 2025 17:58:50.547,27 Nov 2025 18:04:14.437,323.889
832,27 Nov 2025 19:28:44.327,27 Nov 2025 19:40:12.362,688.035
833,27 Nov 2025 21:04:30.305,27 Nov 2025 21:12:43.236,492.931
834,28 Nov 2025 19:10:16.844,28 Nov 2025 19:21:22.538,665.694
835,28 Nov 2025 20:44:50.554,28 Nov 2025 20:54:37.616,587.062
836,29 Nov 2025 18:52:01.585,29 Nov 2025 19:02:26.293,624.708
837,29 Nov 2025 20:25:31.459,29 Nov 2025 20:36:17.095,645.636
838,30 Nov 2025 18:34:00.261,30 Nov 2025 18:43:22.166,561.905
839,30 Nov 2025 20:06:27.622,30 Nov 2025 20:17:46.901,679.279
840,1 Dec 2025 18:16:16.776,1 Dec 2025 18:24:06.544,469.768
841,1 Dec 2025 19:47:36.616,1 Dec 2025 19:59:09.375,692.759
842,1 Dec 2025 21:25:01.649,1 Dec 2025 21:30:30.022,328.373
843,2 Dec 2025 17:59:02.392,2 Dec 2025 18:04:28.521,326.128
844,2 Dec 2025 19:28:57.394,2 Dec 2025 19:40:25.588,688.193
845,2 Dec 2025 21:04:44.317,2 Dec 2025 21:12:55.846,491.529
846,3 Dec 2025 19:10:29.773,3 Dec 2025 19:21:35.834,666.061
847,3 Dec 2025 20:45:04.261,3 Dec 2025 20:54:50.457,586.196
848,4 Dec 2025 18:52:14.362,4 Dec 2025 19:02:39.671,625.309
849,4 Dec 2025 20:25:44.968,4 Dec 2025 20:36:30.072,645.104
850,5 Dec 2025 18:34:12.858,5 Dec 2025 18:43:35.653,562.794
851,5 Dec 2025 20:06:40.969,5 Dec 2025 20:17:59.976,679.006
852,6 Dec 2025 18:16:29.123,6 Dec 2025 18:24:20.205,471.081
853,6 Dec 2025 19:47:49.821,6 Dec 2025 19:59:22.528,692.707
854,6 Dec 2025 21:25:16.353,6 Dec 2025 21:30:42.012,325.659
855,7 Dec 2025 17:59:14.245,7 Dec 2025 18:04:42.597,328.352
856,7 Dec 2025 19:29:10.464,7 Dec 2025 19:40:38.811,688.347
857,7 Dec 2025 21:04:58.334,7 Dec 2025 21:13:08.451,490.117
858,8 Dec 2025 19:10:42.704,8 Dec 2025 19:21:49.131,666.427
859,8 Dec 2025 20:45:17.978,8 Dec 2025 20:55:03.296,585.318
860,9 Dec 2025 18:52:27.144,9 Dec 2025 19:02:53.050,625.906
861,9 Dec 2025 20:25:58.480,9 Dec 2025 20:36:43.049,644.569
862,10 Dec 2025 18:34:25.460,10 Dec 2025 18:43:49.139,563.679
863,10 Dec 2025 20:06:54.320,10 Dec 2025 20:18:13.051,678.730
864,11 Dec 2025 18:16:41.480,11 Dec 2025 18:24:33.862,472.383
865,11 Dec 2025 19:48:03.029,11 Dec 2025 19:59:35.678,692.648
866,11 Dec 2025 21:25:31.074,11 Dec 2025 21:30:53.996,322.922
867,12 Dec 2025 17:59:26.110,12 Dec 2025 18:04:56.656,330.547
868,12 Dec 2025 19:29:23.536,12 Dec 2025 19:40:52.035,688.499
869,12 Dec 2025 21:05:12.358,12 Dec 2025 21:13:21.054,488.696
870,13 Dec 2025 19:10:55.637,13 Dec 2025 19:22:02.426,666.788
871,13 Dec 2025 20:45:31.696,13 Dec 2025 20:55:16.134,584.438
872,14 Dec 2025 18:52:39.926,14 Dec 2025 19:03:06.425,626.499
873,14 Dec 2025 20:26:11.993,14 Dec 2025 20:36:56.024,644.032
874,15 Dec 2025 18:34:38.062,15 Dec 2025 18:44:02.620,564.558
875,15 Dec 2025 20:07:07.671,15 Dec 2025 20:18:26.123,678.453
876,16 Dec 2025 18:16:53.835,16 Dec 2025 18:24:47.514,473.679
877,16 Dec 2025 19:48:16.237,16 Dec 2025 19:59:48.828,692.592
878,16 Dec 2025 21:25:45.806,16 Dec 2025 21:31:05.961,320.155
879,17 Dec 2025 17:59:37.981,17 Dec 2025 18:05:10.709,332.728
880,17 Dec 2025 19:29:36.607,17 Dec 2025 19:41:05.256,688.649
881,17 Dec 2025 21:05:26.382,17 Dec 2025 21:13:33.652,487.270
882,18 Dec 2025 19:11:08.571,18 Dec 2025 19:22:15.719,667.148
883,18 Dec 2025 20:45:45.415,18 Dec 2025 20:55:28.969,583.554
884,19 Dec 2025 18:52:52.709,19 Dec 2025 19:03:19.799,627.090
885,19 Dec 2025 20:26:25.507,19 Dec 2025 20:37:08.998,643.491
886,20 Dec 2025 18:34:50.667,20 Dec 2025 18:44:16.100,565.433
887,20 Dec 2025 20:07:21.023,20 Dec 2025 20:18:39.195,678.172
888,21 Dec 2025 18:17:06.192,21 Dec 2025 18:25:01.161,474.969
889,21 Dec 2025 19:48:29.444,21 Dec 2025 20:00:01.983,692.539
890,21 Dec 2025 21:26:00.556,21 Dec 2025 21:31:17.905,317.349
891,22 Dec 2025 17:59:49.870,22 Dec 2025 18:05:24.759,334.890
892,22 Dec 2025 19:29:49.680,22 Dec 2025 19:41:18.478,688.798
893,22 Dec 2025 21:05:40.408,22 Dec 2025 21:13:46.247,485.839
894,23 Dec 2025 19:11:21.507,23 Dec 2025 19:22:29.011,667.505
895,23 Dec 2025 20:45:59.133,23 Dec 2025 20:55:41.803,582.670
896,24 Dec 2025 18:53:05.496,24 Dec 2025 19:03:33.173,627.677
897,24 Dec 2025 20:26:39.024,24 Dec 2025 20:37:21.971,642.947
898,25 Dec 2025 18:35:03.276,25 Dec 2025 18:44:29.580,566.304
899,25 Dec 2025 20:07:34.378,25 Dec 2025 20:18:52.266,677.889
900,26 Dec 2025 18:17:18.557,26 Dec 2025 18:25:14.808,476.252
901,26 Dec 2025 19:48:42.655,26 Dec 2025 20:00:15.133,692.478
902,26 Dec 2025 21:26:15.322,26 Dec 2025 21:31:29.840,314.519
903,27 Dec 2025 18:00:01.766,27 Dec 2025 18:05:38.795,337.029
904,27 Dec 2025 19:30:02.755,27 Dec 2025 19:41:31.700,688.944
905,27 Dec 2025 21:05:54.442,27 Dec 2025 21:13:58.840,484.398
906,28 Dec 2025 19:11:34.444,28 Dec 2025 19:22:42.303,667.858
907,28 Dec 2025 20:46:12.857,28 Dec 2025 20:55:54.636,581.779
908,29 Dec 2025 18:53:18.284,29 Dec 2025 19:03:46.544,628.260
909,29 Dec 2025 20:26:52.542,29 Dec 2025 20:37:34.943,642.401
910,30 Dec 2025 18:35:15.886,30 Dec 2025 18:44:43.055,567.169
911,30 Dec 2025 20:07:47.733,30 Dec 2025 20:19:05.336,677.603
912,31 Dec 2025 18:17:30.924,31 Dec 2025 18:25:28.450,477.526
913,31 Dec 2025 19:48:55.867,31 Dec 2025 20:00:28.281,692.414
914,31 Dec 2025 21:26:30.101,31 Dec 2025 21:31:41.760,311.659

Global Statistics
"Min Duration",491,8 Jul 2025 21:39:59.184,8 Jul 2025 21:40:34.022,34.838
"Max Duration",601,23 Aug 2025 19:43:12.741,23 Aug 2025 19:54:46.006,693.265
"Mean Duration",,,,542.885
"Total Duration",,,,496196.639


