3UCubedIntegratedSim/Reports & Plots/Comms/SSU/Sat1 Comms.csv

"Access","Start Time (UTCG)","Stop Time (UTCG)","Duration (sec)"
1,1 Jan 2025 19:17:10.436,1 Jan 2025 19:25:05.678,475.242
2,1 Jan 2025 20:48:33.905,1 Jan 2025 21:00:06.435,692.530
3,1 Jan 2025 22:26:05.418,1 Jan 2025 22:31:22.113,316.694
4,2 Jan 2025 18:59:54.016,2 Jan 2025 19:05:29.346,335.330
5,2 Jan 2025 20:29:54.104,2 Jan 2025 20:41:22.942,688.838
6,2 Jan 2025 22:05:45.096,2 Jan 2025 22:13:50.600,485.504
7,3 Jan 2025 20:11:25.895,3 Jan 2025 20:22:33.483,667.589
8,3 Jan 2025 21:46:03.741,3 Jan 2025 21:55:46.206,582.465
9,4 Jan 2025 19:53:09.845,4 Jan 2025 20:03:37.656,627.811
10,4 Jan 2025 21:26:43.577,4 Jan 2025 21:37:26.401,642.823
11,5 Jan 2025 19:35:07.582,5 Jan 2025 19:44:34.079,566.497
12,5 Jan 2025 21:07:38.886,5 Jan 2025 21:18:56.713,677.827
13,6 Jan 2025 19:17:22.807,6 Jan 2025 19:25:19.334,476.527
14,6 Jan 2025 20:48:47.124,6 Jan 2025 21:00:19.592,692.468
15,6 Jan 2025 22:26:20.201,6 Jan 2025 22:31:34.049,313.848
16,7 Jan 2025 19:00:05.918,7 Jan 2025 19:05:43.389,337.471
17,7 Jan 2025 20:30:07.187,7 Jan 2025 20:41:36.169,688.982
18,7 Jan 2025 22:05:59.140,7 Jan 2025 22:14:03.198,484.058
19,8 Jan 2025 20:11:38.839,8 Jan 2025 20:22:46.782,667.943
20,8 Jan 2025 21:46:17.475,8 Jan 2025 21:55:59.045,581.570
21,9 Jan 2025 19:53:22.640,9 Jan 2025 20:03:51.035,628.395
22,9 Jan 2025 21:26:57.104,9 Jan 2025 21:37:39.379,642.275
23,10 Jan 2025 19:35:20.198,10 Jan 2025 19:44:47.562,567.364
24,10 Jan 2025 21:07:52.249,10 Jan 2025 21:19:09.789,677.540
25,11 Jan 2025 19:17:35.181,11 Jan 2025 19:25:32.985,477.804
26,11 Jan 2025 20:49:00.343,11 Jan 2025 21:00:32.747,692.404
27,11 Jan 2025 22:26:34.996,11 Jan 2025 22:31:45.968,310.972
28,12 Jan 2025 19:00:17.828,12 Jan 2025 19:05:57.423,339.595
29,12 Jan 2025 20:30:20.270,12 Jan 2025 20:41:49.395,689.125
30,12 Jan 2025 22:06:13.187,12 Jan 2025 22:14:15.790,482.602
31,13 Jan 2025 20:11:51.784,13 Jan 2025 20:23:00.079,668.294
32,13 Jan 2025 21:46:31.210,13 Jan 2025 21:56:11.880,580.670
33,14 Jan 2025 19:53:35.435,14 Jan 2025 20:04:04.412,628.977
34,14 Jan 2025 21:27:10.632,14 Jan 2025 21:37:52.354,641.722
35,15 Jan 2025 19:35:32.819,15 Jan 2025 19:45:01.040,568.221
36,15 Jan 2025 21:08:05.614,15 Jan 2025 21:19:22.860,677.246
37,16 Jan 2025 19:17:47.560,16 Jan 2025 19:25:46.635,479.076
38,16 Jan 2025 20:49:13.566,16 Jan 2025 21:00:45.902,692.336
39,16 Jan 2025 22:26:49.806,16 Jan 2025 22:31:57.871,308.064
40,17 Jan 2025 19:00:29.746,17 Jan 2025 19:06:11.451,341.705
41,17 Jan 2025 20:30:33.356,17 Jan 2025 20:42:02.621,689.265
42,17 Jan 2025 22:06:27.241,17 Jan 2025 22:14:28.378,481.137
43,18 Jan 2025 20:12:04.733,18 Jan 2025 20:23:13.376,668.643
44,18 Jan 2025 21:46:44.949,18 Jan 2025 21:56:24.714,579.765
45,19 Jan 2025 19:53:48.234,19 Jan 2025 20:04:17.790,629.555
46,19 Jan 2025 21:27:24.164,19 Jan 2025 21:38:05.330,641.167
47,20 Jan 2025 19:35:45.442,20 Jan 2025 19:45:14.522,569.080
48,20 Jan 2025 21:08:18.981,20 Jan 2025 21:19:35.939,676.957
49,21 Jan 2025 19:17:59.941,21 Jan 2025 19:26:00.281,480.340
50,21 Jan 2025 20:49:26.789,21 Jan 2025 21:00:59.056,692.267
51,21 Jan 2025 22:27:04.637,21 Jan 2025 22:32:09.758,305.121
52,22 Jan 2025 19:00:41.674,22 Jan 2025 19:06:25.468,343.794
53,22 Jan 2025 20:30:46.443,22 Jan 2025 20:42:15.846,689.403
54,22 Jan 2025 22:06:41.299,22 Jan 2025 22:14:40.963,479.664
55,23 Jan 2025 20:12:17.682,23 Jan 2025 20:23:26.671,668.989
56,23 Jan 2025 21:46:58.691,23 Jan 2025 21:56:37.551,578.860
57,24 Jan 2025 19:54:01.034,24 Jan 2025 20:04:31.164,630.130
58,24 Jan 2025 21:27:37.696,24 Jan 2025 21:38:18.304,640.608
59,25 Jan 2025 19:35:58.065,25 Jan 2025 19:45:28.000,569.935
60,25 Jan 2025 21:08:32.349,25 Jan 2025 21:19:49.008,676.659
61,26 Jan 2025 19:18:12.326,26 Jan 2025 19:26:13.923,481.597
62,26 Jan 2025 20:49:40.013,26 Jan 2025 21:01:12.208,692.195
63,26 Jan 2025 22:27:19.485,26 Jan 2025 22:32:21.626,302.141
64,27 Jan 2025 19:00:53.609,27 Jan 2025 19:06:39.477,345.868
65,27 Jan 2025 20:30:59.530,27 Jan 2025 20:42:29.069,689.539
66,27 Jan 2025 22:06:55.360,27 Jan 2025 22:14:53.544,478.184
67,28 Jan 2025 20:12:30.632,28 Jan 2025 20:23:39.965,669.333
68,28 Jan 2025 21:47:12.434,28 Jan 2025 21:56:50.380,577.946
69,29 Jan 2025 19:54:13.835,29 Jan 2025 20:04:44.538,630.703
70,29 Jan 2025 21:27:51.230,29 Jan 2025 21:38:31.276,640.045
71,30 Jan 2025 19:36:10.691,30 Jan 2025 19:45:41.478,570.787
72,30 Jan 2025 21:08:45.719,30 Jan 2025 21:20:02.083,676.364
73,31 Jan 2025 19:18:24.714,31 Jan 2025 19:26:27.564,482.850
74,31 Jan 2025 20:49:53.239,31 Jan 2025 21:01:25.360,692.121
75,31 Jan 2025 22:27:34.355,31 Jan 2025 22:32:33.475,299.120
76,1 Feb 2025 19:01:05.551,1 Feb 2025 19:06:53.479,347.928
77,1 Feb 2025 20:31:12.621,1 Feb 2025 20:42:42.292,689.671
78,1 Feb 2025 22:07:09.433,1 Feb 2025 22:15:06.120,476.687
79,2 Feb 2025 20:12:43.585,2 Feb 2025 20:23:53.259,669.674
80,2 Feb 2025 21:47:26.182,2 Feb 2025 21:57:03.208,577.026
81,3 Feb 2025 19:54:26.640,3 Feb 2025 20:04:57.912,631.272
82,3 Feb 2025 21:28:04.768,3 Feb 2025 21:38:44.247,639.480
83,4 Feb 2025 19:36:23.320,4 Feb 2025 19:45:54.954,571.634
84,4 Feb 2025 21:08:59.091,4 Feb 2025 21:20:15.155,676.064
85,5 Feb 2025 19:18:37.106,5 Feb 2025 19:26:41.200,484.094
86,5 Feb 2025 20:50:06.466,5 Feb 2025 21:01:38.510,692.044
87,5 Feb 2025 22:27:49.247,5 Feb 2025 22:32:45.308,296.061
88,6 Feb 2025 19:01:17.506,6 Feb 2025 19:07:07.472,349.966
89,6 Feb 2025 20:31:25.712,6 Feb 2025 20:42:55.512,689.800
90,6 Feb 2025 22:07:23.504,6 Feb 2025 22:15:18.693,475.189
91,7 Feb 2025 20:12:56.538,7 Feb 2025 20:24:06.551,670.012
92,7 Feb 2025 21:47:39.930,7 Feb 2025 21:57:16.034,576.103
93,8 Feb 2025 19:54:39.444,8 Feb 2025 20:05:11.282,631.838
94,8 Feb 2025 21:28:18.310,8 Feb 2025 21:38:57.216,638.906
95,9 Feb 2025 19:36:35.950,9 Feb 2025 19:46:08.427,572.477
96,9 Feb 2025 21:09:12.464,9 Feb 2025 21:20:28.224,675.761
97,10 Feb 2025 19:18:49.500,10 Feb 2025 19:26:54.834,485.333
98,10 Feb 2025 20:50:19.694,10 Feb 2025 21:01:51.659,691.965
99,10 Feb 2025 22:28:04.154,10 Feb 2025 22:32:57.119,292.965
100,11 Feb 2025 19:01:29.467,11 Feb 2025 19:07:21.460,351.993
101,11 Feb 2025 20:31:38.804,11 Feb 2025 20:43:08.733,689.929
102,11 Feb 2025 22:07:37.581,11 Feb 2025 22:15:31.260,473.679
103,12 Feb 2025 20:13:09.493,12 Feb 2025 20:24:19.842,670.348
104,12 Feb 2025 21:47:53.683,12 Feb 2025 21:57:28.856,575.174
105,13 Feb 2025 19:54:52.252,13 Feb 2025 20:05:24.653,632.401
106,13 Feb 2025 21:28:31.846,13 Feb 2025 21:39:10.184,638.338
107,14 Feb 2025 19:36:48.584,14 Feb 2025 19:46:21.901,573.317
108,14 Feb 2025 21:09:25.839,14 Feb 2025 21:20:41.293,675.454
109,15 Feb 2025 19:19:01.899,15 Feb 2025 19:27:08.462,486.562
110,15 Feb 2025 20:50:32.926,15 Feb 2025 21:02:04.809,691.884
111,15 Feb 2025 22:28:19.084,15 Feb 2025 22:33:08.911,289.826
112,16 Feb 2025 19:01:41.437,16 Feb 2025 19:07:35.441,354.003
113,16 Feb 2025 20:31:51.899,16 Feb 2025 20:43:21.955,690.055
114,16 Feb 2025 22:07:51.664,16 Feb 2025 22:15:43.824,472.160
115,17 Feb 2025 20:13:22.451,17 Feb 2025 20:24:33.133,670.682
116,17 Feb 2025 21:48:07.439,17 Feb 2025 21:57:41.679,574.240
117,18 Feb 2025 19:55:05.062,18 Feb 2025 20:05:38.023,632.961
118,18 Feb 2025 21:28:45.394,18 Feb 2025 21:39:23.152,637.758
119,19 Feb 2025 19:37:01.220,19 Feb 2025 19:46:35.372,574.152
120,19 Feb 2025 21:09:39.216,19 Feb 2025 21:20:54.362,675.146
121,20 Feb 2025 19:19:14.302,20 Feb 2025 19:27:22.094,487.792
122,20 Feb 2025 20:50:46.162,20 Feb 2025 21:02:17.953,691.791
123,20 Feb 2025 22:28:34.029,20 Feb 2025 22:33:20.680,286.651
124,21 Feb 2025 19:01:53.421,21 Feb 2025 19:07:49.412,355.990
125,21 Feb 2025 20:32:04.995,21 Feb 2025 20:43:35.176,690.181
126,21 Feb 2025 22:08:05.748,21 Feb 2025 22:15:56.386,470.638
127,22 Feb 2025 20:13:35.410,22 Feb 2025 20:24:46.422,671.012
128,22 Feb 2025 21:48:21.197,22 Feb 2025 21:57:54.499,573.302
129,23 Feb 2025 19:55:17.872,23 Feb 2025 20:05:51.391,633.518
130,23 Feb 2025 21:28:58.939,23 Feb 2025 21:39:36.118,637.179
131,24 Feb 2025 19:37:13.857,24 Feb 2025 19:46:48.841,574.984
132,24 Feb 2025 21:09:52.594,24 Feb 2025 21:21:07.429,674.834
133,25 Feb 2025 19:19:26.706,25 Feb 2025 19:27:35.719,489.013
134,25 Feb 2025 20:50:59.395,25 Feb 2025 21:02:31.100,691.705
135,25 Feb 2025 22:28:49.001,25 Feb 2025 22:33:32.430,283.429
136,26 Feb 2025 19:02:05.407,26 Feb 2025 19:08:03.377,357.970
137,26 Feb 2025 20:32:18.092,26 Feb 2025 20:43:48.394,690.302
138,26 Feb 2025 22:08:19.841,26 Feb 2025 22:16:08.940,469.100
139,27 Feb 2025 20:13:48.374,27 Feb 2025 20:24:59.711,671.337
140,27 Feb 2025 21:48:34.955,27 Feb 2025 21:58:07.316,572.361
141,28 Feb 2025 19:55:30.685,28 Feb 2025 20:06:04.758,634.073
142,28 Feb 2025 21:29:12.481,28 Feb 2025 21:39:49.082,636.601
143,1 Mar 2025 19:37:26.497,1 Mar 2025 19:47:02.310,575.812
144,1 Mar 2025 21:10:05.975,1 Mar 2025 21:21:20.495,674.520
145,2 Mar 2025 19:19:39.115,2 Mar 2025 19:27:49.343,490.228
146,2 Mar 2025 20:51:12.631,2 Mar 2025 21:02:44.247,691.616
147,2 Mar 2025 22:29:03.998,2 Mar 2025 22:33:44.158,280.160
148,3 Mar 2025 19:02:17.400,3 Mar 2025 19:08:17.335,359.935
149,3 Mar 2025 20:32:31.192,3 Mar 2025 20:44:01.612,690.420
150,3 Mar 2025 22:08:33.940,3 Mar 2025 22:16:21.493,467.552
151,4 Mar 2025 18:46:40.108,4 Mar 2025 18:47:07.895,27.787
152,4 Mar 2025 20:14:01.337,4 Mar 2025 20:25:12.999,671.663
153,4 Mar 2025 21:48:48.719,4 Mar 2025 21:58:20.132,571.413
154,5 Mar 2025 19:55:43.501,5 Mar 2025 20:06:18.124,634.624
155,5 Mar 2025 21:29:26.033,5 Mar 2025 21:40:02.046,636.013
156,6 Mar 2025 19:37:39.140,6 Mar 2025 19:47:15.776,576.635
157,6 Mar 2025 21:10:19.357,6 Mar 2025 21:21:33.560,674.203
158,7 Mar 2025 19:19:51.528,7 Mar 2025 19:28:02.963,491.435
159,7 Mar 2025 20:51:25.868,7 Mar 2025 21:02:57.392,691.525
160,7 Mar 2025 22:29:19.016,7 Mar 2025 22:33:55.866,276.850
161,8 Mar 2025 19:02:29.400,8 Mar 2025 19:08:31.285,361.885
162,8 Mar 2025 20:32:44.293,8 Mar 2025 20:44:14.828,690.536
163,8 Mar 2025 22:08:48.038,8 Mar 2025 22:16:34.042,466.003
164,9 Mar 2025 18:46:42.554,9 Mar 2025 18:47:31.321,48.767
165,9 Mar 2025 20:14:14.300,9 Mar 2025 20:25:26.286,671.986
166,9 Mar 2025 21:49:02.485,9 Mar 2025 21:58:32.946,570.460
167,10 Mar 2025 19:55:56.317,10 Mar 2025 20:06:31.489,635.172
168,10 Mar 2025 21:29:39.586,10 Mar 2025 21:40:15.008,635.422
169,11 Mar 2025 19:37:51.785,11 Mar 2025 19:47:29.240,577.456
170,11 Mar 2025 21:10:32.741,11 Mar 2025 21:21:46.624,673.883
171,12 Mar 2025 19:20:03.943,12 Mar 2025 19:28:16.581,492.638
172,12 Mar 2025 20:51:39.106,12 Mar 2025 21:03:10.537,691.431
173,12 Mar 2025 22:29:34.061,12 Mar 2025 22:34:07.547,273.487
174,13 Mar 2025 19:02:41.409,13 Mar 2025 19:08:45.230,363.821
175,13 Mar 2025 20:32:57.395,13 Mar 2025 20:44:28.040,690.645
176,13 Mar 2025 22:09:02.148,13 Mar 2025 22:16:46.584,464.436
177,14 Mar 2025 18:46:48.309,14 Mar 2025 18:47:51.434,63.125
178,14 Mar 2025 20:14:27.266,14 Mar 2025 20:25:39.572,672.306
179,14 Mar 2025 21:49:16.256,14 Mar 2025 21:58:45.757,569.502
180,15 Mar 2025 19:56:09.136,15 Mar 2025 20:06:44.854,635.718
181,15 Mar 2025 21:29:53.136,15 Mar 2025 21:40:27.969,634.833
182,16 Mar 2025 19:38:04.433,16 Mar 2025 19:47:42.705,578.272
183,16 Mar 2025 21:10:46.128,16 Mar 2025 21:21:59.689,673.560
184,17 Mar 2025 19:20:16.364,17 Mar 2025 19:28:30.198,493.834
185,17 Mar 2025 20:51:52.348,17 Mar 2025 21:03:23.682,691.334
186,17 Mar 2025 22:29:49.132,17 Mar 2025 22:34:19.207,270.075
187,18 Mar 2025 19:02:53.428,18 Mar 2025 19:08:59.169,365.741
188,18 Mar 2025 20:33:10.500,18 Mar 2025 20:44:41.258,690.758
189,18 Mar 2025 22:09:16.264,18 Mar 2025 22:16:59.124,462.861
190,19 Mar 2025 18:46:55.443,19 Mar 2025 18:48:10.176,74.733
191,19 Mar 2025 20:14:40.234,19 Mar 2025 20:25:52.859,672.624
192,19 Mar 2025 21:49:30.030,19 Mar 2025 21:58:58.569,568.539
193,20 Mar 2025 19:56:21.958,20 Mar 2025 20:06:58.217,636.259
194,20 Mar 2025 21:30:06.693,20 Mar 2025 21:40:40.930,634.237
195,21 Mar 2025 19:38:17.083,21 Mar 2025 19:47:56.165,579.082
196,21 Mar 2025 21:10:59.516,21 Mar 2025 21:22:12.752,673.235
197,22 Mar 2025 19:20:28.787,22 Mar 2025 19:28:43.810,495.023
198,22 Mar 2025 20:52:05.590,22 Mar 2025 21:03:36.826,691.235
199,22 Mar 2025 22:30:04.227,22 Mar 2025 22:34:30.842,266.614
200,23 Mar 2025 19:03:05.453,23 Mar 2025 19:09:13.099,367.646
201,23 Mar 2025 20:33:23.606,23 Mar 2025 20:44:54.475,690.869
202,23 Mar 2025 22:09:30.384,23 Mar 2025 22:17:11.659,461.276
203,24 Mar 2025 18:47:03.366,24 Mar 2025 18:48:28.123,84.757
204,24 Mar 2025 20:14:53.203,24 Mar 2025 20:26:06.143,672.939
205,24 Mar 2025 21:49:43.806,24 Mar 2025 21:59:11.376,567.571
206,25 Mar 2025 19:56:34.780,25 Mar 2025 20:07:11.579,636.799
207,25 Mar 2025 21:30:20.251,25 Mar 2025 21:40:53.888,633.636
208,26 Mar 2025 19:38:29.735,26 Mar 2025 19:48:09.626,579.890
209,26 Mar 2025 21:11:12.906,26 Mar 2025 21:22:25.813,672.907
210,27 Mar 2025 19:20:41.213,27 Mar 2025 19:28:57.422,496.209
211,27 Mar 2025 20:52:18.834,27 Mar 2025 21:03:49.968,691.134
212,27 Mar 2025 22:30:19.353,27 Mar 2025 22:34:42.447,263.095
213,28 Mar 2025 19:03:17.485,28 Mar 2025 19:09:27.025,369.541
214,28 Mar 2025 20:33:36.714,28 Mar 2025 20:45:07.690,690.975
215,28 Mar 2025 22:09:44.511,28 Mar 2025 22:17:24.189,459.678
216,29 Mar 2025 18:47:11.825,29 Mar 2025 18:48:45.538,93.714
217,29 Mar 2025 20:15:06.175,29 Mar 2025 20:26:19.427,673.252
218,29 Mar 2025 21:49:57.586,29 Mar 2025 21:59:24.182,566.596
219,30 Mar 2025 19:56:47.606,30 Mar 2025 20:07:24.942,637.336
220,30 Mar 2025 21:30:33.814,30 Mar 2025 21:41:06.846,633.032
221,31 Mar 2025 19:38:42.391,31 Mar 2025 19:48:23.087,580.696
222,31 Mar 2025 21:11:26.295,31 Mar 2025 21:22:38.875,672.580
223,1 Apr 2025 19:20:53.644,1 Apr 2025 19:29:11.031,497.387
224,1 Apr 2025 20:52:32.082,1 Apr 2025 21:04:03.112,691.030
225,1 Apr 2025 22:30:34.507,1 Apr 2025 22:34:54.029,259.523
226,2 Apr 2025 19:03:29.526,2 Apr 2025 19:09:40.944,371.418
227,2 Apr 2025 20:33:49.825,2 Apr 2025 20:45:20.904,691.079
228,2 Apr 2025 22:09:58.641,2 Apr 2025 22:17:36.716,458.076
229,3 Apr 2025 18:47:20.692,3 Apr 2025 18:49:02.545,101.854
230,3 Apr 2025 20:15:19.149,3 Apr 2025 20:26:32.711,673.562
231,3 Apr 2025 21:50:11.369,3 Apr 2025 21:59:36.988,565.619
232,4 Apr 2025 19:57:00.433,4 Apr 2025 20:07:38.302,637.869
233,4 Apr 2025 21:30:47.378,4 Apr 2025 21:41:19.803,632.425
234,5 Apr 2025 19:38:55.048,5 Apr 2025 19:48:36.545,581.496
235,5 Apr 2025 21:11:39.689,5 Apr 2025 21:22:51.935,672.246
236,6 Apr 2025 19:21:06.077,6 Apr 2025 19:29:24.637,498.559
237,6 Apr 2025 20:52:45.329,6 Apr 2025 21:04:16.253,690.924
238,6 Apr 2025 22:30:49.689,6 Apr 2025 22:35:05.581,255.892
239,7 Apr 2025 19:03:41.577,7 Apr 2025 19:09:54.857,373.279
240,7 Apr 2025 20:34:02.935,7 Apr 2025 20:45:34.116,691.181
241,7 Apr 2025 22:10:12.779,7 Apr 2025 22:17:49.239,456.460
242,8 Apr 2025 18:47:29.861,8 Apr 2025 18:49:19.253,109.391
243,8 Apr 2025 20:15:32.123,8 Apr 2025 20:26:45.993,673.870
244,8 Apr 2025 21:50:25.155,8 Apr 2025 21:59:49.789,564.634
245,9 Apr 2025 19:57:13.262,9 Apr 2025 20:07:51.662,638.400
246,9 Apr 2025 21:31:00.944,9 Apr 2025 21:41:32.758,631.813
247,10 Apr 2025 19:39:07.703,10 Apr 2025 19:48:50.006,582.302
248,10 Apr 2025 21:11:53.085,10 Apr 2025 21:23:04.995,671.910
249,11 Apr 2025 19:21:18.514,11 Apr 2025 19:29:38.243,499.728
250,11 Apr 2025 20:52:58.579,11 Apr 2025 21:04:29.394,690.815
251,11 Apr 2025 22:31:04.906,11 Apr 2025 22:35:17.100,252.194
252,12 Apr 2025 19:03:53.632,12 Apr 2025 19:10:08.766,375.134
253,12 Apr 2025 20:34:16.049,12 Apr 2025 20:45:47.329,691.281
254,12 Apr 2025 22:10:26.923,12 Apr 2025 22:18:01.756,454.833
255,13 Apr 2025 18:47:39.280,13 Apr 2025 18:49:35.711,116.432
256,13 Apr 2025 20:15:45.101,13 Apr 2025 20:26:59.277,674.176
257,13 Apr 2025 21:50:38.946,13 Apr 2025 22:00:02.590,563.644
258,14 Apr 2025 19:57:26.094,14 Apr 2025 20:08:05.022,638.928
259,14 Apr 2025 21:31:14.515,14 Apr 2025 21:41:45.713,631.198
260,15 Apr 2025 19:39:20.367,15 Apr 2025 19:49:03.463,583.097
261,15 Apr 2025 21:12:06.484,15 Apr 2025 21:23:18.055,671.570
262,16 Apr 2025 19:21:30.956,16 Apr 2025 19:29:51.846,500.890
263,16 Apr 2025 20:53:11.832,16 Apr 2025 21:04:42.536,690.704
264,16 Apr 2025 22:31:20.156,16 Apr 2025 22:35:28.591,248.435
265,17 Apr 2025 19:04:05.694,17 Apr 2025 19:10:22.668,376.974
266,17 Apr 2025 20:34:29.165,17 Apr 2025 20:46:00.542,691.377
267,17 Apr 2025 22:10:41.072,17 Apr 2025 22:18:14.269,453.197
268,18 Apr 2025 18:47:48.907,18 Apr 2025 18:49:51.960,123.054
269,18 Apr 2025 20:15:58.080,18 Apr 2025 20:27:12.555,674.475
270,18 Apr 2025 21:50:52.742,18 Apr 2025 22:00:15.389,562.648
271,19 Apr 2025 19:57:38.928,19 Apr 2025 20:08:18.380,639.453
272,19 Apr 2025 21:31:28.083,19 Apr 2025 21:41:58.666,630.583
273,20 Apr 2025 19:39:33.031,20 Apr 2025 19:49:16.918,583.887
274,20 Apr 2025 21:12:19.884,20 Apr 2025 21:23:31.113,671.228
275,21 Apr 2025 19:21:43.400,21 Apr 2025 19:30:05.446,502.046
276,21 Apr 2025 20:53:25.085,21 Apr 2025 21:04:55.675,690.590
277,21 Apr 2025 22:31:35.438,21 Apr 2025 22:35:40.046,244.609
278,22 Apr 2025 19:04:17.761,22 Apr 2025 19:10:36.565,378.803
279,22 Apr 2025 20:34:42.281,22 Apr 2025 20:46:13.753,691.472
280,22 Apr 2025 22:10:55.227,22 Apr 2025 22:18:26.776,451.549
281,23 Apr 2025 18:47:58.707,23 Apr 2025 18:50:08.043,129.336
282,23 Apr 2025 20:16:11.060,23 Apr 2025 20:27:25.835,674.775
283,23 Apr 2025 21:51:06.538,23 Apr 2025 22:00:28.185,561.647
284,24 Apr 2025 19:57:51.763,24 Apr 2025 20:08:31.738,639.975
285,24 Apr 2025 21:31:41.657,24 Apr 2025 21:42:11.618,629.961
286,25 Apr 2025 19:39:45.699,25 Apr 2025 19:49:30.373,584.674
287,25 Apr 2025 21:12:33.287,25 Apr 2025 21:23:44.170,670.883
288,26 Apr 2025 19:21:55.847,26 Apr 2025 19:30:19.046,503.198
289,26 Apr 2025 20:53:38.342,26 Apr 2025 21:05:08.815,690.473
290,26 Apr 2025 22:31:50.759,26 Apr 2025 22:35:51.466,240.707
291,27 Apr 2025 19:04:29.832,27 Apr 2025 19:10:50.458,380.626
292,27 Apr 2025 20:34:55.401,27 Apr 2025 20:46:26.965,691.564
293,27 Apr 2025 22:11:09.390,27 Apr 2025 22:18:39.280,449.890
294,28 Apr 2025 18:48:08.659,28 Apr 2025 18:50:23.978,135.319
295,28 Apr 2025 20:16:24.044,28 Apr 2025 20:27:39.117,675.073
296,28 Apr 2025 21:51:20.336,28 Apr 2025 22:00:40.980,560.644
297,29 Apr 2025 19:58:04.601,29 Apr 2025 20:08:45.096,640.495
298,29 Apr 2025 21:31:55.235,29 Apr 2025 21:42:24.570,629.335
299,30 Apr 2025 19:39:58.369,30 Apr 2025 19:49:43.826,585.457
300,30 Apr 2025 21:12:46.693,30 Apr 2025 21:23:57.228,670.535
301,1 May 2025 19:22:08.299,1 May 2025 19:30:32.642,504.343
302,1 May 2025 20:53:51.600,1 May 2025 21:05:21.955,690.355
303,1 May 2025 22:32:06.116,1 May 2025 22:36:02.853,236.737
304,2 May 2025 19:04:41.919,2 May 2025 19:11:04.343,382.424
305,2 May 2025 20:35:08.522,2 May 2025 20:46:40.175,691.653
306,2 May 2025 22:11:23.557,2 May 2025 22:18:51.780,448.222
307,3 May 2025 18:48:18.745,3 May 2025 18:50:39.772,141.027
308,3 May 2025 20:16:37.028,3 May 2025 20:27:52.397,675.369
309,3 May 2025 21:51:34.139,3 May 2025 22:00:53.773,559.634
310,4 May 2025 19:58:17.440,4 May 2025 20:08:58.452,641.012
311,4 May 2025 21:32:08.814,4 May 2025 21:42:37.522,628.708
312,5 May 2025 19:40:11.041,5 May 2025 19:49:57.278,586.237
313,5 May 2025 21:13:00.099,5 May 2025 21:24:10.283,670.184
314,6 May 2025 19:22:20.753,6 May 2025 19:30:46.237,505.484
315,6 May 2025 20:54:04.859,6 May 2025 21:05:35.092,690.233
316,6 May 2025 22:32:21.514,6 May 2025 22:36:14.198,232.684
317,7 May 2025 19:04:54.006,7 May 2025 19:11:18.225,384.220
318,7 May 2025 20:35:21.645,7 May 2025 20:46:53.385,691.740
319,7 May 2025 22:11:37.732,7 May 2025 22:19:04.272,446.540
320,8 May 2025 18:48:28.942,8 May 2025 18:50:55.466,146.525
321,8 May 2025 20:16:50.015,8 May 2025 20:28:05.677,675.662
322,8 May 2025 21:51:47.947,8 May 2025 22:01:06.563,558.616
323,9 May 2025 19:58:30.282,9 May 2025 20:09:11.809,641.526
324,9 May 2025 21:32:22.394,9 May 2025 21:42:50.470,628.077
325,10 May 2025 19:40:23.716,10 May 2025 19:50:10.726,587.009
326,10 May 2025 21:13:13.509,10 May 2025 21:24:23.339,669.830
327,11 May 2025 19:22:33.211,11 May 2025 19:30:59.832,506.621
328,11 May 2025 20:54:18.122,11 May 2025 21:05:48.231,690.109
329,11 May 2025 22:32:36.956,11 May 2025 22:36:25.502,228.546
330,12 May 2025 19:05:06.099,12 May 2025 19:11:32.104,386.004
331,12 May 2025 20:35:34.771,12 May 2025 20:47:06.596,691.825
332,12 May 2025 22:11:51.914,12 May 2025 22:19:16.761,444.847
333,13 May 2025 18:48:39.245,13 May 2025 18:51:11.054,151.809
334,13 May 2025 20:17:03.004,13 May 2025 20:28:18.957,675.953
335,13 May 2025 21:52:01.758,13 May 2025 22:01:19.352,557.593
336,14 May 2025 19:58:43.127,14 May 2025 20:09:25.165,642.038
337,14 May 2025 21:32:35.979,14 May 2025 21:43:03.419,627.440
338,15 May 2025 19:40:36.394,15 May 2025 19:50:24.181,587.787
339,15 May 2025 21:13:26.921,15 May 2025 21:24:36.394,669.473
340,16 May 2025 19:22:45.672,16 May 2025 19:31:13.419,507.747
341,16 May 2025 20:54:31.386,16 May 2025 21:06:01.369,689.983
342,16 May 2025 22:32:52.441,16 May 2025 22:36:36.766,224.325
343,17 May 2025 19:05:18.199,17 May 2025 19:11:45.975,387.776
344,17 May 2025 20:35:47.897,17 May 2025 20:47:19.805,691.908
345,17 May 2025 22:12:06.102,17 May 2025 22:19:29.245,443.143
346,18 May 2025 18:48:49.642,18 May 2025 18:51:26.546,156.904
347,18 May 2025 20:17:15.995,18 May 2025 20:28:32.236,676.241
348,18 May 2025 21:52:15.572,18 May 2025 22:01:32.138,556.566
349,19 May 2025 19:58:55.973,19 May 2025 20:09:38.519,642.546
350,19 May 2025 21:32:49.566,19 May 2025 21:43:16.365,626.799
351,20 May 2025 19:40:49.073,20 May 2025 19:50:37.626,588.552
352,20 May 2025 21:13:40.334,20 May 2025 21:24:49.447,669.113
353,21 May 2025 19:22:58.136,21 May 2025 19:31:27.009,508.873
354,21 May 2025 20:54:44.651,21 May 2025 21:06:14.505,689.854
355,21 May 2025 22:33:07.973,21 May 2025 22:36:47.981,220.008
356,22 May 2025 19:05:30.305,22 May 2025 19:11:59.843,389.538
357,22 May 2025 20:36:01.025,22 May 2025 20:47:33.013,691.988
358,22 May 2025 22:12:20.296,22 May 2025 22:19:41.722,441.426
359,23 May 2025 18:49:00.116,23 May 2025 18:51:41.960,161.844
360,23 May 2025 20:17:28.987,23 May 2025 20:28:45.514,676.527
361,23 May 2025 21:52:29.390,23 May 2025 22:01:44.921,555.531
362,24 May 2025 19:59:08.821,24 May 2025 20:09:51.871,643.050
363,24 May 2025 21:33:03.156,24 May 2025 21:43:29.309,626.153
364,25 May 2025 19:41:01.756,25 May 2025 19:50:51.076,589.321
365,25 May 2025 21:13:53.750,25 May 2025 21:25:02.500,668.750
366,26 May 2025 19:23:10.604,26 May 2025 19:31:40.598,509.995
367,26 May 2025 20:54:57.920,26 May 2025 21:06:27.641,689.722
368,26 May 2025 22:33:23.557,26 May 2025 22:36:59.149,215.591
369,27 May 2025 19:05:42.419,27 May 2025 19:12:13.707,391.288
370,27 May 2025 20:36:14.157,27 May 2025 20:47:46.222,692.065
371,27 May 2025 22:12:34.494,27 May 2025 22:19:54.196,439.702
372,28 May 2025 18:49:10.674,28 May 2025 18:51:57.297,166.623
373,28 May 2025 20:17:41.982,28 May 2025 20:28:58.793,676.810
374,28 May 2025 21:52:43.212,28 May 2025 22:01:57.704,554.491
375,29 May 2025 19:59:21.671,29 May 2025 20:10:05.225,643.553
376,29 May 2025 21:33:16.749,29 May 2025 21:43:42.254,625.505
377,30 May 2025 19:41:14.440,30 May 2025 19:51:04.525,590.085
378,30 May 2025 21:14:07.168,30 May 2025 21:25:15.552,668.384
379,31 May 2025 19:23:23.074,31 May 2025 19:31:54.184,511.110
380,31 May 2025 20:55:11.189,31 May 2025 21:06:40.777,689.588
381,31 May 2025 22:33:39.191,31 May 2025 22:37:10.266,211.075
382,1 Jun 2025 19:05:54.538,1 Jun 2025 19:12:27.564,393.026
383,1 Jun 2025 20:36:27.289,1 Jun 2025 20:47:59.429,692.140
384,1 Jun 2025 22:12:48.701,1 Jun 2025 22:20:06.663,437.962
385,2 Jun 2025 18:49:21.300,2 Jun 2025 18:52:12.563,171.264
386,2 Jun 2025 20:17:54.978,2 Jun 2025 20:29:12.069,677.091
387,2 Jun 2025 21:52:57.037,2 Jun 2025 22:02:10.482,553.446
388,3 Jun 2025 19:59:34.523,3 Jun 2025 20:10:18.577,644.054
389,3 Jun 2025 21:33:30.340,3 Jun 2025 21:43:55.195,624.855
390,4 Jun 2025 19:41:27.126,4 Jun 2025 19:51:17.974,590.847
391,4 Jun 2025 21:14:20.588,4 Jun 2025 21:25:28.603,668.015
392,5 Jun 2025 19:23:35.547,5 Jun 2025 19:32:07.770,512.222
393,5 Jun 2025 20:55:24.459,5 Jun 2025 21:06:53.915,689.456
394,5 Jun 2025 22:33:54.888,5 Jun 2025 22:37:21.321,206.434
395,6 Jun 2025 19:06:06.663,6 Jun 2025 19:12:41.420,394.757
396,6 Jun 2025 20:36:40.423,6 Jun 2025 20:48:12.636,692.213
397,6 Jun 2025 22:13:02.916,6 Jun 2025 22:20:19.123,436.207
398,7 Jun 2025 18:49:31.987,7 Jun 2025 18:52:27.772,175.785
399,7 Jun 2025 20:18:07.976,7 Jun 2025 20:29:25.347,677.370
400,7 Jun 2025 21:53:10.866,7 Jun 2025 22:02:23.258,552.392
401,8 Jun 2025 19:59:47.377,8 Jun 2025 20:10:31.930,644.553
402,8 Jun 2025 21:33:43.938,8 Jun 2025 21:44:08.136,624.198
403,9 Jun 2025 19:41:39.816,9 Jun 2025 19:51:31.421,591.605
404,9 Jun 2025 21:14:34.011,9 Jun 2025 21:25:41.653,667.642
405,10 Jun 2025 19:23:48.024,10 Jun 2025 19:32:21.355,513.330
406,10 Jun 2025 20:55:37.734,10 Jun 2025 21:07:07.050,689.316
407,10 Jun 2025 22:34:10.641,10 Jun 2025 22:37:32.326,201.684
408,11 Jun 2025 19:06:18.795,11 Jun 2025 19:12:55.270,396.476
409,11 Jun 2025 20:36:53.560,11 Jun 2025 20:48:25.844,692.284
410,11 Jun 2025 22:13:17.139,11 Jun 2025 22:20:31.579,434.440
411,12 Jun 2025 18:49:42.735,12 Jun 2025 18:52:42.925,180.189
412,12 Jun 2025 20:18:20.977,12 Jun 2025 20:29:38.623,677.647
413,12 Jun 2025 21:53:24.699,12 Jun 2025 22:02:36.033,551.334
414,13 Jun 2025 20:00:00.233,13 Jun 2025 20:10:45.282,645.049
415,13 Jun 2025 21:33:57.538,13 Jun 2025 21:44:21.076,623.538
416,14 Jun 2025 19:41:52.507,14 Jun 2025 19:51:44.866,592.359
417,14 Jun 2025 21:14:47.435,14 Jun 2025 21:25:54.699,667.264
418,15 Jun 2025 19:24:00.504,15 Jun 2025 19:32:34.935,514.431
419,15 Jun 2025 20:55:51.006,15 Jun 2025 21:07:20.181,689.175
420,15 Jun 2025 22:34:26.457,15 Jun 2025 22:37:43.261,196.804
421,16 Jun 2025 19:06:30.931,16 Jun 2025 19:13:09.115,398.184
422,16 Jun 2025 20:37:06.697,16 Jun 2025 20:48:39.049,692.352
423,16 Jun 2025 22:13:31.368,16 Jun 2025 22:20:44.029,432.661
424,17 Jun 2025 18:49:53.540,17 Jun 2025 18:52:58.018,184.478
425,17 Jun 2025 20:18:33.978,17 Jun 2025 20:29:51.898,677.921
426,17 Jun 2025 21:53:38.534,17 Jun 2025 22:02:48.804,550.270
427,18 Jun 2025 20:00:13.090,18 Jun 2025 20:10:58.633,645.542
428,18 Jun 2025 21:34:11.140,18 Jun 2025 21:44:34.013,622.873
429,19 Jun 2025 19:42:05.200,19 Jun 2025 19:51:58.310,593.110
430,19 Jun 2025 21:15:00.861,19 Jun 2025 21:26:07.747,666.886
431,20 Jun 2025 19:24:12.986,20 Jun 2025 19:32:48.516,515.529
432,20 Jun 2025 20:56:04.283,20 Jun 2025 21:07:33.312,689.030
433,20 Jun 2025 22:34:42.345,20 Jun 2025 22:37:54.126,191.781
434,21 Jun 2025 19:06:43.073,21 Jun 2025 19:13:22.958,399.885
435,21 Jun 2025 20:37:19.837,21 Jun 2025 20:48:52.254,692.417
436,21 Jun 2025 22:13:45.604,21 Jun 2025 22:20:56.471,430.867
437,22 Jun 2025 18:50:04.394,22 Jun 2025 18:53:13.065,188.671
438,22 Jun 2025 20:18:46.982,22 Jun 2025 20:30:05.174,678.192
439,22 Jun 2025 21:53:52.371,22 Jun 2025 22:03:01.573,549.202
440,23 Jun 2025 20:00:25.951,23 Jun 2025 20:11:11.984,646.033
441,23 Jun 2025 21:34:24.746,23 Jun 2025 21:44:46.950,622.204
442,24 Jun 2025 19:42:17.896,24 Jun 2025 19:52:11.754,593.858
443,24 Jun 2025 21:15:14.295,24 Jun 2025 21:26:20.795,666.499
444,25 Jun 2025 19:24:25.473,25 Jun 2025 19:33:02.095,516.622
445,25 Jun 2025 20:56:17.563,25 Jun 2025 21:07:46.445,688.882
446,25 Jun 2025 22:34:58.308,25 Jun 2025 22:38:04.921,186.612
447,26 Jun 2025 19:06:55.222,26 Jun 2025 19:13:36.795,401.574
448,26 Jun 2025 20:37:32.979,26 Jun 2025 20:49:05.459,692.481
449,26 Jun 2025 22:13:59.848,26 Jun 2025 22:21:08.910,429.061
450,27 Jun 2025 18:50:15.301,27 Jun 2025 18:53:28.061,192.760
451,27 Jun 2025 20:18:59.987,27 Jun 2025 20:30:18.448,678.461
452,27 Jun 2025 21:54:06.215,27 Jun 2025 22:03:14.340,548.126
453,28 Jun 2025 20:00:38.812,28 Jun 2025 20:11:25.333,646.521
454,28 Jun 2025 21:34:38.353,28 Jun 2025 21:44:59.885,621.532
455,29 Jun 2025 19:42:30.594,29 Jun 2025 19:52:25.196,594.602
456,29 Jun 2025 21:15:27.725,29 Jun 2025 21:26:33.840,666.115
457,30 Jun 2025 19:24:37.961,30 Jun 2025 19:33:15.671,517.710
458,30 Jun 2025 20:56:30.843,30 Jun 2025 21:07:59.575,688.732
459,30 Jun 2025 22:35:14.351,30 Jun 2025 22:38:15.633,181.282
460,1 Jul 2025 19:07:07.374,1 Jul 2025 19:13:50.628,403.254
461,1 Jul 2025 20:37:46.121,1 Jul 2025 20:49:18.662,692.541
462,1 Jul 2025 22:14:14.098,1 Jul 2025 22:21:21.339,427.241
463,2 Jul 2025 18:50:26.249,2 Jul 2025 18:53:43.015,196.766
464,2 Jul 2025 20:19:12.993,2 Jul 2025 20:30:31.721,678.728
465,2 Jul 2025 21:54:20.061,2 Jul 2025 22:03:27.103,547.042
466,3 Jul 2025 20:00:51.675,3 Jul 2025 20:11:38.682,647.007
467,3 Jul 2025 21:34:51.963,3 Jul 2025 21:45:12.817,620.854
468,4 Jul 2025 19:42:43.293,4 Jul 2025 19:52:38.637,595.344
469,4 Jul 2025 21:15:41.157,4 Jul 2025 21:26:46.884,665.727
470,5 Jul 2025 19:24:50.452,5 Jul 2025 19:33:29.247,518.795
471,5 Jul 2025 20:56:44.126,5 Jul 2025 21:08:12.704,688.579
472,5 Jul 2025 22:35:30.487,5 Jul 2025 22:38:26.257,175.769
473,6 Jul 2025 19:07:19.532,6 Jul 2025 19:14:04.459,404.927
474,6 Jul 2025 20:37:59.266,6 Jul 2025 20:49:31.866,692.600
475,6 Jul 2025 22:14:28.357,6 Jul 2025 22:21:33.763,425.406
476,7 Jul 2025 18:50:37.239,7 Jul 2025 18:53:57.931,200.692
477,7 Jul 2025 20:19:26.002,7 Jul 2025 20:30:44.995,678.993
478,7 Jul 2025 21:54:33.912,7 Jul 2025 22:03:39.863,545.951
479,8 Jul 2025 20:01:04.541,8 Jul 2025 20:11:52.031,647.490
480,8 Jul 2025 21:35:05.576,8 Jul 2025 21:45:25.749,620.173
481,9 Jul 2025 19:42:55.996,9 Jul 2025 19:52:52.078,596.083
482,9 Jul 2025 21:15:54.593,9 Jul 2025 21:26:59.928,665.335
483,10 Jul 2025 19:25:02.946,10 Jul 2025 19:33:42.821,519.875
484,10 Jul 2025 20:56:57.411,10 Jul 2025 21:08:25.834,688.423
485,10 Jul 2025 22:35:46.720,10 Jul 2025 22:38:36.784,170.064
486,11 Jul 2025 19:07:31.696,11 Jul 2025 19:14:18.284,406.588
487,11 Jul 2025 20:38:12.412,11 Jul 2025 20:49:45.068,692.656
488,11 Jul 2025 22:14:42.623,11 Jul 2025 22:21:46.181,423.559
489,12 Jul 2025 18:50:48.272,12 Jul 2025 18:54:12.803,204.531
490,12 Jul 2025 20:19:39.012,12 Jul 2025 20:30:58.267,679.255
491,12 Jul 2025 21:54:47.766,12 Jul 2025 22:03:52.621,544.855
492,13 Jul 2025 20:01:17.407,13 Jul 2025 20:12:05.378,647.971
493,13 Jul 2025 21:35:19.190,13 Jul 2025 21:45:38.678,619.488
494,14 Jul 2025 19:43:08.699,14 Jul 2025 19:53:05.517,596.818
495,14 Jul 2025 21:16:08.028,14 Jul 2025 21:27:12.970,664.941
496,15 Jul 2025 19:25:15.443,15 Jul 2025 19:33:56.392,520.950
497,15 Jul 2025 20:57:10.696,15 Jul 2025 21:08:38.961,688.265
498,15 Jul 2025 22:36:03.064,15 Jul 2025 22:38:47.204,164.140
499,16 Jul 2025 19:07:43.864,16 Jul 2025 19:14:32.104,408.241
500,16 Jul 2025 20:38:25.559,16 Jul 2025 20:49:58.268,692.709
501,16 Jul 2025 22:14:56.894,16 Jul 2025 22:21:58.596,421.701
502,17 Jul 2025 18:50:59.340,17 Jul 2025 18:54:27.640,208.301
503,17 Jul 2025 20:19:52.020,17 Jul 2025 20:31:11.542,679.522
504,17 Jul 2025 21:55:01.623,17 Jul 2025 22:04:05.371,543.748
505,18 Jul 2025 20:01:30.275,18 Jul 2025 20:12:18.724,648.449
506,18 Jul 2025 21:35:32.806,18 Jul 2025 21:45:51.605,618.799
507,19 Jul 2025 19:43:21.404,19 Jul 2025 19:53:18.955,597.551
508,19 Jul 2025 21:16:21.467,19 Jul 2025 21:27:26.010,664.544
509,20 Jul 2025 19:25:27.939,20 Jul 2025 19:34:09.965,522.026
510,20 Jul 2025 20:57:23.984,20 Jul 2025 21:08:52.088,688.104
511,20 Jul 2025 22:36:19.528,20 Jul 2025 22:38:57.501,157.973
512,21 Jul 2025 19:07:56.038,21 Jul 2025 19:14:45.924,409.886
513,21 Jul 2025 20:38:38.709,21 Jul 2025 20:50:11.470,692.760
514,21 Jul 2025 22:15:11.176,21 Jul 2025 22:22:10.999,419.823
515,22 Jul 2025 18:51:10.445,22 Jul 2025 18:54:42.445,212.000
516,22 Jul 2025 20:20:05.034,22 Jul 2025 20:31:24.814,679.780
517,22 Jul 2025 21:55:15.485,22 Jul 2025 22:04:18.123,542.638
518,23 Jul 2025 20:01:43.146,23 Jul 2025 20:12:32.071,648.924
519,23 Jul 2025 21:35:46.427,23 Jul 2025 21:46:04.532,618.105
520,24 Jul 2025 19:43:34.113,24 Jul 2025 19:53:32.393,598.280
521,24 Jul 2025 21:16:34.908,24 Jul 2025 21:27:39.051,664.143
522,25 Jul 2025 19:25:40.442,25 Jul 2025 19:34:23.534,523.092
523,25 Jul 2025 20:57:37.273,25 Jul 2025 21:09:05.214,687.940
524,25 Jul 2025 22:36:36.118,25 Jul 2025 22:39:07.669,151.550
525,26 Jul 2025 19:08:08.217,26 Jul 2025 19:14:59.736,411.519
526,26 Jul 2025 20:38:51.860,26 Jul 2025 20:50:24.669,692.809
527,26 Jul 2025 22:15:25.463,26 Jul 2025 22:22:23.397,417.934
528,27 Jul 2025 18:51:21.586,27 Jul 2025 18:54:57.212,215.627
529,27 Jul 2025 20:20:18.049,27 Jul 2025 20:31:38.083,680.034
530,27 Jul 2025 21:55:29.349,27 Jul 2025 22:04:30.872,541.523
531,28 Jul 2025 20:01:56.018,28 Jul 2025 20:12:45.415,649.397
532,28 Jul 2025 21:36:00.048,28 Jul 2025 21:46:17.455,617.407
533,29 Jul 2025 19:43:46.822,29 Jul 2025 19:53:45.828,599.006
534,29 Jul 2025 21:16:48.348,29 Jul 2025 21:27:52.088,663.739
535,30 Jul 2025 19:25:52.945,30 Jul 2025 19:34:37.099,524.154
536,30 Jul 2025 20:57:50.563,30 Jul 2025 21:09:18.337,687.774
537,30 Jul 2025 22:36:52.866,30 Jul 2025 22:39:17.678,144.812
538,31 Jul 2025 19:08:20.399,31 Jul 2025 19:15:13.542,413.143
539,31 Jul 2025 20:39:05.015,31 Jul 2025 20:50:37.865,692.851
540,31 Jul 2025 22:15:39.762,31 Jul 2025 22:22:35.785,416.022
541,1 Aug 2025 18:51:32.756,1 Aug 2025 18:55:11.952,219.197
542,1 Aug 2025 20:20:31.064,1 Aug 2025 20:31:51.351,680.287
543,1 Aug 2025 21:55:43.218,1 Aug 2025 22:04:43.616,540.398
544,2 Aug 2025 20:02:08.890,2 Aug 2025 20:12:58.758,649.868
545,2 Aug 2025 21:36:13.672,2 Aug 2025 21:46:30.376,616.704
546,3 Aug 2025 19:43:59.533,3 Aug 2025 19:53:59.263,599.730
547,3 Aug 2025 21:17:01.792,3 Aug 2025 21:28:05.124,663.332
548,4 Aug 2025 19:26:05.452,4 Aug 2025 19:34:50.669,525.217
549,4 Aug 2025 20:58:03.856,4 Aug 2025 21:09:31.461,687.605
550,4 Aug 2025 22:37:09.792,4 Aug 2025 22:39:27.514,137.722
551,5 Aug 2025 19:08:32.591,5 Aug 2025 19:15:27.347,414.756
552,5 Aug 2025 20:39:18.168,5 Aug 2025 20:50:51.061,692.892
553,5 Aug 2025 22:15:54.062,5 Aug 2025 22:22:48.162,414.100
554,6 Aug 2025 18:51:43.958,6 Aug 2025 18:55:26.662,222.704
555,6 Aug 2025 20:20:44.082,6 Aug 2025 20:32:04.620,680.537
556,6 Aug 2025 21:55:57.089,6 Aug 2025 22:04:56.358,539.270
557,7 Aug 2025 20:02:21.766,7 Aug 2025 20:13:12.102,650.336
558,7 Aug 2025 21:36:27.298,7 Aug 2025 21:46:43.296,615.998
559,8 Aug 2025 19:44:12.247,8 Aug 2025 19:54:12.697,600.450
560,8 Aug 2025 21:17:15.238,8 Aug 2025 21:28:18.160,662.922
561,9 Aug 2025 19:26:17.962,9 Aug 2025 19:35:04.231,526.270
562,9 Aug 2025 20:58:17.150,9 Aug 2025 21:09:44.583,687.433
563,9 Aug 2025 22:37:26.922,9 Aug 2025 22:39:37.153,130.232
564,10 Aug 2025 19:08:44.785,10 Aug 2025 19:15:41.147,416.362
565,10 Aug 2025 20:39:31.323,10 Aug 2025 20:51:04.257,692.934
566,10 Aug 2025 22:16:08.372,10 Aug 2025 22:23:00.537,412.164
567,11 Aug 2025 18:51:55.190,11 Aug 2025 18:55:41.339,226.149
568,11 Aug 2025 20:20:57.101,11 Aug 2025 20:32:17.886,680.785
569,11 Aug 2025 21:56:10.963,11 Aug 2025 22:05:09.097,538.135
570,12 Aug 2025 20:02:34.641,12 Aug 2025 20:13:25.442,650.801
571,12 Aug 2025 21:36:40.926,12 Aug 2025 21:46:56.213,615.288
572,13 Aug 2025 19:44:24.961,13 Aug 2025 19:54:26.128,601.167
573,13 Aug 2025 21:17:28.684,13 Aug 2025 21:28:31.192,662.508
574,14 Aug 2025 19:26:30.473,14 Aug 2025 19:35:17.792,527.319
575,14 Aug 2025 20:58:30.444,14 Aug 2025 21:09:57.703,687.259
576,14 Aug 2025 22:37:44.284,14 Aug 2025 22:39:46.546,122.262
577,15 Aug 2025 19:08:56.981,15 Aug 2025 19:15:54.945,417.964
578,15 Aug 2025 20:39:44.479,15 Aug 2025 20:51:17.451,692.973
579,15 Aug 2025 22:16:22.692,15 Aug 2025 22:23:12.902,410.210
580,16 Aug 2025 18:52:06.448,16 Aug 2025 18:55:55.994,229.546
581,16 Aug 2025 20:21:10.121,16 Aug 2025 20:32:31.151,681.030
582,16 Aug 2025 21:56:24.841,16 Aug 2025 22:05:21.832,536.991
583,17 Aug 2025 20:02:47.519,17 Aug 2025 20:13:38.783,651.264
584,17 Aug 2025 21:36:54.557,17 Aug 2025 21:47:09.129,614.572
585,18 Aug 2025 19:44:37.678,18 Aug 2025 19:54:39.560,601.882
586,18 Aug 2025 21:17:42.134,18 Aug 2025 21:28:44.225,662.091
587,19 Aug 2025 19:26:42.987,19 Aug 2025 19:35:31.352,528.365
588,19 Aug 2025 20:58:43.741,19 Aug 2025 21:10:10.824,687.082
589,19 Aug 2025 22:38:01.948,19 Aug 2025 22:39:55.649,113.701
590,20 Aug 2025 19:09:09.183,20 Aug 2025 19:16:08.739,419.556
591,20 Aug 2025 20:39:57.637,20 Aug 2025 20:51:30.646,693.009
592,20 Aug 2025 22:16:37.019,20 Aug 2025 22:23:25.262,408.243
593,21 Aug 2025 18:52:17.736,21 Aug 2025 18:56:10.620,232.884
594,21 Aug 2025 20:21:23.143,21 Aug 2025 20:32:44.416,681.273
595,21 Aug 2025 21:56:38.724,21 Aug 2025 22:05:34.565,535.841
596,22 Aug 2025 20:03:00.398,22 Aug 2025 20:13:52.120,651.722
597,22 Aug 2025 21:37:08.190,22 Aug 2025 21:47:22.043,613.853
598,23 Aug 2025 19:44:50.396,23 Aug 2025 19:54:52.988,602.592
599,23 Aug 2025 21:17:55.584,23 Aug 2025 21:28:57.255,661.671
600,24 Aug 2025 19:26:55.504,24 Aug 2025 19:35:44.908,529.405
601,24 Aug 2025 20:58:57.039,24 Aug 2025 21:10:23.942,686.903
602,24 Aug 2025 22:38:19.966,24 Aug 2025 22:40:04.393,104.426
603,25 Aug 2025 19:09:21.388,25 Aug 2025 19:16:22.527,421.138
604,25 Aug 2025 20:40:10.797,25 Aug 2025 20:51:43.838,693.041
605,25 Aug 2025 22:16:51.353,25 Aug 2025 22:23:37.613,406.260
606,26 Aug 2025 18:52:29.048,26 Aug 2025 18:56:25.219,236.171
607,26 Aug 2025 20:21:36.165,26 Aug 2025 20:32:57.678,681.514
608,26 Aug 2025 21:56:52.611,26 Aug 2025 22:05:47.293,534.682
609,27 Aug 2025 20:03:13.278,27 Aug 2025 20:14:05.458,652.180
610,27 Aug 2025 21:37:21.823,27 Aug 2025 21:47:34.953,613.130
611,28 Aug 2025 19:45:03.116,28 Aug 2025 19:55:06.416,603.300
612,28 Aug 2025 21:18:09.030,28 Aug 2025 21:29:10.286,661.256
613,29 Aug 2025 19:27:08.022,29 Aug 2025 19:35:58.459,530.437
614,29 Aug 2025 20:59:10.337,29 Aug 2025 21:10:37.058,686.721
615,29 Aug 2025 22:38:38.460,29 Aug 2025 22:40:12.660,94.200
616,30 Aug 2025 19:09:33.598,30 Aug 2025 19:16:36.312,422.714
617,30 Aug 2025 20:40:23.955,30 Aug 2025 20:51:57.029,693.075
618,30 Aug 2025 22:17:05.694,30 Aug 2025 22:23:49.955,404.261
619,31 Aug 2025 18:52:40.383,31 Aug 2025 18:56:39.797,239.414
620,31 Aug 2025 20:21:49.189,31 Aug 2025 20:33:10.940,681.752
621,31 Aug 2025 21:57:06.498,31 Aug 2025 22:06:00.017,533.519
622,1 Sep 2025 20:03:26.160,1 Sep 2025 20:14:18.795,652.635
623,1 Sep 2025 21:37:35.460,1 Sep 2025 21:47:47.862,612.401
624,2 Sep 2025 19:45:15.838,2 Sep 2025 19:55:19.838,604.000
625,2 Sep 2025 21:18:22.484,2 Sep 2025 21:29:23.313,660.829
626,3 Sep 2025 19:27:20.543,3 Sep 2025 19:36:12.013,531.470
627,3 Sep 2025 20:59:23.638,3 Sep 2025 21:10:50.174,686.536
628,3 Sep 2025 22:38:57.596,3 Sep 2025 22:40:20.285,82.689
629,4 Sep 2025 19:09:45.813,4 Sep 2025 19:16:50.093,424.281
630,4 Sep 2025 20:40:37.116,4 Sep 2025 20:52:10.220,693.104
631,4 Sep 2025 22:17:20.045,4 Sep 2025 22:24:02.290,402.245
632,5 Sep 2025 18:52:51.745,5 Sep 2025 18:56:54.349,242.604
633,5 Sep 2025 20:22:02.214,5 Sep 2025 20:33:24.202,681.987
634,5 Sep 2025 21:57:20.392,5 Sep 2025 22:06:12.739,532.348
635,6 Sep 2025 20:03:39.043,6 Sep 2025 20:14:32.131,653.088
636,6 Sep 2025 21:37:49.095,6 Sep 2025 21:48:00.769,611.674
637,7 Sep 2025 19:45:28.561,7 Sep 2025 19:55:33.263,604.701
638,7 Sep 2025 21:18:35.939,7 Sep 2025 21:29:36.339,660.400
639,8 Sep 2025 19:27:33.067,8 Sep 2025 19:36:25.563,532.497
640,8 Sep 2025 20:59:36.940,8 Sep 2025 21:11:03.288,686.348
641,8 Sep 2025 22:39:17.686,8 Sep 2025 22:40:26.955,69.269
642,9 Sep 2025 19:09:58.031,9 Sep 2025 19:17:03.868,425.838
643,9 Sep 2025 20:40:50.280,9 Sep 2025 20:52:23.409,693.128
644,9 Sep 2025 22:17:34.401,9 Sep 2025 22:24:14.617,400.216
645,10 Sep 2025 18:53:03.128,10 Sep 2025 18:57:08.878,245.749
646,10 Sep 2025 20:22:15.240,10 Sep 2025 20:33:37.460,682.221
647,10 Sep 2025 21:57:34.285,10 Sep 2025 22:06:25.457,531.172
648,11 Sep 2025 20:03:51.926,11 Sep 2025 20:14:45.464,653.538
649,11 Sep 2025 21:38:02.734,11 Sep 2025 21:48:13.672,610.938
650,12 Sep 2025 19:45:41.285,12 Sep 2025 19:55:46.687,605.402
651,12 Sep 2025 21:18:49.394,12 Sep 2025 21:29:49.361,659.967
652,13 Sep 2025 19:27:45.592,13 Sep 2025 19:36:39.113,533.521
653,13 Sep 2025 20:59:50.242,13 Sep 2025 21:11:16.400,686.158
654,13 Sep 2025 22:39:39.476,13 Sep 2025 22:40:31.922,52.446
655,14 Sep 2025 19:10:10.259,14 Sep 2025 19:17:17.642,427.384
656,14 Sep 2025 20:41:03.443,14 Sep 2025 20:52:36.596,693.153
657,14 Sep 2025 22:17:48.768,14 Sep 2025 22:24:26.934,398.166
658,15 Sep 2025 18:53:14.533,15 Sep 2025 18:57:23.388,248.856
659,15 Sep 2025 20:22:28.267,15 Sep 2025 20:33:50.719,682.452
660,15 Sep 2025 21:57:48.184,15 Sep 2025 22:06:38.171,529.987
661,16 Sep 2025 20:04:04.816,16 Sep 2025 20:14:58.797,653.980
662,16 Sep 2025 21:38:16.382,16 Sep 2025 21:48:26.575,610.192
663,17 Sep 2025 19:45:54.016,17 Sep 2025 19:56:00.112,606.096
664,17 Sep 2025 21:19:02.858,17 Sep 2025 21:30:02.381,659.523
665,18 Sep 2025 19:27:58.120,18 Sep 2025 19:36:52.662,534.542
666,18 Sep 2025 21:00:03.547,18 Sep 2025 21:11:29.512,685.965
667,18 Sep 2025 22:40:05.850,18 Sep 2025 22:40:32.312,26.462
668,19 Sep 2025 19:10:22.483,19 Sep 2025 19:17:31.415,428.932
669,19 Sep 2025 20:41:16.604,19 Sep 2025 20:52:49.787,693.183
670,19 Sep 2025 22:18:03.137,19 Sep 2025 22:24:39.250,396.113
671,20 Sep 2025 18:53:25.962,20 Sep 2025 18:57:37.873,251.912
672,20 Sep 2025 20:22:41.296,20 Sep 2025 20:34:03.976,682.680
673,20 Sep 2025 21:58:02.085,20 Sep 2025 22:06:50.883,528.798
674,21 Sep 2025 20:04:17.699,21 Sep 2025 20:15:12.129,654.430
675,21 Sep 2025 21:38:30.022,21 Sep 2025 21:48:39.475,609.453
676,22 Sep 2025 19:46:06.739,22 Sep 2025 19:56:13.531,606.791
677,22 Sep 2025 21:19:16.311,22 Sep 2025 21:30:15.403,659.092
678,23 Sep 2025 19:28:10.650,23 Sep 2025 19:37:06.203,535.553
679,23 Sep 2025 21:00:16.851,23 Sep 2025 21:11:42.620,685.769
680,24 Sep 2025 19:10:34.714,24 Sep 2025 19:17:45.173,430.458
681,24 Sep 2025 20:41:29.769,24 Sep 2025 20:53:02.971,693.202
682,24 Sep 2025 22:18:17.517,24 Sep 2025 22:24:51.550,394.033
683,25 Sep 2025 18:53:37.408,25 Sep 2025 18:57:52.339,254.931
684,25 Sep 2025 20:22:54.324,25 Sep 2025 20:34:17.230,682.906
685,25 Sep 2025 21:58:15.988,25 Sep 2025 22:07:03.589,527.601
686,26 Sep 2025 20:04:30.590,26 Sep 2025 20:15:25.457,654.867
687,26 Sep 2025 21:38:43.668,26 Sep 2025 21:48:52.371,608.703
688,27 Sep 2025 19:46:19.472,27 Sep 2025 19:56:26.948,607.477
689,27 Sep 2025 21:19:29.776,27 Sep 2025 21:30:28.417,658.642
690,28 Sep 2025 19:28:23.181,28 Sep 2025 19:37:19.742,536.561
691,28 Sep 2025 21:00:30.157,28 Sep 2025 21:11:55.728,685.571
692,29 Sep 2025 19:10:46.953,29 Sep 2025 19:17:58.938,431.984
693,29 Sep 2025 20:41:42.936,29 Sep 2025 20:53:16.154,693.218
694,29 Sep 2025 22:18:31.908,29 Sep 2025 22:25:03.842,391.934
695,30 Sep 2025 18:53:48.875,30 Sep 2025 18:58:06.786,257.911
696,30 Sep 2025 20:23:07.355,30 Sep 2025 20:34:30.484,683.129
697,30 Sep 2025 21:58:29.896,30 Sep 2025 22:07:16.293,526.397
698,1 Oct 2025 20:04:43.479,1 Oct 2025 20:15:38.786,655.306
699,1 Oct 2025 21:38:57.317,1 Oct 2025 21:49:05.267,607.950
700,2 Oct 2025 19:46:32.203,2 Oct 2025 19:56:40.365,608.162
701,2 Oct 2025 21:19:43.234,2 Oct 2025 21:30:41.434,658.201
702,3 Oct 2025 19:28:35.716,3 Oct 2025 19:37:33.281,537.565
703,3 Oct 2025 21:00:43.465,3 Oct 2025 21:12:08.835,685.370
704,4 Oct 2025 19:10:59.195,4 Oct 2025 19:18:12.692,433.497
705,4 Oct 2025 20:41:56.104,4 Oct 2025 20:53:29.337,693.233
706,4 Oct 2025 22:18:46.306,4 Oct 2025 22:25:16.127,389.821
707,5 Oct 2025 18:54:00.364,5 Oct 2025 18:58:21.211,260.847
708,5 Oct 2025 20:23:20.387,5 Oct 2025 20:34:43.737,683.350
709,5 Oct 2025 21:58:43.806,5 Oct 2025 22:07:28.994,525.188
710,6 Oct 2025 20:04:56.370,6 Oct 2025 20:15:52.112,655.742
711,6 Oct 2025 21:39:10.966,6 Oct 2025 21:49:18.160,607.193
712,7 Oct 2025 19:46:44.935,7 Oct 2025 19:56:53.779,608.844
713,7 Oct 2025 21:19:56.700,7 Oct 2025 21:30:54.452,657.751
714,8 Oct 2025 19:28:48.254,8 Oct 2025 19:37:46.817,538.563
715,8 Oct 2025 21:00:56.773,8 Oct 2025 21:12:21.939,685.166
716,9 Oct 2025 19:11:11.438,9 Oct 2025 19:18:26.442,435.005
717,9 Oct 2025 20:42:09.272,9 Oct 2025 20:53:42.516,693.244
718,9 Oct 2025 22:19:00.712,9 Oct 2025 22:25:28.401,387.689
719,10 Oct 2025 18:54:11.869,10 Oct 2025 18:58:35.619,263.751
720,10 Oct 2025 20:23:33.419,10 Oct 2025 20:34:56.987,683.568
721,10 Oct 2025 21:58:57.719,10 Oct 2025 22:07:41.689,523.970
722,11 Oct 2025 20:05:09.261,11 Oct 2025 20:16:05.437,656.176
723,11 Oct 2025 21:39:24.618,11 Oct 2025 21:49:31.049,606.431
724,12 Oct 2025 19:46:57.668,12 Oct 2025 19:57:07.192,609.523
725,12 Oct 2025 21:20:10.160,12 Oct 2025 21:31:07.464,657.303
726,13 Oct 2025 19:29:00.793,13 Oct 2025 19:38:00.352,539.559
727,13 Oct 2025 21:01:10.083,13 Oct 2025 21:12:35.043,684.960
728,14 Oct 2025 19:11:23.686,14 Oct 2025 19:18:40.190,436.504
729,14 Oct 2025 20:42:22.442,14 Oct 2025 20:53:55.696,693.254
730,14 Oct 2025 22:19:15.129,14 Oct 2025 22:25:40.667,385.538
731,15 Oct 2025 18:54:23.393,15 Oct 2025 18:58:50.009,266.616
732,15 Oct 2025 20:23:46.453,15 Oct 2025 20:35:10.238,683.784
733,15 Oct 2025 21:59:11.637,15 Oct 2025 22:07:54.383,522.746
734,16 Oct 2025 20:05:22.154,16 Oct 2025 20:16:18.759,656.605
735,16 Oct 2025 21:39:38.273,16 Oct 2025 21:49:43.938,605.666
736,17 Oct 2025 19:47:10.404,17 Oct 2025 19:57:20.603,610.198
737,17 Oct 2025 21:20:23.627,17 Oct 2025 21:31:20.476,656.849
738,18 Oct 2025 19:29:13.334,18 Oct 2025 19:38:13.884,540.549
739,18 Oct 2025 21:01:23.394,18 Oct 2025 21:12:48.145,684.751
740,19 Oct 2025 19:11:35.939,19 Oct 2025 19:18:53.931,437.992
741,19 Oct 2025 20:42:35.613,19 Oct 2025 20:54:08.874,693.261
742,19 Oct 2025 22:19:29.552,19 Oct 2025 22:25:52.926,383.373
743,20 Oct 2025 18:54:34.937,20 Oct 2025 18:59:04.378,269.442
744,20 Oct 2025 20:23:59.488,20 Oct 2025 20:35:23.485,683.997
745,20 Oct 2025 21:59:25.556,20 Oct 2025 22:08:07.075,521.519
746,21 Oct 2025 20:05:35.047,21 Oct 2025 20:16:32.081,657.034
747,21 Oct 2025 21:39:51.927,21 Oct 2025 21:49:56.824,604.897
748,22 Oct 2025 19:47:23.140,22 Oct 2025 19:57:34.011,610.870
749,22 Oct 2025 21:20:37.094,22 Oct 2025 21:31:33.484,656.391
750,23 Oct 2025 19:29:25.876,23 Oct 2025 19:38:27.412,541.536
751,23 Oct 2025 21:01:36.705,23 Oct 2025 21:13:01.244,684.540
752,24 Oct 2025 19:11:48.200,24 Oct 2025 19:19:07.665,439.464
753,24 Oct 2025 20:42:48.787,24 Oct 2025 20:54:22.045,693.258
754,24 Oct 2025 22:19:43.989,24 Oct 2025 22:26:05.168,381.180
755,25 Oct 2025 18:54:46.495,25 Oct 2025 18:59:18.729,272.234
756,25 Oct 2025 20:24:12.522,25 Oct 2025 20:35:36.727,684.205
757,25 Oct 2025 21:59:39.476,25 Oct 2025 22:08:19.759,520.283
758,26 Oct 2025 20:05:47.938,26 Oct 2025 20:16:45.404,657.466
759,26 Oct 2025 21:40:05.585,26 Oct 2025 21:50:09.707,604.123
760,27 Oct 2025 19:47:35.878,27 Oct 2025 19:57:47.418,611.539
761,27 Oct 2025 21:20:50.563,27 Oct 2025 21:31:46.492,655.928
762,28 Oct 2025 19:29:38.422,28 Oct 2025 19:38:40.940,542.518
763,28 Oct 2025 21:01:50.018,28 Oct 2025 21:13:14.343,684.325
764,29 Oct 2025 19:12:00.462,29 Oct 2025 19:19:21.399,440.937
765,29 Oct 2025 20:43:01.960,29 Oct 2025 20:54:35.220,693.260
766,29 Oct 2025 22:19:58.431,29 Oct 2025 22:26:17.412,378.981
767,30 Oct 2025 18:54:58.072,30 Oct 2025 18:59:33.066,274.993
768,30 Oct 2025 20:24:25.559,30 Oct 2025 20:35:49.973,684.414
769,30 Oct 2025 21:59:53.403,30 Oct 2025 22:08:32.443,519.039
770,31 Oct 2025 20:06:00.835,31 Oct 2025 20:16:58.723,657.888
771,31 Oct 2025 21:40:19.250,31 Oct 2025 21:50:22.590,603.340
772,1 Nov 2025 19:47:48.619,1 Nov 2025 19:58:00.823,612.204
773,1 Nov 2025 21:21:04.035,1 Nov 2025 21:31:59.498,655.464
774,2 Nov 2025 19:29:50.970,2 Nov 2025 19:38:54.464,543.494
775,2 Nov 2025 21:02:03.332,2 Nov 2025 21:13:27.441,684.109
776,3 Nov 2025 19:12:12.728,3 Nov 2025 19:19:35.127,442.399
777,3 Nov 2025 20:43:15.134,3 Nov 2025 20:54:48.393,693.259
778,3 Nov 2025 22:20:12.881,3 Nov 2025 22:26:29.643,376.762
779,4 Nov 2025 18:55:09.666,4 Nov 2025 18:59:47.383,277.717
780,4 Nov 2025 20:24:38.597,4 Nov 2025 20:36:03.217,684.620
781,4 Nov 2025 22:00:07.332,4 Nov 2025 22:08:45.122,517.790
782,5 Nov 2025 20:06:13.732,5 Nov 2025 20:17:12.040,658.308
783,5 Nov 2025 21:40:32.910,5 Nov 2025 21:50:35.469,602.559
784,6 Nov 2025 19:48:01.360,6 Nov 2025 19:58:14.225,612.866
785,6 Nov 2025 21:21:17.506,6 Nov 2025 21:32:12.502,654.996
786,7 Nov 2025 19:30:03.519,7 Nov 2025 19:39:07.986,544.467
787,7 Nov 2025 21:02:16.647,7 Nov 2025 21:13:40.536,683.890
788,8 Nov 2025 19:12:24.997,8 Nov 2025 19:19:48.850,443.853
789,8 Nov 2025 20:43:28.306,8 Nov 2025 20:55:01.565,693.259
790,8 Nov 2025 22:20:27.341,8 Nov 2025 22:26:41.862,374.521
791,9 Nov 2025 18:55:21.274,9 Nov 2025 19:00:01.688,280.415
792,9 Nov 2025 20:24:51.636,9 Nov 2025 20:36:16.459,684.823
793,9 Nov 2025 22:00:21.265,9 Nov 2025 22:08:57.797,516.532
794,10 Nov 2025 20:06:26.635,10 Nov 2025 20:17:25.355,658.721
795,10 Nov 2025 21:40:46.574,10 Nov 2025 21:50:48.346,601.773
796,11 Nov 2025 19:48:14.103,11 Nov 2025 19:58:27.628,613.525
797,11 Nov 2025 21:21:30.980,11 Nov 2025 21:32:25.505,654.525
798,12 Nov 2025 19:30:16.072,12 Nov 2025 19:39:21.506,545.435
799,12 Nov 2025 21:02:29.964,12 Nov 2025 21:13:53.632,683.668
800,13 Nov 2025 19:12:37.272,13 Nov 2025 19:20:02.571,445.299
801,13 Nov 2025 20:43:41.483,13 Nov 2025 20:55:14.736,693.253
802,13 Nov 2025 22:20:41.812,13 Nov 2025 22:26:54.075,372.263
803,14 Nov 2025 18:55:32.900,14 Nov 2025 19:00:15.976,283.076
804,14 Nov 2025 20:25:04.677,14 Nov 2025 20:36:29.701,685.024
805,14 Nov 2025 22:00:35.202,14 Nov 2025 22:09:10.471,515.269
806,15 Nov 2025 20:06:39.535,15 Nov 2025 20:17:38.670,659.135
807,15 Nov 2025 21:41:00.239,15 Nov 2025 21:51:01.223,600.983
808,16 Nov 2025 19:48:26.848,16 Nov 2025 19:58:41.027,614.179
809,16 Nov 2025 21:21:44.452,16 Nov 2025 21:32:38.507,654.055
810,17 Nov 2025 19:30:28.627,17 Nov 2025 19:39:35.023,546.396
811,17 Nov 2025 21:02:43.281,17 Nov 2025 21:14:06.725,683.444
812,18 Nov 2025 19:12:49.550,18 Nov 2025 19:20:16.286,446.736
813,18 Nov 2025 20:43:54.661,18 Nov 2025 20:55:27.905,693.245
814,18 Nov 2025 22:20:56.289,18 Nov 2025 22:27:06.277,369.988
815,19 Nov 2025 18:55:44.540,19 Nov 2025 19:00:30.246,285.705
816,19 Nov 2025 20:25:17.718,19 Nov 2025 20:36:42.940,685.222
817,19 Nov 2025 22:00:49.140,19 Nov 2025 22:09:23.140,514.000
818,20 Nov 2025 20:06:52.436,20 Nov 2025 20:17:51.982,659.546
819,20 Nov 2025 21:41:13.906,20 Nov 2025 21:51:14.096,600.190
820,21 Nov 2025 19:48:39.594,21 Nov 2025 19:58:54.424,614.830
821,21 Nov 2025 21:21:57.928,21 Nov 2025 21:32:51.506,653.578
822,22 Nov 2025 19:30:41.183,22 Nov 2025 19:39:48.537,547.353
823,22 Nov 2025 21:02:56.600,22 Nov 2025 21:14:19.816,683.216
824,23 Nov 2025 19:13:01.831,23 Nov 2025 19:20:30.001,448.170
825,23 Nov 2025 20:44:07.836,23 Nov 2025 20:55:41.077,693.241
826,23 Nov 2025 22:21:10.774,23 Nov 2025 22:27:18.469,367.695
827,24 Nov 2025 18:55:56.199,24 Nov 2025 19:00:44.506,288.307
828,24 Nov 2025 20:25:30.764,24 Nov 2025 20:36:56.182,685.418
829,24 Nov 2025 22:01:03.086,24 Nov 2025 22:09:35.806,512.719
830,25 Nov 2025 20:07:05.339,25 Nov 2025 20:18:05.293,659.954
831,25 Nov 2025 21:41:27.576,25 Nov 2025 21:51:26.968,599.392
832,26 Nov 2025 19:48:52.343,26 Nov 2025 19:59:07.821,615.478
833,26 Nov 2025 21:22:11.407,26 Nov 2025 21:33:04.505,653.098
834,27 Nov 2025 19:30:53.743,27 Nov 2025 19:40:02.049,548.306
835,27 Nov 2025 21:03:09.921,27 Nov 2025 21:14:32.908,682.987
836,28 Nov 2025 19:13:14.115,28 Nov 2025 19:20:43.706,449.591
837,28 Nov 2025 20:44:21.019,28 Nov 2025 20:55:54.241,693.222
838,28 Nov 2025 22:21:25.277,28 Nov 2025 22:27:30.654,365.376
839,29 Nov 2025 18:56:07.866,29 Nov 2025 19:00:58.746,290.879
840,29 Nov 2025 20:25:43.805,29 Nov 2025 20:37:09.417,685.611
841,29 Nov 2025 22:01:17.031,29 Nov 2025 22:09:48.471,511.439
842,30 Nov 2025 20:07:18.244,30 Nov 2025 20:18:18.602,660.358
843,30 Nov 2025 21:41:41.247,30 Nov 2025 21:51:39.839,598.591
844,1 Dec 2025 19:49:05.093,1 Dec 2025 19:59:21.215,616.122
845,1 Dec 2025 21:22:24.884,1 Dec 2025 21:33:17.502,652.618
846,2 Dec 2025 19:31:06.305,2 Dec 2025 19:40:15.557,549.252
847,2 Dec 2025 21:03:23.243,2 Dec 2025 21:14:45.997,682.754
848,3 Dec 2025 19:13:26.410,3 Dec 2025 19:20:57.410,451.001
849,3 Dec 2025 20:44:34.197,3 Dec 2025 20:56:07.411,693.214
850,3 Dec 2025 22:21:39.781,3 Dec 2025 22:27:42.825,363.044
851,4 Dec 2025 18:56:19.555,4 Dec 2025 19:01:12.974,293.419
852,4 Dec 2025 20:25:56.853,4 Dec 2025 20:37:22.652,685.799
853,4 Dec 2025 22:01:30.983,4 Dec 2025 22:10:01.129,510.147
854,5 Dec 2025 20:07:31.149,5 Dec 2025 20:18:31.910,660.761
855,5 Dec 2025 21:41:54.920,5 Dec 2025 21:51:52.706,597.786
856,6 Dec 2025 19:49:17.844,6 Dec 2025 19:59:34.607,616.763
857,6 Dec 2025 21:22:38.364,6 Dec 2025 21:33:30.497,652.133
858,7 Dec 2025 19:31:18.869,7 Dec 2025 19:40:29.064,550.195
859,7 Dec 2025 21:03:36.566,7 Dec 2025 21:14:59.085,682.519
860,8 Dec 2025 19:13:38.704,8 Dec 2025 19:21:11.110,452.406
861,8 Dec 2025 20:44:47.379,8 Dec 2025 20:56:20.576,693.196
862,8 Dec 2025 22:21:54.301,8 Dec 2025 22:27:54.987,360.685
863,9 Dec 2025 18:56:31.253,9 Dec 2025 19:01:27.191,295.937
864,9 Dec 2025 20:26:09.900,9 Dec 2025 20:37:35.887,685.987
865,9 Dec 2025 22:01:44.937,9 Dec 2025 22:10:13.786,508.849
866,10 Dec 2025 20:07:44.058,10 Dec 2025 20:18:45.214,661.157
867,10 Dec 2025 21:42:08.597,10 Dec 2025 21:52:05.573,596.976
868,11 Dec 2025 19:49:30.599,11 Dec 2025 19:59:47.999,617.400
869,11 Dec 2025 21:22:51.848,11 Dec 2025 21:33:43.492,651.645
870,12 Dec 2025 19:31:31.437,12 Dec 2025 19:40:42.570,551.133
871,12 Dec 2025 21:03:49.892,12 Dec 2025 21:15:12.174,682.281
872,13 Dec 2025 19:13:51.004,13 Dec 2025 19:21:24.805,453.801
873,13 Dec 2025 20:45:00.563,13 Dec 2025 20:56:33.740,693.177
874,13 Dec 2025 22:22:08.832,13 Dec 2025 22:28:07.144,358.312
875,14 Dec 2025 18:56:42.967,14 Dec 2025 19:01:41.390,298.423
876,14 Dec 2025 20:26:22.949,14 Dec 2025 20:37:49.122,686.173
877,14 Dec 2025 22:01:58.895,14 Dec 2025 22:10:26.441,507.546
878,15 Dec 2025 20:07:56.967,15 Dec 2025 20:18:58.520,661.553
879,15 Dec 2025 21:42:22.275,15 Dec 2025 21:52:18.438,596.163
880,16 Dec 2025 19:49:43.354,16 Dec 2025 20:00:01.388,618.034
881,16 Dec 2025 21:23:05.329,16 Dec 2025 21:33:56.486,651.157
882,17 Dec 2025 19:31:44.006,17 Dec 2025 19:40:56.071,552.064
883,17 Dec 2025 21:04:03.219,17 Dec 2025 21:15:25.260,682.041
884,18 Dec 2025 19:14:03.308,18 Dec 2025 19:21:38.495,455.187
885,18 Dec 2025 20:45:13.748,18 Dec 2025 20:56:46.902,693.155
886,18 Dec 2025 22:22:23.371,18 Dec 2025 22:28:19.290,355.919
887,19 Dec 2025 18:56:54.692,19 Dec 2025 19:01:55.576,300.885
888,19 Dec 2025 20:26:35.998,19 Dec 2025 20:38:02.354,686.356
889,19 Dec 2025 22:02:12.856,19 Dec 2025 22:10:39.092,506.236
890,20 Dec 2025 20:08:09.877,20 Dec 2025 20:19:11.824,661.947
891,20 Dec 2025 21:42:35.955,20 Dec 2025 21:52:31.301,595.346
892,21 Dec 2025 19:49:56.112,21 Dec 2025 20:00:14.776,618.664
893,21 Dec 2025 21:23:18.815,21 Dec 2025 21:34:09.478,650.663
894,22 Dec 2025 19:31:56.579,22 Dec 2025 19:41:09.571,552.993
895,22 Dec 2025 21:04:16.547,22 Dec 2025 21:15:38.346,681.798
896,23 Dec 2025 19:14:15.616,23 Dec 2025 19:21:52.183,456.566
897,23 Dec 2025 20:45:26.935,23 Dec 2025 20:57:00.065,693.130
898,23 Dec 2025 22:22:37.925,23 Dec 2025 22:28:31.423,353.498
899,24 Dec 2025 18:57:06.429,24 Dec 2025 19:02:09.752,303.323
900,24 Dec 2025 20:26:49.050,24 Dec 2025 20:38:15.587,686.537
901,24 Dec 2025 22:02:26.820,24 Dec 2025 22:10:51.740,504.920
902,25 Dec 2025 20:08:22.790,25 Dec 2025 20:19:25.129,662.338
903,25 Dec 2025 21:42:49.639,25 Dec 2025 21:52:44.164,594.525
904,26 Dec 2025 19:50:08.872,26 Dec 2025 20:00:28.160,619.288
905,26 Dec 2025 21:23:32.304,26 Dec 2025 21:34:22.470,650.166
906,27 Dec 2025 19:32:09.155,27 Dec 2025 19:41:23.070,553.915
907,27 Dec 2025 21:04:29.876,27 Dec 2025 21:15:51.431,681.556
908,28 Dec 2025 19:14:27.930,28 Dec 2025 19:22:05.866,457.936
909,28 Dec 2025 20:45:40.124,28 Dec 2025 20:57:13.227,693.103
910,28 Dec 2025 22:22:52.489,28 Dec 2025 22:28:43.548,351.059
911,29 Dec 2025 18:57:18.182,29 Dec 2025 19:02:23.916,305.735
912,29 Dec 2025 20:27:02.099,29 Dec 2025 20:38:28.818,686.719
913,29 Dec 2025 22:02:40.791,29 Dec 2025 22:11:04.382,503.591
914,30 Dec 2025 20:08:35.701,30 Dec 2025 20:19:38.436,662.735
915,30 Dec 2025 21:43:03.324,30 Dec 2025 21:52:57.020,593.696
916,31 Dec 2025 19:50:21.634,31 Dec 2025 20:00:41.545,619.911
917,31 Dec 2025 21:23:45.793,31 Dec 2025 21:34:35.460,649.667

Global Statistics
"Min Duration",667,18 Sep 2025 22:40:05.850,18 Sep 2025 22:40:32.312,26.462
"Max Duration",741,19 Oct 2025 20:42:35.613,19 Oct 2025 20:54:08.874,693.261
"Mean Duration",,,,541.333
"Total Duration",,,,496402.637


