3UCubedIntegratedSim/Reports & Plots/Comms/SSU/Sat10 Comms.csv

"Access","Start Time (UTCG)","Stop Time (UTCG)","Duration (sec)"
1,1 Jan 2025 18:06:26.276,1 Jan 2025 18:17:48.898,682.621
2,1 Jan 2025 19:40:56.508,1 Jan 2025 19:50:06.323,549.815
3,2 Jan 2025 17:47:54.831,2 Jan 2025 17:58:47.154,652.323
4,2 Jan 2025 19:21:50.914,2 Jan 2025 19:32:07.424,616.509
5,3 Jan 2025 17:29:32.567,3 Jan 2025 17:39:30.671,598.103
6,3 Jan 2025 19:02:53.565,3 Jan 2025 19:13:54.171,660.605
7,4 Jan 2025 17:11:24.055,4 Jan 2025 17:19:54.706,510.651
8,4 Jan 2025 18:44:02.786,4 Jan 2025 18:55:28.517,685.731
9,4 Jan 2025 20:20:12.919,4 Jan 2025 20:25:05.286,292.367
10,5 Jan 2025 16:53:42.161,5 Jan 2025 16:59:46.118,363.957
11,5 Jan 2025 18:25:18.001,5 Jan 2025 18:36:51.219,693.218
12,5 Jan 2025 20:00:28.256,5 Jan 2025 20:07:58.679,450.423
13,6 Jan 2025 18:06:39.376,6 Jan 2025 18:18:02.223,682.847
14,6 Jan 2025 19:41:10.024,6 Jan 2025 19:50:18.896,548.871
15,7 Jan 2025 17:48:07.832,7 Jan 2025 17:59:00.644,652.813
16,7 Jan 2025 19:22:04.313,7 Jan 2025 19:32:20.181,615.869
17,8 Jan 2025 17:29:45.444,8 Jan 2025 17:39:44.352,598.908
18,8 Jan 2025 19:03:06.882,8 Jan 2025 19:14:07.083,660.202
19,9 Jan 2025 17:11:36.723,9 Jan 2025 17:20:08.660,511.937
20,9 Jan 2025 18:44:16.034,9 Jan 2025 18:55:41.572,685.537
21,9 Jan 2025 20:20:27.161,9 Jan 2025 20:25:16.966,289.806
22,10 Jan 2025 16:53:54.345,10 Jan 2025 17:00:00.632,366.287
23,10 Jan 2025 18:25:31.176,10 Jan 2025 18:37:04.407,693.231
24,10 Jan 2025 20:00:41.969,10 Jan 2025 20:08:10.975,449.007
25,11 Jan 2025 18:06:52.474,11 Jan 2025 18:18:15.553,683.078
26,11 Jan 2025 19:41:23.543,11 Jan 2025 19:50:31.464,547.921
27,12 Jan 2025 17:48:20.836,12 Jan 2025 17:59:14.130,653.294
28,12 Jan 2025 19:22:17.717,12 Jan 2025 19:32:32.938,615.221
29,13 Jan 2025 17:29:58.321,13 Jan 2025 17:39:58.030,599.709
30,13 Jan 2025 19:03:20.199,13 Jan 2025 19:14:19.994,659.795
31,14 Jan 2025 17:11:49.393,14 Jan 2025 17:20:22.613,513.220
32,14 Jan 2025 18:44:29.279,14 Jan 2025 18:55:54.621,685.342
33,14 Jan 2025 20:20:41.417,14 Jan 2025 20:25:28.635,287.219
34,15 Jan 2025 16:54:06.537,15 Jan 2025 17:00:15.135,368.598
35,15 Jan 2025 18:25:44.350,15 Jan 2025 18:37:17.593,693.242
36,15 Jan 2025 20:00:55.684,15 Jan 2025 20:08:23.265,447.581
37,16 Jan 2025 18:07:05.572,16 Jan 2025 18:18:28.879,683.307
38,16 Jan 2025 19:41:37.061,16 Jan 2025 19:50:44.028,546.967
39,17 Jan 2025 17:48:33.841,17 Jan 2025 17:59:27.613,653.772
40,17 Jan 2025 19:22:31.120,17 Jan 2025 19:32:45.691,614.571
41,18 Jan 2025 17:30:11.200,18 Jan 2025 17:40:11.705,600.505
42,18 Jan 2025 19:03:33.521,18 Jan 2025 19:14:32.902,659.381
43,19 Jan 2025 17:12:02.068,19 Jan 2025 17:20:36.562,514.494
44,19 Jan 2025 18:44:42.524,19 Jan 2025 18:56:07.668,685.144
45,19 Jan 2025 20:20:55.683,19 Jan 2025 20:25:40.292,284.609
46,20 Jan 2025 16:54:18.741,20 Jan 2025 17:00:29.626,370.885
47,20 Jan 2025 18:25:57.526,20 Jan 2025 18:37:30.777,693.251
48,20 Jan 2025 20:01:09.402,20 Jan 2025 20:08:35.553,446.151
49,21 Jan 2025 18:07:18.671,21 Jan 2025 18:18:42.205,683.533
50,21 Jan 2025 19:41:50.582,21 Jan 2025 19:50:56.591,546.009
51,22 Jan 2025 17:48:46.849,22 Jan 2025 17:59:41.095,654.246
52,22 Jan 2025 19:22:44.520,22 Jan 2025 19:32:58.444,613.924
53,23 Jan 2025 17:30:24.083,23 Jan 2025 17:40:25.379,601.296
54,23 Jan 2025 19:03:46.841,23 Jan 2025 19:14:45.810,658.969
55,24 Jan 2025 17:12:14.747,24 Jan 2025 17:20:50.508,515.761
56,24 Jan 2025 18:44:55.772,24 Jan 2025 18:56:20.718,684.946
57,24 Jan 2025 20:21:09.966,24 Jan 2025 20:25:51.935,281.969
58,25 Jan 2025 16:54:30.956,25 Jan 2025 17:00:44.109,373.153
59,25 Jan 2025 18:26:10.704,25 Jan 2025 18:37:43.961,693.257
60,25 Jan 2025 20:01:23.125,25 Jan 2025 20:08:47.836,444.711
61,26 Jan 2025 18:07:31.773,26 Jan 2025 18:18:55.529,683.757
62,26 Jan 2025 19:42:04.106,26 Jan 2025 19:51:09.152,545.046
63,27 Jan 2025 17:48:59.859,27 Jan 2025 17:59:54.576,654.717
64,27 Jan 2025 19:22:57.927,27 Jan 2025 19:33:11.194,613.268
65,28 Jan 2025 17:30:36.967,28 Jan 2025 17:40:39.051,602.084
66,28 Jan 2025 19:04:00.162,28 Jan 2025 19:14:58.717,658.554
67,29 Jan 2025 17:12:27.428,29 Jan 2025 17:21:04.450,517.021
68,29 Jan 2025 18:45:09.019,29 Jan 2025 18:56:33.763,684.744
69,29 Jan 2025 20:21:24.264,29 Jan 2025 20:26:03.561,279.297
70,30 Jan 2025 16:54:43.179,30 Jan 2025 17:00:58.581,375.402
71,30 Jan 2025 18:26:23.881,30 Jan 2025 18:37:57.142,693.262
72,30 Jan 2025 20:01:36.851,30 Jan 2025 20:09:00.114,443.264
73,31 Jan 2025 18:07:44.874,31 Jan 2025 18:19:08.849,683.975
74,31 Jan 2025 19:42:17.630,31 Jan 2025 19:51:21.709,544.078
75,1 Feb 2025 17:49:12.872,1 Feb 2025 18:00:08.051,655.178
76,1 Feb 2025 19:23:11.337,1 Feb 2025 19:33:23.942,612.605
77,2 Feb 2025 17:30:49.852,2 Feb 2025 17:40:52.719,602.866
78,2 Feb 2025 19:04:13.478,2 Feb 2025 19:15:11.620,658.142
79,3 Feb 2025 17:12:40.113,3 Feb 2025 17:21:18.387,518.273
80,3 Feb 2025 18:45:22.268,3 Feb 2025 18:56:46.807,684.540
81,3 Feb 2025 20:21:38.574,3 Feb 2025 20:26:15.174,276.600
82,4 Feb 2025 16:54:55.414,4 Feb 2025 17:01:13.042,377.629
83,4 Feb 2025 18:26:37.059,4 Feb 2025 18:38:10.323,693.263
84,4 Feb 2025 20:01:50.579,4 Feb 2025 20:09:12.390,441.811
85,5 Feb 2025 18:07:57.977,5 Feb 2025 18:19:22.175,684.197
86,5 Feb 2025 19:42:31.157,5 Feb 2025 19:51:34.265,543.108
87,6 Feb 2025 17:49:25.885,6 Feb 2025 18:00:21.528,655.643
88,6 Feb 2025 19:23:24.747,6 Feb 2025 19:33:36.690,611.943
89,7 Feb 2025 17:31:02.741,7 Feb 2025 17:41:06.386,603.645
90,7 Feb 2025 19:04:26.802,7 Feb 2025 19:15:24.524,657.722
91,8 Feb 2025 17:12:52.803,8 Feb 2025 17:21:32.322,519.519
92,8 Feb 2025 18:45:35.519,8 Feb 2025 18:56:59.851,684.332
93,8 Feb 2025 20:21:52.902,8 Feb 2025 20:26:26.770,273.868
94,9 Feb 2025 16:55:07.657,9 Feb 2025 17:01:27.495,379.839
95,9 Feb 2025 18:26:50.240,9 Feb 2025 18:38:23.503,693.263
96,9 Feb 2025 20:02:04.314,9 Feb 2025 20:09:24.661,440.347
97,10 Feb 2025 18:08:11.082,10 Feb 2025 18:19:35.494,684.412
98,10 Feb 2025 19:42:44.686,10 Feb 2025 19:51:46.818,542.132
99,11 Feb 2025 17:49:38.899,11 Feb 2025 18:00:35.003,656.105
100,11 Feb 2025 19:23:38.157,11 Feb 2025 19:33:49.435,611.278
101,12 Feb 2025 17:31:15.631,12 Feb 2025 17:41:20.050,604.419
102,12 Feb 2025 19:04:40.126,12 Feb 2025 19:15:37.429,657.304
103,13 Feb 2025 17:13:05.494,13 Feb 2025 17:21:46.251,520.758
104,13 Feb 2025 18:45:48.769,13 Feb 2025 18:57:12.892,684.123
105,13 Feb 2025 20:22:07.244,13 Feb 2025 20:26:38.350,271.105
106,14 Feb 2025 16:55:19.909,14 Feb 2025 17:01:41.937,382.028
107,14 Feb 2025 18:27:03.416,14 Feb 2025 18:38:36.680,693.264
108,14 Feb 2025 20:02:18.049,14 Feb 2025 20:09:36.927,438.878
109,15 Feb 2025 18:08:24.187,15 Feb 2025 18:19:48.807,684.620
110,15 Feb 2025 19:42:58.215,15 Feb 2025 19:51:59.366,541.151
111,16 Feb 2025 17:49:51.913,16 Feb 2025 18:00:48.478,656.565
112,16 Feb 2025 19:23:51.564,16 Feb 2025 19:34:02.178,610.614
113,17 Feb 2025 17:31:28.522,17 Feb 2025 17:41:33.711,605.189
114,17 Feb 2025 19:04:53.455,17 Feb 2025 19:15:50.329,656.874
115,18 Feb 2025 17:13:18.190,18 Feb 2025 17:22:00.180,521.990
116,18 Feb 2025 18:46:02.017,18 Feb 2025 18:57:25.933,683.916
117,18 Feb 2025 20:22:21.604,18 Feb 2025 20:26:49.914,268.310
118,19 Feb 2025 16:55:32.172,19 Feb 2025 17:01:56.369,384.197
119,19 Feb 2025 18:27:16.602,19 Feb 2025 18:38:49.856,693.254
120,19 Feb 2025 20:02:31.789,19 Feb 2025 20:09:49.191,437.402
121,20 Feb 2025 18:08:37.294,20 Feb 2025 18:20:02.128,684.834
122,20 Feb 2025 19:43:11.748,20 Feb 2025 19:52:11.917,540.169
123,21 Feb 2025 17:50:04.930,21 Feb 2025 18:01:01.945,657.015
124,21 Feb 2025 19:24:04.980,21 Feb 2025 19:34:14.921,609.940
125,22 Feb 2025 17:31:41.417,22 Feb 2025 17:41:47.371,605.954
126,22 Feb 2025 19:05:06.777,22 Feb 2025 19:16:03.228,656.451
127,23 Feb 2025 17:13:30.890,23 Feb 2025 17:22:14.104,523.214
128,23 Feb 2025 18:46:15.270,23 Feb 2025 18:57:38.973,683.702
129,23 Feb 2025 20:22:35.980,23 Feb 2025 20:27:01.461,265.481
130,24 Feb 2025 16:55:44.443,24 Feb 2025 17:02:10.793,386.350
131,24 Feb 2025 18:27:29.781,24 Feb 2025 18:39:03.032,693.251
132,24 Feb 2025 20:02:45.533,24 Feb 2025 20:10:01.450,435.917
133,25 Feb 2025 18:08:50.403,25 Feb 2025 18:20:15.439,685.036
134,25 Feb 2025 19:43:25.282,25 Feb 2025 19:52:24.461,539.178
135,26 Feb 2025 17:50:17.948,26 Feb 2025 18:01:15.419,657.472
136,26 Feb 2025 19:24:18.392,26 Feb 2025 19:34:27.660,609.268
137,27 Feb 2025 17:31:54.312,27 Feb 2025 17:42:01.028,606.716
138,27 Feb 2025 19:05:20.108,27 Feb 2025 19:16:16.125,656.016
139,28 Feb 2025 17:13:43.595,28 Feb 2025 17:22:28.024,524.429
140,28 Feb 2025 18:46:28.524,28 Feb 2025 18:57:52.013,683.489
141,28 Feb 2025 20:22:50.371,28 Feb 2025 20:27:12.988,262.617
142,1 Mar 2025 16:55:56.722,1 Mar 2025 17:02:25.206,388.485
143,1 Mar 2025 18:27:42.965,1 Mar 2025 18:39:16.205,693.240
144,1 Mar 2025 20:02:59.279,1 Mar 2025 20:10:13.703,434.424
145,2 Mar 2025 18:09:03.509,2 Mar 2025 18:20:28.751,685.242
146,2 Mar 2025 19:43:38.815,2 Mar 2025 19:52:37.003,538.189
147,3 Mar 2025 17:50:30.966,3 Mar 2025 18:01:28.886,657.920
148,3 Mar 2025 19:24:31.807,3 Mar 2025 19:34:40.398,608.591
149,4 Mar 2025 17:32:07.211,4 Mar 2025 17:42:14.682,607.472
150,4 Mar 2025 19:05:33.436,4 Mar 2025 19:16:29.020,655.584
151,5 Mar 2025 17:13:56.302,5 Mar 2025 17:22:41.935,525.633
152,5 Mar 2025 18:46:41.779,5 Mar 2025 18:58:05.050,683.271
153,5 Mar 2025 20:23:04.778,5 Mar 2025 20:27:24.500,259.722
154,6 Mar 2025 16:56:09.012,6 Mar 2025 17:02:39.611,390.600
155,6 Mar 2025 18:27:56.150,6 Mar 2025 18:39:29.377,693.227
156,6 Mar 2025 20:03:13.030,6 Mar 2025 20:10:25.954,432.924
157,7 Mar 2025 18:09:16.620,7 Mar 2025 18:20:42.063,685.443
158,7 Mar 2025 19:43:52.353,7 Mar 2025 19:52:49.545,537.192
159,8 Mar 2025 17:50:43.989,8 Mar 2025 18:01:42.353,658.365
160,8 Mar 2025 19:24:45.224,8 Mar 2025 19:34:53.135,607.911
161,9 Mar 2025 17:32:20.111,9 Mar 2025 17:42:28.336,608.224
162,9 Mar 2025 19:05:46.766,9 Mar 2025 19:16:41.915,655.149
163,10 Mar 2025 17:14:09.011,10 Mar 2025 17:22:55.847,526.836
164,10 Mar 2025 18:46:55.035,10 Mar 2025 18:58:18.085,683.050
165,10 Mar 2025 20:23:19.205,10 Mar 2025 20:27:35.991,256.786
166,11 Mar 2025 16:56:21.308,11 Mar 2025 17:02:54.008,392.699
167,11 Mar 2025 18:28:09.336,11 Mar 2025 18:39:42.548,693.211
168,11 Mar 2025 20:03:26.785,11 Mar 2025 20:10:38.200,431.415
169,12 Mar 2025 18:09:29.731,12 Mar 2025 18:20:55.373,685.642
170,12 Mar 2025 19:44:05.893,12 Mar 2025 19:53:02.083,536.191
171,13 Mar 2025 17:50:57.010,13 Mar 2025 18:01:55.813,658.803
172,13 Mar 2025 19:24:58.641,13 Mar 2025 19:35:05.869,607.227
173,14 Mar 2025 17:32:33.012,14 Mar 2025 17:42:41.985,608.972
174,14 Mar 2025 19:06:00.095,14 Mar 2025 19:16:54.806,654.711
175,15 Mar 2025 17:14:21.723,15 Mar 2025 17:23:09.755,528.032
176,15 Mar 2025 18:47:08.291,15 Mar 2025 18:58:31.117,682.826
177,15 Mar 2025 20:23:33.648,15 Mar 2025 20:27:47.463,253.815
178,16 Mar 2025 16:56:33.614,16 Mar 2025 17:03:08.393,394.779
179,16 Mar 2025 18:28:22.522,16 Mar 2025 18:39:55.716,693.194
180,16 Mar 2025 20:03:40.541,16 Mar 2025 20:10:50.441,429.900
181,17 Mar 2025 18:09:42.843,17 Mar 2025 18:21:08.681,685.838
182,17 Mar 2025 19:44:19.432,17 Mar 2025 19:53:14.619,535.187
183,18 Mar 2025 17:51:10.033,18 Mar 2025 18:02:09.275,659.241
184,18 Mar 2025 19:25:12.060,18 Mar 2025 19:35:18.601,606.541
185,19 Mar 2025 17:32:45.917,19 Mar 2025 17:42:55.632,609.715
186,19 Mar 2025 19:06:13.426,19 Mar 2025 19:17:07.697,654.271
187,20 Mar 2025 17:14:34.439,20 Mar 2025 17:23:23.659,529.219
188,20 Mar 2025 18:47:21.549,20 Mar 2025 18:58:44.149,682.601
189,20 Mar 2025 20:23:48.109,20 Mar 2025 20:27:58.913,250.803
190,21 Mar 2025 16:56:45.929,21 Mar 2025 17:03:22.771,396.841
191,21 Mar 2025 18:28:35.711,21 Mar 2025 18:40:08.884,693.173
192,21 Mar 2025 20:03:54.302,21 Mar 2025 20:11:02.679,428.377
193,22 Mar 2025 16:40:47.624,22 Mar 2025 16:41:25.325,37.701
194,22 Mar 2025 18:09:55.957,22 Mar 2025 18:21:21.989,686.031
195,22 Mar 2025 19:44:32.975,22 Mar 2025 19:53:27.153,534.178
196,23 Mar 2025 17:51:23.059,23 Mar 2025 18:02:22.736,659.677
197,23 Mar 2025 19:25:25.478,23 Mar 2025 19:35:31.332,605.854
198,24 Mar 2025 17:32:58.823,24 Mar 2025 17:43:09.277,610.455
199,24 Mar 2025 19:06:26.758,24 Mar 2025 19:17:20.586,653.828
200,25 Mar 2025 17:14:47.156,25 Mar 2025 17:23:37.559,530.403
201,25 Mar 2025 18:47:34.812,25 Mar 2025 18:58:57.176,682.365
202,25 Mar 2025 20:24:02.590,25 Mar 2025 20:28:10.348,247.759
203,26 Mar 2025 16:56:58.251,26 Mar 2025 17:03:37.140,398.889
204,26 Mar 2025 18:28:48.904,26 Mar 2025 18:40:22.049,693.146
205,26 Mar 2025 20:04:08.067,26 Mar 2025 20:11:14.911,426.844
206,27 Mar 2025 16:40:50.449,27 Mar 2025 16:41:49.272,58.823
207,27 Mar 2025 18:10:09.071,27 Mar 2025 18:21:35.295,686.224
208,27 Mar 2025 19:44:46.517,27 Mar 2025 19:53:39.684,533.168
209,28 Mar 2025 17:51:36.079,28 Mar 2025 18:02:36.193,660.114
210,28 Mar 2025 19:25:38.899,28 Mar 2025 19:35:44.060,605.161
211,29 Mar 2025 17:33:11.732,29 Mar 2025 17:43:22.919,611.187
212,29 Mar 2025 19:06:40.090,29 Mar 2025 19:17:33.473,653.383
213,30 Mar 2025 17:14:59.876,30 Mar 2025 17:23:51.454,531.578
214,30 Mar 2025 18:47:48.070,30 Mar 2025 18:59:10.204,682.134
215,30 Mar 2025 20:24:17.091,30 Mar 2025 20:28:21.759,244.668
216,31 Mar 2025 16:57:10.581,31 Mar 2025 17:03:51.499,400.918
217,31 Mar 2025 18:29:02.092,31 Mar 2025 18:40:35.213,693.121
218,31 Mar 2025 20:04:21.834,31 Mar 2025 20:11:27.139,425.305
219,1 Apr 2025 16:40:56.196,1 Apr 2025 16:42:10.290,74.094
220,1 Apr 2025 18:10:22.186,1 Apr 2025 18:21:48.596,686.410
221,1 Apr 2025 19:45:00.061,1 Apr 2025 19:53:52.213,532.151
222,2 Apr 2025 17:51:49.107,2 Apr 2025 18:02:49.649,660.542
223,2 Apr 2025 19:25:52.321,2 Apr 2025 19:35:56.787,604.466
224,3 Apr 2025 17:33:24.642,3 Apr 2025 17:43:36.559,611.917
225,3 Apr 2025 19:06:53.424,3 Apr 2025 19:17:46.359,652.935
226,4 Apr 2025 17:15:12.602,4 Apr 2025 17:24:05.348,532.746
227,4 Apr 2025 18:48:01.331,4 Apr 2025 18:59:23.232,681.901
228,4 Apr 2025 20:24:31.616,4 Apr 2025 20:28:33.149,241.532
229,5 Apr 2025 16:57:22.920,5 Apr 2025 17:04:05.851,402.931
230,5 Apr 2025 18:29:15.284,5 Apr 2025 18:40:48.377,693.093
231,5 Apr 2025 20:04:35.606,5 Apr 2025 20:11:39.363,423.757
232,6 Apr 2025 16:41:03.275,6 Apr 2025 16:42:29.980,86.705
233,6 Apr 2025 18:10:35.303,6 Apr 2025 18:22:01.899,686.596
234,6 Apr 2025 19:45:13.610,6 Apr 2025 19:54:04.739,531.129
235,7 Apr 2025 17:52:02.136,7 Apr 2025 18:03:03.104,660.968
236,7 Apr 2025 19:26:05.745,7 Apr 2025 19:36:09.512,603.767
237,8 Apr 2025 17:33:37.553,8 Apr 2025 17:43:50.197,612.644
238,8 Apr 2025 19:07:06.758,8 Apr 2025 19:17:59.243,652.484
239,9 Apr 2025 17:15:25.329,9 Apr 2025 17:24:19.237,533.908
240,9 Apr 2025 18:48:14.591,9 Apr 2025 18:59:36.257,681.666
241,9 Apr 2025 20:24:46.164,9 Apr 2025 20:28:44.512,238.349
242,10 Apr 2025 16:57:35.265,10 Apr 2025 17:04:20.194,404.929
243,10 Apr 2025 18:29:28.471,10 Apr 2025 18:41:01.537,693.066
244,10 Apr 2025 20:04:49.381,10 Apr 2025 20:11:51.581,422.200
245,11 Apr 2025 16:41:11.172,11 Apr 2025 16:42:48.847,97.674
246,11 Apr 2025 18:10:48.421,11 Apr 2025 18:22:15.198,686.777
247,11 Apr 2025 19:45:27.158,11 Apr 2025 19:54:17.260,530.103
248,12 Apr 2025 17:52:15.165,12 Apr 2025 18:03:16.555,661.390
249,12 Apr 2025 19:26:19.168,12 Apr 2025 19:36:22.234,603.065
250,13 Apr 2025 17:33:50.465,13 Apr 2025 17:44:03.830,613.365
251,13 Apr 2025 19:07:20.092,13 Apr 2025 19:18:12.124,652.032
252,14 Apr 2025 17:15:38.060,14 Apr 2025 17:24:33.121,535.061
253,14 Apr 2025 18:48:27.851,14 Apr 2025 18:59:49.280,681.428
254,14 Apr 2025 20:25:00.730,14 Apr 2025 20:28:55.854,235.125
255,15 Apr 2025 16:57:47.619,15 Apr 2025 17:04:34.527,406.908
256,15 Apr 2025 18:29:41.663,15 Apr 2025 18:41:14.696,693.033
257,15 Apr 2025 20:05:03.157,15 Apr 2025 20:12:03.800,420.642
258,16 Apr 2025 16:41:19.648,16 Apr 2025 16:43:07.137,107.489
259,16 Apr 2025 18:11:01.540,16 Apr 2025 18:22:28.496,686.957
260,16 Apr 2025 19:45:40.707,16 Apr 2025 19:54:29.781,529.074
261,17 Apr 2025 17:52:28.199,17 Apr 2025 18:03:30.004,661.805
262,17 Apr 2025 19:26:32.592,17 Apr 2025 19:36:34.954,602.362
263,18 Apr 2025 17:34:03.381,18 Apr 2025 17:44:17.462,614.082
264,18 Apr 2025 19:07:33.423,18 Apr 2025 19:18:25.004,651.581
265,19 Apr 2025 17:15:50.795,19 Apr 2025 17:24:47.002,536.208
266,19 Apr 2025 18:48:41.114,19 Apr 2025 19:00:02.302,681.189
267,19 Apr 2025 20:25:15.322,19 Apr 2025 20:29:07.172,231.850
268,20 Apr 2025 16:57:59.980,20 Apr 2025 17:04:48.853,408.873
269,20 Apr 2025 18:29:54.857,20 Apr 2025 18:41:27.854,692.997
270,20 Apr 2025 20:05:16.940,20 Apr 2025 20:12:16.009,419.070
271,21 Apr 2025 16:41:28.541,21 Apr 2025 16:43:25.008,116.467
272,21 Apr 2025 18:11:14.657,21 Apr 2025 18:22:41.792,687.135
273,21 Apr 2025 19:45:54.259,21 Apr 2025 19:54:42.299,528.039
274,22 Apr 2025 17:52:41.231,22 Apr 2025 18:03:43.453,662.222
275,22 Apr 2025 19:26:46.018,22 Apr 2025 19:36:47.673,601.655
276,23 Apr 2025 17:34:16.297,23 Apr 2025 17:44:31.092,614.796
277,23 Apr 2025 19:07:46.760,23 Apr 2025 19:18:37.883,651.123
278,24 Apr 2025 17:16:03.531,24 Apr 2025 17:25:00.878,537.346
279,24 Apr 2025 18:48:54.372,24 Apr 2025 19:00:15.326,680.954
280,24 Apr 2025 20:25:29.940,24 Apr 2025 20:29:18.460,228.520
281,25 Apr 2025 16:58:12.352,25 Apr 2025 17:05:03.171,410.819
282,25 Apr 2025 18:30:08.047,25 Apr 2025 18:41:41.009,692.963
283,25 Apr 2025 20:05:30.725,25 Apr 2025 20:12:28.213,417.487
284,26 Apr 2025 16:41:37.769,26 Apr 2025 16:43:42.543,124.774
285,26 Apr 2025 18:11:27.778,26 Apr 2025 18:22:55.086,687.308
286,26 Apr 2025 19:46:07.812,26 Apr 2025 19:54:54.812,527.000
287,27 Apr 2025 17:52:54.263,27 Apr 2025 18:03:56.898,662.635
288,27 Apr 2025 19:26:59.443,27 Apr 2025 19:37:00.388,600.945
289,28 Apr 2025 17:34:29.214,28 Apr 2025 17:44:44.718,615.504
290,28 Apr 2025 19:08:00.096,28 Apr 2025 19:18:50.758,650.663
291,29 Apr 2025 17:16:16.276,29 Apr 2025 17:25:14.753,538.477
292,29 Apr 2025 18:49:07.639,29 Apr 2025 19:00:28.340,680.701
293,29 Apr 2025 20:25:44.581,29 Apr 2025 20:29:29.725,225.144
294,30 Apr 2025 16:58:24.723,30 Apr 2025 17:05:17.480,412.756
295,30 Apr 2025 18:30:21.244,30 Apr 2025 18:41:54.163,692.919
296,30 Apr 2025 20:05:44.513,30 Apr 2025 20:12:40.413,415.900
297,1 May 2025 16:41:47.267,1 May 2025 16:43:59.805,132.538
298,1 May 2025 18:11:40.897,1 May 2025 18:23:08.380,687.484
299,1 May 2025 19:46:21.367,1 May 2025 19:55:07.325,525.958
300,2 May 2025 17:53:07.298,2 May 2025 18:04:10.343,663.045
301,2 May 2025 19:27:12.871,2 May 2025 19:37:13.103,600.232
302,3 May 2025 17:34:42.134,3 May 2025 17:44:58.343,616.209
303,3 May 2025 19:08:13.434,3 May 2025 19:19:03.634,650.199
304,4 May 2025 17:16:29.014,4 May 2025 17:25:28.620,539.606
305,4 May 2025 18:49:20.899,4 May 2025 19:00:41.362,680.462
306,4 May 2025 20:25:59.248,4 May 2025 20:29:40.959,221.711
307,5 May 2025 16:58:37.110,5 May 2025 17:05:31.782,414.672
308,5 May 2025 18:30:34.436,5 May 2025 18:42:07.316,692.880
309,5 May 2025 20:05:58.307,5 May 2025 20:12:52.607,414.300
310,6 May 2025 16:41:56.985,6 May 2025 16:44:16.847,139.862
311,6 May 2025 18:11:54.018,6 May 2025 18:23:21.672,687.654
312,6 May 2025 19:46:34.923,6 May 2025 19:55:19.833,524.910
313,7 May 2025 17:53:20.332,7 May 2025 18:04:23.784,663.452
314,7 May 2025 19:27:26.299,7 May 2025 19:37:25.814,599.516
315,8 May 2025 17:34:55.053,8 May 2025 17:45:11.964,616.910
316,8 May 2025 19:08:26.772,8 May 2025 19:19:16.506,649.733
317,9 May 2025 17:16:41.758,9 May 2025 17:25:42.484,540.726
318,9 May 2025 18:49:34.163,9 May 2025 19:00:54.375,680.213
319,9 May 2025 20:26:13.945,9 May 2025 20:29:52.158,218.213
320,10 May 2025 16:58:49.497,10 May 2025 17:05:46.074,416.577
321,10 May 2025 18:30:47.631,10 May 2025 18:42:20.465,692.834
322,10 May 2025 20:06:12.102,10 May 2025 20:13:04.795,412.693
323,11 May 2025 16:42:06.897,11 May 2025 16:44:33.691,146.794
324,11 May 2025 18:12:07.138,11 May 2025 18:23:34.960,687.821
325,11 May 2025 19:46:48.480,11 May 2025 19:55:32.339,523.859
326,12 May 2025 17:53:33.367,12 May 2025 18:04:37.223,663.856
327,12 May 2025 19:27:39.726,12 May 2025 19:37:38.523,598.797
328,13 May 2025 17:35:07.975,13 May 2025 17:45:25.581,617.607
329,13 May 2025 19:08:40.110,13 May 2025 19:19:29.376,649.265
330,14 May 2025 17:16:54.505,14 May 2025 17:25:56.345,541.839
331,14 May 2025 18:49:47.427,14 May 2025 19:01:07.388,679.961
332,14 May 2025 20:26:28.670,14 May 2025 20:30:03.332,214.662
333,15 May 2025 16:59:01.893,15 May 2025 17:06:00.359,418.466
334,15 May 2025 18:31:00.828,15 May 2025 18:42:33.613,692.786
335,15 May 2025 20:06:25.900,15 May 2025 20:13:16.979,411.079
336,16 May 2025 16:42:16.976,16 May 2025 16:44:50.371,153.395
337,16 May 2025 18:12:20.261,16 May 2025 18:23:48.247,687.985
338,16 May 2025 19:47:02.039,16 May 2025 19:55:44.842,522.803
339,17 May 2025 17:53:46.404,17 May 2025 18:04:50.661,664.256
340,17 May 2025 19:27:53.156,17 May 2025 19:37:51.230,598.075
341,18 May 2025 17:35:20.899,18 May 2025 17:45:39.198,618.299
342,18 May 2025 19:08:53.450,18 May 2025 19:19:42.244,648.794
343,19 May 2025 17:17:07.256,19 May 2025 17:26:10.203,542.947
344,19 May 2025 18:50:00.692,19 May 2025 19:01:20.399,679.707
345,19 May 2025 20:26:43.430,19 May 2025 20:30:14.472,211.041
346,20 May 2025 16:59:14.295,20 May 2025 17:06:14.637,420.343
347,20 May 2025 18:31:14.025,20 May 2025 18:42:46.760,692.736
348,20 May 2025 20:06:39.705,20 May 2025 20:13:29.157,409.452
349,21 May 2025 16:42:27.194,21 May 2025 16:45:06.909,159.715
350,21 May 2025 18:12:33.384,21 May 2025 18:24:01.527,688.143
351,21 May 2025 19:47:15.600,21 May 2025 19:55:57.341,521.741
352,22 May 2025 17:53:59.442,22 May 2025 18:05:04.094,664.652
353,22 May 2025 19:28:06.582,22 May 2025 19:38:03.935,597.353
354,23 May 2025 17:35:33.823,23 May 2025 17:45:52.811,618.988
355,23 May 2025 19:09:06.790,23 May 2025 19:19:55.110,648.320
356,24 May 2025 17:17:20.007,24 May 2025 17:26:24.056,544.049
357,24 May 2025 18:50:13.957,24 May 2025 19:01:33.408,679.450
358,24 May 2025 20:26:58.223,24 May 2025 20:30:25.576,207.354
359,25 May 2025 16:59:26.702,25 May 2025 17:06:28.906,422.204
360,25 May 2025 18:31:27.216,25 May 2025 18:42:59.904,692.688
361,25 May 2025 20:06:53.512,25 May 2025 20:13:41.330,407.818
362,26 May 2025 16:42:37.543,26 May 2025 16:45:23.313,165.770
363,26 May 2025 18:12:46.507,26 May 2025 18:24:14.813,688.306
364,26 May 2025 19:47:29.166,26 May 2025 19:56:09.838,520.672
365,27 May 2025 17:54:12.480,27 May 2025 18:05:17.526,665.046
366,27 May 2025 19:28:20.012,27 May 2025 19:38:16.637,596.625
367,28 May 2025 17:35:46.751,28 May 2025 17:46:06.420,619.669
368,28 May 2025 19:09:20.131,28 May 2025 19:20:07.975,647.844
369,29 May 2025 17:17:32.763,29 May 2025 17:26:37.906,545.143
370,29 May 2025 18:50:27.223,29 May 2025 19:01:46.415,679.191
371,29 May 2025 20:27:13.047,29 May 2025 20:30:36.650,203.603
372,30 May 2025 16:59:39.116,30 May 2025 17:06:43.164,424.047
373,30 May 2025 18:31:40.417,30 May 2025 18:43:13.051,692.634
374,30 May 2025 20:07:07.326,30 May 2025 20:13:53.493,406.168
375,31 May 2025 16:42:48.006,31 May 2025 16:45:39.604,171.598
376,31 May 2025 18:12:59.633,31 May 2025 18:24:28.094,688.461
377,31 May 2025 19:47:42.730,31 May 2025 19:56:22.332,519.602
378,1 Jun 2025 17:54:25.520,1 Jun 2025 18:05:30.958,665.438
379,1 Jun 2025 19:28:33.445,1 Jun 2025 19:38:29.338,595.893
380,2 Jun 2025 17:35:59.679,2 Jun 2025 17:46:20.029,620.350
381,2 Jun 2025 19:09:33.473,2 Jun 2025 19:20:20.838,647.365
382,3 Jun 2025 17:17:45.519,3 Jun 2025 17:26:51.752,546.233
383,3 Jun 2025 18:50:40.490,3 Jun 2025 19:01:59.420,678.930
384,3 Jun 2025 20:27:27.914,3 Jun 2025 20:30:47.678,199.764
385,4 Jun 2025 16:59:51.535,4 Jun 2025 17:06:57.419,425.884
386,4 Jun 2025 18:31:53.614,4 Jun 2025 18:43:26.192,692.578
387,4 Jun 2025 20:07:21.142,4 Jun 2025 20:14:05.654,404.512
388,5 Jun 2025 16:42:58.569,5 Jun 2025 16:45:55.794,177.225
389,5 Jun 2025 18:13:12.757,5 Jun 2025 18:24:41.372,688.615
390,5 Jun 2025 19:47:56.295,5 Jun 2025 19:56:34.822,518.527
391,6 Jun 2025 17:54:38.559,6 Jun 2025 18:05:44.386,665.827
392,6 Jun 2025 19:28:46.878,6 Jun 2025 19:38:42.035,595.157
393,7 Jun 2025 17:36:12.606,7 Jun 2025 17:46:33.633,621.027
394,7 Jun 2025 19:09:46.814,7 Jun 2025 19:20:33.697,646.883
395,8 Jun 2025 17:17:58.278,8 Jun 2025 17:27:05.593,547.316
396,8 Jun 2025 18:50:53.756,8 Jun 2025 19:02:12.422,678.666
397,8 Jun 2025 20:27:42.816,8 Jun 2025 20:30:58.665,195.849
398,9 Jun 2025 17:00:03.959,9 Jun 2025 17:07:11.666,427.706
399,9 Jun 2025 18:32:06.811,9 Jun 2025 18:43:39.330,692.519
400,9 Jun 2025 20:07:34.960,9 Jun 2025 20:14:17.810,402.849
401,10 Jun 2025 16:43:09.223,10 Jun 2025 16:46:11.885,182.663
402,10 Jun 2025 18:13:25.882,10 Jun 2025 18:24:54.647,688.765
403,10 Jun 2025 19:48:09.861,10 Jun 2025 19:56:47.311,517.450
404,11 Jun 2025 17:54:51.599,11 Jun 2025 18:05:57.810,666.211
405,11 Jun 2025 19:29:00.310,11 Jun 2025 19:38:54.729,594.419
406,12 Jun 2025 17:36:25.534,12 Jun 2025 17:46:47.235,621.700
407,12 Jun 2025 19:10:00.155,12 Jun 2025 19:20:46.555,646.399
408,13 Jun 2025 17:18:11.039,13 Jun 2025 17:27:19.431,548.392
409,13 Jun 2025 18:51:07.024,13 Jun 2025 19:02:25.424,678.400
410,13 Jun 2025 20:27:57.760,13 Jun 2025 20:31:09.611,191.851
411,14 Jun 2025 17:00:16.391,14 Jun 2025 17:07:25.906,429.515
412,14 Jun 2025 18:32:20.009,14 Jun 2025 18:43:52.467,692.458
413,14 Jun 2025 20:07:48.784,14 Jun 2025 20:14:29.960,401.176
414,15 Jun 2025 16:43:19.964,15 Jun 2025 16:46:27.894,187.930
415,15 Jun 2025 18:13:39.008,15 Jun 2025 18:25:07.922,688.913
416,15 Jun 2025 19:48:23.429,15 Jun 2025 19:56:59.795,516.366
417,16 Jun 2025 17:55:04.641,16 Jun 2025 18:06:11.235,666.594
418,16 Jun 2025 19:29:13.746,16 Jun 2025 19:39:07.423,593.677
419,17 Jun 2025 17:36:38.465,17 Jun 2025 17:47:00.835,622.370
420,17 Jun 2025 19:10:13.499,17 Jun 2025 19:20:59.411,645.912
421,18 Jun 2025 17:18:23.803,18 Jun 2025 17:27:33.267,549.464
422,18 Jun 2025 18:51:20.292,18 Jun 2025 19:02:38.423,678.131
423,18 Jun 2025 20:28:12.754,18 Jun 2025 20:31:20.508,187.754
424,19 Jun 2025 17:00:28.827,19 Jun 2025 17:07:40.138,431.311
425,19 Jun 2025 18:32:33.208,19 Jun 2025 18:44:05.602,692.394
426,19 Jun 2025 20:08:02.613,19 Jun 2025 20:14:42.104,399.491
427,20 Jun 2025 16:43:30.779,20 Jun 2025 16:46:43.824,193.045
428,20 Jun 2025 18:13:52.134,20 Jun 2025 18:25:21.194,689.059
429,20 Jun 2025 19:48:37.000,20 Jun 2025 19:57:12.275,515.275
430,21 Jun 2025 17:55:17.682,21 Jun 2025 18:06:24.656,666.974
431,21 Jun 2025 19:29:27.181,21 Jun 2025 19:39:20.112,592.931
432,22 Jun 2025 17:36:51.396,22 Jun 2025 17:47:14.431,623.035
433,22 Jun 2025 19:10:26.842,22 Jun 2025 19:21:12.264,645.422
434,23 Jun 2025 17:18:36.573,23 Jun 2025 17:27:47.096,550.524
435,23 Jun 2025 18:51:33.560,23 Jun 2025 19:02:51.419,677.860
436,23 Jun 2025 20:28:27.790,23 Jun 2025 20:31:31.356,183.567
437,24 Jun 2025 17:00:41.269,24 Jun 2025 17:07:54.363,433.094
438,24 Jun 2025 18:32:46.406,24 Jun 2025 18:44:18.734,692.328
439,24 Jun 2025 20:08:16.444,24 Jun 2025 20:14:54.242,397.798
440,25 Jun 2025 16:43:41.669,25 Jun 2025 16:46:59.677,198.007
441,25 Jun 2025 18:14:05.261,25 Jun 2025 18:25:34.463,689.203
442,25 Jun 2025 19:48:50.571,25 Jun 2025 19:57:24.752,514.181
443,26 Jun 2025 17:55:30.725,26 Jun 2025 18:06:38.075,667.350
444,26 Jun 2025 19:29:40.617,26 Jun 2025 19:39:32.800,592.183
445,27 Jun 2025 17:37:04.329,27 Jun 2025 17:47:28.025,623.696
446,27 Jun 2025 19:10:40.186,27 Jun 2025 19:21:25.116,644.930
447,28 Jun 2025 17:18:49.341,28 Jun 2025 17:28:00.924,551.583
448,28 Jun 2025 18:51:46.829,28 Jun 2025 19:03:04.415,677.586
449,28 Jun 2025 20:28:42.880,28 Jun 2025 20:31:42.153,179.274
450,29 Jun 2025 17:00:53.717,29 Jun 2025 17:08:08.582,434.865
451,29 Jun 2025 18:32:59.606,29 Jun 2025 18:44:31.866,692.259
452,29 Jun 2025 20:08:30.282,29 Jun 2025 20:15:06.375,396.093
453,30 Jun 2025 16:43:52.623,30 Jun 2025 16:47:15.467,202.844
454,30 Jun 2025 18:14:18.389,30 Jun 2025 18:25:47.732,689.344
455,30 Jun 2025 19:49:04.146,30 Jun 2025 19:57:37.227,513.081
456,1 Jul 2025 17:55:43.771,1 Jul 2025 18:06:51.493,667.722
457,1 Jul 2025 19:29:54.055,1 Jul 2025 19:39:45.485,591.430
458,2 Jul 2025 17:37:17.263,2 Jul 2025 17:47:41.617,624.354
459,2 Jul 2025 19:10:53.532,2 Jul 2025 19:21:37.966,644.434
460,3 Jul 2025 17:19:02.110,3 Jul 2025 17:28:14.748,552.638
461,3 Jul 2025 18:52:00.098,3 Jul 2025 19:03:17.408,677.310
462,3 Jul 2025 20:28:58.028,3 Jul 2025 20:31:52.889,174.861
463,4 Jul 2025 17:01:06.168,4 Jul 2025 17:08:22.795,436.626
464,4 Jul 2025 18:33:12.806,4 Jul 2025 18:44:44.989,692.184
465,4 Jul 2025 20:08:44.124,4 Jul 2025 20:15:18.504,394.380
466,5 Jul 2025 16:44:03.637,5 Jul 2025 16:47:31.193,207.556
467,5 Jul 2025 18:14:31.516,5 Jul 2025 18:26:00.997,689.482
468,5 Jul 2025 19:49:17.721,5 Jul 2025 19:57:49.696,511.976
469,6 Jul 2025 17:55:56.813,6 Jul 2025 18:07:04.907,668.093
470,6 Jul 2025 19:30:07.493,6 Jul 2025 19:39:58.166,590.673
471,7 Jul 2025 17:37:30.197,7 Jul 2025 17:47:55.205,625.008
472,7 Jul 2025 19:11:06.876,7 Jul 2025 19:21:50.813,643.936
473,8 Jul 2025 17:19:14.880,8 Jul 2025 17:28:28.567,553.687
474,8 Jul 2025 18:52:13.367,8 Jul 2025 19:03:30.399,677.031
475,8 Jul 2025 20:29:13.232,8 Jul 2025 20:32:03.566,170.333
476,9 Jul 2025 17:01:18.626,9 Jul 2025 17:08:36.999,438.374
477,9 Jul 2025 18:33:26.003,9 Jul 2025 18:44:58.121,692.117
478,9 Jul 2025 20:08:57.969,9 Jul 2025 20:15:30.623,392.654
479,10 Jul 2025 16:44:14.710,10 Jul 2025 16:47:46.858,212.149
480,10 Jul 2025 18:14:44.644,10 Jul 2025 18:26:14.261,689.618
481,10 Jul 2025 19:49:31.297,10 Jul 2025 19:58:02.163,510.866
482,11 Jul 2025 17:56:09.858,11 Jul 2025 18:07:18.320,668.461
483,11 Jul 2025 19:30:20.932,11 Jul 2025 19:40:10.846,589.914
484,12 Jul 2025 17:37:43.133,12 Jul 2025 17:48:08.791,625.658
485,12 Jul 2025 19:11:20.223,12 Jul 2025 19:22:03.658,643.435
486,13 Jul 2025 17:19:27.653,13 Jul 2025 17:28:42.384,554.731
487,13 Jul 2025 18:52:26.639,13 Jul 2025 19:03:43.389,676.750
488,13 Jul 2025 20:29:28.504,13 Jul 2025 20:32:14.176,165.672
489,14 Jul 2025 17:01:31.089,14 Jul 2025 17:08:51.199,440.110
490,14 Jul 2025 18:33:39.205,14 Jul 2025 18:45:11.246,692.041
491,14 Jul 2025 20:09:11.821,14 Jul 2025 20:15:42.737,390.916
492,15 Jul 2025 16:44:25.834,15 Jul 2025 16:48:02.473,216.639
493,15 Jul 2025 18:14:57.773,15 Jul 2025 18:26:27.524,689.751
494,15 Jul 2025 19:49:44.878,15 Jul 2025 19:58:14.628,509.750
495,16 Jul 2025 17:56:22.904,16 Jul 2025 18:07:31.731,668.827
496,16 Jul 2025 19:30:34.374,16 Jul 2025 19:40:23.524,589.150
497,17 Jul 2025 17:37:56.070,17 Jul 2025 17:48:22.376,626.305
498,17 Jul 2025 19:11:33.568,17 Jul 2025 19:22:16.502,642.934
499,18 Jul 2025 17:19:40.427,18 Jul 2025 17:28:56.197,555.770
500,18 Jul 2025 18:52:39.909,18 Jul 2025 19:03:56.376,676.467
501,18 Jul 2025 20:29:43.851,18 Jul 2025 20:32:24.711,160.860
502,19 Jul 2025 17:01:43.555,19 Jul 2025 17:09:05.390,441.835
503,19 Jul 2025 18:33:52.405,19 Jul 2025 18:45:24.368,691.963
504,19 Jul 2025 20:09:25.678,19 Jul 2025 20:15:54.843,389.165
505,20 Jul 2025 16:44:37.007,20 Jul 2025 16:48:18.033,221.025
506,20 Jul 2025 18:15:10.901,20 Jul 2025 18:26:40.784,689.882
507,20 Jul 2025 19:49:58.459,20 Jul 2025 19:58:27.087,508.629
508,21 Jul 2025 17:56:35.949,21 Jul 2025 18:07:45.133,669.184
509,21 Jul 2025 19:30:47.815,21 Jul 2025 19:40:36.198,588.383
510,22 Jul 2025 17:38:09.008,22 Jul 2025 17:48:35.956,626.948
511,22 Jul 2025 19:11:46.915,22 Jul 2025 19:22:29.339,642.425
512,23 Jul 2025 17:19:53.207,23 Jul 2025 17:29:10.008,556.801
513,23 Jul 2025 18:52:53.184,23 Jul 2025 19:04:09.360,676.176
514,23 Jul 2025 20:29:59.271,23 Jul 2025 20:32:35.170,155.900
515,24 Jul 2025 17:01:56.032,24 Jul 2025 17:09:19.574,443.542
516,24 Jul 2025 18:34:05.610,24 Jul 2025 18:45:37.490,691.881
517,24 Jul 2025 20:09:39.537,24 Jul 2025 20:16:06.943,387.406
518,25 Jul 2025 16:44:48.230,25 Jul 2025 16:48:33.544,225.314
519,25 Jul 2025 18:15:24.032,25 Jul 2025 18:26:54.042,690.011
520,25 Jul 2025 19:50:12.042,25 Jul 2025 19:58:39.545,507.503
521,26 Jul 2025 17:56:48.997,26 Jul 2025 18:07:58.542,669.545
522,26 Jul 2025 19:31:01.258,26 Jul 2025 19:40:48.871,587.612
523,27 Jul 2025 17:38:21.953,27 Jul 2025 17:48:49.535,627.583
524,27 Jul 2025 19:12:00.264,27 Jul 2025 19:22:42.178,641.915
525,28 Jul 2025 17:20:05.984,28 Jul 2025 17:29:23.814,557.830
526,28 Jul 2025 18:53:06.454,28 Jul 2025 19:04:22.345,675.892
527,28 Jul 2025 20:30:14.775,28 Jul 2025 20:32:45.541,150.766
528,29 Jul 2025 17:02:08.506,29 Jul 2025 17:09:33.750,445.244
529,29 Jul 2025 18:34:18.810,29 Jul 2025 18:45:50.608,691.798
530,29 Jul 2025 20:09:53.402,29 Jul 2025 20:16:19.037,385.634
531,30 Jul 2025 16:44:59.494,30 Jul 2025 16:48:49.013,229.519
532,30 Jul 2025 18:15:37.163,30 Jul 2025 18:27:07.299,690.137
533,30 Jul 2025 19:50:25.629,30 Jul 2025 19:58:51.999,506.370
534,31 Jul 2025 17:57:02.044,31 Jul 2025 18:08:11.944,669.900
535,31 Jul 2025 19:31:14.703,31 Jul 2025 19:41:01.541,586.837
536,1 Aug 2025 17:38:34.891,1 Aug 2025 17:49:03.112,628.221
537,1 Aug 2025 19:12:13.613,1 Aug 2025 19:22:55.015,641.401
538,2 Aug 2025 17:20:18.764,2 Aug 2025 17:29:37.616,558.852
539,2 Aug 2025 18:53:19.726,2 Aug 2025 19:04:35.327,675.600
540,2 Aug 2025 20:30:30.381,2 Aug 2025 20:32:55.812,145.431
541,3 Aug 2025 17:02:20.990,3 Aug 2025 17:09:47.922,446.932
542,3 Aug 2025 18:34:32.013,3 Aug 2025 18:46:03.728,691.715
543,3 Aug 2025 20:10:07.280,3 Aug 2025 20:16:31.123,383.843
544,4 Aug 2025 16:45:10.799,4 Aug 2025 16:49:04.435,233.636
545,4 Aug 2025 18:15:50.293,4 Aug 2025 18:27:20.553,690.260
546,4 Aug 2025 19:50:39.216,4 Aug 2025 19:59:04.448,505.232
547,5 Aug 2025 17:57:15.092,5 Aug 2025 18:08:25.345,670.253
548,5 Aug 2025 19:31:28.148,5 Aug 2025 19:41:14.208,586.059
549,6 Aug 2025 17:38:47.834,6 Aug 2025 17:49:16.685,628.851
550,6 Aug 2025 19:12:26.963,6 Aug 2025 19:23:07.849,640.886
551,7 Aug 2025 17:20:31.552,7 Aug 2025 17:29:51.415,559.863
552,7 Aug 2025 18:53:33.000,7 Aug 2025 19:04:48.306,675.307
553,7 Aug 2025 20:30:46.085,7 Aug 2025 20:33:05.980,139.895
554,8 Aug 2025 17:02:33.478,8 Aug 2025 17:10:02.088,448.611
555,8 Aug 2025 18:34:45.217,8 Aug 2025 18:46:16.844,691.628
556,8 Aug 2025 20:10:21.158,8 Aug 2025 20:16:43.203,382.046
557,9 Aug 2025 16:45:22.147,9 Aug 2025 16:49:19.818,237.671
558,9 Aug 2025 18:16:03.425,9 Aug 2025 18:27:33.804,690.378
559,9 Aug 2025 19:50:52.807,9 Aug 2025 19:59:16.896,504.089
560,10 Aug 2025 17:57:28.142,10 Aug 2025 18:08:38.746,670.604
561,10 Aug 2025 19:31:41.596,10 Aug 2025 19:41:26.874,585.277
562,11 Aug 2025 17:39:00.773,11 Aug 2025 17:49:30.257,629.484
563,11 Aug 2025 19:12:40.315,11 Aug 2025 19:23:20.685,640.369
564,12 Aug 2025 17:20:44.338,12 Aug 2025 17:30:05.213,560.875
565,12 Aug 2025 18:53:46.275,12 Aug 2025 19:05:01.281,675.006
566,12 Aug 2025 20:31:01.919,12 Aug 2025 20:33:16.026,134.107
567,13 Aug 2025 17:02:45.969,13 Aug 2025 17:10:16.250,450.281
568,13 Aug 2025 18:34:58.422,13 Aug 2025 18:46:29.959,691.537
569,13 Aug 2025 20:10:35.043,13 Aug 2025 20:16:55.276,380.233
570,14 Aug 2025 16:45:33.528,14 Aug 2025 16:49:35.164,241.635
571,14 Aug 2025 18:16:16.558,14 Aug 2025 18:27:47.055,690.497
572,14 Aug 2025 19:51:06.401,14 Aug 2025 19:59:29.344,502.943
573,15 Aug 2025 17:57:41.192,15 Aug 2025 18:08:52.144,670.953
574,15 Aug 2025 19:31:55.050,15 Aug 2025 19:41:39.536,584.486
575,16 Aug 2025 17:39:13.717,16 Aug 2025 17:49:43.826,630.109
576,16 Aug 2025 19:12:53.667,16 Aug 2025 19:23:33.518,639.850
577,17 Aug 2025 17:20:57.124,17 Aug 2025 17:30:19.004,561.880
578,17 Aug 2025 18:53:59.550,17 Aug 2025 19:05:14.256,674.706
579,17 Aug 2025 20:31:17.882,17 Aug 2025 20:33:25.932,128.050
580,18 Aug 2025 17:02:58.464,18 Aug 2025 17:10:30.403,451.940
581,18 Aug 2025 18:35:11.626,18 Aug 2025 18:46:43.071,691.445
582,18 Aug 2025 20:10:48.933,18 Aug 2025 20:17:07.341,378.409
583,19 Aug 2025 16:45:44.947,19 Aug 2025 16:49:50.468,245.522
584,19 Aug 2025 18:16:29.691,19 Aug 2025 18:28:00.304,690.613
585,19 Aug 2025 19:51:19.995,19 Aug 2025 19:59:41.783,501.788
586,20 Aug 2025 17:57:54.242,20 Aug 2025 18:09:05.540,671.298
587,20 Aug 2025 19:32:08.499,20 Aug 2025 19:41:52.196,583.697
588,21 Aug 2025 17:39:26.662,21 Aug 2025 17:49:57.393,630.731
589,21 Aug 2025 19:13:07.020,21 Aug 2025 19:23:46.347,639.326
590,22 Aug 2025 17:21:09.914,22 Aug 2025 17:30:32.794,562.880
591,22 Aug 2025 18:54:12.826,22 Aug 2025 19:05:27.231,674.405
592,22 Aug 2025 20:31:33.999,22 Aug 2025 20:33:35.686,121.687
593,23 Aug 2025 17:03:10.965,23 Aug 2025 17:10:44.553,453.588
594,23 Aug 2025 18:35:24.833,23 Aug 2025 18:46:56.182,691.349
595,23 Aug 2025 20:11:02.830,23 Aug 2025 20:17:19.401,376.572
596,24 Aug 2025 16:45:56.400,24 Aug 2025 16:50:05.740,249.340
597,24 Aug 2025 18:16:42.826,24 Aug 2025 18:28:13.553,690.727
598,24 Aug 2025 19:51:33.594,24 Aug 2025 19:59:54.221,500.627
599,25 Aug 2025 17:58:07.295,25 Aug 2025 18:09:18.940,671.645
600,25 Aug 2025 19:32:21.952,25 Aug 2025 19:42:04.860,582.908
601,26 Aug 2025 17:39:39.609,26 Aug 2025 17:50:10.956,631.347
602,26 Aug 2025 19:13:20.376,26 Aug 2025 19:23:59.175,638.798
603,27 Aug 2025 17:21:22.705,27 Aug 2025 17:30:46.582,563.877
604,27 Aug 2025 18:54:26.104,27 Aug 2025 19:05:40.205,674.101
605,27 Aug 2025 20:31:50.310,27 Aug 2025 20:33:45.248,114.938
606,28 Aug 2025 17:03:23.469,28 Aug 2025 17:10:58.697,455.228
607,28 Aug 2025 18:35:38.040,28 Aug 2025 18:47:09.292,691.252
608,28 Aug 2025 20:11:16.733,28 Aug 2025 20:17:31.453,374.720
609,29 Aug 2025 16:46:07.882,29 Aug 2025 16:50:20.979,253.097
610,29 Aug 2025 18:16:55.961,29 Aug 2025 18:28:26.799,690.838
611,29 Aug 2025 19:51:47.196,29 Aug 2025 20:00:06.654,499.458
612,30 Aug 2025 17:58:20.348,30 Aug 2025 18:09:32.333,671.985
613,30 Aug 2025 19:32:35.406,30 Aug 2025 19:42:17.516,582.110
614,31 Aug 2025 17:39:52.556,31 Aug 2025 17:50:24.519,631.963
615,31 Aug 2025 19:13:33.732,31 Aug 2025 19:24:12.000,638.268
616,1 Sep 2025 17:21:35.496,1 Sep 2025 17:31:00.364,564.868
617,1 Sep 2025 18:54:39.383,1 Sep 2025 19:05:53.176,673.793
618,1 Sep 2025 20:32:06.833,1 Sep 2025 20:33:54.596,107.763
619,2 Sep 2025 17:03:35.978,2 Sep 2025 17:11:12.834,456.856
620,2 Sep 2025 18:35:51.248,2 Sep 2025 18:47:22.398,691.151
621,2 Sep 2025 20:11:30.640,2 Sep 2025 20:17:43.497,372.857
622,3 Sep 2025 16:46:19.397,3 Sep 2025 16:50:36.185,256.788
623,3 Sep 2025 18:17:09.096,3 Sep 2025 18:28:40.043,690.947
624,3 Sep 2025 19:52:00.799,3 Sep 2025 20:00:19.083,498.284
625,4 Sep 2025 17:58:33.401,4 Sep 2025 18:09:45.724,672.322
626,4 Sep 2025 19:32:48.861,4 Sep 2025 19:42:30.170,581.309
627,5 Sep 2025 17:40:05.505,5 Sep 2025 17:50:38.080,632.574
628,5 Sep 2025 19:13:47.089,5 Sep 2025 19:24:24.823,637.734
629,6 Sep 2025 17:21:48.293,6 Sep 2025 17:31:14.146,565.853
630,6 Sep 2025 18:54:52.662,6 Sep 2025 19:06:06.146,673.484
631,6 Sep 2025 20:32:23.617,6 Sep 2025 20:34:03.683,100.066
632,7 Sep 2025 17:03:48.489,7 Sep 2025 17:11:26.971,458.482
633,7 Sep 2025 18:36:04.459,7 Sep 2025 18:47:35.503,691.044
634,7 Sep 2025 20:11:44.555,7 Sep 2025 20:17:55.536,370.980
635,8 Sep 2025 16:46:30.943,8 Sep 2025 16:50:51.362,260.419
636,8 Sep 2025 18:17:22.234,8 Sep 2025 18:28:53.288,691.054
637,8 Sep 2025 19:52:14.407,8 Sep 2025 20:00:31.511,497.104
638,9 Sep 2025 17:58:46.457,9 Sep 2025 18:09:59.114,672.657
639,9 Sep 2025 19:33:02.319,9 Sep 2025 19:42:42.822,580.503
640,10 Sep 2025 17:40:18.456,10 Sep 2025 17:50:51.639,633.184
641,10 Sep 2025 19:14:00.448,10 Sep 2025 19:24:37.646,637.197
642,11 Sep 2025 17:22:01.090,11 Sep 2025 17:31:27.925,566.835
643,11 Sep 2025 18:55:05.943,11 Sep 2025 19:06:19.115,673.172
644,11 Sep 2025 20:32:40.740,11 Sep 2025 20:34:12.429,91.689
645,12 Sep 2025 17:04:01.006,12 Sep 2025 17:11:41.099,460.093
646,12 Sep 2025 18:36:17.669,12 Sep 2025 18:47:48.608,690.939
647,12 Sep 2025 20:11:58.480,12 Sep 2025 20:18:07.565,369.084
648,13 Sep 2025 16:46:42.514,13 Sep 2025 16:51:06.510,263.996
649,13 Sep 2025 18:17:35.371,13 Sep 2025 18:29:06.529,691.158
650,13 Sep 2025 19:52:28.016,13 Sep 2025 20:00:43.933,495.917
651,14 Sep 2025 17:58:59.512,14 Sep 2025 18:10:12.501,672.989
652,14 Sep 2025 19:33:15.777,14 Sep 2025 19:42:55.470,579.693
653,15 Sep 2025 17:40:31.411,15 Sep 2025 17:51:05.195,633.784
654,15 Sep 2025 19:14:13.807,15 Sep 2025 19:24:50.465,636.658
655,16 Sep 2025 17:22:13.888,16 Sep 2025 17:31:41.700,567.811
656,16 Sep 2025 18:55:19.224,16 Sep 2025 19:06:32.081,672.857
657,16 Sep 2025 20:32:58.288,16 Sep 2025 20:34:20.748,82.459
658,17 Sep 2025 17:04:13.529,17 Sep 2025 17:11:55.220,461.691
659,17 Sep 2025 18:36:30.879,17 Sep 2025 18:48:01.711,690.832
660,17 Sep 2025 20:12:12.410,17 Sep 2025 20:18:19.588,367.178
661,18 Sep 2025 16:46:54.115,18 Sep 2025 16:51:21.628,267.513
662,18 Sep 2025 18:17:48.510,18 Sep 2025 18:29:19.769,691.259
663,18 Sep 2025 19:52:41.628,18 Sep 2025 20:00:56.353,494.725
664,19 Sep 2025 17:59:12.570,19 Sep 2025 18:10:25.888,673.318
665,19 Sep 2025 19:33:29.238,19 Sep 2025 19:43:08.118,578.880
666,20 Sep 2025 17:40:44.364,20 Sep 2025 17:51:18.751,634.387
667,20 Sep 2025 19:14:27.169,20 Sep 2025 19:25:03.284,636.115
668,21 Sep 2025 17:22:26.691,21 Sep 2025 17:31:55.474,568.783
669,21 Sep 2025 18:55:32.507,21 Sep 2025 19:06:45.047,672.540
670,21 Sep 2025 20:33:16.437,21 Sep 2025 20:34:28.469,72.033
671,22 Sep 2025 17:04:26.057,22 Sep 2025 17:12:09.335,463.278
672,22 Sep 2025 18:36:44.092,22 Sep 2025 18:48:14.814,690.722
673,22 Sep 2025 20:12:26.349,22 Sep 2025 20:18:31.604,365.254
674,23 Sep 2025 16:47:05.740,23 Sep 2025 16:51:36.725,270.985
675,23 Sep 2025 18:18:01.650,23 Sep 2025 18:29:33.009,691.358
676,23 Sep 2025 19:52:55.244,23 Sep 2025 20:01:08.770,493.527
677,24 Sep 2025 17:59:25.629,24 Sep 2025 18:10:39.273,673.645
678,24 Sep 2025 19:33:42.702,24 Sep 2025 19:43:20.763,578.061
679,25 Sep 2025 17:40:57.317,25 Sep 2025 17:51:32.305,634.988
680,25 Sep 2025 19:14:40.532,25 Sep 2025 19:25:16.101,635.569
681,26 Sep 2025 17:22:39.494,26 Sep 2025 17:32:09.245,569.751
682,26 Sep 2025 18:55:45.791,26 Sep 2025 19:06:58.013,672.221
683,26 Sep 2025 20:33:35.505,26 Sep 2025 20:34:35.268,59.763
684,27 Sep 2025 17:04:38.588,27 Sep 2025 17:12:23.446,464.858
685,27 Sep 2025 18:36:57.306,27 Sep 2025 18:48:27.916,690.611
686,27 Sep 2025 20:12:40.297,27 Sep 2025 20:18:43.610,363.313
687,28 Sep 2025 16:47:17.390,28 Sep 2025 16:51:51.790,274.400
688,28 Sep 2025 18:18:14.792,28 Sep 2025 18:29:46.247,691.455
689,28 Sep 2025 19:53:08.864,28 Sep 2025 20:01:21.184,492.319
690,29 Sep 2025 17:59:38.688,29 Sep 2025 18:10:52.656,673.969
691,29 Sep 2025 19:33:56.166,29 Sep 2025 19:43:33.406,577.239
692,30 Sep 2025 17:41:10.271,30 Sep 2025 17:51:45.856,635.585
693,30 Sep 2025 19:14:53.896,30 Sep 2025 19:25:28.916,635.019
694,1 Oct 2025 17:22:52.300,1 Oct 2025 17:32:23.013,570.712
695,1 Oct 2025 18:55:59.076,1 Oct 2025 19:07:10.975,671.899
696,1 Oct 2025 20:33:56.215,1 Oct 2025 20:34:40.425,44.209
697,2 Oct 2025 17:04:51.124,2 Oct 2025 17:12:37.553,466.428
698,2 Oct 2025 18:37:10.520,2 Oct 2025 18:48:41.016,690.496
699,2 Oct 2025 20:12:54.249,2 Oct 2025 20:18:55.611,361.362
700,3 Oct 2025 16:47:29.067,3 Oct 2025 16:52:06.836,277.769
701,3 Oct 2025 18:18:27.933,3 Oct 2025 18:29:59.483,691.549
702,3 Oct 2025 19:53:22.484,3 Oct 2025 20:01:33.594,491.109
703,4 Oct 2025 17:59:51.749,4 Oct 2025 18:11:06.039,674.290
704,4 Oct 2025 19:34:09.633,4 Oct 2025 19:43:46.047,576.414
705,5 Oct 2025 17:41:23.229,5 Oct 2025 17:51:59.406,636.177
706,5 Oct 2025 19:15:07.263,5 Oct 2025 19:25:41.730,634.467
707,6 Oct 2025 17:23:05.109,6 Oct 2025 17:32:36.779,571.669
708,6 Oct 2025 18:56:12.364,6 Oct 2025 19:07:23.939,671.576
709,6 Oct 2025 20:34:22.116,6 Oct 2025 20:34:40.393,18.276
710,7 Oct 2025 17:05:03.666,7 Oct 2025 17:12:51.656,467.990
711,7 Oct 2025 18:37:23.736,7 Oct 2025 18:48:54.115,690.379
712,7 Oct 2025 20:13:08.209,7 Oct 2025 20:19:07.604,359.395
713,8 Oct 2025 16:47:40.766,8 Oct 2025 16:52:21.855,281.089
714,8 Oct 2025 18:18:41.078,8 Oct 2025 18:30:12.719,691.641
715,8 Oct 2025 19:53:36.111,8 Oct 2025 20:01:46.001,489.890
716,9 Oct 2025 18:00:04.812,9 Oct 2025 18:11:19.420,674.608
717,9 Oct 2025 19:34:23.103,9 Oct 2025 19:43:58.686,575.583
718,10 Oct 2025 17:41:36.189,10 Oct 2025 17:52:12.955,636.766
719,10 Oct 2025 19:15:20.630,10 Oct 2025 19:25:54.542,633.912
720,11 Oct 2025 17:23:17.919,11 Oct 2025 17:32:50.542,572.623
721,11 Oct 2025 18:56:25.652,11 Oct 2025 19:07:36.899,671.247
722,12 Oct 2025 17:05:16.210,12 Oct 2025 17:13:05.753,469.543
723,12 Oct 2025 18:37:36.952,12 Oct 2025 18:49:07.211,690.259
724,12 Oct 2025 20:13:22.178,12 Oct 2025 20:19:19.587,357.410
725,13 Oct 2025 16:47:52.487,13 Oct 2025 16:52:36.850,284.363
726,13 Oct 2025 18:18:54.222,13 Oct 2025 18:30:25.952,691.730
727,13 Oct 2025 19:53:49.739,13 Oct 2025 20:01:58.404,488.665
728,14 Oct 2025 18:00:17.875,14 Oct 2025 18:11:32.799,674.924
729,14 Oct 2025 19:34:36.573,14 Oct 2025 19:44:11.322,574.748
730,15 Oct 2025 17:41:49.154,15 Oct 2025 17:52:26.501,637.346
731,15 Oct 2025 19:15:33.999,15 Oct 2025 19:26:07.352,633.353
732,16 Oct 2025 17:23:30.733,16 Oct 2025 17:33:04.302,573.570
733,16 Oct 2025 18:56:38.941,16 Oct 2025 19:07:49.857,670.917
734,17 Oct 2025 17:05:28.761,17 Oct 2025 17:13:19.846,471.085
735,17 Oct 2025 18:37:50.171,17 Oct 2025 18:49:20.308,690.137
736,17 Oct 2025 20:13:36.153,17 Oct 2025 20:19:31.565,355.413
737,18 Oct 2025 16:48:04.232,18 Oct 2025 16:52:51.823,287.590
738,18 Oct 2025 18:19:07.369,18 Oct 2025 18:30:39.185,691.817
739,18 Oct 2025 19:54:03.369,18 Oct 2025 20:02:10.805,487.437
740,19 Oct 2025 18:00:30.941,19 Oct 2025 18:11:46.177,675.237
741,19 Oct 2025 19:34:50.047,19 Oct 2025 19:44:23.957,573.910
742,20 Oct 2025 17:42:02.118,20 Oct 2025 17:52:40.046,637.929
743,20 Oct 2025 19:15:47.370,20 Oct 2025 19:26:20.162,632.792
744,21 Oct 2025 17:23:43.549,21 Oct 2025 17:33:18.062,574.513
745,21 Oct 2025 18:56:52.233,21 Oct 2025 19:08:02.816,670.583
746,22 Oct 2025 17:05:41.316,22 Oct 2025 17:13:33.936,472.620
747,22 Oct 2025 18:38:03.391,22 Oct 2025 18:49:33.404,690.013
748,22 Oct 2025 20:13:50.138,22 Oct 2025 20:19:43.535,353.396
749,23 Oct 2025 16:48:15.997,23 Oct 2025 16:53:06.776,290.779
750,23 Oct 2025 18:19:20.517,23 Oct 2025 18:30:52.418,691.901
751,23 Oct 2025 19:54:17.005,23 Oct 2025 20:02:23.203,486.198
752,24 Oct 2025 18:00:44.008,24 Oct 2025 18:11:59.555,675.547
753,24 Oct 2025 19:35:03.524,24 Oct 2025 19:44:36.590,573.067
754,25 Oct 2025 17:42:15.078,25 Oct 2025 17:52:53.590,638.513
755,25 Oct 2025 19:16:00.743,25 Oct 2025 19:26:32.970,632.226
756,26 Oct 2025 17:23:56.367,26 Oct 2025 17:33:31.818,575.452
757,26 Oct 2025 18:57:05.525,26 Oct 2025 19:08:15.772,670.247
758,27 Oct 2025 17:05:53.875,27 Oct 2025 17:13:48.020,474.145
759,27 Oct 2025 18:38:16.612,27 Oct 2025 18:49:46.498,689.886
760,27 Oct 2025 20:14:04.131,27 Oct 2025 20:19:55.495,351.364
761,28 Oct 2025 16:48:27.783,28 Oct 2025 16:53:21.706,293.923
762,28 Oct 2025 18:19:33.666,28 Oct 2025 18:31:05.648,691.983
763,28 Oct 2025 19:54:30.644,28 Oct 2025 20:02:35.597,484.953
764,29 Oct 2025 18:00:57.075,29 Oct 2025 18:12:12.930,675.855
765,29 Oct 2025 19:35:16.996,29 Oct 2025 19:44:49.221,572.225
766,30 Oct 2025 17:42:28.044,30 Oct 2025 17:53:07.132,639.088
767,30 Oct 2025 19:16:14.117,30 Oct 2025 19:26:45.776,631.659
768,31 Oct 2025 17:24:09.187,31 Oct 2025 17:33:45.572,576.385
769,31 Oct 2025 18:57:18.819,31 Oct 2025 19:08:28.727,669.909
770,1 Nov 2025 17:06:06.440,1 Nov 2025 17:14:02.100,475.660
771,1 Nov 2025 18:38:29.835,1 Nov 2025 18:49:59.591,689.757
772,1 Nov 2025 20:14:18.130,1 Nov 2025 20:20:07.449,349.319
773,2 Nov 2025 16:48:39.592,2 Nov 2025 16:53:36.616,297.024
774,2 Nov 2025 18:19:46.817,2 Nov 2025 18:31:18.878,692.062
775,2 Nov 2025 19:54:44.285,2 Nov 2025 20:02:47.989,483.704
776,3 Nov 2025 18:01:10.146,3 Nov 2025 18:12:26.305,676.159
777,3 Nov 2025 19:35:30.479,3 Nov 2025 19:45:01.851,571.372
778,4 Nov 2025 17:42:41.018,4 Nov 2025 17:53:20.673,639.655
779,4 Nov 2025 19:16:27.494,4 Nov 2025 19:26:58.581,631.088
780,5 Nov 2025 17:24:22.011,5 Nov 2025 17:33:59.325,577.314
781,5 Nov 2025 18:57:32.115,5 Nov 2025 19:08:41.682,669.567
782,6 Nov 2025 17:06:19.009,6 Nov 2025 17:14:16.177,477.168
783,6 Nov 2025 18:38:43.056,6 Nov 2025 18:50:12.684,689.628
784,6 Nov 2025 20:14:32.139,6 Nov 2025 20:20:19.394,347.255
785,7 Nov 2025 16:48:51.417,7 Nov 2025 16:53:51.509,300.092
786,7 Nov 2025 18:19:59.969,7 Nov 2025 18:31:32.108,692.139
787,7 Nov 2025 19:54:57.932,7 Nov 2025 20:03:00.377,482.445
788,8 Nov 2025 18:01:23.217,8 Nov 2025 18:12:39.679,676.462
789,8 Nov 2025 19:35:43.963,8 Nov 2025 19:45:14.478,570.515
790,9 Nov 2025 17:42:53.986,9 Nov 2025 17:53:34.212,640.226
791,9 Nov 2025 19:16:40.871,9 Nov 2025 19:27:11.384,630.513
792,10 Nov 2025 17:24:34.836,10 Nov 2025 17:34:13.074,578.238
793,10 Nov 2025 18:57:45.412,10 Nov 2025 19:08:54.635,669.223
794,11 Nov 2025 17:06:31.581,11 Nov 2025 17:14:30.247,478.666
795,11 Nov 2025 18:38:56.281,11 Nov 2025 18:50:25.774,689.493
796,11 Nov 2025 20:14:46.156,11 Nov 2025 20:20:31.331,345.175
797,12 Nov 2025 16:49:03.263,12 Nov 2025 16:54:06.379,303.116
798,12 Nov 2025 18:20:13.122,12 Nov 2025 18:31:45.334,692.213
799,12 Nov 2025 19:55:11.580,12 Nov 2025 20:03:12.762,481.182
800,13 Nov 2025 18:01:36.290,13 Nov 2025 18:12:53.051,676.761
801,13 Nov 2025 19:35:57.446,13 Nov 2025 19:45:27.103,569.657
802,14 Nov 2025 17:43:06.956,14 Nov 2025 17:53:47.749,640.793
803,14 Nov 2025 19:16:54.250,14 Nov 2025 19:27:24.187,629.937
804,15 Nov 2025 17:24:47.666,15 Nov 2025 17:34:26.821,579.156
805,15 Nov 2025 18:57:58.710,15 Nov 2025 19:09:07.587,668.877
806,16 Nov 2025 17:06:44.161,16 Nov 2025 17:14:44.314,480.153
807,16 Nov 2025 18:39:09.508,16 Nov 2025 18:50:38.865,689.357
808,16 Nov 2025 20:15:00.180,16 Nov 2025 20:20:43.261,343.081
809,17 Nov 2025 16:49:15.130,17 Nov 2025 16:54:21.234,306.104
810,17 Nov 2025 18:20:26.278,17 Nov 2025 18:31:58.562,692.284
811,17 Nov 2025 19:55:25.234,17 Nov 2025 20:03:25.145,479.912
812,18 Nov 2025 18:01:49.366,18 Nov 2025 18:13:06.423,677.057
813,18 Nov 2025 19:36:10.935,18 Nov 2025 19:45:39.728,568.793
814,19 Nov 2025 17:43:19.936,19 Nov 2025 17:54:01.284,641.349
815,19 Nov 2025 19:17:07.633,19 Nov 2025 19:27:36.984,629.351
816,20 Nov 2025 17:25:00.498,20 Nov 2025 17:34:40.568,580.070
817,20 Nov 2025 18:58:12.012,20 Nov 2025 19:09:20.539,668.527
818,21 Nov 2025 17:06:56.744,21 Nov 2025 17:14:58.377,481.633
819,21 Nov 2025 18:39:22.737,21 Nov 2025 18:50:51.955,689.218
820,21 Nov 2025 20:15:14.216,21 Nov 2025 20:20:55.180,340.964
821,22 Nov 2025 16:49:27.013,22 Nov 2025 16:54:36.071,309.058
822,22 Nov 2025 18:20:39.435,22 Nov 2025 18:32:11.789,692.354
823,22 Nov 2025 19:55:38.891,22 Nov 2025 20:03:37.524,478.634
824,23 Nov 2025 18:02:02.442,23 Nov 2025 18:13:19.793,677.351
825,23 Nov 2025 19:36:24.419,23 Nov 2025 19:45:52.349,567.931
826,24 Nov 2025 17:43:32.912,24 Nov 2025 17:54:14.818,641.907
827,24 Nov 2025 19:17:21.015,24 Nov 2025 19:27:49.784,628.769
828,25 Nov 2025 17:25:13.331,25 Nov 2025 17:34:54.308,580.977
829,25 Nov 2025 18:58:25.313,25 Nov 2025 19:09:33.488,668.175
830,26 Nov 2025 17:07:09.332,26 Nov 2025 17:15:12.435,483.103
831,26 Nov 2025 18:39:35.966,26 Nov 2025 18:51:05.042,689.076
832,26 Nov 2025 20:15:28.257,26 Nov 2025 20:21:07.090,338.832
833,27 Nov 2025 16:49:38.915,27 Nov 2025 16:54:50.888,311.973
834,27 Nov 2025 18:20:52.593,27 Nov 2025 18:32:25.013,692.420
835,27 Nov 2025 19:55:52.547,27 Nov 2025 20:03:49.900,477.354
836,28 Nov 2025 18:02:15.520,28 Nov 2025 18:13:33.161,677.641
837,28 Nov 2025 19:36:37.909,28 Nov 2025 19:46:04.969,567.060
838,29 Nov 2025 17:43:45.890,29 Nov 2025 17:54:28.352,642.461
839,29 Nov 2025 19:17:34.400,29 Nov 2025 19:28:02.582,628.183
840,30 Nov 2025 17:25:26.169,30 Nov 2025 17:35:08.049,581.880
841,30 Nov 2025 18:58:38.616,30 Nov 2025 19:09:46.437,667.821
842,1 Dec 2025 17:07:21.926,1 Dec 2025 17:15:26.489,484.564
843,1 Dec 2025 18:39:49.198,1 Dec 2025 18:51:18.130,688.932
844,1 Dec 2025 20:15:42.309,1 Dec 2025 20:21:18.994,336.685
845,2 Dec 2025 16:49:50.835,2 Dec 2025 16:55:05.689,314.854
846,2 Dec 2025 18:21:05.753,2 Dec 2025 18:32:38.237,692.484
847,2 Dec 2025 19:56:06.209,2 Dec 2025 20:04:02.274,476.065
848,3 Dec 2025 18:02:28.601,3 Dec 2025 18:13:46.530,677.929
849,3 Dec 2025 19:36:51.403,3 Dec 2025 19:46:17.589,566.185
850,4 Dec 2025 17:43:58.872,4 Dec 2025 17:54:41.885,643.013
851,4 Dec 2025 19:17:47.787,4 Dec 2025 19:28:15.380,627.593
852,5 Dec 2025 17:25:39.009,5 Dec 2025 17:35:21.788,582.780
853,5 Dec 2025 18:58:51.922,5 Dec 2025 19:09:59.386,667.464
854,6 Dec 2025 17:07:34.522,6 Dec 2025 17:15:40.539,486.017
855,6 Dec 2025 18:40:02.431,6 Dec 2025 18:51:31.217,688.785
856,6 Dec 2025 20:15:56.371,6 Dec 2025 20:21:30.892,334.522
857,7 Dec 2025 16:50:02.770,7 Dec 2025 16:55:20.474,317.704
858,7 Dec 2025 18:21:18.914,7 Dec 2025 18:32:51.460,692.546
859,7 Dec 2025 19:56:19.875,7 Dec 2025 20:04:14.644,474.769
860,8 Dec 2025 18:02:41.681,8 Dec 2025 18:13:59.892,678.211
861,8 Dec 2025 19:37:04.898,8 Dec 2025 19:46:30.204,565.306
862,9 Dec 2025 17:44:11.853,9 Dec 2025 17:54:55.414,643.561
863,9 Dec 2025 19:18:01.174,9 Dec 2025 19:28:28.175,627.001
864,10 Dec 2025 17:25:51.850,10 Dec 2025 17:35:35.524,583.673
865,10 Dec 2025 18:59:05.227,10 Dec 2025 19:10:12.331,667.105
866,11 Dec 2025 17:07:47.125,11 Dec 2025 17:15:54.584,487.459
867,11 Dec 2025 18:40:15.665,11 Dec 2025 18:51:44.301,688.637
868,11 Dec 2025 20:16:10.438,11 Dec 2025 20:21:42.776,332.339
869,12 Dec 2025 16:50:14.725,12 Dec 2025 16:55:35.241,320.516
870,12 Dec 2025 18:21:32.076,12 Dec 2025 18:33:04.681,692.605
871,12 Dec 2025 19:56:33.542,12 Dec 2025 20:04:27.011,473.469
872,13 Dec 2025 18:02:54.765,13 Dec 2025 18:14:13.258,678.493
873,13 Dec 2025 19:37:18.395,13 Dec 2025 19:46:42.820,564.424
874,14 Dec 2025 17:44:24.839,14 Dec 2025 17:55:08.944,644.105
875,14 Dec 2025 19:18:14.564,14 Dec 2025 19:28:40.975,626.411
876,15 Dec 2025 17:26:04.697,15 Dec 2025 17:35:49.259,584.562
877,15 Dec 2025 18:59:18.535,15 Dec 2025 19:10:25.278,666.743
878,16 Dec 2025 17:07:59.733,16 Dec 2025 17:16:08.626,488.893
879,16 Dec 2025 18:40:28.901,16 Dec 2025 18:51:57.387,688.485
880,16 Dec 2025 20:16:24.515,16 Dec 2025 20:21:54.655,330.140
881,17 Dec 2025 16:50:26.695,17 Dec 2025 16:55:49.994,323.298
882,17 Dec 2025 18:21:45.241,17 Dec 2025 18:33:17.903,692.662
883,17 Dec 2025 19:56:47.215,17 Dec 2025 20:04:39.376,472.161
884,18 Dec 2025 18:03:07.851,18 Dec 2025 18:14:26.623,678.772
885,18 Dec 2025 19:37:31.896,18 Dec 2025 19:46:55.433,563.538
886,19 Dec 2025 17:44:37.826,19 Dec 2025 17:55:22.472,644.646
887,19 Dec 2025 19:18:27.956,19 Dec 2025 19:28:53.768,625.813
888,20 Dec 2025 17:26:17.545,20 Dec 2025 17:36:02.992,585.446
889,20 Dec 2025 18:59:31.845,20 Dec 2025 19:10:38.223,666.378
890,21 Dec 2025 17:08:12.345,21 Dec 2025 17:16:22.663,490.318
891,21 Dec 2025 18:40:42.138,21 Dec 2025 18:52:10.470,688.331
892,21 Dec 2025 20:16:38.602,21 Dec 2025 20:22:06.522,327.919
893,22 Dec 2025 16:50:38.681,22 Dec 2025 16:56:04.730,326.049
894,22 Dec 2025 18:21:58.407,22 Dec 2025 18:33:31.122,692.716
895,22 Dec 2025 19:57:00.889,22 Dec 2025 20:04:51.737,470.848
896,23 Dec 2025 18:03:20.937,23 Dec 2025 18:14:39.986,679.049
897,23 Dec 2025 19:37:45.397,23 Dec 2025 19:47:08.044,562.647
898,24 Dec 2025 17:44:50.814,24 Dec 2025 17:55:35.997,645.182
899,24 Dec 2025 19:18:41.347,24 Dec 2025 19:29:06.560,625.212
900,25 Dec 2025 17:26:30.396,25 Dec 2025 17:36:16.720,586.325
901,25 Dec 2025 18:59:45.154,25 Dec 2025 19:10:51.165,666.011
902,26 Dec 2025 17:08:24.962,26 Dec 2025 17:16:36.694,491.732
903,26 Dec 2025 18:40:55.376,26 Dec 2025 18:52:23.552,688.175
904,26 Dec 2025 20:16:52.695,26 Dec 2025 20:22:18.382,325.687
905,27 Dec 2025 16:50:50.685,27 Dec 2025 16:56:19.450,328.764
906,27 Dec 2025 18:22:11.574,27 Dec 2025 18:33:44.341,692.767
907,27 Dec 2025 19:57:14.566,27 Dec 2025 20:05:04.095,469.530
908,28 Dec 2025 18:03:34.026,28 Dec 2025 18:14:53.347,679.322
909,28 Dec 2025 19:37:58.899,28 Dec 2025 19:47:20.654,561.755
910,29 Dec 2025 17:45:03.806,29 Dec 2025 17:55:49.521,645.715
911,29 Dec 2025 19:18:54.741,29 Dec 2025 19:29:19.351,624.609
912,30 Dec 2025 17:26:43.251,30 Dec 2025 17:36:30.449,587.198
913,30 Dec 2025 18:59:58.467,30 Dec 2025 19:11:04.108,665.642
914,31 Dec 2025 17:08:37.585,31 Dec 2025 17:16:50.724,493.139
915,31 Dec 2025 18:41:08.617,31 Dec 2025 18:52:36.634,688.017
916,31 Dec 2025 20:17:06.800,31 Dec 2025 20:22:30.233,323.433

Global Statistics
"Min Duration",709,6 Oct 2025 20:34:22.116,6 Oct 2025 20:34:40.393,18.276
"Max Duration",107,14 Feb 2025 18:27:03.416,14 Feb 2025 18:38:36.680,693.264
"Mean Duration",,,,541.661
"Total Duration",,,,496161.188


