3UCubedIntegratedSim/Reports & Plots/Comms/SSU/Sat12 Comms.csv

"Access","Start Time (UTCG)","Stop Time (UTCG)","Duration (sec)"
1,1 Jan 2025 19:41:42.995,1 Jan 2025 19:52:20.069,637.074
2,1 Jan 2025 21:15:27.655,1 Jan 2025 21:26:01.271,633.616
3,2 Jan 2025 19:23:24.644,2 Jan 2025 19:32:57.771,573.126
4,2 Jan 2025 20:56:32.633,2 Jan 2025 21:07:43.705,671.072
5,3 Jan 2025 19:05:22.796,3 Jan 2025 19:13:13.156,470.360
6,3 Jan 2025 20:37:43.893,3 Jan 2025 20:49:14.092,690.198
7,3 Jan 2025 22:13:29.528,3 Jan 2025 22:19:25.877,356.349
8,4 Jan 2025 18:47:58.645,4 Jan 2025 18:52:44.718,286.073
9,4 Jan 2025 20:19:01.127,4 Jan 2025 20:30:32.903,691.777
10,4 Jan 2025 21:53:56.903,4 Jan 2025 22:02:04.919,488.016
11,5 Jan 2025 20:00:24.737,5 Jan 2025 20:11:39.826,675.090
12,5 Jan 2025 21:34:43.655,5 Jan 2025 21:44:17.961,574.306
13,6 Jan 2025 19:41:55.962,6 Jan 2025 19:52:33.616,637.654
14,6 Jan 2025 21:15:41.025,6 Jan 2025 21:26:14.083,633.058
15,7 Jan 2025 19:23:37.463,7 Jan 2025 19:33:11.530,574.066
16,7 Jan 2025 20:56:45.925,7 Jan 2025 21:07:56.667,670.742
17,8 Jan 2025 19:05:35.355,8 Jan 2025 19:13:27.247,471.891
18,8 Jan 2025 20:37:57.117,8 Jan 2025 20:49:27.189,690.073
19,8 Jan 2025 22:13:43.503,8 Jan 2025 22:19:37.857,354.354
20,9 Jan 2025 18:48:10.412,9 Jan 2025 18:52:59.677,289.265
21,9 Jan 2025 20:19:14.277,9 Jan 2025 20:30:46.138,691.861
22,9 Jan 2025 21:54:10.535,9 Jan 2025 22:02:17.323,486.788
23,10 Jan 2025 20:00:37.807,10 Jan 2025 20:11:53.207,675.400
24,10 Jan 2025 21:34:57.129,10 Jan 2025 21:44:30.599,573.469
25,11 Jan 2025 19:42:08.931,11 Jan 2025 19:52:47.163,638.232
26,11 Jan 2025 21:15:54.398,11 Jan 2025 21:26:26.895,632.497
27,12 Jan 2025 19:23:50.286,12 Jan 2025 19:33:25.289,575.003
28,12 Jan 2025 20:56:59.218,12 Jan 2025 21:08:09.627,670.408
29,13 Jan 2025 19:05:47.919,13 Jan 2025 19:13:41.334,473.415
30,13 Jan 2025 20:38:10.340,13 Jan 2025 20:49:40.287,689.947
31,13 Jan 2025 22:13:57.488,13 Jan 2025 22:19:49.828,352.340
32,14 Jan 2025 18:48:22.198,14 Jan 2025 18:53:14.616,292.418
33,14 Jan 2025 20:19:27.428,14 Jan 2025 20:30:59.372,691.944
34,14 Jan 2025 21:54:24.171,14 Jan 2025 22:02:29.723,485.552
35,15 Jan 2025 20:00:50.877,15 Jan 2025 20:12:06.584,675.707
36,15 Jan 2025 21:35:10.605,15 Jan 2025 21:44:43.233,572.628
37,16 Jan 2025 19:42:21.900,16 Jan 2025 19:53:00.706,638.806
38,16 Jan 2025 21:16:07.771,16 Jan 2025 21:26:39.704,631.933
39,17 Jan 2025 19:24:03.109,17 Jan 2025 19:33:39.044,575.935
40,17 Jan 2025 20:57:12.511,17 Jan 2025 21:08:22.584,670.072
41,18 Jan 2025 19:06:00.487,18 Jan 2025 19:13:55.415,474.928
42,18 Jan 2025 20:38:23.562,18 Jan 2025 20:49:53.381,689.819
43,18 Jan 2025 22:14:11.478,18 Jan 2025 22:20:01.792,350.314
44,19 Jan 2025 18:48:34.005,19 Jan 2025 18:53:29.531,295.525
45,19 Jan 2025 20:19:40.579,19 Jan 2025 20:31:12.603,692.023
46,19 Jan 2025 21:54:37.807,19 Jan 2025 22:02:42.119,484.312
47,20 Jan 2025 20:01:03.948,20 Jan 2025 20:12:19.960,676.011
48,20 Jan 2025 21:35:24.077,20 Jan 2025 21:44:55.866,571.789
49,21 Jan 2025 19:42:34.871,21 Jan 2025 19:53:14.247,639.376
50,21 Jan 2025 21:16:21.145,21 Jan 2025 21:26:52.511,631.367
51,22 Jan 2025 19:24:15.937,22 Jan 2025 19:33:52.797,576.860
52,22 Jan 2025 20:57:25.806,22 Jan 2025 21:08:35.540,669.734
53,23 Jan 2025 19:06:13.061,23 Jan 2025 19:14:09.491,476.430
54,23 Jan 2025 20:38:36.786,23 Jan 2025 20:50:06.475,689.689
55,23 Jan 2025 22:14:25.474,23 Jan 2025 22:20:13.748,348.274
56,24 Jan 2025 18:48:45.835,24 Jan 2025 18:53:44.426,298.591
57,24 Jan 2025 20:19:53.733,24 Jan 2025 20:31:25.833,692.101
58,24 Jan 2025 21:54:51.447,24 Jan 2025 22:02:54.514,483.067
59,25 Jan 2025 20:01:17.022,25 Jan 2025 20:12:33.335,676.313
60,25 Jan 2025 21:35:37.559,25 Jan 2025 21:45:08.497,570.939
61,26 Jan 2025 19:42:47.843,26 Jan 2025 19:53:27.786,639.943
62,26 Jan 2025 21:16:34.521,26 Jan 2025 21:27:05.318,630.797
63,27 Jan 2025 19:24:28.766,27 Jan 2025 19:34:06.548,577.781
64,27 Jan 2025 20:57:39.103,27 Jan 2025 21:08:48.496,669.393
65,28 Jan 2025 19:06:25.638,28 Jan 2025 19:14:23.564,477.926
66,28 Jan 2025 20:38:50.009,28 Jan 2025 20:50:19.568,689.559
67,28 Jan 2025 22:14:39.480,28 Jan 2025 22:20:25.696,346.216
68,29 Jan 2025 18:48:57.681,29 Jan 2025 18:53:59.303,301.622
69,29 Jan 2025 20:20:06.887,29 Jan 2025 20:31:39.062,692.175
70,29 Jan 2025 21:55:05.090,29 Jan 2025 22:03:06.904,481.814
71,30 Jan 2025 20:01:30.096,30 Jan 2025 20:12:46.708,676.612
72,30 Jan 2025 21:35:51.040,30 Jan 2025 21:45:21.126,570.085
73,31 Jan 2025 19:43:00.815,31 Jan 2025 19:53:41.326,640.511
74,31 Jan 2025 21:16:47.897,31 Jan 2025 21:27:18.122,630.225
75,1 Feb 2025 19:24:41.597,1 Feb 2025 19:34:20.294,578.698
76,1 Feb 2025 20:57:52.399,1 Feb 2025 21:09:01.448,669.049
77,2 Feb 2025 19:06:38.219,2 Feb 2025 19:14:37.629,479.410
78,2 Feb 2025 20:39:03.234,2 Feb 2025 20:50:32.658,689.424
79,2 Feb 2025 22:14:53.492,2 Feb 2025 22:20:37.635,344.143
80,3 Feb 2025 18:49:09.547,3 Feb 2025 18:54:14.158,304.610
81,3 Feb 2025 20:20:20.041,3 Feb 2025 20:31:52.289,692.248
82,3 Feb 2025 21:55:18.734,3 Feb 2025 22:03:19.290,480.557
83,4 Feb 2025 20:01:43.171,4 Feb 2025 20:13:00.079,676.907
84,4 Feb 2025 21:36:04.517,4 Feb 2025 21:45:33.752,569.235
85,5 Feb 2025 19:43:13.795,5 Feb 2025 19:53:54.861,641.067
86,5 Feb 2025 21:17:01.275,5 Feb 2025 21:27:30.924,629.649
87,6 Feb 2025 19:24:54.432,6 Feb 2025 19:34:34.039,579.608
88,6 Feb 2025 20:58:05.697,6 Feb 2025 21:09:14.401,668.704
89,7 Feb 2025 19:06:50.807,7 Feb 2025 19:14:51.691,480.884
90,7 Feb 2025 20:39:16.462,7 Feb 2025 20:50:45.749,689.287
91,7 Feb 2025 22:15:07.509,7 Feb 2025 22:20:49.568,342.058
92,8 Feb 2025 18:49:21.433,8 Feb 2025 18:54:28.997,307.563
93,8 Feb 2025 20:20:33.199,8 Feb 2025 20:32:05.516,692.317
94,8 Feb 2025 21:55:32.384,8 Feb 2025 22:03:31.675,479.292
95,9 Feb 2025 20:01:56.249,9 Feb 2025 20:13:13.449,677.200
96,9 Feb 2025 21:36:18.001,9 Feb 2025 21:45:46.377,568.376
97,10 Feb 2025 19:43:26.773,10 Feb 2025 19:54:08.394,641.621
98,10 Feb 2025 21:17:14.655,10 Feb 2025 21:27:43.722,629.067
99,11 Feb 2025 19:25:07.268,11 Feb 2025 19:34:47.779,580.511
100,11 Feb 2025 20:58:18.996,11 Feb 2025 21:09:27.351,668.355
101,12 Feb 2025 19:07:03.397,12 Feb 2025 19:15:05.748,482.351
102,12 Feb 2025 20:39:29.690,12 Feb 2025 20:50:58.837,689.147
103,12 Feb 2025 22:15:21.538,12 Feb 2025 22:21:01.488,339.950
104,13 Feb 2025 18:49:33.335,13 Feb 2025 18:54:43.816,310.481
105,13 Feb 2025 20:20:46.355,13 Feb 2025 20:32:18.740,692.384
106,13 Feb 2025 21:55:46.032,13 Feb 2025 22:03:44.055,478.023
107,14 Feb 2025 20:02:09.326,14 Feb 2025 20:13:26.817,677.490
108,14 Feb 2025 21:36:31.485,14 Feb 2025 21:45:58.999,567.513
109,15 Feb 2025 19:43:39.751,15 Feb 2025 19:54:21.925,642.174
110,15 Feb 2025 21:17:28.034,15 Feb 2025 21:27:56.521,628.487
111,16 Feb 2025 19:25:20.106,16 Feb 2025 19:35:01.518,581.412
112,16 Feb 2025 20:58:32.295,16 Feb 2025 21:09:40.299,668.004
113,17 Feb 2025 19:07:15.993,17 Feb 2025 19:15:19.799,483.806
114,17 Feb 2025 20:39:42.918,17 Feb 2025 20:51:11.923,689.005
115,17 Feb 2025 22:15:35.571,17 Feb 2025 22:21:13.401,337.829
116,18 Feb 2025 18:49:45.256,18 Feb 2025 18:54:58.615,313.360
117,18 Feb 2025 20:20:59.513,18 Feb 2025 20:32:31.962,692.449
118,18 Feb 2025 21:55:59.684,18 Feb 2025 22:03:56.432,476.749
119,19 Feb 2025 20:02:22.405,19 Feb 2025 20:13:40.183,677.777
120,19 Feb 2025 21:36:44.971,19 Feb 2025 21:46:11.619,566.648
121,20 Feb 2025 19:43:52.732,20 Feb 2025 19:54:35.455,642.722
122,20 Feb 2025 21:17:41.415,20 Feb 2025 21:28:09.318,627.903
123,21 Feb 2025 19:25:32.947,21 Feb 2025 19:35:15.254,582.307
124,21 Feb 2025 20:58:45.596,21 Feb 2025 21:09:53.247,667.651
125,22 Feb 2025 19:07:28.593,22 Feb 2025 19:15:33.846,485.253
126,22 Feb 2025 20:39:56.148,22 Feb 2025 20:51:25.009,688.861
127,22 Feb 2025 22:15:49.614,22 Feb 2025 22:21:25.307,335.693
128,23 Feb 2025 18:49:57.194,23 Feb 2025 18:55:13.399,316.206
129,23 Feb 2025 20:21:12.672,23 Feb 2025 20:32:45.184,692.511
130,23 Feb 2025 21:56:13.339,23 Feb 2025 22:04:08.807,475.468
131,24 Feb 2025 20:02:35.486,24 Feb 2025 20:13:53.544,678.058
132,24 Feb 2025 21:36:58.459,24 Feb 2025 21:46:24.237,565.778
133,25 Feb 2025 19:44:05.715,25 Feb 2025 19:54:48.983,643.269
134,25 Feb 2025 21:17:54.797,25 Feb 2025 21:28:22.114,627.317
135,26 Feb 2025 19:25:45.790,26 Feb 2025 19:35:28.988,583.198
136,26 Feb 2025 20:58:58.898,26 Feb 2025 21:10:06.193,667.295
137,27 Feb 2025 19:07:41.196,27 Feb 2025 19:15:47.888,486.692
138,27 Feb 2025 20:40:09.378,27 Feb 2025 20:51:38.092,688.714
139,27 Feb 2025 22:16:03.666,27 Feb 2025 22:21:37.207,333.541
140,28 Feb 2025 18:50:09.145,28 Feb 2025 18:55:28.166,319.021
141,28 Feb 2025 20:21:25.832,28 Feb 2025 20:32:58.403,692.571
142,28 Feb 2025 21:56:26.997,28 Feb 2025 22:04:21.176,474.179
143,1 Mar 2025 20:02:48.567,1 Mar 2025 20:14:06.906,678.339
144,1 Mar 2025 21:37:11.948,1 Mar 2025 21:46:36.852,564.904
145,2 Mar 2025 19:44:18.697,2 Mar 2025 19:55:02.508,643.811
146,2 Mar 2025 21:18:08.179,2 Mar 2025 21:28:34.907,626.728
147,3 Mar 2025 19:25:58.635,3 Mar 2025 19:35:42.718,584.083
148,3 Mar 2025 20:59:12.200,3 Mar 2025 21:10:19.136,666.937
149,4 Mar 2025 19:07:53.805,4 Mar 2025 19:16:01.924,488.119
150,4 Mar 2025 20:40:22.609,4 Mar 2025 20:51:51.174,688.565
151,4 Mar 2025 22:16:17.723,4 Mar 2025 22:21:49.093,331.371
152,5 Mar 2025 18:50:21.116,5 Mar 2025 18:55:42.915,321.798
153,5 Mar 2025 20:21:38.992,5 Mar 2025 20:33:11.620,692.628
154,5 Mar 2025 21:56:40.656,5 Mar 2025 22:04:33.544,472.888
155,6 Mar 2025 20:03:01.650,6 Mar 2025 20:14:20.267,678.617
156,6 Mar 2025 21:37:25.438,6 Mar 2025 21:46:49.466,564.027
157,7 Mar 2025 19:44:31.683,7 Mar 2025 19:55:16.032,644.349
158,7 Mar 2025 21:18:21.564,7 Mar 2025 21:28:47.705,626.141
159,8 Mar 2025 19:26:11.484,8 Mar 2025 19:35:56.446,584.963
160,8 Mar 2025 20:59:25.503,8 Mar 2025 21:10:32.080,666.576
161,9 Mar 2025 19:08:06.418,9 Mar 2025 19:16:15.957,489.539
162,9 Mar 2025 20:40:35.842,9 Mar 2025 20:52:04.255,688.413
163,9 Mar 2025 22:16:31.790,9 Mar 2025 22:22:00.972,329.182
164,10 Mar 2025 18:50:33.102,10 Mar 2025 18:55:57.649,324.548
165,10 Mar 2025 20:21:52.155,10 Mar 2025 20:33:24.837,692.683
166,10 Mar 2025 21:56:54.319,10 Mar 2025 22:04:45.908,471.588
167,11 Mar 2025 20:03:14.733,11 Mar 2025 20:14:33.627,678.893
168,11 Mar 2025 21:37:38.931,11 Mar 2025 21:47:02.077,563.145
169,12 Mar 2025 19:44:44.670,12 Mar 2025 19:55:29.554,644.884
170,12 Mar 2025 21:18:34.949,12 Mar 2025 21:29:00.495,625.546
171,13 Mar 2025 19:26:24.332,13 Mar 2025 19:36:10.171,585.839
172,13 Mar 2025 20:59:38.807,13 Mar 2025 21:10:45.020,666.213
173,14 Mar 2025 19:08:19.033,14 Mar 2025 19:16:29.984,490.950
174,14 Mar 2025 20:40:49.074,14 Mar 2025 20:52:17.333,688.259
175,14 Mar 2025 22:16:45.863,14 Mar 2025 22:22:12.839,326.976
176,15 Mar 2025 18:50:45.101,15 Mar 2025 18:56:12.366,327.264
177,15 Mar 2025 20:22:05.316,15 Mar 2025 20:33:38.051,692.735
178,15 Mar 2025 21:57:07.984,15 Mar 2025 22:04:58.267,470.283
179,16 Mar 2025 20:03:27.817,16 Mar 2025 20:14:46.983,679.166
180,16 Mar 2025 21:37:52.424,16 Mar 2025 21:47:14.684,562.261
181,17 Mar 2025 19:44:57.657,17 Mar 2025 19:55:43.072,645.415
182,17 Mar 2025 21:18:48.333,17 Mar 2025 21:29:13.282,624.949
183,18 Mar 2025 19:26:37.184,18 Mar 2025 19:36:23.892,586.708
184,18 Mar 2025 20:59:52.111,18 Mar 2025 21:10:57.958,665.847
185,19 Mar 2025 19:08:31.654,19 Mar 2025 19:16:44.005,492.351
186,19 Mar 2025 20:41:02.307,19 Mar 2025 20:52:30.410,688.103
187,19 Mar 2025 22:16:59.944,19 Mar 2025 22:22:24.700,324.755
188,20 Mar 2025 18:50:57.118,20 Mar 2025 18:56:27.066,329.948
189,20 Mar 2025 20:22:18.479,20 Mar 2025 20:33:51.264,692.784
190,20 Mar 2025 21:57:21.650,20 Mar 2025 22:05:10.623,468.973
191,21 Mar 2025 20:03:40.903,21 Mar 2025 20:15:00.339,679.436
192,21 Mar 2025 21:38:05.918,21 Mar 2025 21:47:27.291,561.373
193,22 Mar 2025 19:45:10.646,22 Mar 2025 19:55:56.589,645.943
194,22 Mar 2025 21:19:01.720,22 Mar 2025 21:29:26.069,624.349
195,23 Mar 2025 19:26:50.038,23 Mar 2025 19:36:37.611,587.573
196,23 Mar 2025 21:00:05.416,23 Mar 2025 21:11:10.896,665.479
197,24 Mar 2025 19:08:44.279,24 Mar 2025 19:16:58.023,493.744
198,24 Mar 2025 20:41:15.542,24 Mar 2025 20:52:43.486,687.944
199,24 Mar 2025 22:17:14.037,24 Mar 2025 22:22:36.550,322.514
200,25 Mar 2025 18:51:09.148,25 Mar 2025 18:56:41.754,332.606
201,25 Mar 2025 20:22:31.644,25 Mar 2025 20:34:04.476,692.832
202,25 Mar 2025 21:57:35.320,25 Mar 2025 22:05:22.975,467.654
203,26 Mar 2025 20:03:53.989,26 Mar 2025 20:15:13.693,679.704
204,26 Mar 2025 21:38:19.414,26 Mar 2025 21:47:39.895,560.480
205,27 Mar 2025 19:45:23.637,27 Mar 2025 19:56:10.104,646.468
206,27 Mar 2025 21:19:15.108,27 Mar 2025 21:29:38.853,623.745
207,28 Mar 2025 19:27:02.895,28 Mar 2025 19:36:51.330,588.435
208,28 Mar 2025 21:00:18.722,28 Mar 2025 21:11:23.827,665.105
209,29 Mar 2025 19:08:56.906,29 Mar 2025 19:17:12.035,495.129
210,29 Mar 2025 20:41:28.776,29 Mar 2025 20:52:56.559,687.783
211,29 Mar 2025 22:17:28.137,29 Mar 2025 22:22:48.389,320.252
212,30 Mar 2025 18:51:21.190,30 Mar 2025 18:56:56.424,335.234
213,30 Mar 2025 20:22:44.808,30 Mar 2025 20:34:17.684,692.876
214,30 Mar 2025 21:57:48.992,30 Mar 2025 22:05:35.320,466.328
215,31 Mar 2025 20:04:07.076,31 Mar 2025 20:15:27.043,679.968
216,31 Mar 2025 21:38:32.908,31 Mar 2025 21:47:52.495,559.588
217,1 Apr 2025 19:45:36.628,1 Apr 2025 19:56:23.619,646.991
218,1 Apr 2025 21:19:28.495,1 Apr 2025 21:29:51.635,623.140
219,2 Apr 2025 19:27:15.753,2 Apr 2025 19:37:05.042,589.289
220,2 Apr 2025 21:00:32.028,2 Apr 2025 21:11:36.760,664.732
221,3 Apr 2025 19:09:09.539,3 Apr 2025 19:17:26.043,496.504
222,3 Apr 2025 20:41:42.012,3 Apr 2025 20:53:09.631,687.619
223,3 Apr 2025 22:17:42.244,3 Apr 2025 22:23:00.221,317.977
224,4 Apr 2025 18:51:33.249,4 Apr 2025 18:57:11.081,337.832
225,4 Apr 2025 20:22:57.974,4 Apr 2025 20:34:30.892,692.919
226,4 Apr 2025 21:58:02.666,4 Apr 2025 22:05:47.669,465.003
227,5 Apr 2025 20:04:20.165,5 Apr 2025 20:15:40.394,680.229
228,5 Apr 2025 21:38:46.406,5 Apr 2025 21:48:05.095,558.689
229,6 Apr 2025 19:45:49.621,6 Apr 2025 19:56:37.130,647.508
230,6 Apr 2025 21:19:41.885,6 Apr 2025 21:30:04.416,622.531
231,7 Apr 2025 19:27:28.613,7 Apr 2025 19:37:18.753,590.140
232,7 Apr 2025 21:00:45.336,7 Apr 2025 21:11:49.693,664.357
233,8 Apr 2025 19:09:22.175,8 Apr 2025 19:17:40.046,497.871
234,8 Apr 2025 20:41:55.248,8 Apr 2025 20:53:22.702,687.453
235,8 Apr 2025 22:17:56.363,8 Apr 2025 22:23:12.040,315.677
236,9 Apr 2025 18:51:45.318,9 Apr 2025 18:57:25.725,340.407
237,9 Apr 2025 20:23:11.140,9 Apr 2025 20:34:44.098,692.959
238,9 Apr 2025 21:58:16.343,9 Apr 2025 22:06:00.010,463.667
239,10 Apr 2025 20:04:33.253,10 Apr 2025 20:15:53.741,680.488
240,10 Apr 2025 21:38:59.905,10 Apr 2025 21:48:17.691,557.786
241,11 Apr 2025 19:46:02.614,11 Apr 2025 19:56:50.637,648.022
242,11 Apr 2025 21:19:55.274,11 Apr 2025 21:30:17.194,621.920
243,12 Apr 2025 19:27:41.473,12 Apr 2025 19:37:32.459,590.986
244,12 Apr 2025 21:00:58.643,12 Apr 2025 21:12:02.622,663.979
245,13 Apr 2025 19:09:34.816,13 Apr 2025 19:17:54.043,499.227
246,13 Apr 2025 20:42:08.484,13 Apr 2025 20:53:35.769,687.285
247,13 Apr 2025 22:18:10.489,13 Apr 2025 22:23:23.847,313.359
248,14 Apr 2025 18:51:57.400,14 Apr 2025 18:57:40.352,342.952
249,14 Apr 2025 20:23:24.305,14 Apr 2025 20:34:57.302,692.996
250,14 Apr 2025 21:58:30.021,14 Apr 2025 22:06:12.347,462.326
251,15 Apr 2025 20:04:46.342,15 Apr 2025 20:16:07.086,680.744
252,15 Apr 2025 21:39:13.404,15 Apr 2025 21:48:30.284,556.880
253,16 Apr 2025 19:46:15.609,16 Apr 2025 19:57:04.141,648.533
254,16 Apr 2025 21:20:08.663,16 Apr 2025 21:30:29.969,621.306
255,17 Apr 2025 19:27:54.336,17 Apr 2025 19:37:46.162,591.825
256,17 Apr 2025 21:01:11.951,17 Apr 2025 21:12:15.549,663.598
257,18 Apr 2025 19:09:47.459,18 Apr 2025 19:18:08.040,500.582
258,18 Apr 2025 20:42:21.721,18 Apr 2025 20:53:48.835,687.114
259,18 Apr 2025 22:18:24.624,18 Apr 2025 22:23:35.646,311.022
260,19 Apr 2025 18:52:09.496,19 Apr 2025 18:57:54.966,345.470
261,19 Apr 2025 20:23:37.473,19 Apr 2025 20:35:10.504,693.031
262,19 Apr 2025 21:58:43.702,19 Apr 2025 22:06:24.681,460.979
263,20 Apr 2025 20:04:59.433,20 Apr 2025 20:16:20.430,680.997
264,20 Apr 2025 21:39:26.905,20 Apr 2025 21:48:42.875,555.970
265,21 Apr 2025 19:46:28.605,21 Apr 2025 19:57:17.645,649.040
266,21 Apr 2025 21:20:22.055,21 Apr 2025 21:30:42.744,620.689
267,22 Apr 2025 19:28:07.202,22 Apr 2025 19:37:59.858,592.657
268,22 Apr 2025 21:01:25.260,22 Apr 2025 21:12:28.476,663.215
269,23 Apr 2025 19:10:00.105,23 Apr 2025 19:18:22.030,501.925
270,23 Apr 2025 20:42:34.959,23 Apr 2025 20:54:01.901,686.941
271,23 Apr 2025 22:18:38.771,23 Apr 2025 22:23:47.432,308.661
272,24 Apr 2025 18:52:21.602,24 Apr 2025 18:58:09.569,347.967
273,24 Apr 2025 20:23:50.641,24 Apr 2025 20:35:23.705,693.064
274,24 Apr 2025 21:58:57.388,24 Apr 2025 22:06:37.010,459.623
275,25 Apr 2025 20:05:12.524,25 Apr 2025 20:16:33.772,681.248
276,25 Apr 2025 21:39:40.408,25 Apr 2025 21:48:55.463,555.055
277,26 Apr 2025 19:46:41.601,26 Apr 2025 19:57:31.145,649.544
278,26 Apr 2025 21:20:35.447,26 Apr 2025 21:30:55.515,620.069
279,27 Apr 2025 19:28:20.067,27 Apr 2025 19:38:13.556,593.488
280,27 Apr 2025 21:01:38.569,27 Apr 2025 21:12:41.399,662.830
281,28 Apr 2025 19:10:12.754,28 Apr 2025 19:18:36.012,503.259
282,28 Apr 2025 20:42:48.196,28 Apr 2025 20:54:14.962,686.766
283,28 Apr 2025 22:18:52.926,28 Apr 2025 22:23:59.206,306.281
284,29 Apr 2025 18:52:33.721,29 Apr 2025 18:58:24.155,350.434
285,29 Apr 2025 20:24:03.808,29 Apr 2025 20:35:36.902,693.093
286,29 Apr 2025 21:59:11.073,29 Apr 2025 22:06:49.335,458.262
287,30 Apr 2025 20:05:25.615,30 Apr 2025 20:16:47.110,681.495
288,30 Apr 2025 21:39:53.908,30 Apr 2025 21:49:08.049,554.141
289,1 May 2025 19:46:54.599,1 May 2025 19:57:44.643,650.044
290,1 May 2025 21:20:48.839,1 May 2025 21:31:08.285,619.446
291,2 May 2025 19:28:32.936,2 May 2025 19:38:27.251,594.315
292,2 May 2025 21:01:51.879,2 May 2025 21:12:54.322,662.442
293,3 May 2025 19:10:25.408,3 May 2025 19:18:49.992,504.584
294,3 May 2025 20:43:01.435,3 May 2025 20:54:28.024,686.588
295,3 May 2025 22:19:07.092,3 May 2025 22:24:10.971,303.879
296,4 May 2025 18:52:45.852,4 May 2025 18:58:38.731,352.879
297,4 May 2025 20:24:16.978,4 May 2025 20:35:50.099,693.121
298,4 May 2025 21:59:24.763,4 May 2025 22:07:01.657,456.894
299,5 May 2025 20:05:38.708,5 May 2025 20:17:00.449,681.740
300,5 May 2025 21:40:07.414,5 May 2025 21:49:20.632,553.219
301,6 May 2025 19:47:07.598,6 May 2025 19:57:58.139,650.541
302,6 May 2025 21:21:02.233,6 May 2025 21:31:21.053,618.820
303,7 May 2025 19:28:45.806,7 May 2025 19:38:40.944,595.138
304,7 May 2025 21:02:05.190,7 May 2025 21:13:07.242,662.052
305,8 May 2025 19:10:38.063,8 May 2025 19:19:03.966,505.903
306,8 May 2025 20:43:14.674,8 May 2025 20:54:41.083,686.408
307,8 May 2025 22:19:21.270,8 May 2025 22:24:22.720,301.450
308,9 May 2025 18:52:57.988,9 May 2025 18:58:53.295,355.307
309,9 May 2025 20:24:30.146,9 May 2025 20:36:03.292,693.146
310,9 May 2025 21:59:38.455,9 May 2025 22:07:13.970,455.515
311,10 May 2025 20:05:51.801,10 May 2025 20:17:13.783,681.983
312,10 May 2025 21:40:20.919,10 May 2025 21:49:33.212,552.293
313,11 May 2025 19:47:20.597,11 May 2025 19:58:11.632,651.035
314,11 May 2025 21:21:15.626,11 May 2025 21:31:33.817,618.191
315,12 May 2025 19:28:58.676,12 May 2025 19:38:54.632,595.956
316,12 May 2025 21:02:18.500,12 May 2025 21:13:20.159,661.659
317,13 May 2025 19:10:50.721,13 May 2025 19:19:17.935,507.213
318,13 May 2025 20:43:27.913,13 May 2025 20:54:54.139,686.226
319,13 May 2025 22:19:35.456,13 May 2025 22:24:34.458,299.002
320,14 May 2025 18:53:10.144,14 May 2025 18:59:07.844,357.700
321,14 May 2025 20:24:43.315,14 May 2025 20:36:16.484,693.168
322,14 May 2025 21:59:52.148,14 May 2025 22:07:26.282,454.134
323,15 May 2025 20:06:04.894,15 May 2025 20:17:27.116,682.222
324,15 May 2025 21:40:34.425,15 May 2025 21:49:45.789,551.364
325,16 May 2025 19:47:33.598,16 May 2025 19:58:25.123,651.525
326,16 May 2025 21:21:29.015,16 May 2025 21:31:46.580,617.565
327,17 May 2025 19:29:11.549,17 May 2025 19:39:08.319,596.769
328,17 May 2025 21:02:31.812,17 May 2025 21:13:33.075,661.264
329,18 May 2025 19:11:03.384,18 May 2025 19:19:31.900,508.515
330,18 May 2025 20:43:41.153,18 May 2025 20:55:07.194,686.041
331,18 May 2025 22:19:49.655,18 May 2025 22:24:46.185,296.530
332,19 May 2025 18:53:22.306,19 May 2025 18:59:22.383,360.076
333,19 May 2025 20:24:56.487,19 May 2025 20:36:29.675,693.188
334,19 May 2025 22:00:05.846,19 May 2025 22:07:38.590,452.745
335,20 May 2025 20:06:17.989,20 May 2025 20:17:40.448,682.459
336,20 May 2025 21:40:47.935,20 May 2025 21:49:58.364,550.429
337,21 May 2025 19:47:46.600,21 May 2025 19:58:38.612,652.012
338,21 May 2025 21:21:42.411,21 May 2025 21:31:59.341,616.930
339,22 May 2025 19:29:24.424,22 May 2025 19:39:22.003,597.579
340,22 May 2025 21:02:45.124,22 May 2025 21:13:45.990,660.865
341,23 May 2025 19:11:16.050,23 May 2025 19:19:45.860,509.811
342,23 May 2025 20:43:54.394,23 May 2025 20:55:20.248,685.853
343,23 May 2025 22:20:03.867,23 May 2025 22:24:57.898,294.031
344,24 May 2025 18:53:34.476,24 May 2025 18:59:36.909,362.433
345,24 May 2025 20:25:09.657,24 May 2025 20:36:42.863,693.206
346,24 May 2025 22:00:19.546,24 May 2025 22:07:50.894,451.348
347,25 May 2025 20:06:31.083,25 May 2025 20:17:53.777,682.693
348,25 May 2025 21:41:01.444,25 May 2025 21:50:10.935,549.491
349,26 May 2025 19:47:59.601,26 May 2025 19:58:52.097,652.496
350,26 May 2025 21:21:55.808,26 May 2025 21:32:12.099,616.291
351,27 May 2025 19:29:37.299,27 May 2025 19:39:35.681,598.382
352,27 May 2025 21:02:58.436,27 May 2025 21:13:58.901,660.465
353,28 May 2025 19:11:28.716,28 May 2025 19:19:59.812,511.095
354,28 May 2025 20:44:07.638,28 May 2025 20:55:33.301,685.663
355,28 May 2025 22:20:18.083,28 May 2025 22:25:09.592,291.509
356,29 May 2025 18:53:46.659,29 May 2025 18:59:51.423,364.764
357,29 May 2025 20:25:22.828,29 May 2025 20:36:56.049,693.221
358,29 May 2025 22:00:33.248,29 May 2025 22:08:03.195,449.947
359,30 May 2025 20:06:44.179,30 May 2025 20:18:07.104,682.925
360,30 May 2025 21:41:14.954,30 May 2025 21:50:23.504,548.550
361,31 May 2025 19:48:12.605,31 May 2025 19:59:05.582,652.977
362,31 May 2025 21:22:09.207,31 May 2025 21:32:24.856,615.648
363,1 Jun 2025 19:29:50.177,1 Jun 2025 19:39:49.358,599.182
364,1 Jun 2025 21:03:11.750,1 Jun 2025 21:14:11.812,660.062
365,2 Jun 2025 19:11:41.388,2 Jun 2025 19:20:13.764,512.376
366,2 Jun 2025 20:44:20.880,2 Jun 2025 20:55:46.350,685.470
367,2 Jun 2025 22:20:32.319,2 Jun 2025 22:25:21.277,288.958
368,3 Jun 2025 18:53:58.850,3 Jun 2025 19:00:05.928,367.078
369,3 Jun 2025 20:25:36.001,3 Jun 2025 20:37:09.234,693.233
370,3 Jun 2025 22:00:46.955,3 Jun 2025 22:08:15.490,448.535
371,4 Jun 2025 20:06:57.276,4 Jun 2025 20:18:20.430,683.154
372,4 Jun 2025 21:41:28.468,4 Jun 2025 21:50:36.071,547.603
373,5 Jun 2025 19:48:25.609,5 Jun 2025 19:59:19.064,653.455
374,5 Jun 2025 21:22:22.606,5 Jun 2025 21:32:37.609,615.003
375,6 Jun 2025 19:30:03.054,6 Jun 2025 19:40:03.032,599.978
376,6 Jun 2025 21:03:25.068,6 Jun 2025 21:14:24.720,659.651
377,7 Jun 2025 19:11:54.061,7 Jun 2025 19:20:27.711,513.650
378,7 Jun 2025 20:44:34.122,7 Jun 2025 20:55:59.396,685.274
379,7 Jun 2025 22:20:46.568,7 Jun 2025 22:25:32.946,286.378
380,8 Jun 2025 18:54:11.049,8 Jun 2025 19:00:20.419,369.371
381,8 Jun 2025 20:25:49.173,8 Jun 2025 20:37:22.416,693.243
382,8 Jun 2025 22:01:00.664,8 Jun 2025 22:08:27.779,447.116
383,9 Jun 2025 20:07:10.371,9 Jun 2025 20:18:33.752,683.381
384,9 Jun 2025 21:41:41.981,9 Jun 2025 21:50:48.633,546.652
385,10 Jun 2025 19:48:38.613,10 Jun 2025 19:59:32.542,653.929
386,10 Jun 2025 21:22:36.005,10 Jun 2025 21:32:50.360,614.355
387,11 Jun 2025 19:30:15.934,11 Jun 2025 19:40:16.702,600.768
388,11 Jun 2025 21:03:38.382,11 Jun 2025 21:14:37.625,659.243
389,12 Jun 2025 19:12:06.737,12 Jun 2025 19:20:41.653,514.916
390,12 Jun 2025 20:44:47.364,12 Jun 2025 20:56:12.440,685.076
391,12 Jun 2025 22:21:00.828,12 Jun 2025 22:25:44.601,283.773
392,13 Jun 2025 18:54:23.259,13 Jun 2025 19:00:34.900,371.642
393,13 Jun 2025 20:26:02.346,13 Jun 2025 20:37:35.597,693.251
394,13 Jun 2025 22:01:14.375,13 Jun 2025 22:08:40.065,445.690
395,14 Jun 2025 20:07:23.469,14 Jun 2025 20:18:47.074,683.605
396,14 Jun 2025 21:41:55.496,14 Jun 2025 21:51:01.194,545.697
397,15 Jun 2025 19:48:51.620,15 Jun 2025 19:59:46.020,654.400
398,15 Jun 2025 21:22:49.400,15 Jun 2025 21:33:03.110,613.710
399,16 Jun 2025 19:30:28.816,16 Jun 2025 19:40:30.371,601.555
400,16 Jun 2025 21:03:51.698,16 Jun 2025 21:14:50.530,658.832
401,17 Jun 2025 19:12:19.417,17 Jun 2025 19:20:55.592,516.175
402,17 Jun 2025 20:45:00.608,17 Jun 2025 20:56:25.486,684.878
403,17 Jun 2025 22:21:15.105,17 Jun 2025 22:25:56.242,281.137
404,18 Jun 2025 18:54:35.478,18 Jun 2025 19:00:49.373,373.894
405,18 Jun 2025 20:26:15.520,18 Jun 2025 20:37:48.777,693.257
406,18 Jun 2025 22:01:28.092,18 Jun 2025 22:08:52.346,444.254
407,19 Jun 2025 20:07:36.568,19 Jun 2025 20:19:00.392,683.824
408,19 Jun 2025 21:42:09.015,19 Jun 2025 21:51:13.751,544.737
409,20 Jun 2025 19:49:04.631,20 Jun 2025 19:59:59.492,654.861
410,20 Jun 2025 21:23:02.806,20 Jun 2025 21:33:15.857,613.051
411,21 Jun 2025 19:30:41.698,21 Jun 2025 19:40:44.036,602.338
412,21 Jun 2025 21:04:05.009,21 Jun 2025 21:15:03.432,658.423
413,22 Jun 2025 19:12:32.098,22 Jun 2025 19:21:09.528,517.431
414,22 Jun 2025 20:45:13.851,22 Jun 2025 20:56:38.527,684.676
415,22 Jun 2025 22:21:29.395,22 Jun 2025 22:26:07.865,278.470
416,23 Jun 2025 18:54:47.705,23 Jun 2025 19:01:03.832,376.127
417,23 Jun 2025 20:26:28.693,23 Jun 2025 20:38:01.953,693.260
418,23 Jun 2025 22:01:41.810,23 Jun 2025 22:09:04.622,442.812
419,24 Jun 2025 20:07:49.665,24 Jun 2025 20:19:13.708,684.043
420,24 Jun 2025 21:42:22.532,24 Jun 2025 21:51:26.305,543.773
421,25 Jun 2025 19:49:17.638,25 Jun 2025 20:00:12.964,655.326
422,25 Jun 2025 21:23:16.206,25 Jun 2025 21:33:28.601,612.395
423,26 Jun 2025 19:30:54.582,26 Jun 2025 19:40:57.697,603.115
424,26 Jun 2025 21:04:18.325,26 Jun 2025 21:15:16.331,658.007
425,27 Jun 2025 19:12:44.783,27 Jun 2025 19:21:23.456,518.673
426,27 Jun 2025 20:45:27.095,27 Jun 2025 20:56:51.566,684.471
427,27 Jun 2025 22:21:43.698,27 Jun 2025 22:26:19.475,275.777
428,28 Jun 2025 18:54:59.944,28 Jun 2025 19:01:18.283,378.339
429,28 Jun 2025 20:26:41.868,28 Jun 2025 20:38:15.128,693.260
430,28 Jun 2025 22:01:55.532,28 Jun 2025 22:09:16.894,441.363
431,29 Jun 2025 20:08:02.765,29 Jun 2025 20:19:27.029,684.263
432,29 Jun 2025 21:42:36.052,29 Jun 2025 21:51:38.857,542.805
433,30 Jun 2025 19:49:30.648,30 Jun 2025 20:00:26.436,655.788
434,30 Jun 2025 21:23:29.610,30 Jun 2025 21:33:41.345,611.735
435,1 Jul 2025 19:31:07.468,1 Jul 2025 19:41:11.358,603.890
436,1 Jul 2025 21:04:31.643,1 Jul 2025 21:15:29.230,657.588
437,2 Jul 2025 19:12:57.470,2 Jul 2025 19:21:37.383,519.913
438,2 Jul 2025 20:45:40.340,2 Jul 2025 20:57:04.604,684.264
439,2 Jul 2025 22:21:58.020,2 Jul 2025 22:26:31.067,273.047
440,3 Jul 2025 18:55:12.188,3 Jul 2025 19:01:32.725,380.536
441,3 Jul 2025 20:26:55.043,3 Jul 2025 20:38:28.302,693.259
442,3 Jul 2025 22:02:09.259,3 Jul 2025 22:09:29.161,439.903
443,4 Jul 2025 20:08:15.865,4 Jul 2025 20:19:40.342,684.477
444,4 Jul 2025 21:42:49.575,4 Jul 2025 21:51:51.406,541.831
445,5 Jul 2025 19:49:43.657,5 Jul 2025 20:00:39.904,656.247
446,5 Jul 2025 21:23:43.014,5 Jul 2025 21:33:54.085,611.070
447,6 Jul 2025 19:31:20.354,6 Jul 2025 19:41:25.015,604.661
448,6 Jul 2025 21:04:44.961,6 Jul 2025 21:15:42.130,657.169
449,7 Jul 2025 19:13:10.158,7 Jul 2025 19:21:51.307,521.149
450,7 Jul 2025 20:45:53.581,7 Jul 2025 20:57:17.640,684.059
451,7 Jul 2025 22:22:12.360,7 Jul 2025 22:26:42.641,270.281
452,8 Jul 2025 18:55:24.441,8 Jul 2025 19:01:47.155,382.714
453,8 Jul 2025 20:27:08.218,8 Jul 2025 20:38:41.473,693.255
454,8 Jul 2025 22:02:22.988,8 Jul 2025 22:09:41.423,438.436
455,9 Jul 2025 20:08:28.965,9 Jul 2025 20:19:53.653,684.687
456,9 Jul 2025 21:43:03.098,9 Jul 2025 21:52:03.951,540.853
457,10 Jul 2025 19:49:56.667,10 Jul 2025 20:00:53.370,656.703
458,10 Jul 2025 21:23:56.418,10 Jul 2025 21:34:06.822,610.404
459,11 Jul 2025 19:31:33.242,11 Jul 2025 19:41:38.669,605.427
460,11 Jul 2025 21:04:58.279,11 Jul 2025 21:15:55.024,656.745
461,12 Jul 2025 19:13:22.852,12 Jul 2025 19:22:05.225,522.373
462,12 Jul 2025 20:46:06.828,12 Jul 2025 20:57:30.675,683.847
463,12 Jul 2025 22:22:26.712,12 Jul 2025 22:26:54.198,267.486
464,13 Jul 2025 18:55:36.703,13 Jul 2025 19:02:01.576,384.873
465,13 Jul 2025 20:27:21.396,13 Jul 2025 20:38:54.644,693.248
466,13 Jul 2025 22:02:36.721,13 Jul 2025 22:09:53.682,436.961
467,14 Jul 2025 20:08:42.068,14 Jul 2025 20:20:06.963,684.895
468,14 Jul 2025 21:43:16.624,14 Jul 2025 21:52:16.495,539.871
469,15 Jul 2025 19:50:09.679,15 Jul 2025 20:01:06.833,657.153
470,15 Jul 2025 21:24:09.826,15 Jul 2025 21:34:19.559,609.734
471,16 Jul 2025 19:31:46.132,16 Jul 2025 19:41:52.322,606.189
472,16 Jul 2025 21:05:11.600,16 Jul 2025 21:16:07.918,656.317
473,17 Jul 2025 19:13:35.548,17 Jul 2025 19:22:19.140,523.593
474,17 Jul 2025 20:46:20.075,17 Jul 2025 20:57:43.708,683.633
475,17 Jul 2025 22:22:41.084,17 Jul 2025 22:27:05.736,264.652
476,18 Jul 2025 18:55:48.972,18 Jul 2025 19:02:15.990,387.017
477,18 Jul 2025 20:27:34.568,18 Jul 2025 20:39:07.813,693.244
478,18 Jul 2025 22:02:50.459,18 Jul 2025 22:10:05.934,435.475
479,19 Jul 2025 20:08:55.170,19 Jul 2025 20:20:20.266,685.096
480,19 Jul 2025 21:43:30.152,19 Jul 2025 21:52:29.032,538.880
481,20 Jul 2025 19:50:22.691,20 Jul 2025 20:01:20.299,657.609
482,20 Jul 2025 21:24:23.231,20 Jul 2025 21:34:32.292,609.062
483,21 Jul 2025 19:31:59.022,21 Jul 2025 19:42:05.970,606.949
484,21 Jul 2025 21:05:24.925,21 Jul 2025 21:16:20.807,655.882
485,22 Jul 2025 19:13:48.248,22 Jul 2025 19:22:33.047,524.799
486,22 Jul 2025 20:46:33.322,22 Jul 2025 20:57:56.742,683.420
487,22 Jul 2025 22:22:55.471,22 Jul 2025 22:27:17.255,261.784
488,23 Jul 2025 18:56:01.250,23 Jul 2025 19:02:30.391,389.142
489,23 Jul 2025 20:27:47.746,23 Jul 2025 20:39:20.979,693.233
490,23 Jul 2025 22:03:04.199,23 Jul 2025 22:10:18.182,433.983
491,24 Jul 2025 20:09:08.271,24 Jul 2025 20:20:33.572,685.301
492,24 Jul 2025 21:43:43.678,24 Jul 2025 21:52:41.569,537.891
493,25 Jul 2025 19:50:35.704,25 Jul 2025 20:01:33.759,658.056
494,25 Jul 2025 21:24:36.640,25 Jul 2025 21:34:45.024,608.384
495,26 Jul 2025 19:32:11.915,26 Jul 2025 19:42:19.617,607.703
496,26 Jul 2025 21:05:38.247,26 Jul 2025 21:16:33.697,655.450
497,27 Jul 2025 19:14:00.950,27 Jul 2025 19:22:46.955,526.005
498,27 Jul 2025 20:46:46.572,27 Jul 2025 20:58:09.772,683.201
499,27 Jul 2025 22:23:09.877,27 Jul 2025 22:27:28.756,258.879
500,28 Jul 2025 18:56:13.536,28 Jul 2025 19:02:44.787,391.251
501,28 Jul 2025 20:28:00.925,28 Jul 2025 20:39:34.145,693.219
502,28 Jul 2025 22:03:17.945,28 Jul 2025 22:10:30.426,432.481
503,29 Jul 2025 20:09:21.376,29 Jul 2025 20:20:46.877,685.502
504,29 Jul 2025 21:43:57.211,29 Jul 2025 21:52:54.104,536.893
505,30 Jul 2025 19:50:48.720,30 Jul 2025 20:01:47.219,658.499
506,30 Jul 2025 21:24:50.051,30 Jul 2025 21:34:57.754,607.703
507,31 Jul 2025 19:32:24.809,31 Jul 2025 19:42:33.263,608.454
508,31 Jul 2025 21:05:51.571,31 Jul 2025 21:16:46.584,655.013
509,1 Aug 2025 19:14:13.653,1 Aug 2025 19:23:00.859,527.206
510,1 Aug 2025 20:46:59.822,1 Aug 2025 20:58:22.801,682.979
511,1 Aug 2025 22:23:24.305,1 Aug 2025 22:27:40.235,255.930
512,2 Aug 2025 18:56:25.827,2 Aug 2025 19:02:59.173,393.345
513,2 Aug 2025 20:28:14.105,2 Aug 2025 20:39:47.308,693.203
514,2 Aug 2025 22:03:31.695,2 Aug 2025 22:10:42.664,430.968
515,3 Aug 2025 20:09:34.480,3 Aug 2025 20:21:00.180,685.700
516,3 Aug 2025 21:44:10.746,3 Aug 2025 21:53:06.635,535.890
517,4 Aug 2025 19:51:01.735,4 Aug 2025 20:02:00.672,658.937
518,4 Aug 2025 21:25:03.463,4 Aug 2025 21:35:10.481,607.018
519,5 Aug 2025 19:32:37.703,5 Aug 2025 19:42:46.904,609.201
520,5 Aug 2025 21:06:04.894,5 Aug 2025 21:16:59.469,654.575
521,6 Aug 2025 19:14:26.359,6 Aug 2025 19:23:14.759,528.400
522,6 Aug 2025 20:47:13.072,6 Aug 2025 20:58:35.826,682.755
523,6 Aug 2025 22:23:38.750,6 Aug 2025 22:27:51.694,252.944
524,7 Aug 2025 18:56:38.128,7 Aug 2025 19:03:13.549,395.421
525,7 Aug 2025 20:28:27.285,7 Aug 2025 20:40:00.470,693.185
526,7 Aug 2025 22:03:45.448,7 Aug 2025 22:10:54.897,429.449
527,8 Aug 2025 18:40:56.009,8 Aug 2025 18:40:59.870,3.861
528,8 Aug 2025 20:09:47.586,8 Aug 2025 20:21:13.482,685.896
529,8 Aug 2025 21:44:24.281,8 Aug 2025 21:53:19.164,534.883
530,9 Aug 2025 19:51:14.752,9 Aug 2025 20:02:14.127,659.375
531,9 Aug 2025 21:25:16.877,9 Aug 2025 21:35:23.207,606.330
532,10 Aug 2025 19:32:50.601,10 Aug 2025 19:43:00.545,609.944
533,10 Aug 2025 21:06:18.220,10 Aug 2025 21:17:12.353,654.133
534,11 Aug 2025 19:14:39.066,11 Aug 2025 19:23:28.655,529.589
535,11 Aug 2025 20:47:26.328,11 Aug 2025 20:58:48.848,682.520
536,11 Aug 2025 22:23:53.212,11 Aug 2025 22:28:03.133,249.921
537,12 Aug 2025 18:56:50.436,12 Aug 2025 19:03:27.918,397.482
538,12 Aug 2025 20:28:40.472,12 Aug 2025 20:40:13.631,693.159
539,12 Aug 2025 22:03:59.207,12 Aug 2025 22:11:07.127,427.919
540,13 Aug 2025 18:40:48.624,13 Aug 2025 18:41:34.014,45.390
541,13 Aug 2025 20:10:00.694,13 Aug 2025 20:21:26.784,686.090
542,13 Aug 2025 21:44:37.821,13 Aug 2025 21:53:31.691,533.870
543,14 Aug 2025 19:51:27.770,14 Aug 2025 20:02:27.580,659.810
544,14 Aug 2025 21:25:30.291,14 Aug 2025 21:35:35.931,605.640
545,15 Aug 2025 19:33:03.499,15 Aug 2025 19:43:14.183,610.684
546,15 Aug 2025 21:06:31.547,15 Aug 2025 21:17:25.236,653.689
547,16 Aug 2025 19:14:51.776,16 Aug 2025 19:23:42.548,530.772
548,16 Aug 2025 20:47:39.581,16 Aug 2025 20:59:01.872,682.291
549,16 Aug 2025 22:24:07.703,16 Aug 2025 22:28:14.547,246.844
550,17 Aug 2025 18:57:02.750,17 Aug 2025 19:03:42.279,399.529
551,17 Aug 2025 20:28:53.654,17 Aug 2025 20:40:26.790,693.136
552,17 Aug 2025 22:04:12.970,17 Aug 2025 22:11:19.349,426.379
553,18 Aug 2025 18:40:52.674,18 Aug 2025 18:41:56.717,64.044
554,18 Aug 2025 20:10:13.801,18 Aug 2025 20:21:40.082,686.281
555,18 Aug 2025 21:44:51.358,18 Aug 2025 21:53:44.214,532.856
556,19 Aug 2025 19:51:40.784,19 Aug 2025 20:02:41.031,660.247
557,19 Aug 2025 21:25:43.707,19 Aug 2025 21:35:48.652,604.944
558,20 Aug 2025 19:33:16.401,20 Aug 2025 19:43:27.818,611.416
559,20 Aug 2025 21:06:44.874,20 Aug 2025 21:17:38.116,653.241
560,21 Aug 2025 19:15:04.489,21 Aug 2025 19:23:56.437,531.948
561,21 Aug 2025 20:47:52.834,21 Aug 2025 20:59:14.893,682.059
562,21 Aug 2025 22:24:22.212,21 Aug 2025 22:28:25.940,243.728
563,22 Aug 2025 18:57:15.073,22 Aug 2025 19:03:56.631,401.558
564,22 Aug 2025 20:29:06.837,22 Aug 2025 20:40:39.948,693.110
565,22 Aug 2025 22:04:26.737,22 Aug 2025 22:11:31.569,424.832
566,23 Aug 2025 18:40:58.900,23 Aug 2025 18:42:17.237,78.337
567,23 Aug 2025 20:10:26.910,23 Aug 2025 20:21:53.377,686.467
568,23 Aug 2025 21:45:04.901,23 Aug 2025 21:53:56.735,531.834
569,24 Aug 2025 19:51:53.805,24 Aug 2025 20:02:54.481,660.676
570,24 Aug 2025 21:25:57.126,24 Aug 2025 21:36:01.372,604.246
571,25 Aug 2025 19:33:29.304,25 Aug 2025 19:43:41.452,612.148
572,25 Aug 2025 21:06:58.204,25 Aug 2025 21:17:50.995,652.791
573,26 Aug 2025 19:15:17.206,26 Aug 2025 19:24:10.325,533.118
574,26 Aug 2025 20:48:06.090,26 Aug 2025 20:59:27.915,681.825
575,26 Aug 2025 22:24:36.749,26 Aug 2025 22:28:37.309,240.560
576,27 Aug 2025 18:57:27.403,27 Aug 2025 19:04:10.977,403.575
577,27 Aug 2025 20:29:20.020,27 Aug 2025 20:40:53.105,693.085
578,27 Aug 2025 22:04:40.510,27 Aug 2025 22:11:43.783,423.273
579,28 Aug 2025 18:41:06.251,28 Aug 2025 18:42:36.642,90.392
580,28 Aug 2025 20:10:40.022,28 Aug 2025 20:22:06.673,686.651
581,28 Aug 2025 21:45:18.448,28 Aug 2025 21:54:09.253,530.805
582,29 Aug 2025 19:52:06.827,29 Aug 2025 20:03:07.930,661.103
583,29 Aug 2025 21:26:10.547,29 Aug 2025 21:36:14.090,603.543
584,30 Aug 2025 19:33:42.207,30 Aug 2025 19:43:55.084,612.877
585,30 Aug 2025 21:07:11.535,30 Aug 2025 21:18:03.873,652.338
586,31 Aug 2025 19:15:29.925,31 Aug 2025 19:24:24.208,534.283
587,31 Aug 2025 20:48:19.346,31 Aug 2025 20:59:40.934,681.588
588,31 Aug 2025 22:24:51.310,31 Aug 2025 22:28:48.652,237.342
589,1 Sep 2025 18:57:39.738,1 Sep 2025 19:04:25.315,405.576
590,1 Sep 2025 20:29:33.206,1 Sep 2025 20:41:06.260,693.054
591,1 Sep 2025 22:04:54.287,1 Sep 2025 22:11:55.991,421.704
592,2 Sep 2025 18:41:14.325,2 Sep 2025 18:42:55.320,100.995
593,2 Sep 2025 20:10:53.133,2 Sep 2025 20:22:19.968,686.834
594,2 Sep 2025 21:45:31.996,2 Sep 2025 21:54:21.767,529.772
595,3 Sep 2025 19:52:19.849,3 Sep 2025 20:03:21.376,661.527
596,3 Sep 2025 21:26:23.966,3 Sep 2025 21:36:26.805,602.839
597,4 Sep 2025 19:33:55.112,4 Sep 2025 19:44:08.713,613.601
598,4 Sep 2025 21:07:24.866,4 Sep 2025 21:18:16.748,651.882
599,5 Sep 2025 19:15:42.648,5 Sep 2025 19:24:38.088,535.440
600,5 Sep 2025 20:48:32.603,5 Sep 2025 20:59:53.952,681.349
601,5 Sep 2025 22:25:05.894,5 Sep 2025 22:28:59.971,234.078
602,6 Sep 2025 18:57:52.083,6 Sep 2025 19:04:39.644,407.561
603,6 Sep 2025 20:29:46.394,6 Sep 2025 20:41:19.414,693.020
604,6 Sep 2025 22:05:08.068,6 Sep 2025 22:12:08.200,420.132
605,7 Sep 2025 18:41:22.917,7 Sep 2025 18:43:13.476,110.560
606,7 Sep 2025 20:11:06.247,7 Sep 2025 20:22:33.262,687.015
607,7 Sep 2025 21:45:45.546,7 Sep 2025 21:54:34.281,528.734
608,8 Sep 2025 19:52:32.878,8 Sep 2025 20:03:34.821,661.944
609,8 Sep 2025 21:26:37.392,8 Sep 2025 21:36:39.520,602.128
610,9 Sep 2025 19:34:08.021,9 Sep 2025 19:44:22.341,614.320
611,9 Sep 2025 21:07:38.196,9 Sep 2025 21:18:29.624,651.428
612,10 Sep 2025 19:15:55.374,10 Sep 2025 19:24:51.966,536.592
613,10 Sep 2025 20:48:45.863,10 Sep 2025 21:00:06.969,681.107
614,10 Sep 2025 22:25:20.507,10 Sep 2025 22:29:11.264,230.757
615,11 Sep 2025 18:58:04.434,11 Sep 2025 19:04:53.968,409.534
616,11 Sep 2025 20:29:59.583,11 Sep 2025 20:41:32.567,692.984
617,11 Sep 2025 22:05:21.856,11 Sep 2025 22:12:20.399,418.543
618,12 Sep 2025 18:41:31.895,12 Sep 2025 18:43:31.248,119.353
619,12 Sep 2025 20:11:19.358,12 Sep 2025 20:22:46.553,687.194
620,12 Sep 2025 21:45:59.101,12 Sep 2025 21:54:46.791,527.690
621,13 Sep 2025 19:52:45.903,13 Sep 2025 20:03:48.265,662.362
622,13 Sep 2025 21:26:50.818,13 Sep 2025 21:36:52.232,601.414
623,14 Sep 2025 19:34:20.929,14 Sep 2025 19:44:35.967,615.038
624,14 Sep 2025 21:07:51.530,14 Sep 2025 21:18:42.496,650.966
625,15 Sep 2025 19:16:08.102,15 Sep 2025 19:25:05.837,537.735
626,15 Sep 2025 20:48:59.118,15 Sep 2025 21:00:19.988,680.870
627,15 Sep 2025 22:25:35.145,15 Sep 2025 22:29:22.526,227.381
628,16 Sep 2025 18:58:16.796,16 Sep 2025 19:05:08.282,411.486
629,16 Sep 2025 20:30:12.769,16 Sep 2025 20:41:45.718,692.949
630,16 Sep 2025 22:05:35.647,16 Sep 2025 22:12:32.592,416.945
631,17 Sep 2025 18:41:41.192,17 Sep 2025 18:43:48.703,127.512
632,17 Sep 2025 20:11:32.475,17 Sep 2025 20:22:59.843,687.368
633,17 Sep 2025 21:46:12.656,17 Sep 2025 21:54:59.297,526.642
634,18 Sep 2025 19:52:58.930,18 Sep 2025 20:04:01.708,662.777
635,18 Sep 2025 21:27:04.244,18 Sep 2025 21:37:04.942,600.698
636,19 Sep 2025 19:34:33.840,19 Sep 2025 19:44:49.590,615.750
637,19 Sep 2025 21:08:04.866,19 Sep 2025 21:18:55.368,650.501
638,20 Sep 2025 19:16:20.839,20 Sep 2025 19:25:19.711,538.872
639,20 Sep 2025 20:49:12.384,20 Sep 2025 21:00:32.999,680.615
640,20 Sep 2025 22:25:49.814,20 Sep 2025 22:29:33.763,223.949
641,21 Sep 2025 18:58:29.158,21 Sep 2025 19:05:22.590,413.433
642,21 Sep 2025 20:30:25.965,21 Sep 2025 20:41:58.869,692.904
643,21 Sep 2025 22:05:49.443,21 Sep 2025 22:12:44.782,415.339
644,22 Sep 2025 18:41:50.735,22 Sep 2025 18:44:05.906,135.171
645,22 Sep 2025 20:11:45.590,22 Sep 2025 20:23:13.135,687.544
646,22 Sep 2025 21:46:26.215,22 Sep 2025 21:55:11.803,525.588
647,23 Sep 2025 19:53:11.960,23 Sep 2025 20:04:15.150,663.190
648,23 Sep 2025 21:27:17.674,23 Sep 2025 21:37:17.652,599.978
649,24 Sep 2025 19:34:46.754,24 Sep 2025 19:45:03.213,616.460
650,24 Sep 2025 21:08:18.206,24 Sep 2025 21:19:08.239,650.034
651,25 Sep 2025 19:16:33.569,25 Sep 2025 19:25:33.577,540.008
652,25 Sep 2025 20:49:25.643,25 Sep 2025 21:00:46.017,680.374
653,25 Sep 2025 22:26:04.510,25 Sep 2025 22:29:44.966,220.457
654,26 Sep 2025 18:58:41.534,26 Sep 2025 19:05:36.893,415.359
655,26 Sep 2025 20:30:39.155,26 Sep 2025 20:42:12.019,692.864
656,26 Sep 2025 22:06:03.247,26 Sep 2025 22:12:56.966,413.719
657,27 Sep 2025 18:42:00.492,27 Sep 2025 18:44:22.899,142.407
658,27 Sep 2025 20:11:58.709,27 Sep 2025 20:23:26.424,687.715
659,27 Sep 2025 21:46:39.777,27 Sep 2025 21:55:24.306,524.528
660,28 Sep 2025 19:53:24.990,28 Sep 2025 20:04:28.590,663.600
661,28 Sep 2025 21:27:31.105,28 Sep 2025 21:37:30.359,599.254
662,29 Sep 2025 19:34:59.668,29 Sep 2025 19:45:16.833,617.166
663,29 Sep 2025 21:08:31.545,29 Sep 2025 21:19:21.108,649.563
664,30 Sep 2025 19:16:46.306,30 Sep 2025 19:25:47.442,541.136
665,30 Sep 2025 20:49:38.907,30 Sep 2025 21:00:59.029,680.121
666,30 Sep 2025 22:26:19.240,30 Sep 2025 22:29:56.139,216.899
667,1 Oct 2025 18:58:53.912,1 Oct 2025 19:05:51.187,417.274
668,1 Oct 2025 20:30:52.350,1 Oct 2025 20:42:25.167,692.817
669,1 Oct 2025 22:06:17.053,1 Oct 2025 22:13:09.144,412.091
670,2 Oct 2025 18:42:10.434,2 Oct 2025 18:44:39.705,149.271
671,2 Oct 2025 20:12:11.828,2 Oct 2025 20:23:39.711,687.883
672,2 Oct 2025 21:46:53.341,2 Oct 2025 21:55:36.805,523.465
673,3 Oct 2025 19:53:38.022,3 Oct 2025 20:04:42.028,664.006
674,3 Oct 2025 21:27:44.537,3 Oct 2025 21:37:43.064,598.527
675,4 Oct 2025 19:35:12.585,4 Oct 2025 19:45:30.452,617.867
676,4 Oct 2025 21:08:44.886,4 Oct 2025 21:19:33.976,649.089
677,5 Oct 2025 19:16:59.047,5 Oct 2025 19:26:01.304,542.256
678,5 Oct 2025 20:49:52.173,5 Oct 2025 21:01:12.040,679.867
679,5 Oct 2025 22:26:34.001,5 Oct 2025 22:30:07.278,213.277
680,6 Oct 2025 18:59:06.300,6 Oct 2025 19:06:05.474,419.175
681,6 Oct 2025 20:31:05.546,6 Oct 2025 20:42:38.315,692.768
682,6 Oct 2025 22:06:30.865,6 Oct 2025 22:13:21.319,410.454
683,7 Oct 2025 18:42:20.538,7 Oct 2025 18:44:56.355,155.817
684,7 Oct 2025 20:12:24.949,7 Oct 2025 20:23:52.998,688.049
685,7 Oct 2025 21:47:06.908,7 Oct 2025 21:55:49.304,522.396
686,8 Oct 2025 19:53:51.057,8 Oct 2025 20:04:55.464,664.407
687,8 Oct 2025 21:27:57.973,8 Oct 2025 21:37:55.769,597.796
688,9 Oct 2025 19:35:25.505,9 Oct 2025 19:45:44.069,618.565
689,9 Oct 2025 21:08:58.230,9 Oct 2025 21:19:46.843,648.613
690,10 Oct 2025 19:17:11.791,10 Oct 2025 19:26:15.164,543.373
691,10 Oct 2025 20:50:05.441,10 Oct 2025 21:01:25.050,679.609
692,10 Oct 2025 22:26:48.801,10 Oct 2025 22:30:18.382,209.581
693,11 Oct 2025 18:59:18.692,11 Oct 2025 19:06:19.756,421.065
694,11 Oct 2025 20:31:18.743,11 Oct 2025 20:42:51.461,692.717
695,11 Oct 2025 22:06:44.684,11 Oct 2025 22:13:33.488,408.804
696,12 Oct 2025 18:42:30.772,12 Oct 2025 18:45:12.868,162.095
697,12 Oct 2025 20:12:38.071,12 Oct 2025 20:24:06.280,688.209
698,12 Oct 2025 21:47:20.478,12 Oct 2025 21:56:01.798,521.320
699,13 Oct 2025 19:54:04.092,13 Oct 2025 20:05:08.900,664.809
700,13 Oct 2025 21:28:11.405,13 Oct 2025 21:38:08.470,597.066
701,14 Oct 2025 19:35:38.425,14 Oct 2025 19:45:57.683,619.259
702,14 Oct 2025 21:09:11.574,14 Oct 2025 21:19:59.707,648.133
703,15 Oct 2025 19:17:24.537,15 Oct 2025 19:26:29.020,544.482
704,15 Oct 2025 20:50:18.708,15 Oct 2025 21:01:38.058,679.350
705,15 Oct 2025 22:27:03.634,15 Oct 2025 22:30:29.454,205.820
706,16 Oct 2025 18:59:31.091,16 Oct 2025 19:06:34.025,422.934
707,16 Oct 2025 20:31:31.940,16 Oct 2025 20:43:04.609,692.670
708,16 Oct 2025 22:06:58.508,16 Oct 2025 22:13:45.647,407.139
709,17 Oct 2025 18:42:41.138,17 Oct 2025 18:45:29.251,168.113
710,17 Oct 2025 20:12:51.196,17 Oct 2025 20:24:19.566,688.370
711,17 Oct 2025 21:47:34.054,17 Oct 2025 21:56:14.291,520.237
712,18 Oct 2025 19:54:17.129,18 Oct 2025 20:05:22.336,665.206
713,18 Oct 2025 21:28:24.843,18 Oct 2025 21:38:21.171,596.328
714,19 Oct 2025 19:35:51.351,19 Oct 2025 19:46:11.297,619.946
715,19 Oct 2025 21:09:24.921,19 Oct 2025 21:20:12.572,647.651
716,20 Oct 2025 19:17:37.289,20 Oct 2025 19:26:42.874,545.585
717,20 Oct 2025 20:50:31.979,20 Oct 2025 21:01:51.067,679.088
718,20 Oct 2025 22:27:18.506,20 Oct 2025 22:30:40.487,201.981
719,21 Oct 2025 18:59:43.499,21 Oct 2025 19:06:48.293,424.795
720,21 Oct 2025 20:31:45.140,21 Oct 2025 20:43:17.755,692.614
721,21 Oct 2025 22:07:12.337,21 Oct 2025 22:13:57.807,405.470
722,22 Oct 2025 18:42:51.614,22 Oct 2025 18:45:45.529,173.915
723,22 Oct 2025 20:13:04.322,22 Oct 2025 20:24:32.849,688.527
724,22 Oct 2025 21:47:47.630,22 Oct 2025 21:56:26.782,519.152
725,23 Oct 2025 19:54:30.169,23 Oct 2025 20:05:35.771,665.601
726,23 Oct 2025 21:28:38.285,23 Oct 2025 21:38:33.871,595.586
727,24 Oct 2025 19:36:04.277,24 Oct 2025 19:46:24.909,620.632
728,24 Oct 2025 21:09:38.270,24 Oct 2025 21:20:25.435,647.166
729,25 Oct 2025 19:17:50.042,25 Oct 2025 19:26:56.726,546.684
730,25 Oct 2025 20:50:45.251,25 Oct 2025 21:02:04.074,678.823
731,25 Oct 2025 22:27:33.422,25 Oct 2025 22:30:51.477,198.055
732,26 Oct 2025 18:59:55.912,26 Oct 2025 19:07:02.556,426.645
733,26 Oct 2025 20:31:58.341,26 Oct 2025 20:43:30.898,692.557
734,26 Oct 2025 22:07:26.171,26 Oct 2025 22:14:09.960,403.790
735,27 Oct 2025 18:43:02.190,27 Oct 2025 18:46:01.706,179.517
736,27 Oct 2025 20:13:17.449,27 Oct 2025 20:24:46.131,688.682
737,27 Oct 2025 21:48:01.203,27 Oct 2025 21:56:39.269,518.066
738,28 Oct 2025 19:54:43.209,28 Oct 2025 20:05:49.203,665.993
739,28 Oct 2025 21:28:51.727,28 Oct 2025 21:38:46.568,594.841
740,29 Oct 2025 19:36:17.204,29 Oct 2025 19:46:38.519,621.315
741,29 Oct 2025 21:09:51.619,29 Oct 2025 21:20:38.297,646.678
742,30 Oct 2025 19:18:02.798,30 Oct 2025 19:27:10.573,547.775
743,30 Oct 2025 20:50:58.523,30 Oct 2025 21:02:17.079,678.555
744,30 Oct 2025 22:27:48.376,30 Oct 2025 22:31:02.425,194.049
745,31 Oct 2025 19:00:08.332,31 Oct 2025 19:07:16.811,428.479
746,31 Oct 2025 20:32:11.543,31 Oct 2025 20:43:44.040,692.497
747,31 Oct 2025 22:07:40.008,31 Oct 2025 22:14:22.109,402.101
748,1 Nov 2025 18:43:12.855,1 Nov 2025 18:46:17.789,184.934
749,1 Nov 2025 20:13:30.577,1 Nov 2025 20:24:59.411,688.833
750,1 Nov 2025 21:48:14.787,1 Nov 2025 21:56:51.757,516.970
751,2 Nov 2025 19:54:56.252,2 Nov 2025 20:06:02.632,666.380
752,2 Nov 2025 21:29:05.171,2 Nov 2025 21:38:59.264,594.094
753,3 Nov 2025 19:36:30.134,3 Nov 2025 19:46:52.127,621.993
754,3 Nov 2025 21:10:04.969,3 Nov 2025 21:20:51.157,646.188
755,4 Nov 2025 19:18:15.559,4 Nov 2025 19:27:24.419,548.860
756,4 Nov 2025 20:51:11.798,4 Nov 2025 21:02:30.084,678.286
757,4 Nov 2025 22:28:03.376,4 Nov 2025 22:31:13.330,189.953
758,5 Nov 2025 19:00:20.760,5 Nov 2025 19:07:31.059,430.299
759,5 Nov 2025 20:32:24.747,5 Nov 2025 20:43:57.182,692.434
760,5 Nov 2025 22:07:53.852,5 Nov 2025 22:14:34.254,400.402
761,6 Nov 2025 18:43:23.606,6 Nov 2025 18:46:33.793,190.187
762,6 Nov 2025 20:13:43.708,6 Nov 2025 20:25:12.691,688.983
763,6 Nov 2025 21:48:28.371,6 Nov 2025 21:57:04.240,515.869
764,7 Nov 2025 19:55:09.297,7 Nov 2025 20:06:16.063,666.766
765,7 Nov 2025 21:29:18.618,7 Nov 2025 21:39:11.959,593.341
766,8 Nov 2025 19:36:43.065,8 Nov 2025 19:47:05.734,622.669
767,8 Nov 2025 21:10:18.322,8 Nov 2025 21:21:04.017,645.694
768,9 Nov 2025 19:18:28.322,9 Nov 2025 19:27:38.262,549.940
769,9 Nov 2025 20:51:25.074,9 Nov 2025 21:02:43.088,678.013
770,9 Nov 2025 22:28:18.428,9 Nov 2025 22:31:24.182,185.754
771,10 Nov 2025 19:00:33.193,10 Nov 2025 19:07:45.303,432.110
772,10 Nov 2025 20:32:37.952,10 Nov 2025 20:44:10.321,692.369
773,10 Nov 2025 22:08:07.702,10 Nov 2025 22:14:46.392,398.690
774,11 Nov 2025 18:43:34.432,11 Nov 2025 18:46:49.717,195.285
775,11 Nov 2025 20:13:56.839,11 Nov 2025 20:25:25.968,689.129
776,11 Nov 2025 21:48:41.956,11 Nov 2025 21:57:16.720,514.764
777,12 Nov 2025 19:55:22.342,12 Nov 2025 20:06:29.491,667.149
778,12 Nov 2025 21:29:32.065,12 Nov 2025 21:39:24.651,592.586
779,13 Nov 2025 19:36:55.999,13 Nov 2025 19:47:19.338,623.339
780,13 Nov 2025 21:10:31.676,13 Nov 2025 21:21:16.874,645.199
781,14 Nov 2025 19:18:41.093,14 Nov 2025 19:27:52.101,551.008
782,14 Nov 2025 20:51:38.351,14 Nov 2025 21:02:56.090,677.739
783,14 Nov 2025 22:28:33.526,14 Nov 2025 22:31:34.987,181.462
784,15 Nov 2025 19:00:45.634,15 Nov 2025 19:07:59.537,433.903
785,15 Nov 2025 20:32:51.159,15 Nov 2025 20:44:23.460,692.302
786,15 Nov 2025 22:08:21.554,15 Nov 2025 22:14:58.526,396.972
787,16 Nov 2025 18:43:45.335,16 Nov 2025 18:47:05.569,200.234
788,16 Nov 2025 20:14:09.973,16 Nov 2025 20:25:39.246,689.273
789,16 Nov 2025 21:48:55.543,16 Nov 2025 21:57:29.198,513.656
790,17 Nov 2025 19:55:35.390,17 Nov 2025 20:06:42.919,667.528
791,17 Nov 2025 21:29:45.514,17 Nov 2025 21:39:37.343,591.828
792,18 Nov 2025 19:37:08.936,18 Nov 2025 19:47:32.941,624.005
793,18 Nov 2025 21:10:45.032,18 Nov 2025 21:21:29.732,644.700
794,19 Nov 2025 19:18:53.864,19 Nov 2025 19:28:05.939,552.075
795,19 Nov 2025 20:51:51.631,19 Nov 2025 21:03:09.092,677.461
796,19 Nov 2025 22:28:48.681,19 Nov 2025 22:31:45.738,177.056
797,20 Nov 2025 19:00:58.083,20 Nov 2025 19:08:13.769,435.687
798,20 Nov 2025 20:33:04.367,20 Nov 2025 20:44:36.599,692.232
799,20 Nov 2025 22:08:35.414,20 Nov 2025 22:15:10.659,395.245
800,21 Nov 2025 18:43:56.301,21 Nov 2025 18:47:21.358,205.057
801,21 Nov 2025 20:14:23.108,21 Nov 2025 20:25:52.523,689.415
802,21 Nov 2025 21:49:09.134,21 Nov 2025 21:57:41.675,512.541
803,22 Nov 2025 19:55:48.443,22 Nov 2025 20:06:56.345,667.903
804,22 Nov 2025 21:29:58.967,22 Nov 2025 21:39:50.032,591.066
805,23 Nov 2025 19:37:21.875,23 Nov 2025 19:47:46.543,624.668
806,23 Nov 2025 21:10:58.389,23 Nov 2025 21:21:42.587,644.198
807,24 Nov 2025 19:19:06.636,24 Nov 2025 19:28:19.774,553.138
808,24 Nov 2025 20:52:04.910,24 Nov 2025 21:03:22.092,677.182
809,24 Nov 2025 22:29:03.896,24 Nov 2025 22:31:56.426,172.530
810,25 Nov 2025 19:01:10.536,25 Nov 2025 19:08:27.994,437.458
811,25 Nov 2025 20:33:17.574,25 Nov 2025 20:44:49.736,692.162
812,25 Nov 2025 22:08:49.278,25 Nov 2025 22:15:22.782,393.504
813,26 Nov 2025 18:44:07.329,26 Nov 2025 18:47:37.083,209.753
814,26 Nov 2025 20:14:36.244,26 Nov 2025 20:26:05.797,689.553
815,26 Nov 2025 21:49:22.726,26 Nov 2025 21:57:54.147,511.421
816,27 Nov 2025 19:56:01.493,27 Nov 2025 20:07:09.769,668.276
817,27 Nov 2025 21:30:12.419,27 Nov 2025 21:40:02.719,590.300
818,28 Nov 2025 19:37:34.816,28 Nov 2025 19:48:00.141,625.326
819,28 Nov 2025 21:11:11.746,28 Nov 2025 21:21:55.441,643.695
820,29 Nov 2025 19:19:19.412,29 Nov 2025 19:28:33.604,554.193
821,29 Nov 2025 20:52:18.191,29 Nov 2025 21:03:35.091,676.900
822,29 Nov 2025 22:29:19.170,29 Nov 2025 22:32:07.055,167.885
823,30 Nov 2025 19:01:22.998,30 Nov 2025 19:08:42.211,439.214
824,30 Nov 2025 20:33:30.784,30 Nov 2025 20:45:02.871,692.087
825,30 Nov 2025 22:09:03.146,30 Nov 2025 22:15:34.901,391.755
826,1 Dec 2025 18:44:18.418,1 Dec 2025 18:47:52.749,214.331
827,1 Dec 2025 20:14:49.381,1 Dec 2025 20:26:19.071,689.690
828,1 Dec 2025 21:49:36.320,1 Dec 2025 21:58:06.619,510.299
829,2 Dec 2025 19:56:14.547,2 Dec 2025 20:07:23.193,668.646
830,2 Dec 2025 21:30:25.873,2 Dec 2025 21:40:15.405,589.532
831,3 Dec 2025 19:37:47.760,3 Dec 2025 19:48:13.739,625.980
832,3 Dec 2025 21:11:25.104,3 Dec 2025 21:22:08.295,643.191
833,4 Dec 2025 19:19:32.191,4 Dec 2025 19:28:47.434,555.243
834,4 Dec 2025 20:52:31.475,4 Dec 2025 21:03:48.090,676.615
835,4 Dec 2025 22:29:34.521,4 Dec 2025 22:32:17.614,163.092
836,5 Dec 2025 19:01:35.465,5 Dec 2025 19:08:56.424,440.959
837,5 Dec 2025 20:33:43.997,5 Dec 2025 20:45:16.006,692.009
838,5 Dec 2025 22:09:17.022,5 Dec 2025 22:15:47.013,389.992
839,6 Dec 2025 18:44:29.558,6 Dec 2025 18:48:08.365,218.807
840,6 Dec 2025 20:15:02.520,6 Dec 2025 20:26:32.344,689.823
841,6 Dec 2025 21:49:49.918,6 Dec 2025 21:58:19.087,509.169
842,7 Dec 2025 19:56:27.601,7 Dec 2025 20:07:36.614,669.013
843,7 Dec 2025 21:30:39.330,7 Dec 2025 21:40:28.089,588.759
844,8 Dec 2025 19:38:00.705,8 Dec 2025 19:48:27.335,626.630
845,8 Dec 2025 21:11:38.465,8 Dec 2025 21:22:21.146,642.681
846,9 Dec 2025 19:19:44.972,9 Dec 2025 19:29:01.259,556.287
847,9 Dec 2025 20:52:44.757,9 Dec 2025 21:04:01.086,676.328
848,9 Dec 2025 22:29:49.938,9 Dec 2025 22:32:28.094,158.156
849,10 Dec 2025 19:01:47.938,10 Dec 2025 19:09:10.625,442.687
850,10 Dec 2025 20:33:57.209,10 Dec 2025 20:45:29.138,691.929
851,10 Dec 2025 22:09:30.900,10 Dec 2025 22:15:59.120,388.220
852,11 Dec 2025 18:44:40.751,11 Dec 2025 18:48:23.925,223.175
853,11 Dec 2025 20:15:15.660,11 Dec 2025 20:26:45.614,689.954
854,11 Dec 2025 21:50:03.516,11 Dec 2025 21:58:31.553,508.037
855,12 Dec 2025 19:56:40.657,12 Dec 2025 20:07:50.029,669.372
856,12 Dec 2025 21:30:52.786,12 Dec 2025 21:40:40.771,587.985
857,13 Dec 2025 19:38:13.653,13 Dec 2025 19:48:40.928,627.275
858,13 Dec 2025 21:11:51.826,13 Dec 2025 21:22:33.993,642.167
859,14 Dec 2025 19:19:57.761,14 Dec 2025 19:29:15.084,557.322
860,14 Dec 2025 20:52:58.046,14 Dec 2025 21:04:14.081,676.035
861,14 Dec 2025 22:30:05.439,14 Dec 2025 22:32:38.497,153.058
862,15 Dec 2025 19:02:00.423,15 Dec 2025 19:09:24.826,444.403
863,15 Dec 2025 20:34:10.426,15 Dec 2025 20:45:42.272,691.846
864,15 Dec 2025 22:09:44.782,15 Dec 2025 22:16:11.223,386.441
865,16 Dec 2025 18:44:51.994,16 Dec 2025 18:48:39.439,227.445
866,16 Dec 2025 20:15:28.802,16 Dec 2025 20:26:58.885,690.082
867,16 Dec 2025 21:50:17.118,16 Dec 2025 21:58:44.017,506.900
868,17 Dec 2025 19:56:53.716,17 Dec 2025 20:08:03.452,669.736
869,17 Dec 2025 21:31:06.245,17 Dec 2025 21:40:53.453,587.208
870,18 Dec 2025 19:38:26.607,18 Dec 2025 19:48:54.520,627.912
871,18 Dec 2025 21:12:05.189,18 Dec 2025 21:22:46.842,641.652
872,19 Dec 2025 19:20:10.548,19 Dec 2025 19:29:28.903,558.355
873,19 Dec 2025 20:53:11.329,19 Dec 2025 21:04:27.076,675.748
874,19 Dec 2025 22:30:21.026,19 Dec 2025 22:32:48.810,147.783
875,20 Dec 2025 19:02:12.911,20 Dec 2025 19:09:39.015,446.105
876,20 Dec 2025 20:34:23.640,20 Dec 2025 20:45:55.404,691.764
877,20 Dec 2025 22:09:58.672,20 Dec 2025 22:16:23.319,384.647
878,21 Dec 2025 18:45:03.280,21 Dec 2025 18:48:54.908,231.627
879,21 Dec 2025 20:15:41.945,21 Dec 2025 20:27:12.153,690.208
880,21 Dec 2025 21:50:30.721,21 Dec 2025 21:58:56.478,505.757
881,22 Dec 2025 19:57:06.775,22 Dec 2025 20:08:16.864,670.088
882,22 Dec 2025 21:31:19.706,22 Dec 2025 21:41:06.132,586.426
883,23 Dec 2025 19:38:39.556,23 Dec 2025 19:49:08.109,628.552
884,23 Dec 2025 21:12:18.553,23 Dec 2025 21:22:59.688,641.135
885,24 Dec 2025 19:20:23.339,24 Dec 2025 19:29:42.718,559.379
886,24 Dec 2025 20:53:24.615,24 Dec 2025 21:04:40.068,675.454
887,24 Dec 2025 22:30:36.715,24 Dec 2025 22:32:59.020,142.305
888,25 Dec 2025 19:02:25.403,25 Dec 2025 19:09:53.200,447.797
889,25 Dec 2025 20:34:36.855,25 Dec 2025 20:46:08.533,691.677
890,25 Dec 2025 22:10:12.565,25 Dec 2025 22:16:35.410,382.845
891,26 Dec 2025 18:45:14.611,26 Dec 2025 18:49:10.330,235.719
892,26 Dec 2025 20:15:55.089,26 Dec 2025 20:27:25.416,690.328
893,26 Dec 2025 21:50:44.325,26 Dec 2025 21:59:08.936,504.611
894,27 Dec 2025 19:57:19.836,27 Dec 2025 20:08:30.278,670.442
895,27 Dec 2025 21:31:33.166,27 Dec 2025 21:41:18.809,585.643
896,28 Dec 2025 19:38:52.514,28 Dec 2025 19:49:21.695,629.182
897,28 Dec 2025 21:12:31.917,28 Dec 2025 21:23:12.533,640.616
898,29 Dec 2025 19:20:36.140,29 Dec 2025 19:29:56.531,560.391
899,29 Dec 2025 20:53:37.902,29 Dec 2025 21:04:53.060,675.158
900,29 Dec 2025 22:30:52.512,29 Dec 2025 22:33:09.123,136.611
901,30 Dec 2025 19:02:37.904,30 Dec 2025 19:10:07.380,449.477
902,30 Dec 2025 20:34:50.073,30 Dec 2025 20:46:21.661,691.588
903,30 Dec 2025 22:10:26.462,30 Dec 2025 22:16:47.496,381.034
904,31 Dec 2025 18:45:25.985,31 Dec 2025 18:49:25.714,239.729
905,31 Dec 2025 20:16:08.235,31 Dec 2025 20:27:38.683,690.448
906,31 Dec 2025 21:50:57.932,31 Dec 2025 21:59:21.397,503.465

Global Statistics
"Min Duration",527,8 Aug 2025 18:40:56.009,8 Aug 2025 18:40:59.870,3.861
"Max Duration",429,28 Jun 2025 20:26:41.868,28 Jun 2025 20:38:15.128,693.260
"Mean Duration",,,,547.114
"Total Duration",,,,495685.290


