3UCubedIntegratedSim/Reports & Plots/Comms/SSU/Sat11 Comms.csv

"Access","Start Time (UTCG)","Stop Time (UTCG)","Duration (sec)"
1,1 Jan 2025 18:08:16.725,1 Jan 2025 18:16:27.397,490.672
2,1 Jan 2025 19:40:46.641,1 Jan 2025 19:52:14.930,688.289
3,1 Jan 2025 21:16:43.258,1 Jan 2025 21:22:10.676,327.418
4,2 Jan 2025 17:50:42.913,2 Jan 2025 17:56:09.643,326.731
5,2 Jan 2025 19:22:02.897,2 Jan 2025 19:33:35.621,692.724
6,2 Jan 2025 20:57:05.461,2 Jan 2025 21:04:56.004,470.543
7,3 Jan 2025 19:03:25.413,3 Jan 2025 19:14:44.525,679.112
8,3 Jan 2025 20:37:49.936,3 Jan 2025 20:47:12.372,562.436
9,4 Jan 2025 18:44:55.272,4 Jan 2025 18:55:40.583,645.311
10,4 Jan 2025 20:18:45.868,4 Jan 2025 20:29:10.934,625.066
11,5 Jan 2025 18:26:34.825,5 Jan 2025 18:36:21.363,586.538
12,5 Jan 2025 19:59:49.661,5 Jan 2025 20:10:55.580,665.919
13,6 Jan 2025 18:08:29.340,6 Jan 2025 18:16:41.418,492.078
14,6 Jan 2025 19:40:59.872,6 Jan 2025 19:52:28.005,688.133
15,6 Jan 2025 21:16:57.339,6 Jan 2025 21:22:22.533,325.194
16,7 Jan 2025 17:50:54.921,7 Jan 2025 17:56:24.348,329.427
17,7 Jan 2025 19:22:16.058,7 Jan 2025 19:33:48.833,692.775
18,7 Jan 2025 20:57:19.128,7 Jan 2025 21:05:08.358,469.230
19,8 Jan 2025 19:03:38.496,8 Jan 2025 19:14:57.880,679.384
20,8 Jan 2025 20:38:03.430,8 Jan 2025 20:47:24.977,561.546
21,9 Jan 2025 18:45:08.258,9 Jan 2025 18:55:54.099,645.841
22,9 Jan 2025 20:18:59.254,9 Jan 2025 20:29:23.719,624.465
23,10 Jan 2025 18:26:47.676,10 Jan 2025 18:36:35.082,587.407
24,10 Jan 2025 20:00:02.966,10 Jan 2025 20:11:08.517,665.551
25,11 Jan 2025 18:08:41.960,11 Jan 2025 18:16:55.437,493.477
26,11 Jan 2025 19:41:13.106,11 Jan 2025 19:52:41.080,687.974
27,11 Jan 2025 21:17:11.434,11 Jan 2025 21:22:34.381,322.947
28,12 Jan 2025 17:51:06.941,12 Jan 2025 17:56:39.040,332.099
29,12 Jan 2025 19:22:29.221,12 Jan 2025 19:34:02.043,692.823
30,12 Jan 2025 20:57:32.800,12 Jan 2025 21:05:20.708,467.908
31,13 Jan 2025 19:03:51.581,13 Jan 2025 19:15:11.233,679.653
32,13 Jan 2025 20:38:16.928,13 Jan 2025 20:47:37.579,560.651
33,14 Jan 2025 18:45:21.246,14 Jan 2025 18:56:07.614,646.368
34,14 Jan 2025 20:19:12.642,14 Jan 2025 20:29:36.502,623.860
35,15 Jan 2025 18:27:00.529,15 Jan 2025 18:36:48.801,588.272
36,15 Jan 2025 20:00:16.271,15 Jan 2025 20:11:21.447,665.176
37,16 Jan 2025 18:08:54.582,16 Jan 2025 18:17:09.450,494.867
38,16 Jan 2025 19:41:26.339,16 Jan 2025 19:52:54.152,687.813
39,16 Jan 2025 21:17:25.537,16 Jan 2025 21:22:46.217,320.680
40,17 Jan 2025 17:51:18.975,17 Jan 2025 17:56:53.715,334.740
41,17 Jan 2025 19:22:42.383,17 Jan 2025 19:34:15.251,692.868
42,17 Jan 2025 20:57:46.473,17 Jan 2025 21:05:33.051,466.578
43,18 Jan 2025 19:04:04.665,18 Jan 2025 19:15:24.584,679.919
44,18 Jan 2025 20:38:30.422,18 Jan 2025 20:47:50.178,559.756
45,19 Jan 2025 18:45:34.234,19 Jan 2025 18:56:21.125,646.891
46,19 Jan 2025 20:19:26.029,19 Jan 2025 20:29:49.283,623.253
47,20 Jan 2025 18:27:13.383,20 Jan 2025 18:37:02.514,589.130
48,20 Jan 2025 20:00:29.577,20 Jan 2025 20:11:34.381,664.803
49,21 Jan 2025 18:09:07.210,21 Jan 2025 18:17:23.459,496.248
50,21 Jan 2025 19:41:39.574,21 Jan 2025 19:53:07.224,687.650
51,21 Jan 2025 21:17:39.647,21 Jan 2025 21:22:58.045,318.398
52,22 Jan 2025 17:51:31.025,22 Jan 2025 17:57:08.377,337.352
53,22 Jan 2025 19:22:55.548,22 Jan 2025 19:34:28.459,692.911
54,22 Jan 2025 20:58:00.149,22 Jan 2025 21:05:45.398,465.249
55,23 Jan 2025 19:04:17.752,23 Jan 2025 19:15:37.934,680.181
56,23 Jan 2025 20:38:43.921,23 Jan 2025 20:48:02.776,558.855
57,24 Jan 2025 18:45:47.226,24 Jan 2025 18:56:34.639,647.413
58,24 Jan 2025 20:19:39.420,24 Jan 2025 20:30:02.063,622.644
59,25 Jan 2025 18:27:26.241,25 Jan 2025 18:37:16.225,589.984
60,25 Jan 2025 20:00:42.886,25 Jan 2025 20:11:47.311,664.426
61,26 Jan 2025 18:09:19.842,26 Jan 2025 18:17:37.464,497.622
62,26 Jan 2025 19:41:52.810,26 Jan 2025 19:53:20.294,687.484
63,26 Jan 2025 21:17:53.770,26 Jan 2025 21:23:09.862,316.092
64,27 Jan 2025 17:51:43.086,27 Jan 2025 17:57:23.026,339.940
65,27 Jan 2025 19:23:08.714,27 Jan 2025 19:34:41.666,692.952
66,27 Jan 2025 20:58:13.830,27 Jan 2025 21:05:57.737,463.908
67,28 Jan 2025 19:04:30.840,28 Jan 2025 19:15:51.282,680.442
68,28 Jan 2025 20:38:57.423,28 Jan 2025 20:48:15.371,557.948
69,29 Jan 2025 18:46:00.217,29 Jan 2025 18:56:48.148,647.930
70,29 Jan 2025 20:19:52.811,29 Jan 2025 20:30:14.841,622.030
71,30 Jan 2025 18:27:39.099,30 Jan 2025 18:37:29.933,590.834
72,30 Jan 2025 20:00:56.194,30 Jan 2025 20:12:00.241,664.047
73,31 Jan 2025 18:09:32.479,31 Jan 2025 18:17:51.466,498.987
74,31 Jan 2025 19:42:06.047,31 Jan 2025 19:53:33.362,687.316
75,31 Jan 2025 21:18:07.902,31 Jan 2025 21:23:21.667,313.764
76,1 Feb 2025 17:51:55.160,1 Feb 2025 17:57:37.660,342.500
77,1 Feb 2025 19:23:21.879,1 Feb 2025 19:34:54.870,692.990
78,1 Feb 2025 20:58:27.512,1 Feb 2025 21:06:10.073,462.561
79,2 Feb 2025 19:04:43.928,2 Feb 2025 19:16:04.628,680.700
80,2 Feb 2025 20:39:10.925,2 Feb 2025 20:48:27.964,557.039
81,3 Feb 2025 18:46:13.210,3 Feb 2025 18:57:01.654,648.443
82,3 Feb 2025 20:20:06.203,3 Feb 2025 20:30:27.617,621.414
83,4 Feb 2025 18:27:51.960,4 Feb 2025 18:37:43.638,591.678
84,4 Feb 2025 20:01:09.503,4 Feb 2025 20:12:13.169,663.666
85,5 Feb 2025 18:09:45.119,5 Feb 2025 18:18:05.462,500.343
86,5 Feb 2025 19:42:19.285,5 Feb 2025 19:53:46.430,687.145
87,5 Feb 2025 21:18:22.043,5 Feb 2025 21:23:33.463,311.420
88,6 Feb 2025 17:52:07.249,6 Feb 2025 17:57:52.282,345.032
89,6 Feb 2025 19:23:35.048,6 Feb 2025 19:35:08.074,693.026
90,6 Feb 2025 20:58:41.198,6 Feb 2025 21:06:22.406,461.209
91,7 Feb 2025 19:04:57.020,7 Feb 2025 19:16:17.974,680.954
92,7 Feb 2025 20:39:24.430,7 Feb 2025 20:48:40.556,556.126
93,8 Feb 2025 18:46:26.206,8 Feb 2025 18:57:15.160,648.953
94,8 Feb 2025 20:20:19.597,8 Feb 2025 20:30:40.392,620.795
95,9 Feb 2025 18:28:04.824,9 Feb 2025 18:37:57.338,592.514
96,9 Feb 2025 20:01:22.815,9 Feb 2025 20:12:26.097,663.282
97,10 Feb 2025 18:09:57.762,10 Feb 2025 18:18:19.458,501.696
98,10 Feb 2025 19:42:32.524,10 Feb 2025 19:53:59.496,686.972
99,10 Feb 2025 21:18:36.197,10 Feb 2025 21:23:45.247,309.050
100,11 Feb 2025 17:52:19.349,11 Feb 2025 17:58:06.891,347.542
101,11 Feb 2025 19:23:48.216,11 Feb 2025 19:35:21.276,693.060
102,11 Feb 2025 20:58:54.888,11 Feb 2025 21:06:34.735,459.847
103,12 Feb 2025 19:05:10.111,12 Feb 2025 19:16:31.317,681.207
104,12 Feb 2025 20:39:37.937,12 Feb 2025 20:48:53.144,555.207
105,13 Feb 2025 18:46:39.202,13 Feb 2025 18:57:28.662,649.460
106,13 Feb 2025 20:20:32.992,13 Feb 2025 20:30:53.164,620.173
107,14 Feb 2025 18:28:17.688,14 Feb 2025 18:38:11.038,593.350
108,14 Feb 2025 20:01:36.126,14 Feb 2025 20:12:39.021,662.895
109,15 Feb 2025 18:10:10.408,15 Feb 2025 18:18:33.445,503.036
110,15 Feb 2025 19:42:45.763,15 Feb 2025 19:54:12.560,686.797
111,15 Feb 2025 21:18:50.359,15 Feb 2025 21:23:57.019,306.660
112,16 Feb 2025 17:52:31.461,16 Feb 2025 17:58:21.485,350.024
113,16 Feb 2025 19:24:01.385,16 Feb 2025 19:35:34.475,693.090
114,16 Feb 2025 20:59:08.578,16 Feb 2025 21:06:47.059,458.481
115,17 Feb 2025 19:05:23.203,17 Feb 2025 19:16:44.658,681.456
116,17 Feb 2025 20:39:51.441,17 Feb 2025 20:49:05.730,554.289
117,18 Feb 2025 18:46:52.200,18 Feb 2025 18:57:42.163,649.963
118,18 Feb 2025 20:20:46.387,18 Feb 2025 20:31:05.935,619.548
119,19 Feb 2025 18:28:30.556,19 Feb 2025 18:38:24.736,594.180
120,19 Feb 2025 20:01:49.439,19 Feb 2025 20:12:51.945,662.507
121,20 Feb 2025 18:10:23.060,20 Feb 2025 18:18:47.428,504.368
122,20 Feb 2025 19:42:59.004,20 Feb 2025 19:54:25.623,686.619
123,20 Feb 2025 21:19:04.531,20 Feb 2025 21:24:08.782,304.251
124,21 Feb 2025 17:52:43.587,21 Feb 2025 17:58:36.069,352.482
125,21 Feb 2025 19:24:14.556,21 Feb 2025 19:35:47.675,693.118
126,21 Feb 2025 20:59:22.273,21 Feb 2025 21:06:59.381,457.108
127,22 Feb 2025 19:05:36.297,22 Feb 2025 19:16:57.999,681.702
128,22 Feb 2025 20:40:04.950,22 Feb 2025 20:49:18.315,553.364
129,23 Feb 2025 18:47:05.200,23 Feb 2025 18:57:55.663,650.462
130,23 Feb 2025 20:20:59.784,23 Feb 2025 20:31:18.705,618.920
131,24 Feb 2025 18:28:43.426,24 Feb 2025 18:38:38.433,595.007
132,24 Feb 2025 20:02:02.753,24 Feb 2025 20:13:04.868,662.115
133,25 Feb 2025 18:10:35.715,25 Feb 2025 18:19:01.408,505.693
134,25 Feb 2025 19:43:12.247,25 Feb 2025 19:54:38.685,686.438
135,25 Feb 2025 21:19:18.717,25 Feb 2025 21:24:20.531,301.815
136,26 Feb 2025 17:52:55.719,26 Feb 2025 17:58:50.641,354.922
137,26 Feb 2025 19:24:27.727,26 Feb 2025 19:36:00.871,693.144
138,26 Feb 2025 20:59:35.971,26 Feb 2025 21:07:11.696,455.724
139,27 Feb 2025 19:05:49.392,27 Feb 2025 19:17:11.338,681.946
140,27 Feb 2025 20:40:18.461,27 Feb 2025 20:49:30.896,552.435
141,28 Feb 2025 18:47:18.200,28 Feb 2025 18:58:09.159,650.959
142,28 Feb 2025 20:21:13.182,28 Feb 2025 20:31:31.471,618.289
143,1 Mar 2025 18:28:56.297,1 Mar 2025 18:38:52.126,595.829
144,1 Mar 2025 20:02:16.067,1 Mar 2025 20:13:17.788,661.721
145,2 Mar 2025 18:10:48.373,2 Mar 2025 18:19:15.382,507.009
146,2 Mar 2025 19:43:25.488,2 Mar 2025 19:54:51.744,686.256
147,2 Mar 2025 21:19:32.911,2 Mar 2025 21:24:32.269,299.358
148,3 Mar 2025 17:53:07.870,3 Mar 2025 17:59:05.198,357.328
149,3 Mar 2025 19:24:40.899,3 Mar 2025 19:36:14.066,693.167
150,3 Mar 2025 20:59:49.671,3 Mar 2025 21:07:24.009,454.338
151,4 Mar 2025 19:06:02.488,4 Mar 2025 19:17:24.674,682.187
152,4 Mar 2025 20:40:31.973,4 Mar 2025 20:49:43.475,551.503
153,5 Mar 2025 18:47:31.203,5 Mar 2025 18:58:22.654,651.451
154,5 Mar 2025 20:21:26.581,5 Mar 2025 20:31:44.237,617.656
155,6 Mar 2025 18:29:09.172,6 Mar 2025 18:39:05.818,596.646
156,6 Mar 2025 20:02:29.383,6 Mar 2025 20:13:30.708,661.325
157,7 Mar 2025 18:11:01.036,7 Mar 2025 18:19:29.354,508.317
158,7 Mar 2025 19:43:38.733,7 Mar 2025 19:55:04.804,686.071
159,7 Mar 2025 21:19:47.118,7 Mar 2025 21:24:43.996,296.878
160,8 Mar 2025 17:53:20.031,8 Mar 2025 17:59:19.746,359.715
161,8 Mar 2025 19:24:54.074,8 Mar 2025 19:36:27.261,693.187
162,8 Mar 2025 21:00:03.375,8 Mar 2025 21:07:36.319,452.944
163,9 Mar 2025 19:06:15.585,9 Mar 2025 19:17:38.010,682.425
164,9 Mar 2025 20:40:45.487,9 Mar 2025 20:49:56.053,550.566
165,10 Mar 2025 18:47:44.207,10 Mar 2025 18:58:36.148,651.941
166,10 Mar 2025 20:21:39.977,10 Mar 2025 20:31:57.001,617.024
167,11 Mar 2025 18:29:22.048,11 Mar 2025 18:39:19.507,597.459
168,11 Mar 2025 20:02:42.699,11 Mar 2025 20:13:43.625,660.926
169,12 Mar 2025 18:11:13.702,12 Mar 2025 18:19:43.320,509.618
170,12 Mar 2025 19:43:51.978,12 Mar 2025 19:55:17.860,685.883
171,12 Mar 2025 21:20:01.337,12 Mar 2025 21:24:55.710,294.373
172,13 Mar 2025 17:53:32.199,13 Mar 2025 17:59:34.281,362.082
173,13 Mar 2025 19:25:07.248,13 Mar 2025 19:36:40.453,693.206
174,13 Mar 2025 21:00:17.082,13 Mar 2025 21:07:48.624,451.543
175,14 Mar 2025 19:06:28.683,14 Mar 2025 19:17:51.344,682.661
176,14 Mar 2025 20:40:59.002,14 Mar 2025 20:50:08.627,549.625
177,15 Mar 2025 18:47:57.212,15 Mar 2025 18:58:49.638,652.427
178,15 Mar 2025 20:21:53.379,15 Mar 2025 20:32:09.762,616.384
179,16 Mar 2025 18:29:34.925,16 Mar 2025 18:39:33.190,598.266
180,16 Mar 2025 20:02:56.016,16 Mar 2025 20:13:56.541,660.525
181,17 Mar 2025 18:11:26.370,17 Mar 2025 18:19:57.277,510.907
182,17 Mar 2025 19:44:05.225,17 Mar 2025 19:55:30.918,685.692
183,17 Mar 2025 21:20:15.560,17 Mar 2025 21:25:07.406,291.845
184,18 Mar 2025 17:53:44.380,18 Mar 2025 17:59:48.803,364.423
185,18 Mar 2025 19:25:20.423,18 Mar 2025 19:36:53.644,693.221
186,18 Mar 2025 21:00:30.789,18 Mar 2025 21:08:00.928,450.139
187,19 Mar 2025 19:06:41.782,19 Mar 2025 19:18:04.675,682.894
188,19 Mar 2025 20:41:12.518,19 Mar 2025 20:50:21.199,548.681
189,20 Mar 2025 18:48:10.219,20 Mar 2025 18:59:03.127,652.909
190,20 Mar 2025 20:22:06.783,20 Mar 2025 20:32:22.523,615.740
191,21 Mar 2025 18:29:47.805,21 Mar 2025 18:39:46.873,599.067
192,21 Mar 2025 20:03:09.334,21 Mar 2025 20:14:09.455,660.121
193,22 Mar 2025 18:11:39.044,22 Mar 2025 18:20:11.235,512.191
194,22 Mar 2025 19:44:18.472,22 Mar 2025 19:55:43.971,685.499
195,22 Mar 2025 21:20:29.802,22 Mar 2025 21:25:19.094,289.292
196,23 Mar 2025 17:53:56.572,23 Mar 2025 18:00:03.316,366.744
197,23 Mar 2025 19:25:33.600,23 Mar 2025 19:37:06.834,693.234
198,23 Mar 2025 21:00:44.502,23 Mar 2025 21:08:13.226,448.724
199,24 Mar 2025 19:06:54.883,24 Mar 2025 19:18:18.006,683.124
200,24 Mar 2025 20:41:26.037,24 Mar 2025 20:50:33.770,547.733
201,25 Mar 2025 18:48:23.227,25 Mar 2025 18:59:16.615,653.388
202,25 Mar 2025 20:22:20.187,25 Mar 2025 20:32:35.281,615.094
203,26 Mar 2025 18:30:00.687,26 Mar 2025 18:40:00.553,599.865
204,26 Mar 2025 20:03:22.658,26 Mar 2025 20:14:22.368,659.710
205,27 Mar 2025 18:11:51.720,27 Mar 2025 18:20:25.189,513.470
206,27 Mar 2025 19:44:31.719,27 Mar 2025 19:55:57.022,685.304
207,27 Mar 2025 21:20:44.058,27 Mar 2025 21:25:30.766,286.708
208,28 Mar 2025 17:54:08.771,28 Mar 2025 18:00:17.817,369.046
209,28 Mar 2025 19:25:46.776,28 Mar 2025 19:37:20.021,693.245
210,28 Mar 2025 21:00:58.217,28 Mar 2025 21:08:25.519,447.302
211,29 Mar 2025 19:07:07.983,29 Mar 2025 19:18:31.334,683.351
212,29 Mar 2025 20:41:39.556,29 Mar 2025 20:50:46.336,546.780
213,30 Mar 2025 18:48:36.235,30 Mar 2025 18:59:30.099,653.864
214,30 Mar 2025 20:22:33.591,30 Mar 2025 20:32:48.036,614.445
215,31 Mar 2025 18:30:13.570,31 Mar 2025 18:40:14.228,600.658
216,31 Mar 2025 20:03:35.976,31 Mar 2025 20:14:35.278,659.301
217,1 Apr 2025 18:12:04.400,1 Apr 2025 18:20:39.138,514.738
218,1 Apr 2025 19:44:44.965,1 Apr 2025 19:56:10.071,685.106
219,1 Apr 2025 21:20:58.323,1 Apr 2025 21:25:42.426,284.103
220,2 Apr 2025 17:54:20.984,2 Apr 2025 18:00:32.306,371.322
221,2 Apr 2025 19:25:59.954,2 Apr 2025 19:37:33.207,693.253
222,2 Apr 2025 21:01:11.934,2 Apr 2025 21:08:37.810,445.876
223,3 Apr 2025 19:07:21.085,3 Apr 2025 19:18:44.661,683.576
224,3 Apr 2025 20:41:53.076,3 Apr 2025 20:50:58.901,545.825
225,4 Apr 2025 18:48:49.246,4 Apr 2025 18:59:43.582,654.336
226,4 Apr 2025 20:22:46.992,4 Apr 2025 20:33:00.791,613.799
227,5 Apr 2025 18:30:26.457,5 Apr 2025 18:40:27.903,601.446
228,5 Apr 2025 20:03:49.297,5 Apr 2025 20:14:48.188,658.890
229,6 Apr 2025 18:12:17.083,6 Apr 2025 18:20:53.084,516.000
230,6 Apr 2025 19:44:58.214,6 Apr 2025 19:56:23.122,684.908
231,6 Apr 2025 21:21:12.604,6 Apr 2025 21:25:54.072,281.467
232,7 Apr 2025 17:54:33.206,7 Apr 2025 18:00:46.786,373.580
233,7 Apr 2025 19:26:13.133,7 Apr 2025 19:37:46.391,693.258
234,7 Apr 2025 21:01:25.656,7 Apr 2025 21:08:50.095,444.440
235,8 Apr 2025 19:07:34.188,8 Apr 2025 19:18:57.984,683.796
236,8 Apr 2025 20:42:06.599,8 Apr 2025 20:51:11.464,544.864
237,9 Apr 2025 18:49:02.262,9 Apr 2025 18:59:57.060,654.798
238,9 Apr 2025 20:23:00.402,9 Apr 2025 20:33:13.543,613.140
239,10 Apr 2025 18:30:39.344,10 Apr 2025 18:40:41.574,602.230
240,10 Apr 2025 20:04:02.613,10 Apr 2025 20:15:01.094,658.481
241,11 Apr 2025 18:12:29.769,11 Apr 2025 18:21:07.024,517.255
242,11 Apr 2025 19:45:11.462,11 Apr 2025 19:56:36.168,684.706
243,11 Apr 2025 21:21:26.898,11 Apr 2025 21:26:05.701,278.803
244,12 Apr 2025 17:54:45.436,12 Apr 2025 18:01:01.253,375.817
245,12 Apr 2025 19:26:26.311,12 Apr 2025 19:37:59.573,693.262
246,12 Apr 2025 21:01:39.378,12 Apr 2025 21:09:02.376,442.997
247,13 Apr 2025 19:07:47.291,13 Apr 2025 19:19:11.306,684.015
248,13 Apr 2025 20:42:20.122,13 Apr 2025 20:51:24.022,543.901
249,14 Apr 2025 18:49:15.274,14 Apr 2025 19:00:10.538,655.264
250,14 Apr 2025 20:23:13.808,14 Apr 2025 20:33:26.292,612.484
251,15 Apr 2025 18:30:52.232,15 Apr 2025 18:40:55.241,603.009
252,15 Apr 2025 20:04:15.934,15 Apr 2025 20:15:13.999,658.065
253,16 Apr 2025 18:12:42.458,16 Apr 2025 18:21:20.959,518.501
254,16 Apr 2025 19:45:24.711,16 Apr 2025 19:56:49.212,684.502
255,16 Apr 2025 21:21:41.203,16 Apr 2025 21:26:17.317,276.114
256,17 Apr 2025 17:54:57.679,17 Apr 2025 18:01:15.710,378.032
257,17 Apr 2025 19:26:39.491,17 Apr 2025 19:38:12.753,693.263
258,17 Apr 2025 21:01:53.104,17 Apr 2025 21:09:14.653,441.550
259,18 Apr 2025 19:08:00.396,18 Apr 2025 19:19:24.631,684.236
260,18 Apr 2025 20:42:33.646,18 Apr 2025 20:51:36.579,542.934
261,19 Apr 2025 18:49:28.289,19 Apr 2025 19:00:24.014,655.726
262,19 Apr 2025 20:23:27.215,19 Apr 2025 20:33:39.040,611.825
263,20 Apr 2025 18:31:05.124,20 Apr 2025 18:41:08.907,603.783
264,20 Apr 2025 20:04:29.256,20 Apr 2025 20:15:26.903,657.647
265,21 Apr 2025 18:12:55.151,21 Apr 2025 18:21:34.892,519.740
266,21 Apr 2025 19:45:37.961,21 Apr 2025 19:57:02.256,684.294
267,21 Apr 2025 21:21:55.525,21 Apr 2025 21:26:28.917,273.392
268,22 Apr 2025 17:55:09.929,22 Apr 2025 18:01:30.158,380.230
269,22 Apr 2025 19:26:52.671,22 Apr 2025 19:38:25.933,693.261
270,22 Apr 2025 21:02:06.834,22 Apr 2025 21:09:26.927,440.092
271,23 Apr 2025 19:08:13.501,23 Apr 2025 19:19:37.950,684.449
272,23 Apr 2025 20:42:47.173,23 Apr 2025 20:51:49.134,541.961
273,24 Apr 2025 18:49:41.303,24 Apr 2025 19:00:37.488,656.185
274,24 Apr 2025 20:23:40.624,24 Apr 2025 20:33:51.785,611.162
275,25 Apr 2025 18:31:18.015,25 Apr 2025 18:41:22.570,604.554
276,25 Apr 2025 20:04:42.579,25 Apr 2025 20:15:39.808,657.229
277,26 Apr 2025 18:13:07.845,26 Apr 2025 18:21:48.823,520.978
278,26 Apr 2025 19:45:51.207,26 Apr 2025 19:57:15.297,684.090
279,26 Apr 2025 21:22:09.866,26 Apr 2025 21:26:40.500,270.634
280,27 Apr 2025 17:55:22.187,27 Apr 2025 18:01:44.594,382.407
281,27 Apr 2025 19:27:05.851,27 Apr 2025 19:38:39.109,693.258
282,27 Apr 2025 21:02:20.565,27 Apr 2025 21:09:39.194,438.629
283,28 Apr 2025 19:08:26.607,28 Apr 2025 19:19:51.266,684.660
284,28 Apr 2025 20:43:00.698,28 Apr 2025 20:52:01.684,540.986
285,29 Apr 2025 18:49:54.319,29 Apr 2025 19:00:50.959,656.640
286,29 Apr 2025 20:23:54.032,29 Apr 2025 20:34:04.528,610.497
287,30 Apr 2025 18:31:30.910,30 Apr 2025 18:41:36.229,605.319
288,30 Apr 2025 20:04:55.902,30 Apr 2025 20:15:52.707,656.806
289,1 May 2025 18:13:20.545,1 May 2025 18:22:02.745,522.199
290,1 May 2025 19:46:04.458,1 May 2025 19:57:28.336,683.879
291,1 May 2025 21:22:24.215,1 May 2025 21:26:52.067,267.852
292,2 May 2025 17:55:34.457,2 May 2025 18:01:59.021,384.565
293,2 May 2025 19:27:19.033,2 May 2025 19:38:52.284,693.251
294,2 May 2025 21:02:34.300,2 May 2025 21:09:51.459,437.159
295,3 May 2025 19:08:39.714,3 May 2025 19:20:04.582,684.868
296,3 May 2025 20:43:14.227,3 May 2025 20:52:14.234,540.006
297,4 May 2025 18:50:07.337,4 May 2025 19:01:04.427,657.090
298,4 May 2025 20:24:07.442,4 May 2025 20:34:17.270,609.828
299,5 May 2025 18:31:43.805,5 May 2025 18:41:49.886,606.081
300,5 May 2025 20:05:09.226,5 May 2025 20:16:05.605,656.379
301,6 May 2025 18:13:33.247,6 May 2025 18:22:16.665,523.417
302,6 May 2025 19:46:17.709,6 May 2025 19:57:41.375,683.665
303,6 May 2025 21:22:38.584,6 May 2025 21:27:03.615,265.031
304,7 May 2025 17:55:46.732,7 May 2025 18:02:13.439,386.707
305,7 May 2025 19:27:32.211,7 May 2025 19:39:05.458,693.248
306,7 May 2025 21:02:48.039,7 May 2025 21:10:03.718,435.679
307,8 May 2025 19:08:52.822,8 May 2025 19:20:17.890,685.068
308,8 May 2025 20:43:27.757,8 May 2025 20:52:26.777,539.019
309,9 May 2025 18:50:20.354,9 May 2025 19:01:17.898,657.545
310,9 May 2025 20:24:20.850,9 May 2025 20:34:30.009,609.159
311,10 May 2025 18:31:56.701,10 May 2025 18:42:03.540,606.839
312,10 May 2025 20:05:22.554,10 May 2025 20:16:18.500,655.946
313,11 May 2025 18:13:45.954,11 May 2025 18:22:30.581,524.626
314,11 May 2025 19:46:30.960,11 May 2025 19:57:54.413,683.453
315,11 May 2025 21:22:52.966,11 May 2025 21:27:15.145,262.179
316,12 May 2025 17:55:59.016,12 May 2025 18:02:27.845,388.829
317,12 May 2025 19:27:45.392,12 May 2025 19:39:18.628,693.236
318,12 May 2025 21:03:01.779,12 May 2025 21:10:15.973,434.193
319,13 May 2025 19:09:05.926,13 May 2025 19:20:31.199,685.273
320,13 May 2025 20:43:41.285,13 May 2025 20:52:39.319,538.034
321,14 May 2025 18:50:33.372,14 May 2025 19:01:31.362,657.990
322,14 May 2025 20:24:34.261,14 May 2025 20:34:42.745,608.484
323,15 May 2025 18:32:09.599,15 May 2025 18:42:17.190,607.591
324,15 May 2025 20:05:35.879,15 May 2025 20:16:31.393,655.515
325,16 May 2025 18:13:58.662,16 May 2025 18:22:44.487,525.824
326,16 May 2025 19:46:44.212,16 May 2025 19:58:07.447,683.235
327,16 May 2025 21:23:07.365,16 May 2025 21:27:26.658,259.293
328,17 May 2025 17:56:11.310,17 May 2025 18:02:42.243,390.933
329,17 May 2025 19:27:58.575,17 May 2025 19:39:31.798,693.223
330,17 May 2025 21:03:15.524,17 May 2025 21:10:28.223,432.700
331,18 May 2025 19:09:19.036,18 May 2025 19:20:44.508,685.473
332,18 May 2025 20:43:54.818,18 May 2025 20:52:51.859,537.041
333,19 May 2025 18:50:46.393,19 May 2025 19:01:44.825,658.432
334,19 May 2025 20:24:47.673,19 May 2025 20:34:55.480,607.806
335,20 May 2025 18:32:22.499,20 May 2025 18:42:30.839,608.340
336,20 May 2025 20:05:49.205,20 May 2025 20:16:44.285,655.081
337,21 May 2025 18:14:11.372,21 May 2025 18:22:58.394,527.022
338,21 May 2025 19:46:57.466,21 May 2025 19:58:20.480,683.014
339,21 May 2025 21:23:21.785,21 May 2025 21:27:38.150,256.366
340,22 May 2025 17:56:23.610,22 May 2025 18:02:56.632,393.022
341,22 May 2025 19:28:11.759,22 May 2025 19:39:44.966,693.207
342,22 May 2025 21:03:29.272,22 May 2025 21:10:40.468,431.196
343,23 May 2025 19:09:32.145,23 May 2025 19:20:57.815,685.670
344,23 May 2025 20:44:08.352,23 May 2025 20:53:04.395,536.043
345,24 May 2025 18:50:59.413,24 May 2025 19:01:58.281,658.869
346,24 May 2025 20:25:01.087,24 May 2025 20:35:08.211,607.125
347,25 May 2025 18:32:35.399,25 May 2025 18:42:44.484,609.084
348,25 May 2025 20:06:02.530,25 May 2025 20:16:57.174,654.644
349,26 May 2025 18:14:24.085,26 May 2025 18:23:12.296,528.212
350,26 May 2025 19:47:10.718,26 May 2025 19:58:33.509,682.791
351,26 May 2025 21:23:36.219,26 May 2025 21:27:49.623,253.405
352,27 May 2025 17:56:35.918,27 May 2025 18:03:11.009,395.091
353,27 May 2025 19:28:24.942,27 May 2025 19:39:58.130,693.189
354,27 May 2025 21:03:43.022,27 May 2025 21:10:52.708,429.687
355,28 May 2025 19:09:45.254,28 May 2025 19:21:11.119,685.865
356,28 May 2025 20:44:21.886,28 May 2025 20:53:16.929,535.043
357,29 May 2025 18:51:12.434,29 May 2025 19:02:11.739,659.305
358,29 May 2025 20:25:14.500,29 May 2025 20:35:20.941,606.441
359,30 May 2025 18:32:48.303,30 May 2025 18:42:58.126,609.824
360,30 May 2025 20:06:15.857,30 May 2025 20:17:10.062,654.205
361,31 May 2025 18:14:36.799,31 May 2025 18:23:26.194,529.396
362,31 May 2025 19:47:23.976,31 May 2025 19:58:46.534,682.558
363,31 May 2025 21:23:50.669,31 May 2025 21:28:01.077,250.408
364,1 Jun 2025 17:56:48.235,1 Jun 2025 18:03:25.380,397.145
365,1 Jun 2025 19:28:38.131,1 Jun 2025 19:40:11.294,693.163
366,1 Jun 2025 21:03:56.776,1 Jun 2025 21:11:04.944,428.168
367,2 Jun 2025 17:40:48.187,2 Jun 2025 17:41:29.697,41.510
368,2 Jun 2025 19:09:58.365,2 Jun 2025 19:21:24.423,686.059
369,2 Jun 2025 20:44:35.425,2 Jun 2025 20:53:29.461,534.037
370,3 Jun 2025 18:51:25.452,3 Jun 2025 19:02:25.195,659.743
371,3 Jun 2025 20:25:27.914,3 Jun 2025 20:35:33.669,605.755
372,4 Jun 2025 18:33:01.206,4 Jun 2025 18:43:11.767,610.561
373,4 Jun 2025 20:06:29.184,4 Jun 2025 20:17:22.947,653.763
374,5 Jun 2025 18:14:49.515,5 Jun 2025 18:23:40.089,530.574
375,5 Jun 2025 19:47:37.230,5 Jun 2025 19:58:59.560,682.330
376,5 Jun 2025 21:24:05.145,5 Jun 2025 21:28:12.506,247.361
377,6 Jun 2025 17:57:00.556,6 Jun 2025 18:03:39.741,399.184
378,6 Jun 2025 19:28:51.315,6 Jun 2025 19:40:24.455,693.140
379,6 Jun 2025 21:04:10.534,6 Jun 2025 21:11:17.174,426.640
380,7 Jun 2025 17:40:51.687,7 Jun 2025 17:41:52.960,61.273
381,7 Jun 2025 19:10:11.475,7 Jun 2025 19:21:37.724,686.249
382,7 Jun 2025 20:44:48.959,7 Jun 2025 20:53:41.988,533.029
383,8 Jun 2025 18:51:38.474,8 Jun 2025 19:02:38.647,660.173
384,8 Jun 2025 20:25:41.329,8 Jun 2025 20:35:46.393,605.064
385,9 Jun 2025 18:33:14.112,9 Jun 2025 18:43:25.402,611.290
386,9 Jun 2025 20:06:42.511,9 Jun 2025 20:17:35.830,653.319
387,10 Jun 2025 18:15:02.234,10 Jun 2025 18:23:53.978,531.744
388,10 Jun 2025 19:47:50.484,10 Jun 2025 19:59:12.583,682.099
389,10 Jun 2025 21:24:19.639,10 Jun 2025 21:28:23.915,244.276
390,11 Jun 2025 17:57:12.886,11 Jun 2025 18:03:54.091,401.205
391,11 Jun 2025 19:29:04.500,11 Jun 2025 19:40:37.614,693.115
392,11 Jun 2025 21:04:24.294,11 Jun 2025 21:11:29.399,425.105
393,12 Jun 2025 17:40:57.693,12 Jun 2025 17:42:13.709,76.016
394,12 Jun 2025 19:10:24.586,12 Jun 2025 19:21:51.020,686.433
395,12 Jun 2025 20:45:02.498,12 Jun 2025 20:53:54.513,532.015
396,13 Jun 2025 18:51:51.498,13 Jun 2025 19:02:52.098,660.600
397,13 Jun 2025 20:25:54.745,13 Jun 2025 20:35:59.116,604.370
398,14 Jun 2025 18:33:27.019,14 Jun 2025 18:43:39.037,612.018
399,14 Jun 2025 20:06:55.839,14 Jun 2025 20:17:48.711,652.872
400,15 Jun 2025 18:15:14.956,15 Jun 2025 18:24:07.865,532.908
401,15 Jun 2025 19:48:03.739,15 Jun 2025 19:59:25.606,681.867
402,15 Jun 2025 21:24:34.158,15 Jun 2025 21:28:35.301,241.143
403,16 Jun 2025 17:57:25.224,16 Jun 2025 18:04:08.436,403.211
404,16 Jun 2025 19:29:17.683,16 Jun 2025 19:40:50.773,693.090
405,16 Jun 2025 21:04:38.060,16 Jun 2025 21:11:41.620,423.560
406,17 Jun 2025 17:41:04.920,17 Jun 2025 17:42:33.245,88.325
407,17 Jun 2025 19:10:37.700,17 Jun 2025 19:22:04.317,686.616
408,17 Jun 2025 20:45:16.040,17 Jun 2025 20:54:07.035,530.995
409,18 Jun 2025 18:52:04.522,18 Jun 2025 19:03:05.547,661.025
410,18 Jun 2025 20:26:08.164,18 Jun 2025 20:36:11.836,603.673
411,19 Jun 2025 18:33:39.926,19 Jun 2025 18:43:52.668,612.742
412,19 Jun 2025 20:07:09.169,19 Jun 2025 20:18:01.591,652.422
413,20 Jun 2025 18:15:27.680,20 Jun 2025 18:24:21.747,534.067
414,20 Jun 2025 19:48:16.995,20 Jun 2025 19:59:38.627,681.632
415,20 Jun 2025 21:24:48.700,20 Jun 2025 21:28:46.661,237.962
416,21 Jun 2025 17:57:37.567,21 Jun 2025 18:04:22.770,405.203
417,21 Jun 2025 19:29:30.869,21 Jun 2025 19:41:03.928,693.059
418,21 Jun 2025 21:04:51.829,21 Jun 2025 21:11:53.834,422.005
419,22 Jun 2025 17:41:12.912,22 Jun 2025 17:42:52.004,99.092
420,22 Jun 2025 19:10:50.812,22 Jun 2025 19:22:17.611,686.799
421,22 Jun 2025 20:45:29.583,22 Jun 2025 20:54:19.553,529.970
422,23 Jun 2025 18:52:17.547,23 Jun 2025 19:03:18.992,661.446
423,23 Jun 2025 20:26:21.579,23 Jun 2025 20:36:24.553,602.975
424,24 Jun 2025 18:33:52.834,24 Jun 2025 18:44:06.296,613.462
425,24 Jun 2025 20:07:22.497,24 Jun 2025 20:18:14.467,651.970
426,25 Jun 2025 18:15:40.408,25 Jun 2025 18:24:35.625,535.217
427,25 Jun 2025 19:48:30.250,25 Jun 2025 19:59:51.645,681.394
428,25 Jun 2025 21:25:03.261,25 Jun 2025 21:28:57.999,234.738
429,26 Jun 2025 17:57:49.919,26 Jun 2025 18:04:37.096,407.177
430,26 Jun 2025 19:29:44.056,26 Jun 2025 19:41:17.082,693.026
431,26 Jun 2025 21:05:05.600,26 Jun 2025 21:12:06.049,420.449
432,27 Jun 2025 17:41:21.455,27 Jun 2025 17:43:10.217,108.762
433,27 Jun 2025 19:11:03.926,27 Jun 2025 19:22:30.904,686.979
434,27 Jun 2025 20:45:43.127,27 Jun 2025 20:54:32.069,528.942
435,28 Jun 2025 18:52:30.576,28 Jun 2025 19:03:32.436,661.860
436,28 Jun 2025 20:26:35.000,28 Jun 2025 20:36:37.270,602.269
437,29 Jun 2025 18:34:05.746,29 Jun 2025 18:44:19.923,614.177
438,29 Jun 2025 20:07:35.824,29 Jun 2025 20:18:27.343,651.519
439,30 Jun 2025 18:15:53.138,30 Jun 2025 18:24:49.500,536.362
440,30 Jun 2025 19:48:43.508,30 Jun 2025 20:00:04.662,681.154
441,30 Jun 2025 21:25:17.850,30 Jun 2025 21:29:09.309,231.459
442,1 Jul 2025 17:58:02.276,1 Jul 2025 18:04:51.415,409.139
443,1 Jul 2025 19:29:57.245,1 Jul 2025 19:41:30.235,692.990
444,1 Jul 2025 21:05:19.378,1 Jul 2025 21:12:18.253,418.875
445,2 Jul 2025 17:41:30.394,2 Jul 2025 17:43:28.030,117.636
446,2 Jul 2025 19:11:17.038,2 Jul 2025 19:22:44.194,687.157
447,2 Jul 2025 20:45:56.674,2 Jul 2025 20:54:44.581,527.907
448,3 Jul 2025 18:52:43.603,3 Jul 2025 19:03:45.879,662.276
449,3 Jul 2025 20:26:48.421,3 Jul 2025 20:36:49.983,601.562
450,4 Jul 2025 18:34:18.656,4 Jul 2025 18:44:33.546,614.890
451,4 Jul 2025 20:07:49.155,4 Jul 2025 20:18:40.215,651.061
452,5 Jul 2025 18:16:05.869,5 Jul 2025 18:25:03.368,537.499
453,5 Jul 2025 19:48:56.761,5 Jul 2025 20:00:17.680,680.920
454,5 Jul 2025 21:25:32.465,5 Jul 2025 21:29:20.590,228.125
455,6 Jul 2025 17:58:14.643,6 Jul 2025 18:05:05.725,411.082
456,6 Jul 2025 19:30:10.429,6 Jul 2025 19:41:43.384,692.955
457,6 Jul 2025 21:05:33.158,6 Jul 2025 21:12:30.451,417.293
458,7 Jul 2025 17:41:39.658,7 Jul 2025 17:43:45.517,125.860
459,7 Jul 2025 19:11:30.153,7 Jul 2025 19:22:57.483,687.329
460,7 Jul 2025 20:46:10.222,7 Jul 2025 20:54:57.090,526.868
461,8 Jul 2025 18:52:56.630,8 Jul 2025 19:03:59.318,662.688
462,8 Jul 2025 20:27:01.841,8 Jul 2025 20:37:02.693,600.852
463,9 Jul 2025 18:34:31.567,9 Jul 2025 18:44:47.166,615.598
464,9 Jul 2025 20:08:02.486,9 Jul 2025 20:18:53.086,650.600
465,10 Jul 2025 18:16:18.608,10 Jul 2025 18:25:17.237,538.629
466,10 Jul 2025 19:49:10.022,10 Jul 2025 20:00:30.689,680.667
467,10 Jul 2025 21:25:47.106,10 Jul 2025 21:29:31.845,224.739
468,11 Jul 2025 17:58:27.009,11 Jul 2025 18:05:20.027,413.018
469,11 Jul 2025 19:30:23.622,11 Jul 2025 19:41:56.532,692.911
470,11 Jul 2025 21:05:46.942,11 Jul 2025 21:12:42.645,415.703
471,12 Jul 2025 17:41:49.180,12 Jul 2025 17:44:02.742,133.561
472,12 Jul 2025 19:11:43.266,12 Jul 2025 19:23:10.771,687.505
473,12 Jul 2025 20:46:23.772,12 Jul 2025 20:55:09.597,525.825
474,13 Jul 2025 18:53:09.659,13 Jul 2025 19:04:12.757,663.098
475,13 Jul 2025 20:27:15.264,13 Jul 2025 20:37:15.402,600.138
476,14 Jul 2025 18:34:44.481,14 Jul 2025 18:45:00.785,616.303
477,14 Jul 2025 20:08:15.819,14 Jul 2025 20:19:05.956,650.136
478,15 Jul 2025 18:16:31.341,15 Jul 2025 18:25:31.099,539.758
479,15 Jul 2025 19:49:23.278,15 Jul 2025 20:00:43.705,680.427
480,15 Jul 2025 21:26:01.774,15 Jul 2025 21:29:43.070,221.296
481,16 Jul 2025 17:58:39.390,16 Jul 2025 18:05:34.323,414.933
482,16 Jul 2025 19:30:36.808,16 Jul 2025 19:42:09.680,692.872
483,16 Jul 2025 21:06:00.733,16 Jul 2025 21:12:54.833,414.101
484,17 Jul 2025 17:41:58.918,17 Jul 2025 17:44:19.752,140.834
485,17 Jul 2025 19:11:56.382,17 Jul 2025 19:23:24.057,687.675
486,17 Jul 2025 20:46:37.325,17 Jul 2025 20:55:22.100,524.775
487,18 Jul 2025 18:53:22.688,18 Jul 2025 19:04:26.193,663.505
488,18 Jul 2025 20:27:28.688,18 Jul 2025 20:37:28.108,599.420
489,19 Jul 2025 18:34:57.395,19 Jul 2025 18:45:14.400,617.005
490,19 Jul 2025 20:08:29.153,19 Jul 2025 20:19:18.822,649.669
491,20 Jul 2025 18:16:44.078,20 Jul 2025 18:25:44.957,540.879
492,20 Jul 2025 19:49:36.536,20 Jul 2025 20:00:56.713,680.177
493,20 Jul 2025 21:26:16.474,20 Jul 2025 21:29:54.256,217.783
494,21 Jul 2025 17:58:51.771,21 Jul 2025 18:05:48.609,416.838
495,21 Jul 2025 19:30:49.998,21 Jul 2025 19:42:22.824,692.826
496,21 Jul 2025 21:06:14.525,21 Jul 2025 21:13:07.015,412.489
497,22 Jul 2025 17:42:08.844,22 Jul 2025 17:44:36.570,147.726
498,22 Jul 2025 19:12:09.498,22 Jul 2025 19:23:37.340,687.842
499,22 Jul 2025 20:46:50.878,22 Jul 2025 20:55:34.599,523.721
500,23 Jul 2025 18:53:35.717,23 Jul 2025 19:04:39.626,663.909
501,23 Jul 2025 20:27:42.111,23 Jul 2025 20:37:40.811,598.700
502,24 Jul 2025 18:35:10.311,24 Jul 2025 18:45:28.012,617.701
503,24 Jul 2025 20:08:42.487,24 Jul 2025 20:19:31.687,649.200
504,25 Jul 2025 18:16:56.820,25 Jul 2025 18:25:58.813,541.993
505,25 Jul 2025 19:49:49.796,25 Jul 2025 20:01:09.721,679.925
506,25 Jul 2025 21:26:31.204,25 Jul 2025 21:30:05.418,214.215
507,26 Jul 2025 17:59:04.161,26 Jul 2025 18:06:02.889,418.728
508,26 Jul 2025 19:31:03.190,26 Jul 2025 19:42:35.967,692.777
509,26 Jul 2025 21:06:28.323,26 Jul 2025 21:13:19.192,410.869
510,27 Jul 2025 17:42:18.935,27 Jul 2025 17:44:53.230,154.295
511,27 Jul 2025 19:12:22.616,27 Jul 2025 19:23:50.622,688.006
512,27 Jul 2025 20:47:04.435,27 Jul 2025 20:55:47.097,522.662
513,28 Jul 2025 18:53:48.749,28 Jul 2025 19:04:53.057,664.308
514,28 Jul 2025 20:27:55.538,28 Jul 2025 20:37:53.514,597.975
515,29 Jul 2025 18:35:23.229,29 Jul 2025 18:45:41.624,618.395
516,29 Jul 2025 20:08:55.823,29 Jul 2025 20:19:44.551,648.728
517,30 Jul 2025 18:17:09.563,30 Jul 2025 18:26:12.666,543.103
518,30 Jul 2025 19:50:03.057,30 Jul 2025 20:01:22.727,679.670
519,30 Jul 2025 21:26:45.972,30 Jul 2025 21:30:16.543,210.571
520,31 Jul 2025 17:59:16.554,31 Jul 2025 18:06:17.162,420.608
521,31 Jul 2025 19:31:16.382,31 Jul 2025 19:42:49.109,692.727
522,31 Jul 2025 21:06:42.127,31 Jul 2025 21:13:31.363,409.236
523,1 Aug 2025 17:42:29.153,1 Aug 2025 17:45:09.750,160.596
524,1 Aug 2025 19:12:35.733,1 Aug 2025 19:24:03.898,688.164
525,1 Aug 2025 20:47:17.994,1 Aug 2025 20:55:59.590,521.596
526,2 Aug 2025 18:54:01.780,2 Aug 2025 19:05:06.487,664.707
527,2 Aug 2025 20:28:08.961,2 Aug 2025 20:38:06.212,597.251
528,3 Aug 2025 18:35:36.146,3 Aug 2025 18:45:55.232,619.085
529,3 Aug 2025 20:09:09.160,3 Aug 2025 20:19:57.412,648.252
530,4 Aug 2025 18:17:22.307,4 Aug 2025 18:26:26.514,544.207
531,4 Aug 2025 19:50:16.318,4 Aug 2025 20:01:35.730,679.412
532,4 Aug 2025 21:27:00.773,4 Aug 2025 21:30:27.631,206.859
533,5 Aug 2025 17:59:28.953,5 Aug 2025 18:06:31.427,422.474
534,5 Aug 2025 19:31:29.569,5 Aug 2025 19:43:02.248,692.679
535,5 Aug 2025 21:06:55.934,5 Aug 2025 21:13:43.528,407.593
536,6 Aug 2025 17:42:39.504,6 Aug 2025 17:45:26.140,166.636
537,6 Aug 2025 19:12:48.851,6 Aug 2025 19:24:17.178,688.327
538,6 Aug 2025 20:47:31.558,6 Aug 2025 20:56:12.080,520.522
539,7 Aug 2025 18:54:14.813,7 Aug 2025 19:05:19.915,665.103
540,7 Aug 2025 20:28:22.390,7 Aug 2025 20:38:18.909,596.520
541,8 Aug 2025 18:35:49.069,8 Aug 2025 18:46:08.838,619.769
542,8 Aug 2025 20:09:22.497,8 Aug 2025 20:20:10.271,647.774
543,9 Aug 2025 18:17:35.056,9 Aug 2025 18:26:40.360,545.304
544,9 Aug 2025 19:50:29.581,9 Aug 2025 20:01:48.733,679.152
545,9 Aug 2025 21:27:15.610,9 Aug 2025 21:30:38.686,203.077
546,10 Aug 2025 17:59:41.360,10 Aug 2025 18:06:45.681,424.322
547,10 Aug 2025 19:31:42.766,10 Aug 2025 19:43:15.391,692.625
548,10 Aug 2025 21:07:09.750,10 Aug 2025 21:13:55.684,405.933
549,11 Aug 2025 17:42:49.966,11 Aug 2025 17:45:42.420,172.454
550,11 Aug 2025 19:13:01.973,11 Aug 2025 19:24:30.455,688.483
551,11 Aug 2025 20:47:45.122,11 Aug 2025 20:56:24.569,519.447
552,12 Aug 2025 18:54:27.847,12 Aug 2025 19:05:33.343,665.496
553,12 Aug 2025 20:28:35.821,12 Aug 2025 20:38:31.605,595.784
554,13 Aug 2025 18:36:01.990,13 Aug 2025 18:46:22.442,620.452
555,13 Aug 2025 20:09:35.837,13 Aug 2025 20:20:23.129,647.292
556,14 Aug 2025 18:17:47.806,14 Aug 2025 18:26:54.203,546.397
557,14 Aug 2025 19:50:42.845,14 Aug 2025 20:02:01.734,678.889
558,14 Aug 2025 21:27:30.491,14 Aug 2025 21:30:49.695,199.204
559,15 Aug 2025 17:59:53.770,15 Aug 2025 18:06:59.934,426.164
560,15 Aug 2025 19:31:55.959,15 Aug 2025 19:43:28.527,692.568
561,15 Aug 2025 21:07:23.569,15 Aug 2025 21:14:07.837,404.267
562,16 Aug 2025 17:43:00.526,16 Aug 2025 17:45:58.600,178.074
563,16 Aug 2025 19:13:15.092,16 Aug 2025 19:24:43.729,688.637
564,16 Aug 2025 20:47:58.683,16 Aug 2025 20:56:37.053,518.369
565,17 Aug 2025 18:54:40.881,17 Aug 2025 19:05:46.768,665.886
566,17 Aug 2025 20:28:49.252,17 Aug 2025 20:38:44.297,595.044
567,18 Aug 2025 18:36:14.911,18 Aug 2025 18:46:36.043,621.132
568,18 Aug 2025 20:09:49.176,18 Aug 2025 20:20:35.984,646.808
569,19 Aug 2025 18:18:00.557,19 Aug 2025 18:27:08.041,547.484
570,19 Aug 2025 19:50:56.108,19 Aug 2025 20:02:14.732,678.624
571,19 Aug 2025 21:27:45.410,19 Aug 2025 21:31:00.662,195.253
572,20 Aug 2025 18:00:06.187,20 Aug 2025 18:07:14.179,427.992
573,20 Aug 2025 19:32:09.153,20 Aug 2025 19:43:41.662,692.509
574,20 Aug 2025 21:07:37.391,20 Aug 2025 21:14:19.985,402.593
575,21 Aug 2025 17:43:11.177,21 Aug 2025 17:46:14.685,183.508
576,21 Aug 2025 19:13:28.213,21 Aug 2025 19:24:57.001,688.788
577,21 Aug 2025 20:48:12.255,21 Aug 2025 20:56:49.536,517.281
578,22 Aug 2025 18:54:53.918,22 Aug 2025 19:06:00.189,666.271
579,22 Aug 2025 20:29:02.686,22 Aug 2025 20:38:56.987,594.302
580,23 Aug 2025 18:36:27.835,23 Aug 2025 18:46:49.643,621.807
581,23 Aug 2025 20:10:02.517,23 Aug 2025 20:20:48.839,646.321
582,24 Aug 2025 18:18:13.313,24 Aug 2025 18:27:21.878,548.565
583,24 Aug 2025 19:51:09.375,24 Aug 2025 20:02:27.731,678.356
584,24 Aug 2025 21:28:00.375,24 Aug 2025 21:31:11.586,191.211
585,25 Aug 2025 18:00:18.611,25 Aug 2025 18:07:28.417,429.806
586,25 Aug 2025 19:32:22.349,25 Aug 2025 19:43:54.796,692.447
587,25 Aug 2025 21:07:51.221,25 Aug 2025 21:14:32.127,400.907
588,26 Aug 2025 17:43:21.912,26 Aug 2025 17:46:30.690,188.778
589,26 Aug 2025 19:13:41.336,26 Aug 2025 19:25:10.274,688.937
590,26 Aug 2025 20:48:25.827,26 Aug 2025 20:57:02.015,516.189
591,27 Aug 2025 18:55:06.955,27 Aug 2025 19:06:13.611,666.656
592,27 Aug 2025 20:29:16.122,27 Aug 2025 20:39:09.676,593.555
593,28 Aug 2025 18:36:40.760,28 Aug 2025 18:47:03.241,622.480
594,28 Aug 2025 20:10:15.861,28 Aug 2025 20:21:01.692,645.831
595,29 Aug 2025 18:18:26.070,29 Aug 2025 18:27:35.712,549.642
596,29 Aug 2025 19:51:22.641,29 Aug 2025 20:02:40.727,678.086
597,29 Aug 2025 21:28:15.391,29 Aug 2025 21:31:22.457,187.066
598,30 Aug 2025 18:00:31.038,30 Aug 2025 18:07:42.650,431.612
599,30 Aug 2025 19:32:35.545,30 Aug 2025 19:44:07.928,692.383
600,30 Aug 2025 21:08:05.056,30 Aug 2025 21:14:44.263,399.207
601,31 Aug 2025 17:43:32.721,31 Aug 2025 17:46:46.616,193.896
602,31 Aug 2025 19:13:54.459,31 Aug 2025 19:25:23.543,689.084
603,31 Aug 2025 20:48:39.400,31 Aug 2025 20:57:14.490,515.090
604,1 Sep 2025 18:55:19.992,1 Sep 2025 19:06:27.030,667.038
605,1 Sep 2025 20:29:29.559,1 Sep 2025 20:39:22.362,592.804
606,2 Sep 2025 18:36:53.686,2 Sep 2025 18:47:16.835,623.149
607,2 Sep 2025 20:10:29.204,2 Sep 2025 20:21:14.542,645.338
608,3 Sep 2025 18:18:38.833,3 Sep 2025 18:27:49.541,550.708
609,3 Sep 2025 19:51:35.908,3 Sep 2025 20:02:53.721,677.813
610,3 Sep 2025 21:28:30.455,3 Sep 2025 21:31:33.279,182.825
611,4 Sep 2025 18:00:43.472,4 Sep 2025 18:07:56.876,433.405
612,4 Sep 2025 19:32:48.742,4 Sep 2025 19:44:21.059,692.316
613,4 Sep 2025 21:08:18.894,4 Sep 2025 21:14:56.393,397.499
614,5 Sep 2025 17:43:43.604,5 Sep 2025 17:47:02.470,198.866
615,5 Sep 2025 19:14:07.584,5 Sep 2025 19:25:36.811,689.228
616,5 Sep 2025 20:48:52.975,5 Sep 2025 20:57:26.962,513.987
617,6 Sep 2025 18:55:33.032,6 Sep 2025 19:06:40.449,667.417
618,6 Sep 2025 20:29:42.997,6 Sep 2025 20:39:35.047,592.050
619,7 Sep 2025 18:37:06.615,7 Sep 2025 18:47:30.429,623.814
620,7 Sep 2025 20:10:42.550,7 Sep 2025 20:21:27.391,644.842
621,8 Sep 2025 18:18:51.596,8 Sep 2025 18:28:03.369,551.773
622,8 Sep 2025 19:51:49.178,8 Sep 2025 20:03:06.715,677.537
623,8 Sep 2025 21:28:45.574,8 Sep 2025 21:31:44.048,178.474
624,9 Sep 2025 18:00:55.912,9 Sep 2025 18:08:11.096,435.184
625,9 Sep 2025 19:33:01.942,9 Sep 2025 19:44:34.189,692.247
626,9 Sep 2025 21:08:32.740,9 Sep 2025 21:15:08.523,395.782
627,10 Sep 2025 17:43:54.550,10 Sep 2025 17:47:18.260,203.710
628,10 Sep 2025 19:14:20.710,10 Sep 2025 19:25:50.079,689.370
629,10 Sep 2025 20:49:06.555,10 Sep 2025 20:57:39.432,512.877
630,11 Sep 2025 18:55:46.075,11 Sep 2025 19:06:53.866,667.791
631,11 Sep 2025 20:29:56.439,11 Sep 2025 20:39:47.729,591.290
632,12 Sep 2025 18:37:19.545,12 Sep 2025 18:47:44.021,624.476
633,12 Sep 2025 20:10:55.897,12 Sep 2025 20:21:40.239,644.342
634,13 Sep 2025 18:19:04.359,13 Sep 2025 18:28:17.193,552.834
635,13 Sep 2025 19:52:02.448,13 Sep 2025 20:03:19.707,677.259
636,13 Sep 2025 21:29:00.755,13 Sep 2025 21:31:54.752,173.997
637,14 Sep 2025 18:01:08.356,14 Sep 2025 18:08:25.311,436.955
638,14 Sep 2025 19:33:15.138,14 Sep 2025 19:44:47.316,692.178
639,14 Sep 2025 21:08:46.592,14 Sep 2025 21:15:20.640,394.048
640,15 Sep 2025 17:44:05.556,15 Sep 2025 17:47:33.987,208.430
641,15 Sep 2025 19:14:33.835,15 Sep 2025 19:26:03.344,689.509
642,15 Sep 2025 20:49:20.136,15 Sep 2025 20:57:51.898,511.762
643,16 Sep 2025 18:55:59.116,16 Sep 2025 19:07:07.280,668.165
644,16 Sep 2025 20:30:09.880,16 Sep 2025 20:40:00.408,590.528
645,17 Sep 2025 18:37:32.476,17 Sep 2025 18:47:57.610,625.134
646,17 Sep 2025 20:11:09.244,17 Sep 2025 20:21:53.084,643.840
647,18 Sep 2025 18:19:17.125,18 Sep 2025 18:28:31.014,553.889
648,18 Sep 2025 19:52:15.719,18 Sep 2025 20:03:32.697,676.978
649,18 Sep 2025 21:29:15.995,18 Sep 2025 21:32:05.398,169.403
650,19 Sep 2025 18:01:20.807,19 Sep 2025 18:08:39.519,438.712
651,19 Sep 2025 19:33:28.339,19 Sep 2025 19:45:00.443,692.104
652,19 Sep 2025 21:09:00.448,19 Sep 2025 21:15:32.753,392.305
653,20 Sep 2025 17:44:16.623,20 Sep 2025 17:47:49.656,213.033
654,20 Sep 2025 19:14:46.963,20 Sep 2025 19:26:16.609,689.646
655,20 Sep 2025 20:49:33.720,20 Sep 2025 20:58:04.362,510.642
656,21 Sep 2025 18:56:12.159,21 Sep 2025 19:07:20.694,668.535
657,21 Sep 2025 20:30:23.325,21 Sep 2025 20:40:13.086,589.761
658,22 Sep 2025 18:37:45.410,22 Sep 2025 18:48:11.198,625.788
659,22 Sep 2025 20:11:22.595,22 Sep 2025 20:22:05.930,643.335
660,23 Sep 2025 18:19:29.894,23 Sep 2025 18:28:44.834,554.939
661,23 Sep 2025 19:52:28.992,23 Sep 2025 20:03:45.687,676.695
662,23 Sep 2025 21:29:31.308,23 Sep 2025 21:32:15.972,164.664
663,24 Sep 2025 18:01:33.264,24 Sep 2025 18:08:53.723,440.459
664,24 Sep 2025 19:33:41.542,24 Sep 2025 19:45:13.569,692.027
665,24 Sep 2025 21:09:14.312,24 Sep 2025 21:15:44.859,390.547
666,25 Sep 2025 17:44:27.739,25 Sep 2025 17:48:05.275,217.536
667,25 Sep 2025 19:15:00.093,25 Sep 2025 19:26:29.873,689.780
668,25 Sep 2025 20:49:47.308,25 Sep 2025 20:58:16.823,509.515
669,26 Sep 2025 18:56:25.204,26 Sep 2025 19:07:34.107,668.903
670,26 Sep 2025 20:30:36.772,26 Sep 2025 20:40:25.762,588.990
671,27 Sep 2025 18:37:58.345,27 Sep 2025 18:48:24.784,626.440
672,27 Sep 2025 20:11:35.943,27 Sep 2025 20:22:18.773,642.829
673,28 Sep 2025 18:19:42.665,28 Sep 2025 18:28:58.650,555.985
674,28 Sep 2025 19:52:42.266,28 Sep 2025 20:03:58.675,676.408
675,28 Sep 2025 21:29:46.699,28 Sep 2025 21:32:26.469,159.769
676,29 Sep 2025 18:01:45.725,29 Sep 2025 18:09:07.914,442.189
677,29 Sep 2025 19:33:54.745,29 Sep 2025 19:45:26.693,691.948
678,29 Sep 2025 21:09:28.182,29 Sep 2025 21:15:56.959,388.777
679,30 Sep 2025 17:44:38.906,30 Sep 2025 17:48:20.840,221.934
680,30 Sep 2025 19:15:13.223,30 Sep 2025 19:26:43.135,689.912
681,30 Sep 2025 20:50:00.898,30 Sep 2025 20:58:29.280,508.383
682,1 Oct 2025 18:56:38.249,1 Oct 2025 19:07:47.512,669.263
683,1 Oct 2025 20:30:50.220,1 Oct 2025 20:40:38.435,588.216
684,2 Oct 2025 18:38:11.282,2 Oct 2025 18:48:38.368,627.086
685,2 Oct 2025 20:11:49.295,2 Oct 2025 20:22:31.611,642.315
686,3 Oct 2025 18:19:55.442,3 Oct 2025 18:29:12.466,557.024
687,3 Oct 2025 19:52:55.545,3 Oct 2025 20:04:11.661,676.115
688,3 Oct 2025 21:30:02.169,3 Oct 2025 21:32:36.886,154.718
689,4 Oct 2025 18:01:58.197,4 Oct 2025 18:09:22.109,443.912
690,4 Oct 2025 19:34:07.952,4 Oct 2025 19:45:39.817,691.865
691,4 Oct 2025 21:09:42.055,4 Oct 2025 21:16:09.054,386.999
692,5 Oct 2025 17:44:50.123,5 Oct 2025 17:48:36.358,226.235
693,5 Oct 2025 19:15:26.355,5 Oct 2025 19:26:56.396,690.041
694,5 Oct 2025 20:50:14.490,5 Oct 2025 20:58:41.736,507.246
695,6 Oct 2025 18:56:51.298,6 Oct 2025 19:08:00.925,669.627
696,6 Oct 2025 20:31:03.670,6 Oct 2025 20:40:51.109,587.438
697,7 Oct 2025 18:38:24.226,7 Oct 2025 18:48:51.951,627.726
698,7 Oct 2025 20:12:02.650,7 Oct 2025 20:22:44.451,641.801
699,8 Oct 2025 18:20:08.217,8 Oct 2025 18:29:26.276,558.059
700,8 Oct 2025 19:53:08.819,8 Oct 2025 20:04:24.648,675.829
701,8 Oct 2025 21:30:17.726,8 Oct 2025 21:32:47.214,149.487
702,9 Oct 2025 18:02:10.670,9 Oct 2025 18:09:36.291,445.620
703,9 Oct 2025 19:34:21.156,9 Oct 2025 19:45:52.940,691.784
704,9 Oct 2025 21:09:55.939,9 Oct 2025 21:16:21.142,385.202
705,10 Oct 2025 17:45:01.381,10 Oct 2025 17:48:51.833,230.452
706,10 Oct 2025 19:15:39.488,10 Oct 2025 19:27:09.656,690.168
707,10 Oct 2025 20:50:28.087,10 Oct 2025 20:58:54.188,506.101
708,11 Oct 2025 18:57:04.347,11 Oct 2025 19:08:14.330,669.983
709,11 Oct 2025 20:31:17.123,11 Oct 2025 20:41:03.779,586.655
710,12 Oct 2025 18:38:37.163,12 Oct 2025 18:49:05.532,628.369
711,12 Oct 2025 20:12:16.006,12 Oct 2025 20:22:57.289,641.283
712,13 Oct 2025 18:20:20.996,13 Oct 2025 18:29:40.084,559.088
713,13 Oct 2025 19:53:22.097,13 Oct 2025 20:04:37.631,675.535
714,13 Oct 2025 21:30:33.387,13 Oct 2025 21:32:57.437,144.050
715,14 Oct 2025 18:02:23.148,14 Oct 2025 18:09:50.469,447.321
716,14 Oct 2025 19:34:34.363,14 Oct 2025 19:46:06.061,691.698
717,14 Oct 2025 21:10:09.826,14 Oct 2025 21:16:33.223,383.396
718,15 Oct 2025 17:45:12.684,15 Oct 2025 17:49:07.263,234.579
719,15 Oct 2025 19:15:52.622,15 Oct 2025 19:27:22.911,690.289
720,15 Oct 2025 20:50:41.685,15 Oct 2025 20:59:06.637,504.952
721,16 Oct 2025 18:57:17.397,16 Oct 2025 19:08:27.736,670.339
722,16 Oct 2025 20:31:30.577,16 Oct 2025 20:41:16.447,585.871
723,17 Oct 2025 18:38:50.105,17 Oct 2025 18:49:19.111,629.006
724,17 Oct 2025 20:12:29.363,17 Oct 2025 20:23:10.126,640.763
725,18 Oct 2025 18:20:33.784,18 Oct 2025 18:29:53.890,560.105
726,18 Oct 2025 19:53:35.376,18 Oct 2025 20:04:50.615,675.239
727,18 Oct 2025 21:30:49.157,18 Oct 2025 21:33:07.555,138.398
728,19 Oct 2025 18:02:35.634,19 Oct 2025 18:10:04.644,449.010
729,19 Oct 2025 19:34:47.572,19 Oct 2025 19:46:19.182,691.610
730,19 Oct 2025 21:10:23.720,19 Oct 2025 21:16:45.299,381.579
731,20 Oct 2025 17:45:24.028,20 Oct 2025 17:49:22.654,238.626
732,20 Oct 2025 19:16:05.758,20 Oct 2025 19:27:36.169,690.411
733,20 Oct 2025 20:50:55.288,20 Oct 2025 20:59:19.085,503.797
734,21 Oct 2025 18:57:30.450,21 Oct 2025 19:08:41.142,670.692
735,21 Oct 2025 20:31:44.034,21 Oct 2025 20:41:29.116,585.081
736,22 Oct 2025 18:39:03.055,22 Oct 2025 18:49:32.690,629.635
737,22 Oct 2025 20:12:42.723,22 Oct 2025 20:23:22.965,640.242
738,23 Oct 2025 18:20:46.570,23 Oct 2025 18:30:07.694,561.124
739,23 Oct 2025 19:53:48.659,23 Oct 2025 20:05:03.593,674.935
740,23 Oct 2025 21:31:05.062,23 Oct 2025 21:33:17.542,132.480
741,24 Oct 2025 18:02:48.124,24 Oct 2025 18:10:18.814,450.690
742,24 Oct 2025 19:35:00.783,24 Oct 2025 19:46:32.301,691.518
743,24 Oct 2025 21:10:37.623,24 Oct 2025 21:16:57.369,379.746
744,25 Oct 2025 17:45:35.408,25 Oct 2025 17:49:38.008,242.600
745,25 Oct 2025 19:16:18.896,25 Oct 2025 19:27:49.426,690.530
746,25 Oct 2025 20:51:08.894,25 Oct 2025 20:59:31.534,502.640
747,26 Oct 2025 18:57:43.504,26 Oct 2025 19:08:54.547,671.043
748,26 Oct 2025 20:31:57.498,26 Oct 2025 20:41:41.781,584.283
749,27 Oct 2025 18:39:15.997,27 Oct 2025 18:49:46.266,630.268
750,27 Oct 2025 20:12:56.084,27 Oct 2025 20:23:35.802,639.718
751,28 Oct 2025 18:20:59.359,28 Oct 2025 18:30:21.493,562.134
752,28 Oct 2025 19:54:01.941,28 Oct 2025 20:05:16.574,674.633
753,28 Oct 2025 21:31:21.103,28 Oct 2025 21:33:27.386,126.283
754,29 Oct 2025 18:03:00.619,29 Oct 2025 18:10:32.977,452.358
755,29 Oct 2025 19:35:13.994,29 Oct 2025 19:46:45.419,691.425
756,29 Oct 2025 21:10:51.529,29 Oct 2025 21:17:09.431,377.902
757,30 Oct 2025 17:45:46.826,30 Oct 2025 17:49:53.322,246.495
758,30 Oct 2025 19:16:32.035,30 Oct 2025 19:28:02.681,690.647
759,30 Oct 2025 20:51:22.501,30 Oct 2025 20:59:43.975,501.474
760,31 Oct 2025 18:57:56.559,31 Oct 2025 19:09:07.949,671.390
761,31 Oct 2025 20:32:10.958,31 Oct 2025 20:41:54.445,583.487
762,1 Nov 2025 18:39:28.946,1 Nov 2025 18:49:59.840,630.894
763,1 Nov 2025 20:13:09.446,1 Nov 2025 20:23:48.636,639.190
764,2 Nov 2025 18:21:12.151,2 Nov 2025 18:30:35.291,563.140
765,2 Nov 2025 19:54:15.225,2 Nov 2025 20:05:29.554,674.329
766,2 Nov 2025 21:31:37.305,2 Nov 2025 21:33:37.069,119.764
767,3 Nov 2025 18:03:13.122,3 Nov 2025 18:10:47.135,454.014
768,3 Nov 2025 19:35:27.208,3 Nov 2025 19:46:58.536,691.328
769,3 Nov 2025 21:11:05.442,3 Nov 2025 21:17:21.489,376.047
770,4 Nov 2025 17:45:58.281,4 Nov 2025 17:50:08.603,250.321
771,4 Nov 2025 19:16:45.176,4 Nov 2025 19:28:15.937,690.761
772,4 Nov 2025 20:51:36.112,4 Nov 2025 20:59:56.415,500.302
773,5 Nov 2025 18:58:09.618,5 Nov 2025 19:09:21.357,671.739
774,5 Nov 2025 20:32:24.421,5 Nov 2025 20:42:07.113,582.691
775,6 Nov 2025 18:39:41.898,6 Nov 2025 18:50:13.411,631.513
776,6 Nov 2025 20:13:22.812,6 Nov 2025 20:24:01.469,638.657
777,7 Nov 2025 18:21:24.946,7 Nov 2025 18:30:49.088,564.142
778,7 Nov 2025 19:54:28.512,7 Nov 2025 20:05:42.534,674.022
779,7 Nov 2025 21:31:53.713,7 Nov 2025 21:33:46.550,112.837
780,8 Nov 2025 18:03:25.628,8 Nov 2025 18:11:01.290,455.662
781,8 Nov 2025 19:35:40.422,8 Nov 2025 19:47:11.652,691.230
782,8 Nov 2025 21:11:19.363,8 Nov 2025 21:17:33.539,374.176
783,9 Nov 2025 17:46:09.766,9 Nov 2025 17:50:23.851,254.085
784,9 Nov 2025 19:16:58.317,9 Nov 2025 19:28:29.190,690.873
785,9 Nov 2025 20:51:49.727,9 Nov 2025 21:00:08.850,499.123
786,10 Nov 2025 18:58:22.676,10 Nov 2025 19:09:34.757,672.081
787,10 Nov 2025 20:32:37.886,10 Nov 2025 20:42:19.772,581.887
788,11 Nov 2025 18:39:54.850,11 Nov 2025 18:50:26.981,632.131
789,11 Nov 2025 20:13:36.177,11 Nov 2025 20:24:14.299,638.123
790,12 Nov 2025 18:21:37.742,12 Nov 2025 18:31:02.879,565.136
791,12 Nov 2025 19:54:41.799,12 Nov 2025 20:05:55.511,673.712
792,12 Nov 2025 21:32:10.344,12 Nov 2025 21:33:55.805,105.461
793,13 Nov 2025 18:03:38.141,13 Nov 2025 18:11:15.436,457.296
794,13 Nov 2025 19:35:53.638,13 Nov 2025 19:47:24.765,691.127
795,13 Nov 2025 21:11:33.286,13 Nov 2025 21:17:45.584,372.297
796,14 Nov 2025 17:46:21.287,14 Nov 2025 17:50:39.065,257.778
797,14 Nov 2025 19:17:11.461,14 Nov 2025 19:28:42.442,690.982
798,14 Nov 2025 20:52:03.343,14 Nov 2025 21:00:21.284,497.941
799,15 Nov 2025 18:58:35.737,15 Nov 2025 19:09:48.156,672.419
800,15 Nov 2025 20:32:51.352,15 Nov 2025 20:42:32.432,581.080
801,16 Nov 2025 18:40:07.806,16 Nov 2025 18:50:40.551,632.746
802,16 Nov 2025 20:13:49.544,16 Nov 2025 20:24:27.130,637.586
803,17 Nov 2025 18:21:50.544,17 Nov 2025 18:31:16.670,566.126
804,17 Nov 2025 19:54:55.088,17 Nov 2025 20:06:08.489,673.401
805,17 Nov 2025 21:32:27.259,17 Nov 2025 21:34:04.778,97.518
806,18 Nov 2025 18:03:50.656,18 Nov 2025 18:11:29.584,458.928
807,18 Nov 2025 19:36:06.859,18 Nov 2025 19:47:37.879,691.020
808,18 Nov 2025 21:11:47.219,18 Nov 2025 21:17:57.623,370.403
809,19 Nov 2025 17:46:32.838,19 Nov 2025 17:50:54.251,261.413
810,19 Nov 2025 19:17:24.607,19 Nov 2025 19:28:55.695,691.088
811,19 Nov 2025 20:52:16.963,19 Nov 2025 21:00:33.715,496.752
812,20 Nov 2025 18:58:48.800,20 Nov 2025 19:10:01.555,672.755
813,20 Nov 2025 20:33:04.822,20 Nov 2025 20:42:45.090,580.268
814,21 Nov 2025 18:40:20.763,21 Nov 2025 18:50:54.120,633.357
815,21 Nov 2025 20:14:02.914,21 Nov 2025 20:24:39.959,637.045
816,22 Nov 2025 18:22:03.348,22 Nov 2025 18:31:30.459,567.112
817,22 Nov 2025 19:55:08.379,22 Nov 2025 20:06:21.465,673.086
818,22 Nov 2025 21:32:44.541,22 Nov 2025 21:34:13.384,88.843
819,23 Nov 2025 18:04:03.179,23 Nov 2025 18:11:43.723,460.543
820,23 Nov 2025 19:36:20.078,23 Nov 2025 19:47:50.992,690.914
821,23 Nov 2025 21:12:01.160,23 Nov 2025 21:18:09.654,368.493
822,24 Nov 2025 17:46:44.418,24 Nov 2025 17:51:09.407,264.990
823,24 Nov 2025 19:17:37.753,24 Nov 2025 19:29:08.945,691.192
824,24 Nov 2025 20:52:30.586,24 Nov 2025 21:00:46.143,495.557
825,25 Nov 2025 18:59:01.864,25 Nov 2025 19:10:14.952,673.088
826,25 Nov 2025 20:33:18.292,25 Nov 2025 20:42:57.745,579.454
827,26 Nov 2025 18:40:33.727,26 Nov 2025 18:51:07.686,633.959
828,26 Nov 2025 20:14:16.284,26 Nov 2025 20:24:52.786,636.502
829,27 Nov 2025 18:22:16.154,27 Nov 2025 18:31:44.245,568.091
830,27 Nov 2025 19:55:21.670,27 Nov 2025 20:06:34.439,672.770
831,27 Nov 2025 21:33:02.292,27 Nov 2025 21:34:21.517,79.225
832,28 Nov 2025 18:04:15.709,28 Nov 2025 18:11:57.854,462.145
833,28 Nov 2025 19:36:33.298,28 Nov 2025 19:48:04.103,690.806
834,28 Nov 2025 21:12:15.106,28 Nov 2025 21:18:21.679,366.573
835,29 Nov 2025 17:46:56.028,29 Nov 2025 17:51:24.533,268.505
836,29 Nov 2025 19:17:50.901,29 Nov 2025 19:29:22.194,691.293
837,29 Nov 2025 20:52:44.211,29 Nov 2025 21:00:58.569,494.358
838,30 Nov 2025 18:59:14.930,30 Nov 2025 19:10:28.347,673.417
839,30 Nov 2025 20:33:31.763,30 Nov 2025 20:43:10.399,578.636
840,1 Dec 2025 18:40:46.688,1 Dec 2025 18:51:21.251,634.563
841,1 Dec 2025 20:14:29.656,1 Dec 2025 20:25:05.613,635.957
842,2 Dec 2025 18:22:28.965,2 Dec 2025 18:31:58.029,569.064
843,2 Dec 2025 19:55:34.963,2 Dec 2025 20:06:47.414,672.450
844,2 Dec 2025 21:33:20.721,2 Dec 2025 21:34:28.972,68.251
845,3 Dec 2025 18:04:28.245,3 Dec 2025 18:12:11.978,463.733
846,3 Dec 2025 19:36:46.521,3 Dec 2025 19:48:17.216,690.696
847,3 Dec 2025 21:12:29.062,3 Dec 2025 21:18:33.698,364.637
848,4 Dec 2025 17:47:07.666,4 Dec 2025 17:51:39.635,271.969
849,4 Dec 2025 19:18:04.051,4 Dec 2025 19:29:35.443,691.392
850,4 Dec 2025 20:52:57.840,4 Dec 2025 21:01:10.993,493.153
851,5 Dec 2025 18:59:27.999,5 Dec 2025 19:10:41.743,673.744
852,5 Dec 2025 20:33:45.239,5 Dec 2025 20:43:23.052,577.814
853,6 Dec 2025 18:40:59.649,6 Dec 2025 18:51:34.815,635.166
854,6 Dec 2025 20:14:43.030,6 Dec 2025 20:25:18.438,635.408
855,7 Dec 2025 18:22:41.777,7 Dec 2025 18:32:11.810,570.033
856,7 Dec 2025 19:55:48.258,7 Dec 2025 20:07:00.388,672.130
857,7 Dec 2025 21:33:40.246,7 Dec 2025 21:34:35.339,55.092
858,8 Dec 2025 18:04:40.785,8 Dec 2025 18:12:26.101,465.316
859,8 Dec 2025 19:36:59.743,8 Dec 2025 19:48:30.326,690.582
860,8 Dec 2025 21:12:43.022,8 Dec 2025 21:18:45.709,362.687
861,9 Dec 2025 17:47:19.328,9 Dec 2025 17:51:54.713,275.384
862,9 Dec 2025 19:18:17.201,9 Dec 2025 19:29:48.689,691.488
863,9 Dec 2025 20:53:11.468,9 Dec 2025 21:01:23.411,491.943
864,10 Dec 2025 18:59:41.067,10 Dec 2025 19:10:55.135,674.068
865,10 Dec 2025 20:33:58.714,10 Dec 2025 20:43:35.702,576.989
866,11 Dec 2025 18:41:12.618,11 Dec 2025 18:51:48.376,635.758
867,11 Dec 2025 20:14:56.404,11 Dec 2025 20:25:31.261,634.857
868,12 Dec 2025 18:22:54.593,12 Dec 2025 18:32:25.588,570.995
869,12 Dec 2025 19:56:01.553,12 Dec 2025 20:07:13.359,671.806
870,12 Dec 2025 21:34:01.923,12 Dec 2025 21:34:39.548,37.626
871,13 Dec 2025 18:04:53.332,13 Dec 2025 18:12:40.218,466.885
872,13 Dec 2025 19:37:12.968,13 Dec 2025 19:48:43.435,690.467
873,13 Dec 2025 21:12:56.986,13 Dec 2025 21:18:57.715,360.729
874,14 Dec 2025 17:47:31.020,14 Dec 2025 17:52:09.760,278.740
875,14 Dec 2025 19:18:30.354,14 Dec 2025 19:30:01.935,691.582
876,14 Dec 2025 20:53:25.101,14 Dec 2025 21:01:35.830,490.728
877,15 Dec 2025 18:59:54.139,15 Dec 2025 19:11:08.527,674.388
878,15 Dec 2025 20:34:12.191,15 Dec 2025 20:43:48.352,576.161
879,16 Dec 2025 18:41:25.583,16 Dec 2025 18:52:01.937,636.354
880,16 Dec 2025 20:15:09.781,16 Dec 2025 20:25:44.084,634.303
881,17 Dec 2025 18:23:07.413,17 Dec 2025 18:32:39.364,571.952
882,17 Dec 2025 19:56:14.850,17 Dec 2025 20:07:26.332,671.482
883,18 Dec 2025 18:05:05.885,18 Dec 2025 18:12:54.331,468.446
884,18 Dec 2025 19:37:26.194,18 Dec 2025 19:48:56.543,690.349
885,18 Dec 2025 21:13:10.958,18 Dec 2025 21:19:09.714,358.756
886,19 Dec 2025 17:47:42.736,19 Dec 2025 17:52:24.785,282.049
887,19 Dec 2025 19:18:43.508,19 Dec 2025 19:30:15.181,691.673
888,19 Dec 2025 20:53:38.738,19 Dec 2025 21:01:48.245,489.507
889,20 Dec 2025 19:00:07.212,20 Dec 2025 19:11:21.918,674.706
890,20 Dec 2025 20:34:25.671,20 Dec 2025 20:44:00.999,575.328
891,21 Dec 2025 18:41:38.553,21 Dec 2025 18:52:15.495,636.942
892,21 Dec 2025 20:15:23.158,21 Dec 2025 20:25:56.905,633.746
893,22 Dec 2025 18:23:20.234,22 Dec 2025 18:32:53.137,572.903
894,22 Dec 2025 19:56:28.148,22 Dec 2025 20:07:39.301,671.153
895,23 Dec 2025 18:05:18.442,23 Dec 2025 18:13:08.438,469.996
896,23 Dec 2025 19:37:39.421,23 Dec 2025 19:49:09.649,690.228
897,23 Dec 2025 21:13:24.937,23 Dec 2025 21:19:21.705,356.768
898,24 Dec 2025 17:47:54.475,24 Dec 2025 17:52:39.784,285.309
899,24 Dec 2025 19:18:56.663,24 Dec 2025 19:30:28.424,691.761
900,24 Dec 2025 20:53:52.374,24 Dec 2025 21:02:00.656,488.283
901,25 Dec 2025 19:00:20.286,25 Dec 2025 19:11:35.306,675.021
902,25 Dec 2025 20:34:39.151,25 Dec 2025 20:44:13.644,574.494
903,26 Dec 2025 18:41:51.529,26 Dec 2025 18:52:29.050,637.521
904,26 Dec 2025 20:15:36.536,26 Dec 2025 20:26:09.723,633.187
905,27 Dec 2025 18:23:33.059,27 Dec 2025 18:33:06.907,573.848
906,27 Dec 2025 19:56:41.447,27 Dec 2025 20:07:52.269,670.822
907,28 Dec 2025 18:05:31.005,28 Dec 2025 18:13:22.539,471.534
908,28 Dec 2025 19:37:52.649,28 Dec 2025 19:49:22.755,690.106
909,28 Dec 2025 21:13:38.921,28 Dec 2025 21:19:33.691,354.770
910,29 Dec 2025 17:48:06.240,29 Dec 2025 17:52:54.759,288.519
911,29 Dec 2025 19:19:09.820,29 Dec 2025 19:30:41.666,691.847
912,29 Dec 2025 20:54:06.014,29 Dec 2025 21:02:13.066,487.053
913,30 Dec 2025 19:00:33.362,30 Dec 2025 19:11:48.695,675.332
914,30 Dec 2025 20:34:52.633,30 Dec 2025 20:44:26.289,573.656
915,31 Dec 2025 18:42:04.500,31 Dec 2025 18:52:42.605,638.106
916,31 Dec 2025 20:15:49.917,31 Dec 2025 20:26:22.542,632.626

Global Statistics
"Min Duration",870,12 Dec 2025 21:34:01.923,12 Dec 2025 21:34:39.548,37.626
"Max Duration",257,17 Apr 2025 19:26:39.491,17 Apr 2025 19:38:12.753,693.263
"Mean Duration",,,,541.947
"Total Duration",,,,496423.754


