3UCubedIntegratedSim/Reports & Plots/Comms/SSU/Sat13 Comms.csv

"Access","Start Time (UTCG)","Stop Time (UTCG)","Duration (sec)"
1,1 Jan 2025 19:45:07.338,1 Jan 2025 19:48:59.918,232.579
2,1 Jan 2025 21:15:46.388,1 Jan 2025 21:27:16.617,690.229
3,1 Jan 2025 22:50:35.222,1 Jan 2025 22:59:00.736,505.514
4,2 Jan 2025 20:57:11.204,2 Jan 2025 21:08:21.371,670.167
5,2 Jan 2025 22:31:24.185,2 Jan 2025 22:41:10.440,586.255
6,3 Jan 2025 20:38:43.967,3 Jan 2025 20:49:12.662,628.695
7,3 Jan 2025 22:12:23.019,3 Jan 2025 22:23:04.036,641.017
8,4 Jan 2025 20:20:27.720,4 Jan 2025 20:29:47.331,559.611
9,4 Jan 2025 21:53:29.071,4 Jan 2025 22:04:44.454,675.383
10,4 Jan 2025 23:30:41.607,4 Jan 2025 23:33:02.816,141.210
11,5 Jan 2025 20:02:29.721,5 Jan 2025 20:09:57.905,448.184
12,5 Jan 2025 21:34:41.302,5 Jan 2025 21:46:12.954,691.653
13,5 Jan 2025 23:10:17.107,5 Jan 2025 23:16:39.583,382.476
14,6 Jan 2025 19:45:18.674,6 Jan 2025 19:49:15.323,236.650
15,6 Jan 2025 21:15:59.525,6 Jan 2025 21:27:29.875,690.351
16,6 Jan 2025 22:50:48.819,6 Jan 2025 22:59:13.187,504.367
17,7 Jan 2025 20:57:24.259,7 Jan 2025 21:08:34.777,670.518
18,7 Jan 2025 22:31:37.638,7 Jan 2025 22:41:23.109,585.471
19,8 Jan 2025 20:38:56.913,8 Jan 2025 20:49:26.240,629.327
20,8 Jan 2025 22:12:36.376,8 Jan 2025 22:23:16.877,640.500
21,9 Jan 2025 20:20:40.514,9 Jan 2025 20:30:01.135,560.621
22,9 Jan 2025 21:53:42.351,9 Jan 2025 22:04:57.439,675.087
23,9 Jan 2025 23:30:57.419,9 Jan 2025 23:33:12.891,135.472
24,10 Jan 2025 20:02:42.216,10 Jan 2025 20:10:12.075,449.860
25,10 Jan 2025 21:34:54.512,10 Jan 2025 21:46:26.076,691.563
26,10 Jan 2025 23:10:30.999,10 Jan 2025 23:16:51.662,380.663
27,11 Jan 2025 19:45:30.049,11 Jan 2025 19:49:30.688,240.639
28,11 Jan 2025 21:16:12.664,11 Jan 2025 21:27:43.134,690.470
29,11 Jan 2025 22:51:02.420,11 Jan 2025 22:59:25.641,503.221
30,12 Jan 2025 20:57:37.315,12 Jan 2025 21:08:48.183,670.868
31,12 Jan 2025 22:31:51.095,12 Jan 2025 22:41:35.779,584.684
32,13 Jan 2025 20:39:09.863,13 Jan 2025 20:49:39.818,629.955
33,13 Jan 2025 22:12:49.736,13 Jan 2025 22:23:29.717,639.981
34,14 Jan 2025 20:20:53.306,14 Jan 2025 20:30:14.935,561.630
35,14 Jan 2025 21:53:55.633,14 Jan 2025 22:05:10.417,674.783
36,14 Jan 2025 23:31:13.369,14 Jan 2025 23:33:22.828,129.459
37,15 Jan 2025 20:02:54.714,15 Jan 2025 20:10:26.240,451.526
38,15 Jan 2025 21:35:07.724,15 Jan 2025 21:46:39.194,691.471
39,15 Jan 2025 23:10:44.897,15 Jan 2025 23:17:03.733,378.836
40,16 Jan 2025 19:45:41.459,16 Jan 2025 19:49:46.015,244.556
41,16 Jan 2025 21:16:25.802,16 Jan 2025 21:27:56.390,690.588
42,16 Jan 2025 22:51:16.022,16 Jan 2025 22:59:38.086,502.063
43,17 Jan 2025 20:57:50.370,17 Jan 2025 21:09:01.585,671.215
44,17 Jan 2025 22:32:04.556,17 Jan 2025 22:41:48.444,583.889
45,18 Jan 2025 20:39:22.813,18 Jan 2025 20:49:53.391,630.579
46,18 Jan 2025 22:13:03.095,18 Jan 2025 22:23:42.551,639.456
47,19 Jan 2025 20:21:06.099,19 Jan 2025 20:30:28.732,562.633
48,19 Jan 2025 21:54:08.915,19 Jan 2025 22:05:23.397,674.482
49,19 Jan 2025 23:31:29.461,19 Jan 2025 23:33:32.617,123.156
50,20 Jan 2025 20:03:07.218,20 Jan 2025 20:10:40.397,453.179
51,20 Jan 2025 21:35:20.935,20 Jan 2025 21:46:52.311,691.376
52,20 Jan 2025 23:10:58.799,20 Jan 2025 23:17:15.798,376.999
53,21 Jan 2025 19:45:52.908,21 Jan 2025 19:50:01.302,248.394
54,21 Jan 2025 21:16:38.942,21 Jan 2025 21:28:09.644,690.702
55,21 Jan 2025 22:51:29.626,21 Jan 2025 22:59:50.528,500.903
56,22 Jan 2025 20:58:03.428,22 Jan 2025 21:09:14.991,671.563
57,22 Jan 2025 22:32:18.013,22 Jan 2025 22:42:01.114,583.101
58,23 Jan 2025 20:39:35.766,23 Jan 2025 20:50:06.964,631.198
59,23 Jan 2025 22:13:16.456,23 Jan 2025 22:23:55.385,638.929
60,24 Jan 2025 20:21:18.897,24 Jan 2025 20:30:42.528,563.631
61,24 Jan 2025 21:54:22.199,24 Jan 2025 22:05:36.377,674.178
62,24 Jan 2025 23:31:45.729,24 Jan 2025 23:33:42.232,116.502
63,25 Jan 2025 20:03:19.729,25 Jan 2025 20:10:54.550,454.821
64,25 Jan 2025 21:35:34.149,25 Jan 2025 21:47:05.428,691.279
65,25 Jan 2025 23:11:12.706,25 Jan 2025 23:17:27.858,375.152
66,26 Jan 2025 19:46:04.390,26 Jan 2025 19:50:16.557,252.167
67,26 Jan 2025 21:16:52.084,26 Jan 2025 21:28:22.898,690.814
68,26 Jan 2025 22:51:43.233,26 Jan 2025 23:00:02.969,499.736
69,27 Jan 2025 20:58:16.488,27 Jan 2025 21:09:28.392,671.904
70,27 Jan 2025 22:32:31.473,27 Jan 2025 22:42:13.777,582.303
71,28 Jan 2025 20:39:48.720,28 Jan 2025 20:50:20.532,631.812
72,28 Jan 2025 22:13:29.819,28 Jan 2025 22:24:08.217,638.399
73,29 Jan 2025 20:21:31.695,29 Jan 2025 20:30:56.318,564.623
74,29 Jan 2025 21:54:35.484,29 Jan 2025 22:05:49.355,673.871
75,29 Jan 2025 23:32:02.209,29 Jan 2025 23:33:51.638,109.429
76,30 Jan 2025 20:03:32.243,30 Jan 2025 20:11:08.696,456.453
77,30 Jan 2025 21:35:47.363,30 Jan 2025 21:47:18.541,691.178
78,30 Jan 2025 23:11:26.618,30 Jan 2025 23:17:39.909,373.291
79,31 Jan 2025 19:46:15.903,31 Jan 2025 19:50:31.780,255.877
80,31 Jan 2025 21:17:05.226,31 Jan 2025 21:28:36.149,690.924
81,31 Jan 2025 22:51:56.842,31 Jan 2025 23:00:15.405,498.563
82,1 Feb 2025 20:58:29.548,1 Feb 2025 21:09:41.789,672.242
83,1 Feb 2025 22:32:44.934,1 Feb 2025 22:42:26.436,581.503
84,2 Feb 2025 20:40:01.674,2 Feb 2025 20:50:34.099,632.425
85,2 Feb 2025 22:13:43.181,2 Feb 2025 22:24:21.047,637.866
86,3 Feb 2025 20:21:44.496,3 Feb 2025 20:31:10.106,565.610
87,3 Feb 2025 21:54:48.769,3 Feb 2025 22:06:02.331,673.562
88,3 Feb 2025 23:32:18.930,3 Feb 2025 23:34:00.796,101.866
89,4 Feb 2025 20:03:44.764,4 Feb 2025 20:11:22.836,458.073
90,4 Feb 2025 21:36:00.577,4 Feb 2025 21:47:31.653,691.076
91,4 Feb 2025 23:11:40.538,4 Feb 2025 23:17:51.955,371.417
92,5 Feb 2025 19:46:27.450,5 Feb 2025 19:50:46.968,259.518
93,5 Feb 2025 21:17:18.369,5 Feb 2025 21:28:49.399,691.030
94,5 Feb 2025 22:52:10.453,5 Feb 2025 23:00:27.839,497.386
95,6 Feb 2025 20:58:42.610,6 Feb 2025 21:09:55.186,672.576
96,6 Feb 2025 22:32:58.396,6 Feb 2025 22:42:39.095,580.699
97,7 Feb 2025 20:40:14.632,7 Feb 2025 20:50:47.666,633.034
98,7 Feb 2025 22:13:56.545,7 Feb 2025 22:24:33.876,637.331
99,8 Feb 2025 20:21:57.302,8 Feb 2025 20:31:23.893,566.591
100,8 Feb 2025 21:55:02.056,8 Feb 2025 22:06:15.307,673.251
101,8 Feb 2025 23:32:35.961,8 Feb 2025 23:34:09.646,93.685
102,9 Feb 2025 20:03:57.285,9 Feb 2025 20:11:36.976,459.691
103,9 Feb 2025 21:36:13.796,9 Feb 2025 21:47:44.764,690.968
104,9 Feb 2025 23:11:54.463,9 Feb 2025 23:18:03.995,369.532
105,10 Feb 2025 19:46:39.026,10 Feb 2025 19:51:02.130,263.104
106,10 Feb 2025 21:17:31.514,10 Feb 2025 21:29:02.648,691.134
107,10 Feb 2025 22:52:24.067,10 Feb 2025 23:00:40.270,496.203
108,11 Feb 2025 20:58:55.673,11 Feb 2025 21:10:08.581,672.909
109,11 Feb 2025 22:33:11.860,11 Feb 2025 22:42:51.752,579.892
110,12 Feb 2025 20:40:27.590,12 Feb 2025 20:51:01.230,633.639
111,12 Feb 2025 22:14:09.910,12 Feb 2025 22:24:46.703,636.792
112,13 Feb 2025 20:22:10.108,13 Feb 2025 20:31:37.676,567.568
113,13 Feb 2025 21:55:15.343,13 Feb 2025 22:06:28.280,672.937
114,13 Feb 2025 23:32:53.396,13 Feb 2025 23:34:18.089,84.693
115,14 Feb 2025 20:04:09.815,14 Feb 2025 20:11:51.105,461.291
116,14 Feb 2025 21:36:27.013,14 Feb 2025 21:47:57.874,690.861
117,14 Feb 2025 23:12:08.394,14 Feb 2025 23:18:16.026,367.632
118,15 Feb 2025 19:46:50.628,15 Feb 2025 19:51:17.259,266.631
119,15 Feb 2025 21:17:44.658,15 Feb 2025 21:29:15.894,691.236
120,15 Feb 2025 22:52:37.682,15 Feb 2025 23:00:52.697,495.015
121,16 Feb 2025 20:59:08.736,16 Feb 2025 21:10:21.973,673.238
122,16 Feb 2025 22:33:25.324,16 Feb 2025 22:43:04.405,579.081
123,17 Feb 2025 20:40:40.554,17 Feb 2025 20:51:14.790,634.236
124,17 Feb 2025 22:14:23.275,17 Feb 2025 22:24:59.527,636.252
125,18 Feb 2025 20:22:22.917,18 Feb 2025 20:31:51.454,568.538
126,18 Feb 2025 21:55:28.630,18 Feb 2025 22:06:41.251,672.622
127,18 Feb 2025 23:33:11.363,18 Feb 2025 23:34:25.999,74.635
128,19 Feb 2025 20:04:22.351,19 Feb 2025 20:12:05.226,462.876
129,19 Feb 2025 21:36:40.230,19 Feb 2025 21:48:10.982,690.752
130,19 Feb 2025 23:12:22.330,19 Feb 2025 23:18:28.052,365.722
131,20 Feb 2025 19:47:02.262,20 Feb 2025 19:51:32.363,270.101
132,20 Feb 2025 21:17:57.804,20 Feb 2025 21:29:29.139,691.336
133,20 Feb 2025 22:52:51.297,20 Feb 2025 23:01:05.122,493.824
134,21 Feb 2025 20:59:21.801,21 Feb 2025 21:10:35.364,673.563
135,21 Feb 2025 22:33:38.789,21 Feb 2025 22:43:17.057,578.268
136,22 Feb 2025 20:40:53.515,22 Feb 2025 20:51:28.350,634.835
137,22 Feb 2025 22:14:36.642,22 Feb 2025 22:25:12.351,635.709
138,23 Feb 2025 20:22:35.729,23 Feb 2025 20:32:05.232,569.502
139,23 Feb 2025 21:55:41.919,23 Feb 2025 22:06:54.221,672.303
140,23 Feb 2025 23:33:30.133,23 Feb 2025 23:34:33.103,62.970
141,24 Feb 2025 20:04:34.892,24 Feb 2025 20:12:19.342,464.450
142,24 Feb 2025 21:36:53.449,24 Feb 2025 21:48:24.091,690.642
143,24 Feb 2025 23:12:36.276,24 Feb 2025 23:18:40.071,363.795
144,25 Feb 2025 19:47:13.920,25 Feb 2025 19:51:47.436,273.516
145,25 Feb 2025 21:18:10.952,25 Feb 2025 21:29:42.384,691.432
146,25 Feb 2025 22:53:04.920,25 Feb 2025 23:01:17.544,492.624
147,26 Feb 2025 20:59:34.867,26 Feb 2025 21:10:48.754,673.887
148,26 Feb 2025 22:33:52.257,26 Feb 2025 22:43:29.707,577.450
149,27 Feb 2025 20:41:06.476,27 Feb 2025 20:51:41.907,635.432
150,27 Feb 2025 22:14:50.010,27 Feb 2025 22:25:25.172,635.162
151,28 Feb 2025 20:22:48.543,28 Feb 2025 20:32:19.005,570.462
152,28 Feb 2025 21:55:55.208,28 Feb 2025 22:07:07.192,671.984
153,28 Feb 2025 23:33:50.286,28 Feb 2025 23:34:38.827,48.541
154,1 Mar 2025 20:04:47.436,1 Mar 2025 20:12:33.454,466.018
155,1 Mar 2025 21:37:06.667,1 Mar 2025 21:48:37.195,690.528
156,1 Mar 2025 23:12:50.225,1 Mar 2025 23:18:52.082,361.856
157,2 Mar 2025 19:47:25.602,2 Mar 2025 19:52:02.489,276.887
158,2 Mar 2025 21:18:24.098,2 Mar 2025 21:29:55.625,691.526
159,2 Mar 2025 22:53:18.539,2 Mar 2025 23:01:29.961,491.421
160,3 Mar 2025 20:59:47.934,3 Mar 2025 21:11:02.140,674.207
161,3 Mar 2025 22:34:05.725,3 Mar 2025 22:43:42.354,576.629
162,4 Mar 2025 20:41:19.440,4 Mar 2025 20:51:55.461,636.021
163,4 Mar 2025 22:15:03.378,4 Mar 2025 22:25:37.986,634.609
164,5 Mar 2025 20:23:01.359,5 Mar 2025 20:32:32.775,571.415
165,5 Mar 2025 21:56:08.497,5 Mar 2025 22:07:20.161,671.663
166,5 Mar 2025 23:34:13.805,5 Mar 2025 23:34:41.188,27.382
167,6 Mar 2025 20:04:59.987,6 Mar 2025 20:12:47.560,467.572
168,6 Mar 2025 21:37:19.887,6 Mar 2025 21:48:50.299,690.411
169,6 Mar 2025 23:13:04.177,6 Mar 2025 23:19:04.087,359.910
170,7 Mar 2025 19:47:37.313,7 Mar 2025 19:52:17.512,280.199
171,7 Mar 2025 21:18:37.247,7 Mar 2025 21:30:08.865,691.618
172,7 Mar 2025 22:53:32.163,7 Mar 2025 23:01:42.377,490.213
173,8 Mar 2025 21:00:01.003,8 Mar 2025 21:11:15.526,674.524
174,8 Mar 2025 22:34:19.195,8 Mar 2025 22:43:55.000,575.805
175,9 Mar 2025 20:41:32.407,9 Mar 2025 20:52:09.015,636.607
176,9 Mar 2025 22:15:16.747,9 Mar 2025 22:25:50.810,634.062
177,10 Mar 2025 20:23:14.179,10 Mar 2025 20:32:46.543,572.364
178,10 Mar 2025 21:56:21.789,10 Mar 2025 22:07:33.126,671.337
179,11 Mar 2025 20:05:12.542,11 Mar 2025 20:13:01.661,469.119
180,11 Mar 2025 21:37:33.108,11 Mar 2025 21:49:03.401,690.293
181,11 Mar 2025 23:13:18.140,11 Mar 2025 23:19:16.084,357.944
182,12 Mar 2025 19:47:49.043,12 Mar 2025 19:52:32.512,283.469
183,12 Mar 2025 21:18:50.397,12 Mar 2025 21:30:22.104,691.707
184,12 Mar 2025 22:53:45.790,12 Mar 2025 23:01:54.788,488.998
185,13 Mar 2025 21:00:14.071,13 Mar 2025 21:11:28.910,674.838
186,13 Mar 2025 22:34:32.665,13 Mar 2025 22:44:07.643,574.977
187,14 Mar 2025 20:41:45.379,14 Mar 2025 20:52:22.564,637.185
188,14 Mar 2025 22:15:30.117,14 Mar 2025 22:26:03.625,633.508
189,15 Mar 2025 20:23:26.998,15 Mar 2025 20:33:00.306,573.307
190,15 Mar 2025 21:56:35.080,15 Mar 2025 22:07:46.089,671.009
191,16 Mar 2025 20:05:25.101,16 Mar 2025 20:13:15.756,470.655
192,16 Mar 2025 21:37:46.329,16 Mar 2025 21:49:16.501,690.172
193,16 Mar 2025 23:13:32.106,16 Mar 2025 23:19:28.072,355.966
194,17 Mar 2025 19:48:00.797,17 Mar 2025 19:52:47.485,286.688
195,17 Mar 2025 21:19:03.546,17 Mar 2025 21:30:35.339,691.793
196,17 Mar 2025 22:53:59.415,17 Mar 2025 23:02:07.196,487.781
197,18 Mar 2025 21:00:27.141,18 Mar 2025 21:11:42.290,675.149
198,18 Mar 2025 22:34:46.136,18 Mar 2025 22:44:20.283,574.147
199,19 Mar 2025 20:41:58.348,19 Mar 2025 20:52:36.111,637.764
200,19 Mar 2025 22:15:43.487,19 Mar 2025 22:26:16.438,632.951
201,20 Mar 2025 20:23:39.822,20 Mar 2025 20:33:14.066,574.244
202,20 Mar 2025 21:56:48.371,20 Mar 2025 22:07:59.050,670.679
203,21 Mar 2025 20:05:37.665,21 Mar 2025 20:13:29.845,472.180
204,21 Mar 2025 21:37:59.550,21 Mar 2025 21:49:29.599,690.049
205,21 Mar 2025 23:13:46.078,21 Mar 2025 23:19:40.055,353.977
206,22 Mar 2025 19:48:12.575,22 Mar 2025 19:53:02.437,289.862
207,22 Mar 2025 21:19:16.697,22 Mar 2025 21:30:48.574,691.877
208,22 Mar 2025 22:54:13.044,22 Mar 2025 23:02:19.601,486.557
209,23 Mar 2025 21:00:40.212,23 Mar 2025 21:11:55.670,675.457
210,23 Mar 2025 22:34:59.609,23 Mar 2025 22:44:32.921,573.313
211,24 Mar 2025 20:42:11.318,24 Mar 2025 20:52:49.657,638.339
212,24 Mar 2025 22:15:56.859,24 Mar 2025 22:26:29.250,632.392
213,25 Mar 2025 20:23:52.647,25 Mar 2025 20:33:27.824,575.177
214,25 Mar 2025 21:57:01.665,25 Mar 2025 22:08:12.010,670.346
215,26 Mar 2025 20:05:50.234,26 Mar 2025 20:13:43.930,473.697
216,26 Mar 2025 21:38:12.773,26 Mar 2025 21:49:42.697,689.923
217,26 Mar 2025 23:14:00.059,26 Mar 2025 23:19:52.029,351.969
218,27 Mar 2025 19:48:24.371,27 Mar 2025 19:53:17.368,292.996
219,27 Mar 2025 21:19:29.849,27 Mar 2025 21:31:01.808,691.958
220,27 Mar 2025 22:54:26.678,27 Mar 2025 23:02:32.003,485.325
221,28 Mar 2025 21:00:53.284,28 Mar 2025 21:12:09.047,675.763
222,28 Mar 2025 22:35:13.083,28 Mar 2025 22:44:45.557,572.474
223,29 Mar 2025 20:42:24.285,29 Mar 2025 20:53:03.200,638.915
224,29 Mar 2025 22:16:10.231,29 Mar 2025 22:26:42.060,631.829
225,30 Mar 2025 20:24:05.473,30 Mar 2025 20:33:41.578,576.104
226,30 Mar 2025 21:57:14.957,30 Mar 2025 22:08:24.968,670.010
227,31 Mar 2025 20:06:02.806,31 Mar 2025 20:13:58.008,475.202
228,31 Mar 2025 21:38:25.995,31 Mar 2025 21:49:55.791,689.795
229,31 Mar 2025 23:14:14.044,31 Mar 2025 23:20:03.994,349.950
230,1 Apr 2025 19:48:36.190,1 Apr 2025 19:53:32.274,296.085
231,1 Apr 2025 21:19:43.001,1 Apr 2025 21:31:15.038,692.037
232,1 Apr 2025 22:54:40.310,1 Apr 2025 23:02:44.400,484.090
233,2 Apr 2025 21:01:06.357,2 Apr 2025 21:12:22.422,676.065
234,2 Apr 2025 22:35:26.553,2 Apr 2025 22:44:58.190,571.637
235,3 Apr 2025 20:42:37.262,3 Apr 2025 20:53:16.740,639.478
236,3 Apr 2025 22:16:23.603,3 Apr 2025 22:26:54.868,631.265
237,4 Apr 2025 20:24:18.304,4 Apr 2025 20:33:55.329,577.025
238,4 Apr 2025 21:57:28.251,4 Apr 2025 22:08:37.924,669.673
239,5 Apr 2025 20:06:15.384,5 Apr 2025 20:14:12.081,476.698
240,5 Apr 2025 21:38:39.220,5 Apr 2025 21:50:08.885,689.665
241,5 Apr 2025 23:14:28.037,5 Apr 2025 23:20:15.953,347.917
242,6 Apr 2025 19:48:48.028,6 Apr 2025 19:53:47.162,299.134
243,6 Apr 2025 21:19:56.154,6 Apr 2025 21:31:28.268,692.113
244,6 Apr 2025 22:54:53.947,6 Apr 2025 23:02:56.796,482.848
245,7 Apr 2025 21:01:19.431,7 Apr 2025 21:12:35.796,676.365
246,7 Apr 2025 22:35:40.032,7 Apr 2025 22:45:10.822,570.789
247,8 Apr 2025 20:42:50.235,8 Apr 2025 20:53:30.277,640.042
248,8 Apr 2025 22:16:36.977,8 Apr 2025 22:27:07.674,630.697
249,9 Apr 2025 20:24:31.135,9 Apr 2025 20:34:09.077,577.942
250,9 Apr 2025 21:57:41.546,9 Apr 2025 22:08:50.878,669.332
251,10 Apr 2025 20:06:27.964,10 Apr 2025 20:14:26.150,478.186
252,10 Apr 2025 21:38:52.441,10 Apr 2025 21:50:21.976,689.535
253,10 Apr 2025 23:14:42.036,10 Apr 2025 23:20:27.902,345.866
254,11 Apr 2025 19:48:59.883,11 Apr 2025 19:54:02.029,302.146
255,11 Apr 2025 21:20:09.307,11 Apr 2025 21:31:41.495,692.187
256,11 Apr 2025 22:55:07.586,11 Apr 2025 23:03:09.186,481.600
257,12 Apr 2025 21:01:32.504,12 Apr 2025 21:12:49.166,676.662
258,12 Apr 2025 22:35:53.510,12 Apr 2025 22:45:23.449,569.939
259,13 Apr 2025 20:43:03.207,13 Apr 2025 20:53:43.814,640.607
260,13 Apr 2025 22:16:50.350,13 Apr 2025 22:27:20.477,630.126
261,14 Apr 2025 20:24:43.967,14 Apr 2025 20:34:22.820,578.854
262,14 Apr 2025 21:57:54.840,14 Apr 2025 22:09:03.830,668.990
263,15 Apr 2025 20:06:40.548,15 Apr 2025 20:14:40.211,479.663
264,15 Apr 2025 21:39:05.664,15 Apr 2025 21:50:35.064,689.400
265,15 Apr 2025 23:14:56.042,15 Apr 2025 23:20:39.843,343.801
266,16 Apr 2025 19:49:11.758,16 Apr 2025 19:54:16.874,305.117
267,16 Apr 2025 21:20:22.461,16 Apr 2025 21:31:54.719,692.259
268,16 Apr 2025 22:55:21.225,16 Apr 2025 23:03:21.573,480.348
269,17 Apr 2025 21:01:45.579,17 Apr 2025 21:13:02.535,676.956
270,17 Apr 2025 22:36:06.982,17 Apr 2025 22:45:36.075,569.092
271,18 Apr 2025 20:43:16.187,18 Apr 2025 20:53:57.344,641.157
272,18 Apr 2025 22:17:03.725,18 Apr 2025 22:27:33.277,629.552
273,19 Apr 2025 20:24:56.802,19 Apr 2025 20:34:36.562,579.760
274,19 Apr 2025 21:58:08.135,19 Apr 2025 22:09:16.780,668.645
275,20 Apr 2025 20:06:53.138,20 Apr 2025 20:14:54.268,481.130
276,20 Apr 2025 21:39:18.889,20 Apr 2025 21:50:48.152,689.263
277,20 Apr 2025 23:15:10.053,20 Apr 2025 23:20:51.775,341.723
278,21 Apr 2025 19:49:23.651,21 Apr 2025 19:54:31.703,308.053
279,21 Apr 2025 21:20:35.616,21 Apr 2025 21:32:07.943,692.327
280,21 Apr 2025 22:55:34.869,21 Apr 2025 23:03:33.957,479.088
281,22 Apr 2025 21:01:58.655,22 Apr 2025 21:13:15.903,677.247
282,22 Apr 2025 22:36:20.462,22 Apr 2025 22:45:48.699,568.236
283,23 Apr 2025 20:43:29.165,23 Apr 2025 20:54:10.876,641.712
284,23 Apr 2025 22:17:17.101,23 Apr 2025 22:27:46.078,628.977
285,24 Apr 2025 20:25:09.639,24 Apr 2025 20:34:50.298,580.659
286,24 Apr 2025 21:58:21.432,24 Apr 2025 22:09:29.729,668.297
287,25 Apr 2025 20:07:05.730,25 Apr 2025 20:15:08.320,482.590
288,25 Apr 2025 21:39:32.115,25 Apr 2025 21:51:01.238,689.123
289,25 Apr 2025 23:15:24.075,25 Apr 2025 23:21:03.696,339.621
290,26 Apr 2025 19:49:35.559,26 Apr 2025 19:54:46.513,310.954
291,26 Apr 2025 21:20:48.771,26 Apr 2025 21:32:21.165,692.394
292,26 Apr 2025 22:55:48.513,26 Apr 2025 23:03:46.336,477.823
293,27 Apr 2025 21:02:11.731,27 Apr 2025 21:13:29.267,677.536
294,27 Apr 2025 22:36:33.942,27 Apr 2025 22:46:01.318,567.376
295,28 Apr 2025 20:43:42.142,28 Apr 2025 20:54:24.403,642.261
296,28 Apr 2025 22:17:30.476,28 Apr 2025 22:27:58.870,628.394
297,29 Apr 2025 20:25:22.476,29 Apr 2025 20:35:04.032,581.555
298,29 Apr 2025 21:58:34.727,29 Apr 2025 22:09:42.674,667.947
299,30 Apr 2025 20:07:18.327,30 Apr 2025 20:15:22.365,484.038
300,30 Apr 2025 21:39:45.340,30 Apr 2025 21:51:14.321,688.981
301,30 Apr 2025 23:15:38.101,30 Apr 2025 23:21:15.610,337.509
302,1 May 2025 19:49:47.486,1 May 2025 19:55:01.303,313.817
303,1 May 2025 21:21:01.926,1 May 2025 21:32:34.384,692.457
304,1 May 2025 22:56:02.159,1 May 2025 23:03:58.712,476.554
305,2 May 2025 21:02:24.809,2 May 2025 21:13:42.629,677.821
306,2 May 2025 22:36:47.423,2 May 2025 22:46:13.937,566.514
307,3 May 2025 20:43:55.122,3 May 2025 20:54:37.930,642.808
308,3 May 2025 22:17:43.853,3 May 2025 22:28:11.665,627.812
309,4 May 2025 20:25:35.317,4 May 2025 20:35:17.764,582.447
310,4 May 2025 21:58:48.025,4 May 2025 22:09:55.619,667.594
311,5 May 2025 20:07:30.928,5 May 2025 20:15:36.407,485.479
312,5 May 2025 21:39:58.567,5 May 2025 21:51:27.404,688.836
313,5 May 2025 23:15:52.138,5 May 2025 23:21:27.515,335.377
314,6 May 2025 19:49:59.428,6 May 2025 19:55:16.078,316.650
315,6 May 2025 21:21:15.083,6 May 2025 21:32:47.602,692.519
316,6 May 2025 22:56:15.809,6 May 2025 23:04:11.085,475.276
317,7 May 2025 21:02:37.887,7 May 2025 21:13:55.987,678.100
318,7 May 2025 22:37:00.907,7 May 2025 22:46:26.552,565.646
319,8 May 2025 20:44:08.102,8 May 2025 20:54:51.454,643.352
320,8 May 2025 22:17:57.231,8 May 2025 22:28:24.458,627.227
321,9 May 2025 20:25:48.159,9 May 2025 20:35:31.493,583.334
322,9 May 2025 21:59:01.322,9 May 2025 22:10:08.561,667.239
323,10 May 2025 20:07:43.531,10 May 2025 20:15:50.443,486.912
324,10 May 2025 21:40:11.794,10 May 2025 21:51:40.483,688.689
325,10 May 2025 23:16:06.182,10 May 2025 23:21:39.413,333.231
326,11 May 2025 19:50:11.384,11 May 2025 19:55:30.834,319.450
327,11 May 2025 21:21:28.239,11 May 2025 21:33:00.817,692.578
328,11 May 2025 22:56:29.460,11 May 2025 23:04:23.452,473.992
329,12 May 2025 21:02:50.964,12 May 2025 21:14:09.344,678.380
330,12 May 2025 22:37:14.390,12 May 2025 22:46:39.164,564.774
331,13 May 2025 20:44:21.082,13 May 2025 20:55:04.974,643.891
332,13 May 2025 22:18:10.609,13 May 2025 22:28:37.252,626.644
333,14 May 2025 20:26:01.001,14 May 2025 20:35:45.217,584.216
334,14 May 2025 21:59:14.619,14 May 2025 22:10:21.501,666.882
335,15 May 2025 20:07:56.138,15 May 2025 20:16:04.473,488.335
336,15 May 2025 21:40:25.021,15 May 2025 21:51:53.561,688.540
337,15 May 2025 23:16:20.232,15 May 2025 23:21:51.298,331.066
338,16 May 2025 19:50:23.357,16 May 2025 19:55:45.573,322.216
339,16 May 2025 21:21:41.396,16 May 2025 21:33:14.030,692.634
340,16 May 2025 22:56:43.113,16 May 2025 23:04:35.817,472.703
341,17 May 2025 21:03:04.043,17 May 2025 21:14:22.701,678.657
342,17 May 2025 22:37:27.875,17 May 2025 22:46:51.775,563.899
343,18 May 2025 20:44:34.065,18 May 2025 20:55:18.493,644.427
344,18 May 2025 22:18:23.988,18 May 2025 22:28:50.041,626.053
345,19 May 2025 20:26:13.847,19 May 2025 20:35:58.940,585.093
346,19 May 2025 21:59:27.919,19 May 2025 22:10:34.440,666.521
347,20 May 2025 20:08:08.750,20 May 2025 20:16:18.499,489.750
348,20 May 2025 21:40:38.249,20 May 2025 21:52:06.638,688.389
349,20 May 2025 23:16:34.293,20 May 2025 23:22:03.174,328.882
350,21 May 2025 19:50:35.344,21 May 2025 19:56:00.298,324.954
351,21 May 2025 21:21:54.554,21 May 2025 21:33:27.243,692.688
352,21 May 2025 22:56:56.771,21 May 2025 23:04:48.177,471.406
353,22 May 2025 21:03:17.124,22 May 2025 21:14:36.056,678.932
354,22 May 2025 22:37:41.363,22 May 2025 22:47:04.382,563.019
355,23 May 2025 20:44:47.048,23 May 2025 20:55:32.009,644.961
356,23 May 2025 22:18:37.368,23 May 2025 22:29:02.827,625.459
357,24 May 2025 20:26:26.693,24 May 2025 20:36:12.659,585.966
358,24 May 2025 21:59:41.218,24 May 2025 22:10:47.376,666.158
359,25 May 2025 20:08:21.363,25 May 2025 20:16:32.519,491.156
360,25 May 2025 21:40:51.477,25 May 2025 21:52:19.711,688.234
361,25 May 2025 23:16:48.360,25 May 2025 23:22:15.039,326.679
362,26 May 2025 19:50:47.344,26 May 2025 19:56:15.005,327.660
363,26 May 2025 21:22:07.711,26 May 2025 21:33:40.452,692.740
364,26 May 2025 22:57:10.429,26 May 2025 23:05:00.533,470.103
365,27 May 2025 21:03:30.203,27 May 2025 21:14:49.407,679.204
366,27 May 2025 22:37:54.850,27 May 2025 22:47:16.986,562.137
367,28 May 2025 20:45:00.032,28 May 2025 20:55:45.522,645.491
368,28 May 2025 22:18:50.748,28 May 2025 22:29:15.611,624.863
369,29 May 2025 20:26:39.541,29 May 2025 20:36:26.374,586.833
370,29 May 2025 21:59:54.517,29 May 2025 22:11:00.310,665.794
371,30 May 2025 20:08:33.981,30 May 2025 20:16:46.534,492.553
372,30 May 2025 21:41:04.706,30 May 2025 21:52:32.784,688.078
373,30 May 2025 23:17:02.436,30 May 2025 23:22:26.896,324.460
374,31 May 2025 19:50:59.361,31 May 2025 19:56:29.697,330.336
375,31 May 2025 21:22:20.871,31 May 2025 21:33:53.660,692.789
376,31 May 2025 22:57:24.091,31 May 2025 23:05:12.886,468.795
377,1 Jun 2025 21:03:43.285,1 Jun 2025 21:15:02.758,679.473
378,1 Jun 2025 22:38:08.340,1 Jun 2025 22:47:29.589,561.249
379,2 Jun 2025 20:45:13.017,2 Jun 2025 20:55:59.035,646.017
380,2 Jun 2025 22:19:04.130,2 Jun 2025 22:29:28.393,624.263
381,3 Jun 2025 20:26:52.392,3 Jun 2025 20:36:40.088,587.697
382,3 Jun 2025 22:00:07.818,3 Jun 2025 22:11:13.243,665.425
383,4 Jun 2025 20:08:46.602,4 Jun 2025 20:17:00.546,493.944
384,4 Jun 2025 21:41:17.936,4 Jun 2025 21:52:45.855,687.919
385,4 Jun 2025 23:17:16.524,4 Jun 2025 23:22:38.742,322.218
386,5 Jun 2025 19:51:11.388,5 Jun 2025 19:56:44.376,332.988
387,5 Jun 2025 21:22:34.030,5 Jun 2025 21:34:06.866,692.836
388,5 Jun 2025 22:57:37.757,5 Jun 2025 23:05:25.232,467.476
389,6 Jun 2025 21:03:56.367,6 Jun 2025 21:15:16.106,679.740
390,6 Jun 2025 22:38:21.831,6 Jun 2025 22:47:42.188,560.357
391,7 Jun 2025 20:45:26.003,7 Jun 2025 20:56:12.544,646.541
392,7 Jun 2025 22:19:17.513,7 Jun 2025 22:29:41.172,623.660
393,8 Jun 2025 20:27:05.244,8 Jun 2025 20:36:53.801,588.557
394,8 Jun 2025 22:00:21.118,8 Jun 2025 22:11:26.171,665.052
395,9 Jun 2025 20:08:59.225,9 Jun 2025 20:17:14.552,495.327
396,9 Jun 2025 21:41:31.165,9 Jun 2025 21:52:58.923,687.758
397,9 Jun 2025 23:17:30.619,9 Jun 2025 23:22:50.576,319.956
398,10 Jun 2025 19:51:23.428,10 Jun 2025 19:56:59.038,335.610
399,10 Jun 2025 21:22:47.189,10 Jun 2025 21:34:20.069,692.880
400,10 Jun 2025 22:57:51.423,10 Jun 2025 23:05:37.573,466.150
401,11 Jun 2025 21:04:09.448,11 Jun 2025 21:15:29.452,680.003
402,11 Jun 2025 22:38:35.320,11 Jun 2025 22:47:54.784,559.464
403,12 Jun 2025 20:45:38.989,12 Jun 2025 20:56:26.053,647.063
404,12 Jun 2025 22:19:30.896,12 Jun 2025 22:29:53.950,623.054
405,13 Jun 2025 20:27:18.097,13 Jun 2025 20:37:07.508,589.411
406,13 Jun 2025 22:00:34.420,13 Jun 2025 22:11:39.098,664.678
407,14 Jun 2025 20:09:11.853,14 Jun 2025 20:17:28.553,496.700
408,14 Jun 2025 21:41:44.396,14 Jun 2025 21:53:11.990,687.594
409,14 Jun 2025 23:17:44.724,14 Jun 2025 23:23:02.401,317.677
410,15 Jun 2025 19:51:35.483,15 Jun 2025 19:57:13.687,338.204
411,15 Jun 2025 21:23:00.350,15 Jun 2025 21:34:33.273,692.923
412,15 Jun 2025 22:58:05.093,15 Jun 2025 23:05:49.917,464.823
413,16 Jun 2025 21:04:22.532,16 Jun 2025 21:15:42.797,680.265
414,16 Jun 2025 22:38:48.814,16 Jun 2025 22:48:07.378,558.565
415,17 Jun 2025 20:45:51.978,17 Jun 2025 20:56:39.558,647.581
416,17 Jun 2025 22:19:44.281,17 Jun 2025 22:30:06.726,622.445
417,18 Jun 2025 20:27:30.952,18 Jun 2025 20:37:21.213,590.261
418,18 Jun 2025 22:00:47.723,18 Jun 2025 22:11:52.025,664.302
419,19 Jun 2025 20:09:24.487,19 Jun 2025 20:17:42.551,498.064
420,19 Jun 2025 21:41:57.628,19 Jun 2025 21:53:25.056,687.428
421,19 Jun 2025 23:17:58.841,19 Jun 2025 23:23:14.213,315.372
422,20 Jun 2025 19:51:47.548,20 Jun 2025 19:57:28.324,340.776
423,20 Jun 2025 21:23:13.512,20 Jun 2025 21:34:46.474,692.962
424,20 Jun 2025 22:58:18.768,20 Jun 2025 23:06:02.253,463.486
425,21 Jun 2025 21:04:35.616,21 Jun 2025 21:15:56.139,680.523
426,21 Jun 2025 22:39:02.309,21 Jun 2025 22:48:19.969,557.660
427,22 Jun 2025 20:46:04.965,22 Jun 2025 20:56:53.060,648.095
428,22 Jun 2025 22:19:57.666,22 Jun 2025 22:30:19.499,621.833
429,23 Jun 2025 20:27:43.807,23 Jun 2025 20:37:34.913,591.106
430,23 Jun 2025 22:01:01.026,23 Jun 2025 22:12:04.949,663.923
431,24 Jun 2025 20:09:37.119,24 Jun 2025 20:17:56.543,499.424
432,24 Jun 2025 21:42:10.859,24 Jun 2025 21:53:38.118,687.259
433,24 Jun 2025 23:18:12.965,24 Jun 2025 23:23:26.014,313.049
434,25 Jun 2025 19:51:59.626,25 Jun 2025 19:57:42.945,343.319
435,25 Jun 2025 21:23:26.673,25 Jun 2025 21:34:59.672,692.999
436,25 Jun 2025 22:58:32.442,25 Jun 2025 23:06:14.585,462.143
437,26 Jun 2025 21:04:48.700,26 Jun 2025 21:16:09.479,680.779
438,26 Jun 2025 22:39:15.804,26 Jun 2025 22:48:32.557,556.753
439,27 Jun 2025 20:46:17.955,27 Jun 2025 20:57:06.560,648.605
440,27 Jun 2025 22:20:11.052,27 Jun 2025 22:30:32.270,621.218
441,28 Jun 2025 20:27:56.666,28 Jun 2025 20:37:48.611,591.946
442,28 Jun 2025 22:01:14.330,28 Jun 2025 22:12:17.873,663.542
443,29 Jun 2025 20:09:49.757,29 Jun 2025 20:18:10.536,500.778
444,29 Jun 2025 21:42:24.092,29 Jun 2025 21:53:51.180,687.088
445,29 Jun 2025 23:18:27.101,29 Jun 2025 23:23:37.805,310.704
446,30 Jun 2025 19:52:11.717,30 Jun 2025 19:57:57.554,345.838
447,30 Jun 2025 21:23:39.836,30 Jun 2025 21:35:12.870,693.034
448,30 Jun 2025 22:58:46.123,30 Jun 2025 23:06:26.913,460.791
449,1 Jul 2025 21:05:01.787,1 Jul 2025 21:16:22.819,681.032
450,1 Jul 2025 22:39:29.304,1 Jul 2025 22:48:45.144,555.840
451,2 Jul 2025 20:46:30.946,2 Jul 2025 20:57:20.059,649.113
452,2 Jul 2025 22:20:24.441,2 Jul 2025 22:30:45.039,620.599
453,3 Jul 2025 20:28:09.525,3 Jul 2025 20:38:02.304,592.779
454,3 Jul 2025 22:01:27.636,3 Jul 2025 22:12:30.794,663.158
455,4 Jul 2025 20:10:02.397,4 Jul 2025 20:18:24.520,502.123
456,4 Jul 2025 21:42:37.326,4 Jul 2025 21:54:04.241,686.914
457,4 Jul 2025 23:18:41.250,4 Jul 2025 23:23:49.582,308.332
458,5 Jul 2025 19:52:23.816,5 Jul 2025 19:58:12.151,348.335
459,5 Jul 2025 21:23:52.999,5 Jul 2025 21:35:26.066,693.067
460,5 Jul 2025 22:58:59.806,5 Jul 2025 23:06:39.236,459.430
461,6 Jul 2025 21:05:14.872,6 Jul 2025 21:16:36.156,681.283
462,6 Jul 2025 22:39:42.804,6 Jul 2025 22:48:57.726,554.922
463,7 Jul 2025 20:46:43.937,7 Jul 2025 20:57:33.555,649.618
464,7 Jul 2025 22:20:37.829,7 Jul 2025 22:30:57.806,619.977
465,8 Jul 2025 20:28:22.385,8 Jul 2025 20:38:15.997,593.612
466,8 Jul 2025 22:01:40.942,8 Jul 2025 22:12:43.713,662.772
467,9 Jul 2025 20:10:15.040,9 Jul 2025 20:18:38.498,503.459
468,9 Jul 2025 21:42:50.560,9 Jul 2025 21:54:17.298,686.738
469,9 Jul 2025 23:18:55.408,9 Jul 2025 23:24:01.348,305.940
470,10 Jul 2025 19:52:35.928,10 Jul 2025 19:58:26.735,350.807
471,10 Jul 2025 21:24:06.163,10 Jul 2025 21:35:39.259,693.096
472,10 Jul 2025 22:59:13.491,10 Jul 2025 23:06:51.555,458.063
473,11 Jul 2025 21:05:27.959,11 Jul 2025 21:16:49.491,681.531
474,11 Jul 2025 22:39:56.303,11 Jul 2025 22:49:10.307,554.004
475,12 Jul 2025 20:46:56.930,12 Jul 2025 20:57:47.049,650.119
476,12 Jul 2025 22:20:51.219,12 Jul 2025 22:31:10.571,619.352
477,13 Jul 2025 20:28:35.248,13 Jul 2025 20:38:29.688,594.440
478,13 Jul 2025 22:01:54.249,13 Jul 2025 22:12:56.631,662.382
479,14 Jul 2025 20:10:27.687,14 Jul 2025 20:18:52.474,504.787
480,14 Jul 2025 21:43:03.796,14 Jul 2025 21:54:30.356,686.560
481,14 Jul 2025 23:19:09.578,14 Jul 2025 23:24:13.102,303.524
482,15 Jul 2025 19:52:48.051,15 Jul 2025 19:58:41.308,353.257
483,15 Jul 2025 21:24:19.328,15 Jul 2025 21:35:52.452,693.124
484,15 Jul 2025 22:59:27.182,15 Jul 2025 23:07:03.867,456.685
485,16 Jul 2025 21:05:41.048,16 Jul 2025 21:17:02.825,681.777
486,16 Jul 2025 22:40:09.808,16 Jul 2025 22:49:22.886,553.078
487,17 Jul 2025 20:47:09.924,17 Jul 2025 20:58:00.542,650.618
488,17 Jul 2025 22:21:04.611,17 Jul 2025 22:31:23.335,618.723
489,18 Jul 2025 20:28:48.112,18 Jul 2025 20:38:43.378,595.266
490,18 Jul 2025 22:02:07.558,18 Jul 2025 22:13:09.548,661.990
491,19 Jul 2025 20:10:40.336,19 Jul 2025 20:19:06.446,506.110
492,19 Jul 2025 21:43:17.032,19 Jul 2025 21:54:43.411,686.379
493,19 Jul 2025 23:19:23.762,19 Jul 2025 23:24:24.842,301.080
494,20 Jul 2025 19:53:00.180,20 Jul 2025 19:58:55.868,355.688
495,20 Jul 2025 21:24:32.493,20 Jul 2025 21:36:05.642,693.149
496,20 Jul 2025 22:59:40.875,20 Jul 2025 23:07:16.178,455.302
497,21 Jul 2025 21:05:54.136,21 Jul 2025 21:17:16.156,682.020
498,21 Jul 2025 22:40:23.313,21 Jul 2025 22:49:35.460,552.147
499,22 Jul 2025 20:47:22.918,22 Jul 2025 20:58:14.031,651.113
500,22 Jul 2025 22:21:17.999,22 Jul 2025 22:31:36.095,618.096
501,23 Jul 2025 20:29:00.977,23 Jul 2025 20:38:57.063,596.086
502,23 Jul 2025 22:02:20.866,23 Jul 2025 22:13:22.461,661.596
503,24 Jul 2025 20:10:52.989,24 Jul 2025 20:19:20.412,507.423
504,24 Jul 2025 21:43:30.268,24 Jul 2025 21:54:56.464,686.196
505,24 Jul 2025 23:19:37.955,24 Jul 2025 23:24:36.570,298.615
506,25 Jul 2025 19:53:12.329,25 Jul 2025 19:59:10.416,358.087
507,25 Jul 2025 21:24:45.660,25 Jul 2025 21:36:18.831,693.171
508,25 Jul 2025 22:59:54.571,25 Jul 2025 23:07:28.484,453.913
509,26 Jul 2025 21:06:07.227,26 Jul 2025 21:17:29.487,682.260
510,26 Jul 2025 22:40:36.820,26 Jul 2025 22:49:48.033,551.213
511,27 Jul 2025 20:47:35.915,27 Jul 2025 20:58:27.520,651.605
512,27 Jul 2025 22:21:31.398,27 Jul 2025 22:31:48.854,617.457
513,28 Jul 2025 20:29:13.846,28 Jul 2025 20:39:10.749,596.903
514,28 Jul 2025 22:02:34.177,28 Jul 2025 22:13:35.375,661.198
515,29 Jul 2025 20:11:05.646,29 Jul 2025 20:19:34.376,508.730
516,29 Jul 2025 21:43:43.507,29 Jul 2025 21:55:09.517,686.009
517,29 Jul 2025 23:19:52.163,29 Jul 2025 23:24:48.286,296.123
518,30 Jul 2025 19:53:24.483,30 Jul 2025 19:59:24.955,360.472
519,30 Jul 2025 21:24:58.828,30 Jul 2025 21:36:32.020,693.191
520,30 Jul 2025 23:00:08.273,30 Jul 2025 23:07:40.787,452.514
521,31 Jul 2025 21:06:20.318,31 Jul 2025 21:17:42.816,682.498
522,31 Jul 2025 22:40:50.331,31 Jul 2025 22:50:00.604,550.273
523,1 Aug 2025 20:47:48.913,1 Aug 2025 20:58:41.007,652.094
524,1 Aug 2025 22:21:44.794,1 Aug 2025 22:32:01.612,616.818
525,2 Aug 2025 20:29:26.715,2 Aug 2025 20:39:24.430,597.716
526,2 Aug 2025 22:02:47.488,2 Aug 2025 22:13:48.286,660.798
527,3 Aug 2025 20:11:18.303,3 Aug 2025 20:19:48.332,510.029
528,3 Aug 2025 21:43:56.750,3 Aug 2025 21:55:22.570,685.820
529,3 Aug 2025 23:20:06.381,3 Aug 2025 23:24:59.983,293.602
530,4 Aug 2025 19:53:36.646,4 Aug 2025 19:59:39.481,362.835
531,4 Aug 2025 21:25:11.997,4 Aug 2025 21:36:45.205,693.208
532,4 Aug 2025 23:00:21.977,4 Aug 2025 23:07:53.083,451.106
533,5 Aug 2025 21:06:33.410,5 Aug 2025 21:17:56.143,682.734
534,5 Aug 2025 22:41:03.843,5 Aug 2025 22:50:13.171,549.328
535,6 Aug 2025 20:48:01.911,6 Aug 2025 20:58:54.491,652.580
536,6 Aug 2025 22:21:58.188,6 Aug 2025 22:32:14.367,616.179
537,7 Aug 2025 20:29:39.585,7 Aug 2025 20:39:38.108,598.523
538,7 Aug 2025 22:03:00.801,7 Aug 2025 22:14:01.195,660.395
539,8 Aug 2025 20:11:30.965,8 Aug 2025 20:20:02.287,511.322
540,8 Aug 2025 21:44:09.990,8 Aug 2025 21:55:35.619,685.629
541,8 Aug 2025 23:20:20.613,8 Aug 2025 23:25:11.670,291.056
542,9 Aug 2025 19:53:48.820,9 Aug 2025 19:59:53.996,365.176
543,9 Aug 2025 21:25:25.167,9 Aug 2025 21:36:58.390,693.223
544,9 Aug 2025 23:00:35.685,9 Aug 2025 23:08:05.380,449.695
545,10 Aug 2025 21:06:46.503,10 Aug 2025 21:18:09.470,682.966
546,10 Aug 2025 22:41:17.357,10 Aug 2025 22:50:25.737,548.380
547,11 Aug 2025 20:48:14.912,11 Aug 2025 20:59:07.975,653.063
548,11 Aug 2025 22:22:11.588,11 Aug 2025 22:32:27.121,615.533
549,12 Aug 2025 20:29:52.459,12 Aug 2025 20:39:51.785,599.326
550,12 Aug 2025 22:03:14.115,12 Aug 2025 22:14:14.104,659.989
551,13 Aug 2025 20:11:43.632,13 Aug 2025 20:20:16.240,512.608
552,13 Aug 2025 21:44:23.232,13 Aug 2025 21:55:48.667,685.435
553,13 Aug 2025 23:20:34.863,13 Aug 2025 23:25:23.343,288.480
554,14 Aug 2025 19:54:01.004,14 Aug 2025 20:00:08.503,367.499
555,14 Aug 2025 21:25:38.339,14 Aug 2025 21:37:11.575,693.236
556,14 Aug 2025 23:00:49.398,14 Aug 2025 23:08:17.669,448.271
557,15 Aug 2025 21:06:59.598,15 Aug 2025 21:18:22.795,683.197
558,15 Aug 2025 22:41:30.874,15 Aug 2025 22:50:38.300,547.426
559,16 Aug 2025 20:48:27.913,16 Aug 2025 20:59:21.457,653.544
560,16 Aug 2025 22:22:24.990,16 Aug 2025 22:32:39.872,614.882
561,17 Aug 2025 20:30:05.333,17 Aug 2025 20:40:05.459,600.126
562,17 Aug 2025 22:03:27.435,17 Aug 2025 22:14:27.010,659.575
563,18 Aug 2025 20:11:56.299,18 Aug 2025 20:20:30.188,513.889
564,18 Aug 2025 21:44:36.474,18 Aug 2025 21:56:01.712,685.238
565,18 Aug 2025 23:20:49.125,18 Aug 2025 23:25:35.000,285.874
566,19 Aug 2025 19:54:13.195,19 Aug 2025 20:00:22.997,369.802
567,19 Aug 2025 21:25:51.510,19 Aug 2025 21:37:24.756,693.246
568,19 Aug 2025 23:01:03.114,19 Aug 2025 23:08:29.954,446.840
569,20 Aug 2025 21:07:12.693,20 Aug 2025 21:18:36.118,683.425
570,20 Aug 2025 22:41:44.392,20 Aug 2025 22:50:50.859,546.468
571,21 Aug 2025 20:48:40.916,21 Aug 2025 20:59:34.936,654.020
572,21 Aug 2025 22:22:38.387,21 Aug 2025 22:32:52.622,614.235
573,22 Aug 2025 20:30:18.210,22 Aug 2025 20:40:19.131,600.921
574,22 Aug 2025 22:03:40.751,22 Aug 2025 22:14:39.916,659.164
575,23 Aug 2025 20:12:08.972,23 Aug 2025 20:20:44.132,515.161
576,23 Aug 2025 21:44:49.718,23 Aug 2025 21:56:14.756,685.038
577,23 Aug 2025 23:21:03.401,23 Aug 2025 23:25:46.644,283.243
578,24 Aug 2025 19:54:25.400,24 Aug 2025 20:00:37.483,372.083
579,24 Aug 2025 21:26:04.684,24 Aug 2025 21:37:37.938,693.254
580,24 Aug 2025 23:01:16.834,24 Aug 2025 23:08:42.235,445.401
581,25 Aug 2025 21:07:25.791,25 Aug 2025 21:18:49.441,683.650
582,25 Aug 2025 22:41:57.913,25 Aug 2025 22:51:03.418,545.505
583,26 Aug 2025 20:48:53.921,26 Aug 2025 20:59:48.415,654.494
584,26 Aug 2025 22:22:51.792,26 Aug 2025 22:33:05.371,613.579
585,27 Aug 2025 20:30:31.089,27 Aug 2025 20:40:32.801,601.712
586,27 Aug 2025 22:03:54.070,27 Aug 2025 22:14:52.820,658.750
587,28 Aug 2025 20:12:21.647,28 Aug 2025 20:20:58.075,516.428
588,28 Aug 2025 21:45:02.963,28 Aug 2025 21:56:27.802,684.839
589,28 Aug 2025 23:21:17.695,28 Aug 2025 23:25:58.272,280.577
590,29 Aug 2025 19:54:37.613,29 Aug 2025 20:00:51.959,374.347
591,29 Aug 2025 21:26:17.859,29 Aug 2025 21:37:51.118,693.259
592,29 Aug 2025 23:01:30.560,29 Aug 2025 23:08:54.512,443.952
593,30 Aug 2025 21:07:38.889,30 Aug 2025 21:19:02.760,683.871
594,30 Aug 2025 22:42:11.438,30 Aug 2025 22:51:15.974,544.536
595,31 Aug 2025 20:49:06.931,31 Aug 2025 21:00:01.890,654.958
596,31 Aug 2025 22:23:05.202,31 Aug 2025 22:33:18.117,612.915
597,1 Sep 2025 20:30:43.970,1 Sep 2025 20:40:46.469,602.499
598,1 Sep 2025 22:04:07.385,1 Sep 2025 22:15:05.722,658.338
599,2 Sep 2025 20:12:34.325,2 Sep 2025 20:21:12.015,517.690
600,2 Sep 2025 21:45:16.209,2 Sep 2025 21:56:40.844,684.635
601,2 Sep 2025 23:21:32.004,2 Sep 2025 23:26:09.884,277.880
602,3 Sep 2025 19:54:49.835,3 Sep 2025 20:01:06.425,376.590
603,3 Sep 2025 21:26:31.034,3 Sep 2025 21:38:04.296,693.262
604,3 Sep 2025 23:01:44.288,3 Sep 2025 23:09:06.784,442.496
605,4 Sep 2025 21:07:51.988,4 Sep 2025 21:19:16.083,684.095
606,4 Sep 2025 22:42:24.963,4 Sep 2025 22:51:28.526,543.564
607,5 Sep 2025 20:49:19.939,5 Sep 2025 21:00:15.364,655.426
608,5 Sep 2025 22:23:18.609,5 Sep 2025 22:33:30.862,612.253
609,6 Sep 2025 20:30:56.853,6 Sep 2025 20:41:00.134,603.282
610,6 Sep 2025 22:04:20.705,6 Sep 2025 22:15:18.623,657.918
611,7 Sep 2025 20:12:47.007,7 Sep 2025 20:21:25.947,518.939
612,7 Sep 2025 21:45:29.457,7 Sep 2025 21:56:53.885,684.429
613,7 Sep 2025 23:21:46.326,7 Sep 2025 23:26:21.482,275.155
614,8 Sep 2025 19:55:02.068,8 Sep 2025 20:01:20.881,378.813
615,8 Sep 2025 21:26:44.212,8 Sep 2025 21:38:17.474,693.263
616,8 Sep 2025 23:01:58.020,8 Sep 2025 23:09:19.053,441.033
617,9 Sep 2025 21:08:05.090,9 Sep 2025 21:19:29.402,684.312
618,9 Sep 2025 22:42:38.491,9 Sep 2025 22:51:41.078,542.587
619,10 Sep 2025 20:49:32.949,10 Sep 2025 21:00:28.839,655.891
620,10 Sep 2025 22:23:32.019,10 Sep 2025 22:33:43.606,611.588
621,11 Sep 2025 20:31:09.738,11 Sep 2025 20:41:13.799,604.061
622,11 Sep 2025 22:04:34.029,11 Sep 2025 22:15:31.528,657.499
623,12 Sep 2025 20:12:59.692,12 Sep 2025 20:21:39.879,520.186
624,12 Sep 2025 21:45:42.706,12 Sep 2025 21:57:06.926,684.219
625,12 Sep 2025 23:22:00.669,12 Sep 2025 23:26:33.061,272.392
626,13 Sep 2025 19:55:14.308,13 Sep 2025 20:01:35.329,381.021
627,13 Sep 2025 21:26:57.390,13 Sep 2025 21:38:30.651,693.261
628,13 Sep 2025 23:02:11.759,13 Sep 2025 23:09:31.318,439.559
629,14 Sep 2025 21:08:18.191,14 Sep 2025 21:19:42.718,684.527
630,14 Sep 2025 22:42:52.022,14 Sep 2025 22:51:53.626,541.604
631,15 Sep 2025 20:49:45.959,15 Sep 2025 21:00:42.309,656.350
632,15 Sep 2025 22:23:45.429,15 Sep 2025 22:33:56.347,610.918
633,16 Sep 2025 20:31:22.624,16 Sep 2025 20:41:27.460,604.836
634,16 Sep 2025 22:04:47.352,16 Sep 2025 22:15:44.426,657.074
635,17 Sep 2025 20:13:12.380,17 Sep 2025 20:21:53.808,521.428
636,17 Sep 2025 21:45:55.952,17 Sep 2025 21:57:19.965,684.013
637,17 Sep 2025 23:22:15.030,17 Sep 2025 23:26:44.624,269.595
638,18 Sep 2025 19:55:26.558,18 Sep 2025 20:01:49.766,383.208
639,18 Sep 2025 21:27:10.569,18 Sep 2025 21:38:43.826,693.256
640,18 Sep 2025 23:02:25.499,18 Sep 2025 23:09:43.578,438.078
641,19 Sep 2025 21:08:31.295,19 Sep 2025 21:19:56.033,684.739
642,19 Sep 2025 22:43:05.554,19 Sep 2025 22:52:06.173,540.619
643,20 Sep 2025 20:49:58.972,20 Sep 2025 21:00:55.782,656.811
644,20 Sep 2025 22:23:58.841,20 Sep 2025 22:34:09.087,610.246
645,21 Sep 2025 20:31:35.514,21 Sep 2025 20:41:41.120,605.606
646,21 Sep 2025 22:05:00.677,21 Sep 2025 22:15:57.323,656.646
647,22 Sep 2025 20:13:25.074,22 Sep 2025 20:22:07.733,522.660
648,22 Sep 2025 21:46:09.204,22 Sep 2025 21:57:33.004,683.800
649,22 Sep 2025 23:22:29.404,22 Sep 2025 23:26:56.171,266.767
650,23 Sep 2025 19:55:38.819,23 Sep 2025 20:02:04.197,385.378
651,23 Sep 2025 21:27:23.751,23 Sep 2025 21:38:57.001,693.250
652,23 Sep 2025 23:02:39.246,23 Sep 2025 23:09:55.835,436.589
653,24 Sep 2025 21:08:44.401,24 Sep 2025 21:20:09.349,684.948
654,24 Sep 2025 22:43:19.090,24 Sep 2025 22:52:18.717,539.627
655,25 Sep 2025 20:50:11.987,25 Sep 2025 21:01:09.251,657.264
656,25 Sep 2025 22:24:12.257,25 Sep 2025 22:34:21.827,609.570
657,26 Sep 2025 20:31:48.406,26 Sep 2025 20:41:54.779,606.373
658,26 Sep 2025 22:05:14.005,26 Sep 2025 22:16:10.220,656.215
659,27 Sep 2025 20:13:37.770,27 Sep 2025 20:22:21.655,523.886
660,27 Sep 2025 21:46:22.458,27 Sep 2025 21:57:46.041,683.584
661,27 Sep 2025 23:22:43.799,27 Sep 2025 23:27:07.698,263.899
662,28 Sep 2025 19:55:51.087,28 Sep 2025 20:02:18.618,387.531
663,28 Sep 2025 21:27:36.929,28 Sep 2025 21:39:10.175,693.245
664,28 Sep 2025 23:02:52.997,28 Sep 2025 23:10:08.086,435.090
665,29 Sep 2025 21:08:57.506,29 Sep 2025 21:20:22.658,685.152
666,29 Sep 2025 22:43:32.629,29 Sep 2025 22:52:31.257,538.628
667,30 Sep 2025 20:50:25.002,30 Sep 2025 21:01:22.723,657.721
668,30 Sep 2025 22:24:25.671,30 Sep 2025 22:34:34.563,608.892
669,1 Oct 2025 20:32:01.298,1 Oct 2025 20:42:08.435,607.137
670,1 Oct 2025 22:05:27.338,1 Oct 2025 22:16:23.114,655.777
671,2 Oct 2025 20:13:50.472,2 Oct 2025 20:22:35.570,525.098
672,2 Oct 2025 21:46:35.712,2 Oct 2025 21:57:59.080,683.368
673,2 Oct 2025 23:22:58.209,2 Oct 2025 23:27:19.207,260.998
674,3 Oct 2025 19:56:03.364,3 Oct 2025 20:02:33.029,389.665
675,3 Oct 2025 21:27:50.113,3 Oct 2025 21:39:23.346,693.234
676,3 Oct 2025 23:03:06.750,3 Oct 2025 23:10:20.334,433.584
677,4 Oct 2025 21:09:10.614,4 Oct 2025 21:20:35.969,685.355
678,4 Oct 2025 22:43:46.166,4 Oct 2025 22:52:43.796,537.631
679,5 Oct 2025 20:50:38.020,5 Oct 2025 21:01:36.190,658.170
680,5 Oct 2025 22:24:39.089,5 Oct 2025 22:34:47.299,608.210
681,6 Oct 2025 20:32:14.195,6 Oct 2025 20:42:22.089,607.894
682,6 Oct 2025 22:05:40.668,6 Oct 2025 22:16:36.008,655.341
683,7 Oct 2025 20:14:03.176,7 Oct 2025 20:22:49.486,526.309
684,7 Oct 2025 21:46:48.968,7 Oct 2025 21:58:12.116,683.148
685,7 Oct 2025 23:23:12.639,7 Oct 2025 23:27:30.699,258.060
686,8 Oct 2025 19:56:15.651,8 Oct 2025 20:02:47.434,391.782
687,8 Oct 2025 21:28:03.299,8 Oct 2025 21:39:36.518,693.220
688,8 Oct 2025 23:03:20.510,8 Oct 2025 23:10:32.579,432.069
689,9 Oct 2025 21:09:23.725,9 Oct 2025 21:20:49.281,685.557
690,9 Oct 2025 22:43:59.710,9 Oct 2025 22:52:56.334,536.625
691,10 Oct 2025 20:50:51.041,10 Oct 2025 21:01:49.656,658.616
692,10 Oct 2025 22:24:52.510,10 Oct 2025 22:35:00.033,607.524
693,11 Oct 2025 20:32:27.093,11 Oct 2025 20:42:35.742,608.649
694,11 Oct 2025 22:05:54.000,11 Oct 2025 22:16:48.901,654.901
695,12 Oct 2025 20:14:15.882,12 Oct 2025 20:23:03.399,527.517
696,12 Oct 2025 21:47:02.226,12 Oct 2025 21:58:25.150,682.924
697,12 Oct 2025 23:23:27.090,12 Oct 2025 23:27:42.168,255.078
698,13 Oct 2025 19:56:27.945,13 Oct 2025 20:03:01.829,393.884
699,13 Oct 2025 21:28:16.485,13 Oct 2025 21:39:49.688,693.203
700,13 Oct 2025 23:03:34.274,13 Oct 2025 23:10:44.817,430.544
701,14 Oct 2025 21:09:36.835,14 Oct 2025 21:21:02.591,685.756
702,14 Oct 2025 22:44:13.254,14 Oct 2025 22:53:08.869,535.614
703,15 Oct 2025 20:51:04.061,15 Oct 2025 21:02:03.117,659.055
704,15 Oct 2025 22:25:05.931,15 Oct 2025 22:35:12.765,606.834
705,16 Oct 2025 20:32:39.993,16 Oct 2025 20:42:49.392,609.399
706,16 Oct 2025 22:06:07.332,16 Oct 2025 22:17:01.792,654.459
707,17 Oct 2025 20:14:28.593,17 Oct 2025 20:23:17.307,528.714
708,17 Oct 2025 21:47:15.484,17 Oct 2025 21:58:38.182,682.698
709,17 Oct 2025 23:23:41.558,17 Oct 2025 23:27:53.620,252.062
710,18 Oct 2025 19:56:40.249,18 Oct 2025 20:03:16.215,395.966
711,18 Oct 2025 21:28:29.673,18 Oct 2025 21:40:02.857,693.184
712,18 Oct 2025 23:03:48.040,18 Oct 2025 23:10:57.053,429.013
713,19 Oct 2025 19:40:48.565,19 Oct 2025 19:41:12.108,23.543
714,19 Oct 2025 21:09:49.949,19 Oct 2025 21:21:15.900,685.952
715,19 Oct 2025 22:44:26.802,19 Oct 2025 22:53:21.402,534.601
716,20 Oct 2025 20:51:17.085,20 Oct 2025 21:02:16.580,659.495
717,20 Oct 2025 22:25:19.353,20 Oct 2025 22:35:25.497,606.143
718,21 Oct 2025 20:32:52.896,21 Oct 2025 20:43:03.041,610.145
719,21 Oct 2025 22:06:20.668,21 Oct 2025 22:17:14.683,654.015
720,22 Oct 2025 20:14:41.305,22 Oct 2025 20:23:31.213,529.908
721,22 Oct 2025 21:47:28.749,22 Oct 2025 21:58:51.211,682.462
722,22 Oct 2025 23:23:56.044,22 Oct 2025 23:28:05.052,249.007
723,23 Oct 2025 19:56:52.562,23 Oct 2025 20:03:30.595,398.033
724,23 Oct 2025 21:28:42.868,23 Oct 2025 21:40:16.026,693.158
725,23 Oct 2025 23:04:01.813,23 Oct 2025 23:11:09.285,427.472
726,24 Oct 2025 19:40:48.188,24 Oct 2025 19:41:39.255,51.066
727,24 Oct 2025 21:10:03.064,24 Oct 2025 21:21:29.210,686.147
728,24 Oct 2025 22:44:40.353,24 Oct 2025 22:53:33.934,533.581
729,25 Oct 2025 20:51:30.106,25 Oct 2025 21:02:30.042,659.936
730,25 Oct 2025 22:25:32.780,25 Oct 2025 22:35:38.227,605.447
731,26 Oct 2025 20:33:05.802,26 Oct 2025 20:43:16.688,610.887
732,26 Oct 2025 22:06:34.004,26 Oct 2025 22:17:27.572,653.568
733,27 Oct 2025 20:14:54.021,27 Oct 2025 20:23:45.115,531.094
734,27 Oct 2025 21:47:42.011,27 Oct 2025 21:59:04.242,682.231
735,27 Oct 2025 23:24:10.557,27 Oct 2025 23:28:16.460,245.903
736,28 Oct 2025 19:57:04.882,28 Oct 2025 20:03:44.965,400.083
737,28 Oct 2025 21:28:56.059,28 Oct 2025 21:40:29.193,693.134
738,28 Oct 2025 23:04:15.589,28 Oct 2025 23:11:21.511,425.922
739,29 Oct 2025 19:40:52.990,29 Oct 2025 19:42:01.222,68.232
740,29 Oct 2025 21:10:16.179,29 Oct 2025 21:21:42.517,686.337
741,29 Oct 2025 22:44:53.901,29 Oct 2025 22:53:46.462,532.561
742,30 Oct 2025 20:51:43.132,30 Oct 2025 21:02:43.502,660.369
743,30 Oct 2025 22:25:46.207,30 Oct 2025 22:35:50.954,604.748
744,31 Oct 2025 20:33:18.711,31 Oct 2025 20:43:30.332,611.621
745,31 Oct 2025 22:06:47.341,31 Oct 2025 22:17:40.459,653.118
746,1 Nov 2025 20:15:06.742,1 Nov 2025 20:23:59.014,532.272
747,1 Nov 2025 21:47:55.273,1 Nov 2025 21:59:17.272,681.998
748,1 Nov 2025 23:24:25.090,1 Nov 2025 23:28:27.848,242.758
749,2 Nov 2025 19:57:17.212,2 Nov 2025 20:03:59.327,402.115
750,2 Nov 2025 21:29:09.251,2 Nov 2025 21:40:42.358,693.107
751,2 Nov 2025 23:04:29.368,2 Nov 2025 23:11:33.735,424.366
752,3 Nov 2025 19:40:59.576,3 Nov 2025 19:42:21.409,81.832
753,3 Nov 2025 21:10:29.297,3 Nov 2025 21:21:55.821,686.523
754,3 Nov 2025 22:45:07.455,3 Nov 2025 22:53:58.989,531.534
755,4 Nov 2025 20:51:56.162,4 Nov 2025 21:02:56.961,660.799
756,4 Nov 2025 22:25:59.636,4 Nov 2025 22:36:03.682,604.046
757,5 Nov 2025 20:33:31.622,5 Nov 2025 20:43:43.976,612.354
758,5 Nov 2025 22:07:00.681,5 Nov 2025 22:17:53.346,652.666
759,6 Nov 2025 20:15:19.467,6 Nov 2025 20:24:12.911,533.444
760,6 Nov 2025 21:48:08.539,6 Nov 2025 21:59:30.301,681.762
761,6 Nov 2025 23:24:39.648,6 Nov 2025 23:28:39.213,239.565
762,7 Nov 2025 19:57:29.550,7 Nov 2025 20:04:13.683,404.133
763,7 Nov 2025 21:29:22.443,7 Nov 2025 21:40:55.524,693.081
764,7 Nov 2025 23:04:43.154,7 Nov 2025 23:11:45.953,422.799
765,8 Nov 2025 19:41:07.144,8 Nov 2025 19:42:40.609,93.465
766,8 Nov 2025 21:10:42.418,8 Nov 2025 21:22:09.126,686.707
767,8 Nov 2025 22:45:21.013,8 Nov 2025 22:54:11.514,530.500
768,9 Nov 2025 20:52:09.192,9 Nov 2025 21:03:10.418,661.227
769,9 Nov 2025 22:26:13.067,9 Nov 2025 22:36:16.406,603.340
770,10 Nov 2025 20:33:44.533,10 Nov 2025 20:43:57.617,613.084
771,10 Nov 2025 22:07:14.021,10 Nov 2025 22:18:06.231,652.211
772,11 Nov 2025 20:15:32.194,11 Nov 2025 20:24:26.804,534.609
773,11 Nov 2025 21:48:21.804,11 Nov 2025 21:59:43.328,681.524
774,11 Nov 2025 23:24:54.228,11 Nov 2025 23:28:50.553,236.325
775,12 Nov 2025 19:57:41.895,12 Nov 2025 20:04:28.029,406.134
776,12 Nov 2025 21:29:35.638,12 Nov 2025 21:41:08.687,693.049
777,12 Nov 2025 23:04:56.942,12 Nov 2025 23:11:58.167,421.225
778,13 Nov 2025 19:41:15.379,13 Nov 2025 19:42:59.141,103.762
779,13 Nov 2025 21:10:55.538,13 Nov 2025 21:22:22.429,686.890
780,13 Nov 2025 22:45:34.571,13 Nov 2025 22:54:24.035,529.464
781,14 Nov 2025 20:52:22.224,14 Nov 2025 21:03:23.874,661.650
782,14 Nov 2025 22:26:26.495,14 Nov 2025 22:36:29.125,602.629
783,15 Nov 2025 20:33:57.448,15 Nov 2025 20:44:11.255,613.807
784,15 Nov 2025 22:07:27.362,15 Nov 2025 22:18:19.115,651.753
785,16 Nov 2025 20:15:44.927,16 Nov 2025 20:24:40.691,535.764
786,16 Nov 2025 21:48:35.067,16 Nov 2025 21:59:56.359,681.292
787,16 Nov 2025 23:25:08.830,16 Nov 2025 23:29:01.870,233.040
788,17 Nov 2025 19:57:54.255,17 Nov 2025 20:04:42.367,408.113
789,17 Nov 2025 21:29:48.833,17 Nov 2025 21:41:21.850,693.017
790,17 Nov 2025 23:05:10.734,17 Nov 2025 23:12:10.382,419.648
791,18 Nov 2025 19:41:24.098,18 Nov 2025 19:43:17.194,113.096
792,18 Nov 2025 21:11:08.661,18 Nov 2025 21:22:35.732,687.071
793,18 Nov 2025 22:45:48.132,18 Nov 2025 22:54:36.556,528.424
794,19 Nov 2025 20:52:35.262,19 Nov 2025 21:03:37.328,662.066
795,19 Nov 2025 22:26:39.931,19 Nov 2025 22:36:41.852,601.921
796,20 Nov 2025 20:34:10.366,20 Nov 2025 20:44:24.893,614.526
797,20 Nov 2025 22:07:40.701,20 Nov 2025 22:18:31.999,651.298
798,21 Nov 2025 20:15:57.663,21 Nov 2025 20:24:54.581,536.917
799,21 Nov 2025 21:48:48.340,21 Nov 2025 22:00:09.381,681.041
800,21 Nov 2025 23:25:23.460,21 Nov 2025 23:29:13.162,229.702
801,22 Nov 2025 19:58:06.613,22 Nov 2025 20:04:56.699,410.086
802,22 Nov 2025 21:30:02.035,22 Nov 2025 21:41:35.012,692.978
803,22 Nov 2025 23:05:24.532,22 Nov 2025 23:12:22.588,418.056
804,23 Nov 2025 19:41:33.178,23 Nov 2025 19:43:34.882,121.704
805,23 Nov 2025 21:11:21.783,23 Nov 2025 21:22:49.032,687.249
806,23 Nov 2025 22:46:01.695,23 Nov 2025 22:54:49.074,527.379
807,24 Nov 2025 20:52:48.297,24 Nov 2025 21:03:50.781,662.484
808,24 Nov 2025 22:26:53.366,24 Nov 2025 22:36:54.573,601.207
809,25 Nov 2025 20:34:23.285,25 Nov 2025 20:44:38.527,615.242
810,25 Nov 2025 22:07:54.045,25 Nov 2025 22:18:44.880,650.835
811,26 Nov 2025 20:16:10.407,26 Nov 2025 20:25:08.463,538.057
812,26 Nov 2025 21:49:01.609,26 Nov 2025 22:00:22.404,680.796
813,26 Nov 2025 23:25:38.115,26 Nov 2025 23:29:24.426,226.311
814,27 Nov 2025 19:58:18.982,27 Nov 2025 20:05:11.021,412.039
815,27 Nov 2025 21:30:15.234,27 Nov 2025 21:41:48.172,692.938
816,27 Nov 2025 23:05:38.332,27 Nov 2025 23:12:34.789,416.457
817,28 Nov 2025 19:41:42.564,28 Nov 2025 19:43:52.270,129.706
818,28 Nov 2025 21:11:34.907,28 Nov 2025 21:23:02.332,687.425
819,28 Nov 2025 22:46:15.259,28 Nov 2025 22:55:01.588,526.330
820,29 Nov 2025 20:53:01.334,29 Nov 2025 21:04:04.232,662.898
821,29 Nov 2025 22:27:06.800,29 Nov 2025 22:37:07.291,600.490
822,30 Nov 2025 20:34:36.206,30 Nov 2025 20:44:52.159,615.953
823,30 Nov 2025 22:08:07.389,30 Nov 2025 22:18:57.760,650.370
824,1 Dec 2025 20:16:23.150,1 Dec 2025 20:25:22.343,539.193
825,1 Dec 2025 21:49:14.879,1 Dec 2025 22:00:35.427,680.548
826,1 Dec 2025 23:25:52.795,1 Dec 2025 23:29:35.665,222.869
827,2 Dec 2025 19:58:31.362,2 Dec 2025 20:05:25.337,413.975
828,2 Dec 2025 21:30:28.435,2 Dec 2025 21:42:01.331,692.896
829,2 Dec 2025 23:05:52.136,2 Dec 2025 23:12:46.986,414.851
830,3 Dec 2025 19:41:52.186,3 Dec 2025 19:44:09.415,137.229
831,3 Dec 2025 21:11:48.034,3 Dec 2025 21:23:15.631,687.597
832,3 Dec 2025 22:46:28.826,3 Dec 2025 22:55:14.102,525.277
833,4 Dec 2025 20:53:14.374,4 Dec 2025 21:04:17.683,663.309
834,4 Dec 2025 22:27:20.238,4 Dec 2025 22:37:20.009,599.770
835,5 Dec 2025 20:34:49.131,5 Dec 2025 20:45:05.791,616.660
836,5 Dec 2025 22:08:20.737,5 Dec 2025 22:19:10.639,649.902
837,6 Dec 2025 20:16:35.892,6 Dec 2025 20:25:36.217,540.325
838,6 Dec 2025 21:49:28.147,6 Dec 2025 22:00:48.453,680.306
839,6 Dec 2025 23:26:07.503,6 Dec 2025 23:29:46.869,219.366
840,7 Dec 2025 19:58:43.752,7 Dec 2025 20:05:39.646,415.894
841,7 Dec 2025 21:30:41.634,7 Dec 2025 21:42:14.489,692.855
842,7 Dec 2025 23:06:05.946,7 Dec 2025 23:12:59.178,413.232
843,8 Dec 2025 19:42:02.013,8 Dec 2025 19:44:26.358,144.344
844,8 Dec 2025 21:12:01.161,8 Dec 2025 21:23:28.928,687.767
845,8 Dec 2025 22:46:42.394,8 Dec 2025 22:55:26.613,524.218
846,9 Dec 2025 20:53:27.414,9 Dec 2025 21:04:31.131,663.717
847,9 Dec 2025 22:27:33.676,9 Dec 2025 22:37:32.723,599.047
848,10 Dec 2025 20:35:02.055,10 Dec 2025 20:45:19.418,617.363
849,10 Dec 2025 22:08:34.084,10 Dec 2025 22:19:23.515,649.432
850,11 Dec 2025 20:16:48.641,11 Dec 2025 20:25:50.088,541.447
851,11 Dec 2025 21:49:41.419,11 Dec 2025 22:01:01.473,680.054
852,11 Dec 2025 23:26:22.240,11 Dec 2025 23:29:58.047,215.806
853,12 Dec 2025 19:58:56.145,12 Dec 2025 20:05:53.944,417.799
854,12 Dec 2025 21:30:54.837,12 Dec 2025 21:42:27.645,692.808
855,12 Dec 2025 23:06:19.756,12 Dec 2025 23:13:11.366,411.609
856,13 Dec 2025 19:42:12.023,13 Dec 2025 19:44:43.117,151.095
857,13 Dec 2025 21:12:14.290,13 Dec 2025 21:23:42.223,687.933
858,13 Dec 2025 22:46:55.963,13 Dec 2025 22:55:39.121,523.158
859,14 Dec 2025 20:53:40.457,14 Dec 2025 21:04:44.577,664.120
860,14 Dec 2025 22:27:47.115,14 Dec 2025 22:37:45.437,598.322
861,15 Dec 2025 20:35:14.984,15 Dec 2025 20:45:33.044,618.060
862,15 Dec 2025 22:08:47.432,15 Dec 2025 22:19:36.391,648.959
863,16 Dec 2025 20:17:01.395,16 Dec 2025 20:26:03.957,542.563
864,16 Dec 2025 21:49:54.693,16 Dec 2025 22:01:14.492,679.799
865,16 Dec 2025 23:26:37.008,16 Dec 2025 23:30:09.193,212.184
866,17 Dec 2025 19:59:08.548,17 Dec 2025 20:06:08.237,419.689
867,17 Dec 2025 21:31:08.042,17 Dec 2025 21:42:40.800,692.758
868,17 Dec 2025 23:06:33.572,17 Dec 2025 23:13:23.550,409.977
869,18 Dec 2025 19:42:22.186,18 Dec 2025 19:44:59.726,157.540
870,18 Dec 2025 21:12:27.421,18 Dec 2025 21:23:55.512,688.092
871,18 Dec 2025 22:47:09.535,18 Dec 2025 22:55:51.627,522.092
872,19 Dec 2025 20:53:53.501,19 Dec 2025 21:04:58.020,664.519
873,19 Dec 2025 22:28:00.556,19 Dec 2025 22:37:58.149,597.593
874,20 Dec 2025 20:35:27.914,20 Dec 2025 20:45:46.668,618.754
875,20 Dec 2025 22:09:00.782,20 Dec 2025 22:19:49.266,648.484
876,21 Dec 2025 20:17:14.151,21 Dec 2025 20:26:17.823,543.672
877,21 Dec 2025 21:50:07.967,21 Dec 2025 22:01:27.509,679.542
878,21 Dec 2025 23:26:51.811,21 Dec 2025 23:30:20.306,208.494
879,22 Dec 2025 19:59:20.956,22 Dec 2025 20:06:22.522,421.566
880,22 Dec 2025 21:31:21.242,22 Dec 2025 21:42:53.954,692.711
881,22 Dec 2025 23:06:47.392,22 Dec 2025 23:13:35.728,408.335
882,23 Dec 2025 19:42:32.483,23 Dec 2025 19:45:16.198,163.715
883,23 Dec 2025 21:12:40.551,23 Dec 2025 21:24:08.808,688.257
884,23 Dec 2025 22:47:23.108,23 Dec 2025 22:56:04.130,521.022
885,24 Dec 2025 20:54:06.546,24 Dec 2025 21:05:11.463,664.917
886,24 Dec 2025 22:28:13.992,24 Dec 2025 22:38:10.859,596.866
887,25 Dec 2025 20:35:40.845,25 Dec 2025 20:46:00.289,619.443
888,25 Dec 2025 22:09:14.132,25 Dec 2025 22:20:02.138,648.006
889,26 Dec 2025 20:17:26.910,26 Dec 2025 20:26:31.684,544.774
890,26 Dec 2025 21:50:21.241,26 Dec 2025 22:01:40.524,679.283
891,26 Dec 2025 23:27:06.645,26 Dec 2025 23:30:31.386,204.741
892,27 Dec 2025 19:59:33.371,27 Dec 2025 20:06:36.793,423.422
893,27 Dec 2025 21:31:34.450,27 Dec 2025 21:43:07.108,692.658
894,27 Dec 2025 23:07:01.217,27 Dec 2025 23:13:47.896,406.679
895,28 Dec 2025 19:42:42.904,28 Dec 2025 19:45:32.545,169.641
896,28 Dec 2025 21:12:53.684,28 Dec 2025 21:24:22.098,688.414
897,28 Dec 2025 22:47:36.686,28 Dec 2025 22:56:16.631,519.945
898,29 Dec 2025 20:54:19.592,29 Dec 2025 21:05:24.904,665.312
899,29 Dec 2025 22:28:27.434,29 Dec 2025 22:38:23.567,596.133
900,30 Dec 2025 20:35:53.782,30 Dec 2025 20:46:13.907,620.125
901,30 Dec 2025 22:09:27.483,30 Dec 2025 22:20:15.009,647.526
902,31 Dec 2025 20:17:39.674,31 Dec 2025 20:26:45.542,545.869
903,31 Dec 2025 21:50:34.517,31 Dec 2025 22:01:53.539,679.021
904,31 Dec 2025 23:27:21.515,31 Dec 2025 23:30:42.429,200.914

Global Statistics
"Min Duration",713,19 Oct 2025 19:40:48.565,19 Oct 2025 19:41:12.108,23.543
"Max Duration",615,8 Sep 2025 21:26:44.212,8 Sep 2025 21:38:17.474,693.263
"Mean Duration",,,,547.487
"Total Duration",,,,494928.487


