3UCubedIntegratedSim/Reports & Plots/Comms/SSU/Sat23 Comms.csv

"Access","Start Time (UTCG)","Stop Time (UTCG)","Duration (sec)"
1,1 Jan 2025 17:40:57.129,1 Jan 2025 17:50:46.190,589.061
2,1 Jan 2025 19:13:48.862,1 Jan 2025 19:24:57.734,668.873
3,2 Jan 2025 17:23:06.049,2 Jan 2025 17:31:35.670,509.620
4,2 Jan 2025 18:54:53.084,2 Jan 2025 19:06:22.849,689.765
5,2 Jan 2025 20:33:17.910,2 Jan 2025 20:36:55.019,217.109
6,3 Jan 2025 17:05:37.982,3 Jan 2025 17:12:08.692,390.710
7,3 Jan 2025 18:36:09.370,3 Jan 2025 18:47:41.408,692.037
8,3 Jan 2025 20:12:29.331,3 Jan 2025 20:19:49.618,440.287
9,4 Jan 2025 16:49:06.737,4 Jan 2025 16:51:51.815,165.079
10,4 Jan 2025 18:17:37.244,4 Jan 2025 18:28:53.957,676.713
11,4 Jan 2025 19:52:38.178,4 Jan 2025 20:01:53.022,554.844
12,5 Jan 2025 17:59:16.984,5 Jan 2025 18:10:00.367,643.383
13,5 Jan 2025 19:33:11.795,5 Jan 2025 19:43:37.520,625.724
14,6 Jan 2025 17:41:09.809,6 Jan 2025 17:50:59.639,589.829
15,6 Jan 2025 19:14:02.277,6 Jan 2025 19:25:10.783,668.506
16,7 Jan 2025 17:23:18.515,7 Jan 2025 17:31:49.257,510.741
17,7 Jan 2025 18:55:06.351,7 Jan 2025 19:06:35.982,689.631
18,7 Jan 2025 20:33:33.528,7 Jan 2025 20:37:06.144,212.616
19,8 Jan 2025 17:05:50.094,8 Jan 2025 17:12:22.553,392.458
20,8 Jan 2025 18:36:22.499,8 Jan 2025 18:47:54.612,692.114
21,8 Jan 2025 20:12:43.530,8 Jan 2025 20:20:02.081,438.551
22,9 Jan 2025 16:49:17.330,9 Jan 2025 16:52:07.110,169.781
23,9 Jan 2025 18:17:50.236,9 Jan 2025 18:29:07.232,676.996
24,9 Jan 2025 19:52:51.999,9 Jan 2025 20:02:05.796,553.798
25,10 Jan 2025 17:59:29.831,10 Jan 2025 18:10:13.717,643.886
26,10 Jan 2025 19:33:25.383,10 Jan 2025 19:43:50.457,625.074
27,11 Jan 2025 17:41:22.491,11 Jan 2025 17:51:13.085,590.595
28,11 Jan 2025 19:14:15.692,11 Jan 2025 19:25:23.829,668.137
29,12 Jan 2025 17:23:30.982,12 Jan 2025 17:32:02.841,511.859
30,12 Jan 2025 18:55:19.617,12 Jan 2025 19:06:49.112,689.495
31,12 Jan 2025 20:33:49.202,12 Jan 2025 20:37:17.211,208.009
32,13 Jan 2025 17:06:02.211,13 Jan 2025 17:12:36.409,394.198
33,13 Jan 2025 18:36:35.628,13 Jan 2025 18:48:07.816,692.187
34,13 Jan 2025 20:12:57.740,13 Jan 2025 20:20:14.536,436.796
35,14 Jan 2025 16:49:27.986,14 Jan 2025 16:52:22.344,174.358
36,14 Jan 2025 18:18:03.229,14 Jan 2025 18:29:20.505,677.276
37,14 Jan 2025 19:53:05.823,14 Jan 2025 20:02:18.567,552.744
38,15 Jan 2025 17:59:42.680,15 Jan 2025 18:10:27.068,644.387
39,15 Jan 2025 19:33:38.976,15 Jan 2025 19:44:03.393,624.416
40,16 Jan 2025 17:41:35.175,16 Jan 2025 17:51:26.531,591.356
41,16 Jan 2025 19:14:29.111,16 Jan 2025 19:25:36.876,667.765
42,17 Jan 2025 17:23:43.454,17 Jan 2025 17:32:16.425,512.971
43,17 Jan 2025 18:55:32.886,17 Jan 2025 19:07:02.247,689.361
44,17 Jan 2025 20:34:04.938,17 Jan 2025 20:37:28.223,203.285
45,18 Jan 2025 17:06:14.335,18 Jan 2025 17:12:50.261,395.925
46,18 Jan 2025 18:36:48.761,18 Jan 2025 18:48:21.019,692.258
47,18 Jan 2025 20:13:11.958,18 Jan 2025 20:20:26.987,435.030
48,19 Jan 2025 16:49:38.709,19 Jan 2025 16:52:37.517,178.809
49,19 Jan 2025 18:18:16.225,19 Jan 2025 18:29:33.779,677.554
50,19 Jan 2025 19:53:19.651,19 Jan 2025 20:02:31.337,551.686
51,20 Jan 2025 17:59:55.532,20 Jan 2025 18:10:40.416,644.885
52,20 Jan 2025 19:33:52.572,20 Jan 2025 19:44:16.328,623.756
53,21 Jan 2025 17:41:47.861,21 Jan 2025 17:51:39.974,592.112
54,21 Jan 2025 19:14:42.530,21 Jan 2025 19:25:49.917,667.387
55,22 Jan 2025 17:23:55.928,22 Jan 2025 17:32:30.003,514.075
56,22 Jan 2025 18:55:46.154,22 Jan 2025 19:07:15.373,689.220
57,22 Jan 2025 20:34:20.731,22 Jan 2025 20:37:39.172,198.441
58,23 Jan 2025 17:06:26.465,23 Jan 2025 17:13:04.105,397.640
59,23 Jan 2025 18:37:01.893,23 Jan 2025 18:48:34.220,692.327
60,23 Jan 2025 20:13:26.180,23 Jan 2025 20:20:39.432,433.253
61,24 Jan 2025 16:49:49.486,24 Jan 2025 16:52:52.628,183.142
62,24 Jan 2025 18:18:29.221,24 Jan 2025 18:29:47.050,677.829
63,24 Jan 2025 19:53:33.481,24 Jan 2025 20:02:44.104,550.623
64,25 Jan 2025 18:00:08.384,25 Jan 2025 18:10:53.763,645.379
65,25 Jan 2025 19:34:06.168,25 Jan 2025 19:44:29.260,623.092
66,26 Jan 2025 17:42:00.549,26 Jan 2025 17:51:53.414,592.865
67,26 Jan 2025 19:14:55.951,26 Jan 2025 19:26:02.960,667.009
68,27 Jan 2025 17:24:08.404,27 Jan 2025 17:32:43.580,515.176
69,27 Jan 2025 18:55:59.425,27 Jan 2025 19:07:28.500,689.075
70,27 Jan 2025 20:34:36.591,27 Jan 2025 20:37:50.053,193.462
71,28 Jan 2025 17:06:38.599,28 Jan 2025 17:13:17.946,399.346
72,28 Jan 2025 18:37:15.027,28 Jan 2025 18:48:47.421,692.394
73,28 Jan 2025 20:13:40.409,28 Jan 2025 20:20:51.870,431.461
74,29 Jan 2025 16:50:00.317,29 Jan 2025 16:53:07.690,187.373
75,29 Jan 2025 18:18:42.219,29 Jan 2025 18:30:00.321,678.101
76,29 Jan 2025 19:53:47.311,29 Jan 2025 20:02:56.867,549.555
77,30 Jan 2025 18:00:21.238,30 Jan 2025 18:11:07.110,645.872
78,30 Jan 2025 19:34:19.768,30 Jan 2025 19:44:42.191,622.423
79,31 Jan 2025 17:42:13.239,31 Jan 2025 17:52:06.854,593.615
80,31 Jan 2025 19:15:09.379,31 Jan 2025 19:26:16.002,666.623
81,1 Feb 2025 17:24:20.885,1 Feb 2025 17:32:57.157,516.272
82,1 Feb 2025 18:56:12.699,1 Feb 2025 19:07:41.628,688.928
83,1 Feb 2025 20:34:52.525,1 Feb 2025 20:38:00.863,188.338
84,2 Feb 2025 17:06:50.741,2 Feb 2025 17:13:31.782,401.041
85,2 Feb 2025 18:37:28.164,2 Feb 2025 18:49:00.621,692.457
86,2 Feb 2025 20:13:54.646,2 Feb 2025 20:21:04.304,429.658
87,3 Feb 2025 16:50:11.201,3 Feb 2025 16:53:22.699,191.498
88,3 Feb 2025 18:18:55.220,3 Feb 2025 18:30:13.591,678.371
89,3 Feb 2025 19:54:01.149,3 Feb 2025 20:03:09.629,548.480
90,4 Feb 2025 18:00:34.094,4 Feb 2025 18:11:20.455,646.361
91,4 Feb 2025 19:34:33.369,4 Feb 2025 19:44:55.121,621.752
92,5 Feb 2025 17:42:25.931,5 Feb 2025 17:52:20.291,594.360
93,5 Feb 2025 19:15:22.803,5 Feb 2025 19:26:29.043,666.240
94,6 Feb 2025 17:24:33.367,6 Feb 2025 17:33:10.728,517.362
95,6 Feb 2025 18:56:25.974,6 Feb 2025 19:07:54.752,688.779
96,6 Feb 2025 20:35:08.533,6 Feb 2025 20:38:11.598,183.065
97,7 Feb 2025 17:07:02.886,7 Feb 2025 17:13:45.610,402.724
98,7 Feb 2025 18:37:41.300,7 Feb 2025 18:49:13.819,692.519
99,7 Feb 2025 20:14:08.887,7 Feb 2025 20:21:16.731,427.844
100,8 Feb 2025 16:50:22.131,8 Feb 2025 16:53:37.660,195.529
101,8 Feb 2025 18:19:08.220,8 Feb 2025 18:30:26.858,678.639
102,8 Feb 2025 19:54:14.987,8 Feb 2025 20:03:22.387,547.399
103,9 Feb 2025 18:00:46.951,9 Feb 2025 18:11:33.798,646.847
104,9 Feb 2025 19:34:46.971,9 Feb 2025 19:45:08.048,621.077
105,10 Feb 2025 17:42:38.624,10 Feb 2025 17:52:33.727,595.103
106,10 Feb 2025 19:15:36.229,10 Feb 2025 19:26:42.081,665.853
107,11 Feb 2025 17:24:45.852,11 Feb 2025 17:33:24.299,518.448
108,11 Feb 2025 18:56:39.250,11 Feb 2025 19:08:07.877,688.627
109,11 Feb 2025 20:35:24.631,11 Feb 2025 20:38:22.247,177.616
110,12 Feb 2025 17:07:15.038,12 Feb 2025 17:13:59.436,404.399
111,12 Feb 2025 18:37:54.439,12 Feb 2025 18:49:27.017,692.578
112,12 Feb 2025 20:14:23.136,12 Feb 2025 20:21:29.151,426.015
113,13 Feb 2025 16:50:33.104,13 Feb 2025 16:53:52.582,199.478
114,13 Feb 2025 18:19:21.223,13 Feb 2025 18:30:40.127,678.904
115,13 Feb 2025 19:54:28.831,13 Feb 2025 20:03:35.142,546.312
116,14 Feb 2025 18:00:59.811,14 Feb 2025 18:11:47.142,647.331
117,14 Feb 2025 19:35:00.578,14 Feb 2025 19:45:20.975,620.397
118,15 Feb 2025 17:42:51.321,15 Feb 2025 17:52:47.163,595.842
119,15 Feb 2025 19:15:49.657,15 Feb 2025 19:26:55.120,665.463
120,16 Feb 2025 17:24:58.341,16 Feb 2025 17:33:37.868,519.527
121,16 Feb 2025 18:56:52.528,16 Feb 2025 19:08:21.001,688.472
122,16 Feb 2025 20:35:40.821,16 Feb 2025 20:38:32.805,171.984
123,17 Feb 2025 17:07:27.196,17 Feb 2025 17:14:13.256,406.060
124,17 Feb 2025 18:38:07.579,17 Feb 2025 18:49:40.214,692.635
125,17 Feb 2025 20:14:37.392,17 Feb 2025 20:21:41.567,424.175
126,18 Feb 2025 16:50:44.123,18 Feb 2025 16:54:07.458,203.335
127,18 Feb 2025 18:19:34.227,18 Feb 2025 18:30:53.393,679.166
128,18 Feb 2025 19:54:42.677,18 Feb 2025 20:03:47.897,545.220
129,19 Feb 2025 18:01:12.672,19 Feb 2025 18:12:00.483,647.811
130,19 Feb 2025 19:35:14.185,19 Feb 2025 19:45:33.900,619.715
131,20 Feb 2025 17:43:04.019,20 Feb 2025 17:53:00.596,596.577
132,20 Feb 2025 19:16:03.086,20 Feb 2025 19:27:08.157,665.071
133,21 Feb 2025 17:25:10.829,21 Feb 2025 17:33:51.433,520.604
134,21 Feb 2025 18:57:05.807,21 Feb 2025 19:08:34.123,688.315
135,21 Feb 2025 20:35:57.114,21 Feb 2025 20:38:43.262,166.148
136,22 Feb 2025 17:07:39.359,22 Feb 2025 17:14:27.070,407.711
137,22 Feb 2025 18:38:20.720,22 Feb 2025 18:49:53.409,692.689
138,22 Feb 2025 20:14:51.654,22 Feb 2025 20:21:53.976,422.322
139,23 Feb 2025 16:50:55.178,23 Feb 2025 16:54:22.295,207.116
140,23 Feb 2025 18:19:47.229,23 Feb 2025 18:31:06.663,679.434
141,23 Feb 2025 19:54:56.526,23 Feb 2025 20:04:00.643,544.118
142,24 Feb 2025 18:01:25.534,24 Feb 2025 18:12:13.823,648.289
143,24 Feb 2025 19:35:27.794,24 Feb 2025 19:45:46.822,619.029
144,25 Feb 2025 17:43:16.719,25 Feb 2025 17:53:14.027,597.309
145,25 Feb 2025 19:16:16.517,25 Feb 2025 19:27:21.192,664.675
146,26 Feb 2025 17:25:23.323,26 Feb 2025 17:34:04.997,521.674
147,26 Feb 2025 18:57:19.088,26 Feb 2025 19:08:47.244,688.156
148,26 Feb 2025 20:36:13.519,26 Feb 2025 20:38:53.602,160.084
149,27 Feb 2025 17:07:51.527,27 Feb 2025 17:14:40.882,409.355
150,27 Feb 2025 18:38:33.863,27 Feb 2025 18:50:06.604,692.741
151,27 Feb 2025 20:15:05.924,27 Feb 2025 20:22:06.382,420.458
152,28 Feb 2025 16:51:06.271,28 Feb 2025 16:54:37.099,210.828
153,28 Feb 2025 18:20:00.236,28 Feb 2025 18:31:19.928,679.692
154,28 Feb 2025 19:55:10.379,28 Feb 2025 20:04:13.391,543.012
155,1 Mar 2025 18:01:38.399,1 Mar 2025 18:12:27.163,648.764
156,1 Mar 2025 19:35:41.406,1 Mar 2025 19:45:59.744,618.338
157,2 Mar 2025 17:43:29.422,2 Mar 2025 17:53:27.458,598.037
158,2 Mar 2025 19:16:29.951,2 Mar 2025 19:27:34.228,664.277
159,3 Mar 2025 17:25:35.820,3 Mar 2025 17:34:18.558,522.738
160,3 Mar 2025 18:57:32.371,3 Mar 2025 19:09:00.365,687.994
161,3 Mar 2025 20:36:30.052,3 Mar 2025 20:39:03.821,153.769
162,4 Mar 2025 17:08:03.702,4 Mar 2025 17:14:54.687,410.985
163,4 Mar 2025 18:38:47.008,4 Mar 2025 18:50:19.798,692.790
164,4 Mar 2025 20:15:20.201,4 Mar 2025 20:22:18.779,418.579
165,5 Mar 2025 16:51:17.403,5 Mar 2025 16:54:51.863,214.460
166,5 Mar 2025 18:20:13.245,5 Mar 2025 18:31:33.191,679.946
167,5 Mar 2025 19:55:24.234,5 Mar 2025 20:04:26.138,541.903
168,6 Mar 2025 18:01:51.264,6 Mar 2025 18:12:40.500,649.236
169,6 Mar 2025 19:35:55.020,6 Mar 2025 19:46:12.664,617.644
170,7 Mar 2025 17:43:42.125,7 Mar 2025 17:53:40.886,598.761
171,7 Mar 2025 19:16:43.385,7 Mar 2025 19:27:47.261,663.876
172,8 Mar 2025 17:25:48.319,8 Mar 2025 17:34:32.119,523.800
173,8 Mar 2025 18:57:45.654,8 Mar 2025 19:09:13.483,687.829
174,8 Mar 2025 20:36:46.727,8 Mar 2025 20:39:13.893,147.166
175,9 Mar 2025 17:08:15.881,9 Mar 2025 17:15:08.484,412.603
176,9 Mar 2025 18:39:00.156,9 Mar 2025 18:50:32.990,692.833
177,9 Mar 2025 20:15:34.488,9 Mar 2025 20:22:31.169,416.681
178,10 Mar 2025 16:51:28.567,10 Mar 2025 16:55:06.597,218.030
179,10 Mar 2025 18:20:26.255,10 Mar 2025 18:31:46.453,680.199
180,10 Mar 2025 19:55:38.094,10 Mar 2025 20:04:38.880,540.786
181,11 Mar 2025 18:02:04.132,11 Mar 2025 18:12:53.838,649.706
182,11 Mar 2025 19:36:08.636,11 Mar 2025 19:46:25.582,616.946
183,12 Mar 2025 17:43:54.832,12 Mar 2025 17:53:54.314,599.483
184,12 Mar 2025 19:16:56.822,12 Mar 2025 19:28:00.293,663.471
185,13 Mar 2025 17:26:00.822,13 Mar 2025 17:34:45.678,524.856
186,13 Mar 2025 18:57:58.941,13 Mar 2025 19:09:26.602,687.662
187,13 Mar 2025 20:37:03.570,13 Mar 2025 20:39:23.803,140.233
188,14 Mar 2025 17:08:28.065,14 Mar 2025 17:15:22.280,414.215
189,14 Mar 2025 18:39:13.304,14 Mar 2025 18:50:46.179,692.875
190,14 Mar 2025 20:15:48.776,14 Mar 2025 20:22:43.548,414.772
191,15 Mar 2025 16:51:39.763,15 Mar 2025 16:55:21.300,221.537
192,15 Mar 2025 18:20:39.267,15 Mar 2025 18:31:59.716,680.449
193,15 Mar 2025 19:55:51.957,15 Mar 2025 20:04:51.622,539.665
194,16 Mar 2025 18:02:17.002,16 Mar 2025 18:13:07.175,650.172
195,16 Mar 2025 19:36:22.255,16 Mar 2025 19:46:38.500,616.245
196,17 Mar 2025 17:44:07.541,17 Mar 2025 17:54:07.741,600.200
197,17 Mar 2025 19:17:10.261,17 Mar 2025 19:28:13.326,663.064
198,18 Mar 2025 17:26:13.328,18 Mar 2025 17:34:59.234,525.906
199,18 Mar 2025 18:58:12.229,18 Mar 2025 19:09:39.721,687.492
200,18 Mar 2025 20:37:20.598,18 Mar 2025 20:39:33.530,132.932
201,19 Mar 2025 17:08:40.261,19 Mar 2025 17:15:36.071,415.810
202,19 Mar 2025 18:39:26.453,19 Mar 2025 18:50:59.371,692.917
203,19 Mar 2025 20:16:03.075,19 Mar 2025 20:22:55.927,412.852
204,20 Mar 2025 16:51:50.992,20 Mar 2025 16:55:35.970,224.978
205,20 Mar 2025 18:20:52.281,20 Mar 2025 18:32:12.977,680.696
206,20 Mar 2025 19:56:05.823,20 Mar 2025 20:05:04.361,538.538
207,21 Mar 2025 18:02:29.873,21 Mar 2025 18:13:20.509,650.636
208,21 Mar 2025 19:36:35.876,21 Mar 2025 19:46:51.416,615.540
209,22 Mar 2025 17:44:20.251,22 Mar 2025 17:54:21.165,600.914
210,22 Mar 2025 19:17:23.701,22 Mar 2025 19:28:26.356,662.655
211,23 Mar 2025 17:26:25.836,23 Mar 2025 17:35:12.786,526.950
212,23 Mar 2025 18:58:25.517,23 Mar 2025 19:09:52.837,687.320
213,23 Mar 2025 20:37:37.852,23 Mar 2025 20:39:43.034,125.182
214,24 Mar 2025 17:08:52.455,24 Mar 2025 17:15:49.858,417.403
215,24 Mar 2025 18:39:39.603,24 Mar 2025 18:51:12.561,692.957
216,24 Mar 2025 20:16:17.382,24 Mar 2025 20:23:08.297,410.915
217,25 Mar 2025 16:52:02.248,25 Mar 2025 16:55:50.613,228.365
218,25 Mar 2025 18:21:05.296,25 Mar 2025 18:32:26.237,680.941
219,25 Mar 2025 19:56:19.692,25 Mar 2025 20:05:17.096,537.404
220,26 Mar 2025 18:02:42.746,26 Mar 2025 18:13:33.843,651.097
221,26 Mar 2025 19:36:49.499,26 Mar 2025 19:47:04.330,614.830
222,27 Mar 2025 17:44:32.964,27 Mar 2025 17:54:34.589,601.625
223,27 Mar 2025 19:17:37.144,27 Mar 2025 19:28:39.385,662.241
224,28 Mar 2025 17:26:38.347,28 Mar 2025 17:35:26.337,527.990
225,28 Mar 2025 18:58:38.808,28 Mar 2025 19:10:05.954,687.146
226,28 Mar 2025 20:37:55.371,28 Mar 2025 20:39:52.269,116.898
227,29 Mar 2025 17:09:04.656,29 Mar 2025 17:16:03.642,418.987
228,29 Mar 2025 18:39:52.756,29 Mar 2025 18:51:25.751,692.995
229,29 Mar 2025 20:16:31.699,29 Mar 2025 20:23:20.661,408.962
230,30 Mar 2025 16:52:13.533,30 Mar 2025 16:56:05.230,231.697
231,30 Mar 2025 18:21:18.313,30 Mar 2025 18:32:39.497,681.184
232,30 Mar 2025 19:56:33.566,30 Mar 2025 20:05:29.830,536.264
233,31 Mar 2025 18:02:55.622,31 Mar 2025 18:13:47.175,651.553
234,31 Mar 2025 19:37:03.126,31 Mar 2025 19:47:17.243,614.118
235,1 Apr 2025 17:44:45.680,1 Apr 2025 17:54:48.011,602.331
236,1 Apr 2025 19:17:50.589,1 Apr 2025 19:28:52.414,661.826
237,2 Apr 2025 17:26:50.862,2 Apr 2025 17:35:39.885,529.023
238,2 Apr 2025 18:58:52.101,2 Apr 2025 19:10:19.070,686.969
239,2 Apr 2025 20:38:13.214,2 Apr 2025 20:40:01.185,107.971
240,3 Apr 2025 17:09:16.861,3 Apr 2025 17:16:17.419,420.558
241,3 Apr 2025 18:40:05.912,3 Apr 2025 18:51:38.940,693.027
242,3 Apr 2025 20:16:46.019,3 Apr 2025 20:23:33.020,407.002
243,4 Apr 2025 16:52:24.847,4 Apr 2025 16:56:19.817,234.971
244,4 Apr 2025 18:21:31.331,4 Apr 2025 18:32:52.755,681.423
245,4 Apr 2025 19:56:47.444,4 Apr 2025 20:05:42.561,535.117
246,5 Apr 2025 18:03:08.498,5 Apr 2025 18:14:00.507,652.008
247,5 Apr 2025 19:37:16.753,5 Apr 2025 19:47:30.154,613.401
248,6 Apr 2025 17:44:58.396,6 Apr 2025 17:55:01.431,603.035
249,6 Apr 2025 19:18:04.034,6 Apr 2025 19:29:05.441,661.407
250,7 Apr 2025 17:27:03.379,7 Apr 2025 17:35:53.432,530.053
251,7 Apr 2025 18:59:05.395,7 Apr 2025 19:10:32.184,686.789
252,7 Apr 2025 20:38:31.478,7 Apr 2025 20:40:09.678,98.199
253,8 Apr 2025 17:09:29.071,8 Apr 2025 17:16:31.195,422.124
254,8 Apr 2025 18:40:19.068,8 Apr 2025 18:51:52.128,693.060
255,8 Apr 2025 20:17:00.347,8 Apr 2025 20:23:45.370,405.023
256,9 Apr 2025 16:52:36.184,9 Apr 2025 16:56:34.384,238.200
257,9 Apr 2025 18:21:44.352,9 Apr 2025 18:33:06.013,681.661
258,9 Apr 2025 19:57:01.325,9 Apr 2025 20:05:55.289,533.964
259,10 Apr 2025 18:03:21.378,10 Apr 2025 18:14:13.839,652.461
260,10 Apr 2025 19:37:30.385,10 Apr 2025 19:47:43.064,612.680
261,11 Apr 2025 17:45:11.117,11 Apr 2025 17:55:14.852,603.735
262,11 Apr 2025 19:18:17.479,11 Apr 2025 19:29:18.472,660.993
263,12 Apr 2025 17:27:15.900,12 Apr 2025 17:36:06.974,531.074
264,12 Apr 2025 18:59:18.692,12 Apr 2025 19:10:45.299,686.607
265,12 Apr 2025 20:38:50.302,12 Apr 2025 20:40:17.616,87.315
266,13 Apr 2025 17:09:41.288,13 Apr 2025 17:16:44.966,423.678
267,13 Apr 2025 18:40:32.224,13 Apr 2025 18:52:05.317,693.092
268,13 Apr 2025 20:17:14.689,13 Apr 2025 20:23:57.716,403.027
269,14 Apr 2025 16:52:47.548,14 Apr 2025 16:56:48.925,241.377
270,14 Apr 2025 18:21:57.375,14 Apr 2025 18:33:19.271,681.896
271,14 Apr 2025 19:57:15.212,14 Apr 2025 20:06:08.016,532.804
272,15 Apr 2025 18:03:34.259,15 Apr 2025 18:14:27.171,652.911
273,15 Apr 2025 19:37:44.019,15 Apr 2025 19:47:55.974,611.956
274,16 Apr 2025 17:45:23.840,16 Apr 2025 17:55:28.267,604.427
275,16 Apr 2025 19:18:30.930,16 Apr 2025 19:29:31.498,660.568
276,17 Apr 2025 17:27:28.424,17 Apr 2025 17:36:20.517,532.093
277,17 Apr 2025 18:59:31.991,17 Apr 2025 19:10:58.413,686.422
278,17 Apr 2025 20:39:09.919,17 Apr 2025 20:40:24.760,74.841
279,18 Apr 2025 17:09:53.509,18 Apr 2025 17:16:58.732,425.224
280,18 Apr 2025 18:40:45.384,18 Apr 2025 18:52:18.504,693.120
281,18 Apr 2025 20:17:29.035,18 Apr 2025 20:24:10.054,401.019
282,19 Apr 2025 16:52:58.936,19 Apr 2025 16:57:03.442,244.505
283,19 Apr 2025 18:22:10.399,19 Apr 2025 18:33:32.527,682.129
284,19 Apr 2025 19:57:29.100,19 Apr 2025 20:06:20.740,531.640
285,20 Apr 2025 18:03:47.142,20 Apr 2025 18:14:40.500,653.359
286,20 Apr 2025 19:37:57.650,20 Apr 2025 19:48:08.881,611.232
287,21 Apr 2025 17:45:36.564,21 Apr 2025 17:55:41.685,605.122
288,21 Apr 2025 19:18:44.382,21 Apr 2025 19:29:44.523,660.141
289,22 Apr 2025 17:27:40.950,22 Apr 2025 17:36:34.059,533.109
290,22 Apr 2025 18:59:45.290,22 Apr 2025 19:11:11.525,686.235
291,22 Apr 2025 20:39:30.833,22 Apr 2025 20:40:30.611,59.778
292,23 Apr 2025 17:10:05.739,23 Apr 2025 17:17:12.496,426.757
293,23 Apr 2025 18:40:58.547,23 Apr 2025 18:52:31.690,693.144
294,23 Apr 2025 20:17:43.389,23 Apr 2025 20:24:22.383,398.994
295,24 Apr 2025 16:53:10.345,24 Apr 2025 16:57:17.940,247.595
296,24 Apr 2025 18:22:23.424,24 Apr 2025 18:33:45.783,682.359
297,24 Apr 2025 19:57:42.993,24 Apr 2025 20:06:33.460,530.467
298,25 Apr 2025 18:04:00.026,25 Apr 2025 18:14:53.830,653.804
299,25 Apr 2025 19:38:11.289,25 Apr 2025 19:48:21.787,610.498
300,26 Apr 2025 17:45:49.290,26 Apr 2025 17:55:55.105,605.815
301,26 Apr 2025 19:18:57.838,26 Apr 2025 19:29:57.547,659.710
302,27 Apr 2025 17:27:53.480,27 Apr 2025 17:36:47.600,534.121
303,27 Apr 2025 18:59:58.593,27 Apr 2025 19:11:24.638,686.045
304,27 Apr 2025 20:39:54.478,27 Apr 2025 20:40:33.728,39.250
305,28 Apr 2025 17:10:17.967,28 Apr 2025 17:17:26.256,428.289
306,28 Apr 2025 18:41:11.706,28 Apr 2025 18:52:44.882,693.175
307,28 Apr 2025 20:17:57.749,28 Apr 2025 20:24:34.712,396.963
308,29 Apr 2025 16:53:21.780,29 Apr 2025 16:57:32.415,250.635
309,29 Apr 2025 18:22:36.453,29 Apr 2025 18:33:59.039,682.587
310,29 Apr 2025 19:57:56.890,29 Apr 2025 20:06:46.180,529.290
311,30 Apr 2025 18:04:12.914,30 Apr 2025 18:15:07.159,654.246
312,30 Apr 2025 19:38:24.931,30 Apr 2025 19:48:34.693,609.763
313,1 May 2025 17:46:02.019,1 May 2025 17:56:08.522,606.502
314,1 May 2025 19:19:11.295,1 May 2025 19:30:10.571,659.276
315,2 May 2025 17:28:06.012,2 May 2025 17:37:01.138,535.126
316,2 May 2025 19:00:11.897,2 May 2025 19:11:37.749,685.852
317,3 May 2025 17:10:30.203,3 May 2025 17:17:40.010,429.807
318,3 May 2025 18:41:24.871,3 May 2025 18:52:58.066,693.196
319,3 May 2025 20:18:12.120,3 May 2025 20:24:47.028,394.908
320,4 May 2025 16:53:33.234,4 May 2025 16:57:46.869,253.635
321,4 May 2025 18:22:49.482,4 May 2025 18:34:12.293,682.812
322,4 May 2025 19:58:10.789,4 May 2025 20:06:58.896,528.107
323,5 May 2025 18:04:25.802,5 May 2025 18:15:20.485,654.683
324,5 May 2025 19:38:38.574,5 May 2025 19:48:47.596,609.022
325,6 May 2025 17:46:14.750,6 May 2025 17:56:21.937,607.187
326,6 May 2025 19:19:24.754,6 May 2025 19:30:23.593,658.839
327,7 May 2025 17:28:18.547,7 May 2025 17:37:14.676,536.129
328,7 May 2025 19:00:25.203,7 May 2025 19:11:50.860,685.657
329,8 May 2025 17:10:42.449,8 May 2025 17:17:53.763,431.314
330,8 May 2025 18:41:38.038,8 May 2025 18:53:11.252,693.214
331,8 May 2025 20:18:26.503,8 May 2025 20:24:59.336,392.833
332,9 May 2025 16:53:44.708,9 May 2025 16:58:01.308,256.600
333,9 May 2025 18:23:02.514,9 May 2025 18:34:25.549,683.035
334,9 May 2025 19:58:24.694,9 May 2025 20:07:11.609,526.915
335,10 May 2025 18:04:38.697,10 May 2025 18:15:33.814,655.117
336,10 May 2025 19:38:52.222,10 May 2025 19:49:00.499,608.276
337,11 May 2025 17:46:27.488,11 May 2025 17:56:35.352,607.864
338,11 May 2025 19:19:38.221,11 May 2025 19:30:36.612,658.391
339,12 May 2025 17:28:31.086,12 May 2025 17:37:28.209,537.123
340,12 May 2025 19:00:38.512,12 May 2025 19:12:03.971,685.460
341,13 May 2025 17:10:54.696,13 May 2025 17:18:07.518,432.821
342,13 May 2025 18:41:51.209,13 May 2025 18:53:24.437,693.229
343,13 May 2025 20:18:40.895,13 May 2025 20:25:11.638,390.744
344,14 May 2025 16:53:56.204,14 May 2025 16:58:15.726,259.521
345,14 May 2025 18:23:15.548,14 May 2025 18:34:38.803,683.255
346,14 May 2025 19:58:38.603,14 May 2025 20:07:24.321,525.718
347,15 May 2025 18:04:51.590,15 May 2025 18:15:47.142,655.551
348,15 May 2025 19:39:05.873,15 May 2025 19:49:13.400,607.528
349,16 May 2025 17:46:40.224,16 May 2025 17:56:48.765,608.541
350,16 May 2025 19:19:51.683,16 May 2025 19:30:49.636,657.953
351,17 May 2025 17:28:43.627,17 May 2025 17:37:41.742,538.115
352,17 May 2025 19:00:51.822,17 May 2025 19:12:17.081,685.259
353,18 May 2025 17:11:06.946,18 May 2025 17:18:21.262,434.317
354,18 May 2025 18:42:04.379,18 May 2025 18:53:37.621,693.242
355,18 May 2025 20:18:55.294,18 May 2025 20:25:23.931,388.637
356,19 May 2025 16:54:07.718,19 May 2025 16:58:30.125,262.407
357,19 May 2025 18:23:28.583,19 May 2025 18:34:52.056,683.473
358,19 May 2025 19:58:52.514,19 May 2025 20:07:37.029,524.515
359,20 May 2025 18:05:04.485,20 May 2025 18:16:00.468,655.983
360,20 May 2025 19:39:19.525,20 May 2025 19:49:26.299,606.774
361,21 May 2025 17:46:52.961,21 May 2025 17:57:02.177,609.216
362,21 May 2025 19:20:05.151,21 May 2025 19:31:02.656,657.505
363,22 May 2025 17:28:56.173,22 May 2025 17:37:55.275,539.102
364,22 May 2025 19:01:05.134,22 May 2025 19:12:30.190,685.056
365,23 May 2025 17:11:19.200,23 May 2025 17:18:35.006,435.806
366,23 May 2025 18:42:17.552,23 May 2025 18:53:50.805,693.253
367,23 May 2025 20:19:09.705,23 May 2025 20:25:36.215,386.511
368,24 May 2025 16:54:19.250,24 May 2025 16:58:44.511,265.260
369,24 May 2025 18:23:41.621,24 May 2025 18:35:05.310,683.689
370,24 May 2025 19:59:06.432,24 May 2025 20:07:49.735,523.303
371,25 May 2025 18:05:17.382,25 May 2025 18:16:13.792,656.410
372,25 May 2025 19:39:33.181,25 May 2025 19:49:39.198,606.017
373,26 May 2025 17:47:05.702,26 May 2025 17:57:15.590,609.887
374,26 May 2025 19:20:18.616,26 May 2025 19:31:15.676,657.060
375,27 May 2025 17:29:08.721,27 May 2025 17:38:08.806,540.086
376,27 May 2025 19:01:18.449,27 May 2025 19:12:43.299,684.851
377,28 May 2025 17:11:31.461,28 May 2025 17:18:48.745,437.283
378,28 May 2025 18:42:30.727,28 May 2025 18:54:03.989,693.262
379,28 May 2025 20:19:24.124,28 May 2025 20:25:48.494,384.370
380,29 May 2025 16:54:30.803,29 May 2025 16:58:58.876,268.073
381,29 May 2025 18:23:54.660,29 May 2025 18:35:18.562,683.902
382,29 May 2025 19:59:20.353,29 May 2025 20:08:02.441,522.088
383,30 May 2025 18:05:30.281,30 May 2025 18:16:27.117,656.836
384,30 May 2025 19:39:46.840,30 May 2025 19:49:52.095,605.255
385,31 May 2025 17:47:18.445,31 May 2025 17:57:29.000,610.555
386,31 May 2025 19:20:32.086,31 May 2025 19:31:28.694,656.607
387,1 Jun 2025 17:29:21.270,1 Jun 2025 17:38:22.335,541.065
388,1 Jun 2025 19:01:31.764,1 Jun 2025 19:12:56.407,684.642
389,2 Jun 2025 17:11:43.731,2 Jun 2025 17:19:02.477,438.746
390,2 Jun 2025 18:42:43.906,2 Jun 2025 18:54:17.166,693.261
391,2 Jun 2025 20:19:38.557,2 Jun 2025 20:26:00.757,382.200
392,3 Jun 2025 16:54:42.371,3 Jun 2025 16:59:13.225,270.854
393,3 Jun 2025 18:24:07.700,3 Jun 2025 18:35:31.810,684.110
394,3 Jun 2025 19:59:34.275,3 Jun 2025 20:08:15.139,520.864
395,4 Jun 2025 18:05:43.178,4 Jun 2025 18:16:40.445,657.267
396,4 Jun 2025 19:40:00.501,4 Jun 2025 19:50:04.990,604.489
397,5 Jun 2025 17:47:31.189,5 Jun 2025 17:57:42.410,611.221
398,5 Jun 2025 19:20:45.561,5 Jun 2025 19:31:41.711,656.150
399,6 Jun 2025 17:29:33.823,6 Jun 2025 17:38:35.865,542.042
400,6 Jun 2025 19:01:45.083,6 Jun 2025 19:13:09.514,684.431
401,7 Jun 2025 17:11:56.001,7 Jun 2025 17:19:16.212,440.211
402,7 Jun 2025 18:42:57.085,7 Jun 2025 18:54:30.349,693.264
403,7 Jun 2025 20:19:52.998,7 Jun 2025 20:26:13.017,380.019
404,8 Jun 2025 16:54:53.956,8 Jun 2025 16:59:27.563,273.607
405,8 Jun 2025 18:24:20.744,8 Jun 2025 18:35:45.063,684.319
406,8 Jun 2025 19:59:48.206,8 Jun 2025 20:08:27.837,519.631
407,9 Jun 2025 18:05:56.082,9 Jun 2025 18:16:53.771,657.688
408,9 Jun 2025 19:40:14.166,9 Jun 2025 19:50:17.884,603.718
409,10 Jun 2025 17:47:43.937,10 Jun 2025 17:57:55.821,611.883
410,10 Jun 2025 19:20:59.038,10 Jun 2025 19:31:54.728,655.690
411,11 Jun 2025 17:29:46.380,11 Jun 2025 17:38:49.394,543.014
412,11 Jun 2025 19:01:58.404,11 Jun 2025 19:13:22.622,684.218
413,12 Jun 2025 17:12:08.277,12 Jun 2025 17:19:29.943,441.666
414,12 Jun 2025 18:43:10.266,12 Jun 2025 18:54:43.531,693.265
415,12 Jun 2025 20:20:07.448,12 Jun 2025 20:26:25.273,377.825
416,13 Jun 2025 16:55:05.558,13 Jun 2025 16:59:41.883,276.325
417,13 Jun 2025 18:24:33.789,13 Jun 2025 18:35:58.314,684.525
418,13 Jun 2025 20:00:02.140,13 Jun 2025 20:08:40.531,518.392
419,14 Jun 2025 18:06:08.987,14 Jun 2025 18:17:07.094,658.107
420,14 Jun 2025 19:40:27.838,14 Jun 2025 19:50:30.777,602.939
421,15 Jun 2025 17:47:56.686,15 Jun 2025 17:58:09.229,612.542
422,15 Jun 2025 19:21:12.517,15 Jun 2025 19:32:07.743,655.227
423,16 Jun 2025 17:29:58.937,16 Jun 2025 17:39:02.919,543.982
424,16 Jun 2025 19:02:11.726,16 Jun 2025 19:13:35.727,684.001
425,17 Jun 2025 17:12:20.555,17 Jun 2025 17:19:43.668,443.113
426,17 Jun 2025 18:43:23.448,17 Jun 2025 18:54:56.712,693.263
427,17 Jun 2025 20:20:21.908,17 Jun 2025 20:26:37.514,375.606
428,18 Jun 2025 16:55:17.174,18 Jun 2025 16:59:56.191,279.016
429,18 Jun 2025 18:24:46.836,18 Jun 2025 18:36:11.565,684.729
430,18 Jun 2025 20:00:16.078,18 Jun 2025 20:08:53.222,517.144
431,19 Jun 2025 18:06:21.897,19 Jun 2025 18:17:20.416,658.519
432,19 Jun 2025 19:40:41.508,19 Jun 2025 19:50:43.667,602.158
433,20 Jun 2025 17:48:09.438,20 Jun 2025 17:58:22.637,613.199
434,20 Jun 2025 19:21:25.998,20 Jun 2025 19:32:20.758,654.760
435,21 Jun 2025 17:30:11.499,21 Jun 2025 17:39:16.446,544.947
436,21 Jun 2025 19:02:25.051,21 Jun 2025 19:13:48.833,683.782
437,22 Jun 2025 17:12:32.839,22 Jun 2025 17:19:57.395,444.555
438,22 Jun 2025 18:43:36.634,22 Jun 2025 18:55:09.893,693.260
439,22 Jun 2025 20:20:36.381,22 Jun 2025 20:26:49.747,373.366
440,23 Jun 2025 16:55:28.808,23 Jun 2025 17:00:10.486,281.678
441,23 Jun 2025 18:24:59.885,23 Jun 2025 18:36:24.816,684.930
442,23 Jun 2025 20:00:30.022,23 Jun 2025 20:09:05.911,515.889
443,24 Jun 2025 18:06:34.807,24 Jun 2025 18:17:33.740,658.933
444,24 Jun 2025 19:40:55.183,24 Jun 2025 19:50:56.557,601.374
445,25 Jun 2025 17:48:22.193,25 Jun 2025 17:58:36.045,613.853
446,25 Jun 2025 19:21:39.480,25 Jun 2025 19:32:33.772,654.292
447,26 Jun 2025 17:30:24.063,26 Jun 2025 17:39:29.970,545.907
448,26 Jun 2025 19:02:38.378,26 Jun 2025 19:14:01.938,683.560
449,27 Jun 2025 17:12:45.126,27 Jun 2025 17:20:11.120,445.994
450,27 Jun 2025 18:43:49.816,27 Jun 2025 18:55:23.078,693.261
451,27 Jun 2025 20:20:50.858,27 Jun 2025 20:27:01.972,371.114
452,28 Jun 2025 16:55:40.460,28 Jun 2025 17:00:24.767,284.308
453,28 Jun 2025 18:25:12.939,28 Jun 2025 18:36:38.069,685.130
454,28 Jun 2025 20:00:43.971,28 Jun 2025 20:09:18.596,514.625
455,29 Jun 2025 18:06:47.717,29 Jun 2025 18:17:47.061,659.344
456,29 Jun 2025 19:41:08.858,29 Jun 2025 19:51:09.444,600.586
457,30 Jun 2025 17:48:34.948,30 Jun 2025 17:58:49.451,614.503
458,30 Jun 2025 19:21:52.964,30 Jun 2025 19:32:46.784,653.820
459,1 Jul 2025 17:30:36.629,1 Jul 2025 17:39:43.492,546.863
460,1 Jul 2025 19:02:51.706,1 Jul 2025 19:14:15.041,683.336
461,2 Jul 2025 17:12:57.419,2 Jul 2025 17:20:24.837,447.418
462,2 Jul 2025 18:44:03.006,2 Jul 2025 18:55:36.252,693.246
463,2 Jul 2025 20:21:05.355,2 Jul 2025 20:27:14.183,368.828
464,3 Jul 2025 16:55:52.117,3 Jul 2025 17:00:39.034,286.917
465,3 Jul 2025 18:25:25.988,3 Jul 2025 18:36:51.315,685.326
466,3 Jul 2025 20:00:57.920,3 Jul 2025 20:09:31.277,513.357
467,4 Jul 2025 18:07:00.630,4 Jul 2025 18:18:00.384,659.753
468,4 Jul 2025 19:41:22.538,4 Jul 2025 19:51:22.329,599.792
469,5 Jul 2025 17:48:47.706,5 Jul 2025 17:59:02.858,615.152
470,5 Jul 2025 19:22:06.454,5 Jul 2025 19:32:59.796,653.342
471,6 Jul 2025 17:30:49.199,6 Jul 2025 17:39:57.015,547.816
472,6 Jul 2025 19:03:05.037,6 Jul 2025 19:14:28.145,683.108
473,7 Jul 2025 17:13:09.711,7 Jul 2025 17:20:38.555,448.844
474,7 Jul 2025 18:44:16.196,7 Jul 2025 18:55:49.432,693.236
475,7 Jul 2025 20:21:19.861,7 Jul 2025 20:27:26.386,366.525
476,8 Jul 2025 16:56:03.793,8 Jul 2025 17:00:53.290,289.497
477,8 Jul 2025 18:25:39.043,8 Jul 2025 18:37:04.564,685.521
478,8 Jul 2025 20:01:11.878,8 Jul 2025 20:09:43.957,512.079
479,9 Jul 2025 18:07:13.546,9 Jul 2025 18:18:13.701,660.156
480,9 Jul 2025 19:41:36.220,9 Jul 2025 19:51:35.214,598.994
481,10 Jul 2025 17:49:00.467,10 Jul 2025 17:59:16.263,615.796
482,10 Jul 2025 19:22:19.942,10 Jul 2025 19:33:12.806,652.864
483,11 Jul 2025 17:31:01.771,11 Jul 2025 17:40:10.535,548.763
484,11 Jul 2025 19:03:18.370,11 Jul 2025 19:14:41.248,682.877
485,12 Jul 2025 17:13:22.012,12 Jul 2025 17:20:52.266,450.254
486,12 Jul 2025 18:44:29.388,12 Jul 2025 18:56:02.610,693.222
487,12 Jul 2025 20:21:34.376,12 Jul 2025 20:27:38.580,364.204
488,13 Jul 2025 16:56:15.483,13 Jul 2025 17:01:07.532,292.050
489,13 Jul 2025 18:25:52.099,13 Jul 2025 18:37:17.812,685.713
490,13 Jul 2025 20:01:25.838,13 Jul 2025 20:09:56.629,510.791
491,14 Jul 2025 18:07:26.462,14 Jul 2025 18:18:27.020,660.558
492,14 Jul 2025 19:41:49.904,14 Jul 2025 19:51:48.095,598.191
493,15 Jul 2025 17:49:13.229,15 Jul 2025 17:59:29.667,616.439
494,15 Jul 2025 19:22:33.434,15 Jul 2025 19:33:25.815,652.381
495,16 Jul 2025 17:31:14.345,16 Jul 2025 17:40:24.053,549.708
496,16 Jul 2025 19:03:31.705,16 Jul 2025 19:14:54.348,682.644
497,17 Jul 2025 17:13:34.319,17 Jul 2025 17:21:05.983,451.665
498,17 Jul 2025 18:44:42.579,17 Jul 2025 18:56:15.792,693.212
499,17 Jul 2025 20:21:48.900,17 Jul 2025 20:27:50.757,361.857
500,18 Jul 2025 16:56:27.189,18 Jul 2025 17:01:21.768,294.579
501,18 Jul 2025 18:26:05.160,18 Jul 2025 18:37:31.059,685.899
502,18 Jul 2025 20:01:39.806,18 Jul 2025 20:10:09.302,509.496
503,19 Jul 2025 18:07:39.380,19 Jul 2025 18:18:40.340,660.960
504,19 Jul 2025 19:42:03.593,19 Jul 2025 19:52:00.976,597.383
505,20 Jul 2025 17:49:25.994,20 Jul 2025 17:59:43.072,617.078
506,20 Jul 2025 19:22:46.930,20 Jul 2025 19:33:38.823,651.894
507,21 Jul 2025 17:31:26.923,21 Jul 2025 17:40:37.572,550.649
508,21 Jul 2025 19:03:45.043,21 Jul 2025 19:15:07.450,682.407
509,22 Jul 2025 17:13:46.628,22 Jul 2025 17:21:19.693,453.066
510,22 Jul 2025 18:44:55.776,22 Jul 2025 18:56:28.970,693.194
511,22 Jul 2025 20:22:03.441,22 Jul 2025 20:28:02.929,359.489
512,23 Jul 2025 16:56:38.906,23 Jul 2025 17:01:35.988,297.082
513,23 Jul 2025 18:26:18.221,23 Jul 2025 18:37:44.307,686.087
514,23 Jul 2025 20:01:53.777,23 Jul 2025 20:10:21.971,508.194
515,24 Jul 2025 18:07:52.301,24 Jul 2025 18:18:53.660,661.359
516,24 Jul 2025 19:42:17.284,24 Jul 2025 19:52:13.855,596.571
517,25 Jul 2025 17:49:38.760,25 Jul 2025 17:59:56.475,617.715
518,25 Jul 2025 19:23:00.424,25 Jul 2025 19:33:51.830,651.406
519,26 Jul 2025 17:31:39.502,26 Jul 2025 17:40:51.087,551.585
520,26 Jul 2025 19:03:58.381,26 Jul 2025 19:15:20.549,682.168
521,27 Jul 2025 17:13:58.939,27 Jul 2025 17:21:33.398,454.459
522,27 Jul 2025 18:45:08.972,27 Jul 2025 18:56:42.145,693.173
523,27 Jul 2025 20:22:17.991,27 Jul 2025 20:28:15.093,357.103
524,28 Jul 2025 16:56:50.633,28 Jul 2025 17:01:50.196,299.563
525,28 Jul 2025 18:26:31.281,28 Jul 2025 18:37:57.553,686.272
526,28 Jul 2025 20:02:07.750,28 Jul 2025 20:10:34.634,506.884
527,29 Jul 2025 18:08:05.222,29 Jul 2025 18:19:06.977,661.755
528,29 Jul 2025 19:42:30.977,29 Jul 2025 19:52:26.730,595.753
529,30 Jul 2025 17:49:51.528,30 Jul 2025 18:00:09.876,618.349
530,30 Jul 2025 19:23:13.922,30 Jul 2025 19:34:04.834,650.912
531,31 Jul 2025 17:31:52.084,31 Jul 2025 17:41:04.603,552.519
532,31 Jul 2025 19:04:11.722,31 Jul 2025 19:15:33.647,681.925
533,1 Aug 2025 17:14:11.255,1 Aug 2025 17:21:47.103,455.848
534,1 Aug 2025 18:45:22.171,1 Aug 2025 18:56:55.320,693.149
535,1 Aug 2025 20:22:32.556,1 Aug 2025 20:28:27.238,354.682
536,2 Aug 2025 16:57:02.372,2 Aug 2025 17:02:04.396,302.025
537,2 Aug 2025 18:26:44.344,2 Aug 2025 18:38:10.799,686.454
538,2 Aug 2025 20:02:21.730,2 Aug 2025 20:10:47.294,505.565
539,3 Aug 2025 18:08:18.146,3 Aug 2025 18:19:20.296,662.149
540,3 Aug 2025 19:42:44.674,3 Aug 2025 19:52:39.604,594.930
541,4 Aug 2025 17:50:04.298,4 Aug 2025 18:00:23.279,618.980
542,4 Aug 2025 19:23:27.424,4 Aug 2025 19:34:17.839,650.415
543,5 Aug 2025 17:32:04.669,5 Aug 2025 17:41:18.118,553.449
544,5 Aug 2025 19:04:25.066,5 Aug 2025 19:15:46.746,681.680
545,6 Aug 2025 17:14:23.575,6 Aug 2025 17:22:00.805,457.230
546,6 Aug 2025 18:45:35.372,6 Aug 2025 18:57:08.496,693.124
547,6 Aug 2025 20:22:47.133,6 Aug 2025 20:28:39.374,352.242
548,7 Aug 2025 16:57:14.121,7 Aug 2025 17:02:18.585,304.464
549,7 Aug 2025 18:26:57.406,7 Aug 2025 18:38:24.044,686.638
550,7 Aug 2025 20:02:35.713,7 Aug 2025 20:10:59.947,504.235
551,8 Aug 2025 18:08:31.068,8 Aug 2025 18:19:33.617,662.549
552,8 Aug 2025 19:42:58.373,8 Aug 2025 19:52:52.472,594.099
553,9 Aug 2025 17:50:17.070,9 Aug 2025 18:00:36.676,619.605
554,9 Aug 2025 19:23:40.927,9 Aug 2025 19:34:30.841,649.914
555,10 Aug 2025 17:32:17.255,10 Aug 2025 17:41:31.629,554.374
556,10 Aug 2025 19:04:38.407,10 Aug 2025 19:15:59.842,681.435
557,11 Aug 2025 17:14:35.899,11 Aug 2025 17:22:14.502,458.604
558,11 Aug 2025 18:45:48.573,11 Aug 2025 18:57:21.668,693.095
559,11 Aug 2025 20:23:01.721,11 Aug 2025 20:28:51.499,349.778
560,12 Aug 2025 16:57:25.884,12 Aug 2025 17:02:32.763,306.880
561,12 Aug 2025 18:27:10.471,12 Aug 2025 18:38:37.287,686.816
562,12 Aug 2025 20:02:49.699,12 Aug 2025 20:11:12.604,502.904
563,13 Aug 2025 18:08:43.994,13 Aug 2025 18:19:46.933,662.939
564,13 Aug 2025 19:43:12.074,13 Aug 2025 19:53:05.341,593.267
565,14 Aug 2025 17:50:29.843,14 Aug 2025 18:00:50.075,620.231
566,14 Aug 2025 19:23:54.431,14 Aug 2025 19:34:43.841,649.410
567,15 Aug 2025 17:32:29.844,15 Aug 2025 17:41:45.141,555.297
568,15 Aug 2025 19:04:51.753,15 Aug 2025 19:16:12.937,681.184
569,16 Aug 2025 17:14:48.225,16 Aug 2025 17:22:28.200,459.974
570,16 Aug 2025 18:46:01.777,16 Aug 2025 18:57:34.841,693.064
571,16 Aug 2025 20:23:16.324,16 Aug 2025 20:29:03.610,347.286
572,17 Aug 2025 16:57:37.658,17 Aug 2025 17:02:46.934,309.276
573,17 Aug 2025 18:27:23.539,17 Aug 2025 18:38:50.531,686.991
574,17 Aug 2025 20:03:03.693,17 Aug 2025 20:11:25.252,501.559
575,18 Aug 2025 18:08:56.923,18 Aug 2025 18:20:00.249,663.325
576,18 Aug 2025 19:43:25.780,18 Aug 2025 19:53:18.209,592.429
577,19 Aug 2025 17:50:42.615,19 Aug 2025 18:01:03.477,620.862
578,19 Aug 2025 19:24:07.935,19 Aug 2025 19:34:56.837,648.901
579,20 Aug 2025 17:32:42.435,20 Aug 2025 17:41:58.651,556.216
580,20 Aug 2025 19:05:05.100,20 Aug 2025 19:16:26.032,680.932
581,21 Aug 2025 17:15:00.557,21 Aug 2025 17:22:41.893,461.336
582,21 Aug 2025 18:46:14.983,21 Aug 2025 18:57:48.013,693.031
583,21 Aug 2025 20:23:30.939,21 Aug 2025 20:29:15.710,344.771
584,22 Aug 2025 16:57:49.446,22 Aug 2025 17:03:01.085,311.640
585,22 Aug 2025 18:27:36.609,22 Aug 2025 18:39:03.773,687.164
586,22 Aug 2025 20:03:17.689,22 Aug 2025 20:11:37.898,500.208
587,23 Aug 2025 18:09:09.853,23 Aug 2025 18:20:13.563,663.710
588,23 Aug 2025 19:43:39.487,23 Aug 2025 19:53:31.075,591.588
589,24 Aug 2025 17:50:55.392,24 Aug 2025 18:01:16.874,621.481
590,24 Aug 2025 19:24:21.443,24 Aug 2025 19:35:09.836,648.393
591,25 Aug 2025 17:32:55.028,25 Aug 2025 17:42:12.159,557.131
592,25 Aug 2025 19:05:18.449,25 Aug 2025 19:16:39.124,680.676
593,26 Aug 2025 17:15:12.890,26 Aug 2025 17:22:55.583,462.692
594,26 Aug 2025 18:46:28.188,26 Aug 2025 18:58:01.183,692.995
595,26 Aug 2025 20:23:45.567,26 Aug 2025 20:29:27.796,342.229
596,27 Aug 2025 16:58:01.241,27 Aug 2025 17:03:15.233,313.992
597,27 Aug 2025 18:27:49.678,27 Aug 2025 18:39:17.014,687.335
598,27 Aug 2025 20:03:31.690,27 Aug 2025 20:11:50.537,498.847
599,28 Aug 2025 18:09:22.784,28 Aug 2025 18:20:26.876,664.092
600,28 Aug 2025 19:43:53.196,28 Aug 2025 19:53:43.937,590.740
601,29 Aug 2025 17:51:08.171,29 Aug 2025 18:01:30.266,622.095
602,29 Aug 2025 19:24:34.954,29 Aug 2025 19:35:22.832,647.878
603,30 Aug 2025 17:33:07.625,30 Aug 2025 17:42:25.666,558.041
604,30 Aug 2025 19:05:31.799,30 Aug 2025 19:16:52.216,680.417
605,31 Aug 2025 17:15:25.228,31 Aug 2025 17:23:09.272,464.044
606,31 Aug 2025 18:46:41.397,31 Aug 2025 18:58:14.353,692.956
607,31 Aug 2025 20:24:00.210,31 Aug 2025 20:29:39.868,339.658
608,1 Sep 2025 16:58:13.049,1 Sep 2025 17:03:29.373,316.325
609,1 Sep 2025 18:28:02.751,1 Sep 2025 18:39:30.255,687.504
610,1 Sep 2025 20:03:45.697,1 Sep 2025 20:12:03.173,497.476
611,2 Sep 2025 18:09:35.718,2 Sep 2025 18:20:40.189,664.471
612,2 Sep 2025 19:44:06.910,2 Sep 2025 19:53:56.797,589.888
613,3 Sep 2025 17:51:20.952,3 Sep 2025 18:01:43.663,622.711
614,3 Sep 2025 19:24:48.467,3 Sep 2025 19:35:35.827,647.360
615,4 Sep 2025 17:33:20.223,4 Sep 2025 17:42:39.172,558.949
616,4 Sep 2025 19:05:45.152,4 Sep 2025 19:17:05.311,680.159
617,5 Sep 2025 17:15:37.570,5 Sep 2025 17:23:22.957,465.387
618,5 Sep 2025 18:46:54.606,5 Sep 2025 18:58:27.522,692.916
619,5 Sep 2025 20:24:14.866,5 Sep 2025 20:29:51.928,337.062
620,6 Sep 2025 16:58:24.867,6 Sep 2025 17:03:43.501,318.634
621,6 Sep 2025 18:28:15.824,6 Sep 2025 18:39:43.494,687.670
622,6 Sep 2025 20:03:59.706,6 Sep 2025 20:12:15.805,496.098
623,7 Sep 2025 18:09:48.652,7 Sep 2025 18:20:53.500,664.848
624,7 Sep 2025 19:44:20.624,7 Sep 2025 19:54:09.655,589.031
625,8 Sep 2025 17:51:33.734,8 Sep 2025 18:01:57.059,623.325
626,8 Sep 2025 19:25:01.980,8 Sep 2025 19:35:48.819,646.839
627,9 Sep 2025 17:33:32.822,9 Sep 2025 17:42:52.675,559.853
628,9 Sep 2025 19:05:58.505,9 Sep 2025 19:17:18.399,679.894
629,10 Sep 2025 17:15:49.913,10 Sep 2025 17:23:36.639,466.725
630,10 Sep 2025 18:47:07.816,10 Sep 2025 18:58:40.688,692.872
631,10 Sep 2025 20:24:29.535,10 Sep 2025 20:30:03.972,334.437
632,11 Sep 2025 16:58:36.693,11 Sep 2025 17:03:57.621,320.928
633,11 Sep 2025 18:28:28.898,11 Sep 2025 18:39:56.732,687.834
634,11 Sep 2025 20:04:13.720,11 Sep 2025 20:12:28.431,494.710
635,12 Sep 2025 18:10:01.587,12 Sep 2025 18:21:06.810,665.223
636,12 Sep 2025 19:44:34.342,12 Sep 2025 19:54:22.510,588.168
637,13 Sep 2025 17:51:46.517,13 Sep 2025 18:02:10.452,623.935
638,13 Sep 2025 19:25:15.497,13 Sep 2025 19:36:01.810,646.313
639,14 Sep 2025 17:33:45.424,14 Sep 2025 17:43:06.178,560.755
640,14 Sep 2025 19:06:11.861,14 Sep 2025 19:17:31.487,679.626
641,15 Sep 2025 17:16:02.261,15 Sep 2025 17:23:50.320,468.058
642,15 Sep 2025 18:47:21.029,15 Sep 2025 18:58:53.855,692.826
643,15 Sep 2025 20:24:44.221,15 Sep 2025 20:30:16.002,331.781
644,16 Sep 2025 16:58:48.531,16 Sep 2025 17:04:11.734,323.203
645,16 Sep 2025 18:28:41.975,16 Sep 2025 18:40:09.971,687.996
646,16 Sep 2025 20:04:27.740,16 Sep 2025 20:12:41.054,493.314
647,17 Sep 2025 18:10:14.525,17 Sep 2025 18:21:20.120,665.595
648,17 Sep 2025 19:44:48.063,17 Sep 2025 19:54:35.364,587.301
649,18 Sep 2025 17:51:59.303,18 Sep 2025 18:02:23.844,624.541
650,18 Sep 2025 19:25:29.015,18 Sep 2025 19:36:14.799,645.784
651,19 Sep 2025 17:33:58.027,19 Sep 2025 17:43:19.678,561.651
652,19 Sep 2025 19:06:25.215,19 Sep 2025 19:17:44.573,679.358
653,20 Sep 2025 17:16:14.613,20 Sep 2025 17:24:03.995,469.383
654,20 Sep 2025 18:47:34.242,20 Sep 2025 18:59:07.019,692.777
655,20 Sep 2025 20:24:58.919,20 Sep 2025 20:30:28.019,329.100
656,21 Sep 2025 16:59:00.378,21 Sep 2025 17:04:25.834,325.456
657,21 Sep 2025 18:28:55.051,21 Sep 2025 18:40:23.206,688.155
658,21 Sep 2025 20:04:41.762,21 Sep 2025 20:12:53.672,491.910
659,22 Sep 2025 18:10:27.462,22 Sep 2025 18:21:33.427,665.964
660,22 Sep 2025 19:45:01.784,22 Sep 2025 19:54:48.213,586.429
661,23 Sep 2025 17:52:12.089,23 Sep 2025 18:02:37.233,625.144
662,23 Sep 2025 19:25:42.534,23 Sep 2025 19:36:27.785,645.252
663,24 Sep 2025 17:34:10.632,24 Sep 2025 17:43:33.176,562.544
664,24 Sep 2025 19:06:38.572,24 Sep 2025 19:17:57.657,679.085
665,25 Sep 2025 17:16:26.966,25 Sep 2025 17:24:17.669,470.703
666,25 Sep 2025 18:47:47.456,25 Sep 2025 18:59:20.182,692.726
667,25 Sep 2025 20:25:13.633,25 Sep 2025 20:30:40.018,326.385
668,26 Sep 2025 16:59:12.233,26 Sep 2025 17:04:39.927,327.694
669,26 Sep 2025 18:29:08.129,26 Sep 2025 18:40:36.439,688.310
670,26 Sep 2025 20:04:55.790,26 Sep 2025 20:13:06.285,490.495
671,27 Sep 2025 18:10:40.402,27 Sep 2025 18:21:46.733,666.331
672,27 Sep 2025 19:45:15.506,27 Sep 2025 19:55:01.060,585.554
673,28 Sep 2025 17:52:24.877,28 Sep 2025 18:02:50.623,625.745
674,28 Sep 2025 19:25:56.055,28 Sep 2025 19:36:40.770,644.715
675,29 Sep 2025 17:34:23.239,29 Sep 2025 17:43:46.674,563.435
676,29 Sep 2025 19:06:51.932,29 Sep 2025 19:18:10.740,678.808
677,30 Sep 2025 17:16:39.328,30 Sep 2025 17:24:31.340,472.012
678,30 Sep 2025 18:48:00.672,30 Sep 2025 18:59:33.344,692.673
679,30 Sep 2025 20:25:28.363,30 Sep 2025 20:30:52.003,323.640
680,1 Oct 2025 16:59:24.098,1 Oct 2025 17:04:54.010,329.912
681,1 Oct 2025 18:29:21.209,1 Oct 2025 18:40:49.673,688.464
682,1 Oct 2025 20:05:09.822,1 Oct 2025 20:13:18.894,489.072
683,2 Oct 2025 18:10:53.343,2 Oct 2025 18:22:00.039,666.696
684,2 Oct 2025 19:45:29.236,2 Oct 2025 19:55:13.906,584.670
685,3 Oct 2025 17:52:37.667,3 Oct 2025 18:03:04.010,626.342
686,3 Oct 2025 19:26:09.578,3 Oct 2025 19:36:53.754,644.176
687,4 Oct 2025 17:34:35.849,4 Oct 2025 17:44:00.168,564.320
688,4 Oct 2025 19:07:05.292,4 Oct 2025 19:18:23.822,678.530
689,5 Oct 2025 17:16:51.687,5 Oct 2025 17:24:45.006,473.319
690,5 Oct 2025 18:48:13.889,5 Oct 2025 18:59:46.501,692.612
691,5 Oct 2025 20:25:43.109,5 Oct 2025 20:31:03.977,320.869
692,6 Oct 2025 16:59:35.969,6 Oct 2025 17:05:08.077,332.108
693,6 Oct 2025 18:29:34.290,6 Oct 2025 18:41:02.904,688.615
694,6 Oct 2025 20:05:23.860,6 Oct 2025 20:13:31.498,487.638
695,7 Oct 2025 18:11:06.284,7 Oct 2025 18:22:13.342,667.058
696,7 Oct 2025 19:45:42.965,7 Oct 2025 19:55:26.748,583.783
697,8 Oct 2025 17:52:50.458,8 Oct 2025 18:03:17.395,626.937
698,8 Oct 2025 19:26:23.102,8 Oct 2025 19:37:06.735,643.633
699,9 Oct 2025 17:34:48.459,9 Oct 2025 17:44:13.661,565.202
700,9 Oct 2025 19:07:18.653,9 Oct 2025 19:18:36.901,678.248
701,10 Oct 2025 17:17:04.047,10 Oct 2025 17:24:58.668,474.621
702,10 Oct 2025 18:48:27.105,10 Oct 2025 18:59:59.664,692.559
703,10 Oct 2025 20:25:57.871,10 Oct 2025 20:31:15.924,318.053
704,11 Oct 2025 16:59:47.855,11 Oct 2025 17:05:22.149,334.294
705,11 Oct 2025 18:29:47.370,11 Oct 2025 18:41:16.135,688.765
706,11 Oct 2025 20:05:37.898,11 Oct 2025 20:13:44.097,486.199
707,12 Oct 2025 18:11:19.228,12 Oct 2025 18:22:26.645,667.418
708,12 Oct 2025 19:45:56.693,12 Oct 2025 19:55:39.587,582.894
709,13 Oct 2025 17:53:03.251,13 Oct 2025 18:03:30.780,627.529
710,13 Oct 2025 19:26:36.629,13 Oct 2025 19:37:19.715,643.086
711,14 Oct 2025 17:35:01.073,14 Oct 2025 17:44:27.153,566.081
712,14 Oct 2025 19:07:32.017,14 Oct 2025 19:18:49.980,677.963
713,15 Oct 2025 17:17:16.415,15 Oct 2025 17:25:12.331,475.916
714,15 Oct 2025 18:48:40.325,15 Oct 2025 19:00:12.822,692.497
715,15 Oct 2025 20:26:12.649,15 Oct 2025 20:31:27.861,315.212
716,16 Oct 2025 16:59:59.748,16 Oct 2025 17:05:36.205,336.457
717,16 Oct 2025 18:30:00.453,16 Oct 2025 18:41:29.366,688.912
718,16 Oct 2025 20:05:51.943,16 Oct 2025 20:13:56.693,484.750
719,17 Oct 2025 18:11:32.172,17 Oct 2025 18:22:39.946,667.774
720,17 Oct 2025 19:46:10.428,17 Oct 2025 19:55:52.425,581.997
721,18 Oct 2025 17:53:16.044,18 Oct 2025 18:03:44.162,628.118
722,18 Oct 2025 19:26:50.156,18 Oct 2025 19:37:32.692,642.536
723,19 Oct 2025 17:35:13.688,19 Oct 2025 17:44:40.642,566.954
724,19 Oct 2025 19:07:45.381,19 Oct 2025 19:19:03.056,677.676
725,20 Oct 2025 17:17:28.785,20 Oct 2025 17:25:25.988,477.203
726,20 Oct 2025 18:48:53.544,20 Oct 2025 19:00:25.978,692.434
727,20 Oct 2025 20:26:27.442,20 Oct 2025 20:31:39.781,312.339
728,21 Oct 2025 17:00:11.648,21 Oct 2025 17:05:50.251,338.602
729,21 Oct 2025 18:30:13.536,21 Oct 2025 18:41:42.593,689.057
730,21 Oct 2025 20:06:05.991,21 Oct 2025 20:14:09.282,483.291
731,22 Oct 2025 18:11:45.117,22 Oct 2025 18:22:53.245,668.129
732,22 Oct 2025 19:46:24.163,22 Oct 2025 19:56:05.258,581.095
733,23 Oct 2025 17:53:28.839,23 Oct 2025 18:03:57.543,628.704
734,23 Oct 2025 19:27:03.684,23 Oct 2025 19:37:45.667,641.982
735,24 Oct 2025 17:35:26.306,24 Oct 2025 17:44:54.124,567.818
736,24 Oct 2025 19:07:58.745,24 Oct 2025 19:19:16.127,677.382
737,25 Oct 2025 17:17:41.159,25 Oct 2025 17:25:39.644,478.485
738,25 Oct 2025 18:49:06.765,25 Oct 2025 19:00:39.132,692.367
739,25 Oct 2025 20:26:42.249,25 Oct 2025 20:31:51.682,309.433
740,26 Oct 2025 17:00:23.556,26 Oct 2025 17:06:04.290,340.734
741,26 Oct 2025 18:30:26.621,26 Oct 2025 18:41:55.819,689.198
742,26 Oct 2025 20:06:20.044,26 Oct 2025 20:14:21.867,481.822
743,27 Oct 2025 18:11:58.063,27 Oct 2025 18:23:06.544,668.480
744,27 Oct 2025 19:46:37.902,27 Oct 2025 19:56:18.089,580.187
745,28 Oct 2025 17:53:41.635,28 Oct 2025 18:04:10.922,629.287
746,28 Oct 2025 19:27:17.216,28 Oct 2025 19:37:58.640,641.425
747,29 Oct 2025 17:35:38.925,29 Oct 2025 17:45:07.609,568.684
748,29 Oct 2025 19:08:12.112,29 Oct 2025 19:19:29.204,677.092
749,30 Oct 2025 17:17:53.536,30 Oct 2025 17:25:53.297,479.761
750,30 Oct 2025 18:49:19.988,30 Oct 2025 19:00:52.286,692.298
751,30 Oct 2025 20:26:57.078,30 Oct 2025 20:32:03.567,306.490
752,31 Oct 2025 17:00:35.475,31 Oct 2025 17:06:18.320,342.845
753,31 Oct 2025 18:30:39.707,31 Oct 2025 18:42:09.045,689.338
754,31 Oct 2025 20:06:34.102,31 Oct 2025 20:14:34.448,480.346
755,1 Nov 2025 18:12:11.011,1 Nov 2025 18:23:19.840,668.829
756,1 Nov 2025 19:46:51.643,1 Nov 2025 19:56:30.923,579.280
757,2 Nov 2025 17:53:54.433,2 Nov 2025 18:04:24.300,629.866
758,2 Nov 2025 19:27:30.747,2 Nov 2025 19:38:11.612,640.865
759,3 Nov 2025 17:35:51.546,3 Nov 2025 17:45:21.091,569.546
760,3 Nov 2025 19:08:25.479,3 Nov 2025 19:19:42.272,676.793
761,4 Nov 2025 17:18:05.915,4 Nov 2025 17:26:06.944,481.029
762,4 Nov 2025 18:49:33.210,4 Nov 2025 19:01:05.437,692.227
763,4 Nov 2025 20:27:11.922,4 Nov 2025 20:32:15.434,303.512
764,5 Nov 2025 17:00:47.399,5 Nov 2025 17:06:32.340,344.941
765,5 Nov 2025 18:30:52.793,5 Nov 2025 18:42:22.268,689.476
766,5 Nov 2025 20:06:48.163,5 Nov 2025 20:14:47.023,478.860
767,6 Nov 2025 18:12:23.959,6 Nov 2025 18:23:33.135,669.176
768,6 Nov 2025 19:47:05.386,6 Nov 2025 19:56:43.748,578.362
769,7 Nov 2025 17:54:07.231,7 Nov 2025 18:04:37.675,630.444
770,7 Nov 2025 19:27:44.280,7 Nov 2025 19:38:24.581,640.300
771,8 Nov 2025 17:36:04.168,8 Nov 2025 17:45:34.573,570.405
772,8 Nov 2025 19:08:38.847,8 Nov 2025 19:19:55.341,676.494
773,9 Nov 2025 17:18:18.297,9 Nov 2025 17:26:20.591,482.293
774,9 Nov 2025 18:49:46.435,9 Nov 2025 19:01:18.588,692.153
775,9 Nov 2025 20:27:26.788,9 Nov 2025 20:32:27.280,300.492
776,10 Nov 2025 17:00:59.329,10 Nov 2025 17:06:46.353,347.024
777,10 Nov 2025 18:31:05.881,10 Nov 2025 18:42:35.491,689.609
778,10 Nov 2025 20:07:02.234,10 Nov 2025 20:14:59.596,477.362
779,11 Nov 2025 18:12:36.909,11 Nov 2025 18:23:46.429,669.520
780,11 Nov 2025 19:47:19.132,11 Nov 2025 19:56:56.572,577.440
781,12 Nov 2025 17:54:20.033,12 Nov 2025 18:04:51.050,631.017
782,12 Nov 2025 19:27:57.816,12 Nov 2025 19:38:37.549,639.733
783,13 Nov 2025 17:36:16.793,13 Nov 2025 17:45:48.051,571.259
784,13 Nov 2025 19:08:52.217,13 Nov 2025 19:20:08.414,676.197
785,14 Nov 2025 17:18:30.683,14 Nov 2025 17:26:34.232,483.549
786,14 Nov 2025 18:49:59.660,14 Nov 2025 19:01:31.737,692.077
787,14 Nov 2025 20:27:41.675,14 Nov 2025 20:32:39.110,297.434
788,15 Nov 2025 17:01:11.273,15 Nov 2025 17:07:00.356,349.084
789,15 Nov 2025 18:31:18.970,15 Nov 2025 18:42:48.709,689.739
790,15 Nov 2025 20:07:16.304,15 Nov 2025 20:15:12.163,475.859
791,16 Nov 2025 18:12:49.860,16 Nov 2025 18:23:59.721,669.861
792,16 Nov 2025 19:47:32.880,16 Nov 2025 19:57:09.393,576.513
793,17 Nov 2025 17:54:32.834,17 Nov 2025 18:05:04.421,631.588
794,17 Nov 2025 19:28:11.352,17 Nov 2025 19:38:50.514,639.162
795,18 Nov 2025 17:36:29.418,18 Nov 2025 17:46:01.527,572.109
796,18 Nov 2025 19:09:05.587,18 Nov 2025 19:20:21.480,675.893
797,19 Nov 2025 17:18:43.071,19 Nov 2025 17:26:47.869,484.798
798,19 Nov 2025 18:50:12.885,19 Nov 2025 19:01:44.883,691.998
799,19 Nov 2025 20:27:56.576,19 Nov 2025 20:32:50.917,294.341
800,20 Nov 2025 17:01:23.222,20 Nov 2025 17:07:14.352,351.130
801,20 Nov 2025 18:31:32.059,20 Nov 2025 18:43:01.928,689.870
802,20 Nov 2025 20:07:30.378,20 Nov 2025 20:15:24.724,474.346
803,21 Nov 2025 18:13:02.811,21 Nov 2025 18:24:13.011,670.200
804,21 Nov 2025 19:47:46.628,21 Nov 2025 19:57:22.210,575.582
805,22 Nov 2025 17:54:45.636,22 Nov 2025 18:05:17.792,632.155
806,22 Nov 2025 19:28:24.894,22 Nov 2025 19:39:03.477,638.583
807,23 Nov 2025 17:36:42.046,23 Nov 2025 17:46:15.001,572.955
808,23 Nov 2025 19:09:18.959,23 Nov 2025 19:20:34.545,675.586
809,24 Nov 2025 17:18:55.463,24 Nov 2025 17:27:01.505,486.042
810,24 Nov 2025 18:50:26.113,24 Nov 2025 19:01:58.029,691.917
811,24 Nov 2025 20:28:11.499,24 Nov 2025 20:33:02.705,291.206
812,25 Nov 2025 17:01:35.181,25 Nov 2025 17:07:28.342,353.161
813,25 Nov 2025 18:31:45.150,25 Nov 2025 18:43:15.147,689.998
814,25 Nov 2025 20:07:44.458,25 Nov 2025 20:15:37.281,472.824
815,26 Nov 2025 18:13:15.764,26 Nov 2025 18:24:26.300,670.536
816,26 Nov 2025 19:48:00.381,26 Nov 2025 19:57:35.027,574.646
817,27 Nov 2025 17:54:58.441,27 Nov 2025 18:05:31.161,632.720
818,27 Nov 2025 19:28:38.434,27 Nov 2025 19:39:16.440,638.006
819,28 Nov 2025 17:36:54.676,28 Nov 2025 17:46:28.473,573.797
820,28 Nov 2025 19:09:32.333,28 Nov 2025 19:20:47.610,675.277
821,29 Nov 2025 17:19:07.859,29 Nov 2025 17:27:15.131,487.273
822,29 Nov 2025 18:50:39.341,29 Nov 2025 19:02:11.174,691.833
823,29 Nov 2025 20:28:26.442,29 Nov 2025 20:33:14.474,288.032
824,30 Nov 2025 17:01:47.148,30 Nov 2025 17:07:42.321,355.172
825,30 Nov 2025 18:31:58.241,30 Nov 2025 18:43:28.364,690.123
826,30 Nov 2025 20:07:58.541,30 Nov 2025 20:15:49.835,471.294
827,1 Dec 2025 18:13:28.722,1 Dec 2025 18:24:39.587,670.865
828,1 Dec 2025 19:48:14.137,1 Dec 2025 19:57:47.840,573.703
829,2 Dec 2025 17:55:11.247,2 Dec 2025 18:05:44.527,633.281
830,2 Dec 2025 19:28:51.969,2 Dec 2025 19:39:29.400,637.431
831,3 Dec 2025 17:37:07.307,3 Dec 2025 17:46:41.941,574.634
832,3 Dec 2025 19:09:45.706,3 Dec 2025 19:21:00.671,674.965
833,4 Dec 2025 17:19:20.254,4 Dec 2025 17:27:28.762,488.508
834,4 Dec 2025 18:50:52.573,4 Dec 2025 19:02:24.312,691.739
835,4 Dec 2025 20:28:41.400,4 Dec 2025 20:33:26.215,284.815
836,5 Dec 2025 17:01:59.126,5 Dec 2025 17:07:56.292,357.166
837,5 Dec 2025 18:32:11.333,5 Dec 2025 18:43:41.580,690.248
838,5 Dec 2025 20:08:12.626,5 Dec 2025 20:16:02.383,469.757
839,6 Dec 2025 18:13:41.673,6 Dec 2025 18:24:52.873,671.200
840,6 Dec 2025 19:48:27.892,6 Dec 2025 19:58:00.650,572.758
841,7 Dec 2025 17:55:24.054,7 Dec 2025 18:05:57.893,633.839
842,7 Dec 2025 19:29:05.517,7 Dec 2025 19:39:42.358,636.841
843,8 Dec 2025 17:37:19.941,8 Dec 2025 17:46:55.410,575.469
844,8 Dec 2025 19:09:59.082,8 Dec 2025 19:21:13.732,674.650
845,9 Dec 2025 17:19:32.656,9 Dec 2025 17:27:42.388,489.732
846,9 Dec 2025 18:51:05.804,9 Dec 2025 19:02:37.455,691.650
847,9 Dec 2025 20:28:56.388,9 Dec 2025 20:33:37.940,281.552
848,10 Dec 2025 17:02:11.109,10 Dec 2025 17:08:10.256,359.147
849,10 Dec 2025 18:32:24.427,10 Dec 2025 18:43:54.795,690.367
850,10 Dec 2025 20:08:26.720,10 Dec 2025 20:16:14.927,468.207
851,11 Dec 2025 16:46:41.407,11 Dec 2025 16:46:53.269,11.863
852,11 Dec 2025 18:13:54.634,11 Dec 2025 18:25:06.158,671.524
853,11 Dec 2025 19:48:41.648,11 Dec 2025 19:58:13.459,571.812
854,12 Dec 2025 17:55:36.863,12 Dec 2025 18:06:11.257,634.394
855,12 Dec 2025 19:29:19.057,12 Dec 2025 19:39:55.315,636.259
856,13 Dec 2025 17:37:32.577,13 Dec 2025 17:47:08.874,576.297
857,13 Dec 2025 19:10:12.459,13 Dec 2025 19:21:26.792,674.333
858,14 Dec 2025 17:19:45.060,14 Dec 2025 17:27:56.008,490.948
859,14 Dec 2025 18:51:19.036,14 Dec 2025 19:02:50.595,691.559
860,14 Dec 2025 20:29:11.395,14 Dec 2025 20:33:49.643,278.248
861,15 Dec 2025 17:02:23.094,15 Dec 2025 17:08:24.210,361.116
862,15 Dec 2025 18:32:37.522,15 Dec 2025 18:44:08.006,690.484
863,15 Dec 2025 20:08:40.813,15 Dec 2025 20:16:27.468,466.656
864,16 Dec 2025 16:46:39.308,16 Dec 2025 16:47:21.228,41.920
865,16 Dec 2025 18:14:07.591,16 Dec 2025 18:25:19.440,671.849
866,16 Dec 2025 19:48:55.408,16 Dec 2025 19:58:26.265,570.857
867,17 Dec 2025 17:55:49.673,17 Dec 2025 18:06:24.618,634.945
868,17 Dec 2025 19:29:32.605,17 Dec 2025 19:40:08.270,635.665
869,18 Dec 2025 17:37:45.214,18 Dec 2025 17:47:22.336,577.122
870,18 Dec 2025 19:10:25.836,18 Dec 2025 19:21:39.849,674.013
871,19 Dec 2025 17:19:57.466,19 Dec 2025 17:28:09.625,492.158
872,19 Dec 2025 18:51:32.268,19 Dec 2025 19:03:03.733,691.466
873,19 Dec 2025 20:29:26.427,19 Dec 2025 20:34:01.321,274.894
874,20 Dec 2025 17:02:35.091,20 Dec 2025 17:08:38.158,363.066
875,20 Dec 2025 18:32:50.618,20 Dec 2025 18:44:21.217,690.599
876,20 Dec 2025 20:08:54.914,20 Dec 2025 20:16:40.002,465.088
877,21 Dec 2025 16:46:44.161,21 Dec 2025 16:47:42.236,58.076
878,21 Dec 2025 18:14:20.550,21 Dec 2025 18:25:32.722,672.172
879,21 Dec 2025 19:49:09.171,21 Dec 2025 19:58:39.068,569.897
880,22 Dec 2025 17:56:02.485,22 Dec 2025 18:06:37.979,635.494
881,22 Dec 2025 19:29:46.148,22 Dec 2025 19:40:21.223,635.075
882,23 Dec 2025 17:37:57.854,23 Dec 2025 17:47:35.798,577.944
883,23 Dec 2025 19:10:39.216,23 Dec 2025 19:21:52.906,673.690
884,24 Dec 2025 17:20:09.878,24 Dec 2025 17:28:23.240,493.362
885,24 Dec 2025 18:51:45.502,24 Dec 2025 19:03:16.872,691.370
886,24 Dec 2025 20:29:41.485,24 Dec 2025 20:34:12.977,271.493
887,25 Dec 2025 17:02:47.098,25 Dec 2025 17:08:52.098,365.001
888,25 Dec 2025 18:33:03.716,25 Dec 2025 18:44:34.424,690.707
889,25 Dec 2025 20:09:09.022,25 Dec 2025 20:16:52.534,463.511
890,26 Dec 2025 16:46:50.840,26 Dec 2025 16:48:01.424,70.584
891,26 Dec 2025 18:14:33.511,26 Dec 2025 18:25:46.003,672.491
892,26 Dec 2025 19:49:22.938,26 Dec 2025 19:58:51.871,568.934
893,27 Dec 2025 17:56:15.299,27 Dec 2025 18:06:51.337,636.039
894,27 Dec 2025 19:29:59.698,27 Dec 2025 19:40:34.176,634.479
895,28 Dec 2025 17:38:10.496,28 Dec 2025 17:47:49.254,578.757
896,28 Dec 2025 19:10:52.597,28 Dec 2025 19:22:05.962,673.365
897,29 Dec 2025 17:20:22.292,29 Dec 2025 17:28:36.850,494.558
898,29 Dec 2025 18:51:58.737,29 Dec 2025 19:03:30.008,691.271
899,29 Dec 2025 20:29:56.565,29 Dec 2025 20:34:24.609,268.044
900,30 Dec 2025 17:02:59.111,30 Dec 2025 17:09:06.029,366.918
901,30 Dec 2025 18:33:16.814,30 Dec 2025 18:44:47.635,690.821
902,30 Dec 2025 20:09:23.134,30 Dec 2025 20:17:05.060,461.926
903,31 Dec 2025 16:46:58.478,31 Dec 2025 16:48:19.645,81.167
904,31 Dec 2025 18:14:46.472,31 Dec 2025 18:25:59.281,672.808
905,31 Dec 2025 19:49:36.705,31 Dec 2025 19:59:04.670,567.965

Global Statistics
"Min Duration",851,11 Dec 2025 16:46:41.407,11 Dec 2025 16:46:53.269,11.863
"Max Duration",414,12 Jun 2025 18:43:10.266,12 Jun 2025 18:54:43.531,693.265
"Mean Duration",,,,547.314
"Total Duration",,,,495319.562


