3UCubedIntegratedSim/Reports & Plots/Comms/SSU/Sat2 Comms.csv

"Access","Start Time (UTCG)","Stop Time (UTCG)","Duration (sec)"
1,1 Jan 2025 20:50:00.470,1 Jan 2025 21:00:19.283,618.812
2,1 Jan 2025 22:23:23.382,1 Jan 2025 22:34:13.928,650.546
3,2 Jan 2025 20:32:00.891,2 Jan 2025 20:41:14.097,553.206
4,2 Jan 2025 22:04:21.067,2 Jan 2025 22:15:42.812,681.745
5,3 Jan 2025 20:14:19.867,3 Jan 2025 20:21:56.741,456.874
6,3 Jan 2025 21:45:31.416,3 Jan 2025 21:57:04.544,693.128
7,3 Jan 2025 23:22:42.781,3 Jan 2025 23:28:35.684,352.903
8,4 Jan 2025 19:57:10.556,4 Jan 2025 20:02:14.405,303.850
9,4 Jan 2025 21:26:53.490,4 Jan 2025 21:38:20.077,686.588
10,4 Jan 2025 23:02:31.526,4 Jan 2025 23:10:56.119,504.593
11,5 Jan 2025 21:08:27.192,5 Jan 2025 21:19:29.635,662.443
12,5 Jan 2025 22:42:54.268,5 Jan 2025 22:52:48.589,594.321
13,6 Jan 2025 20:50:13.237,6 Jan 2025 21:00:32.675,619.438
14,6 Jan 2025 22:23:36.878,6 Jan 2025 22:34:26.925,650.047
15,7 Jan 2025 20:32:13.473,7 Jan 2025 20:41:27.604,554.131
16,7 Jan 2025 22:04:34.405,7 Jan 2025 22:15:55.904,681.499
17,8 Jan 2025 20:14:32.186,8 Jan 2025 20:22:10.434,458.248
18,8 Jan 2025 21:45:44.612,8 Jan 2025 21:57:17.713,693.101
19,8 Jan 2025 23:22:57.359,8 Jan 2025 23:28:47.809,350.450
20,9 Jan 2025 19:57:22.313,9 Jan 2025 20:02:28.579,306.266
21,9 Jan 2025 21:27:06.550,9 Jan 2025 21:38:33.315,686.766
22,9 Jan 2025 23:02:45.505,9 Jan 2025 23:11:08.772,503.267
23,10 Jan 2025 21:08:40.112,10 Jan 2025 21:19:42.945,662.832
24,10 Jan 2025 22:43:07.961,10 Jan 2025 22:53:01.454,593.492
25,11 Jan 2025 20:50:26.005,11 Jan 2025 21:00:46.068,620.063
26,11 Jan 2025 22:23:50.375,11 Jan 2025 22:34:39.921,649.545
27,12 Jan 2025 20:32:26.055,12 Jan 2025 20:41:41.108,555.052
28,12 Jan 2025 22:04:47.743,12 Jan 2025 22:16:08.993,681.250
29,13 Jan 2025 20:14:44.507,13 Jan 2025 20:22:24.122,459.616
30,13 Jan 2025 21:45:57.809,13 Jan 2025 21:57:30.879,693.070
31,13 Jan 2025 23:23:11.948,13 Jan 2025 23:28:59.918,347.970
32,14 Jan 2025 19:57:34.081,14 Jan 2025 20:02:42.741,308.661
33,14 Jan 2025 21:27:19.610,14 Jan 2025 21:38:46.552,686.942
34,14 Jan 2025 23:02:59.489,14 Jan 2025 23:11:21.416,501.928
35,15 Jan 2025 21:08:53.035,15 Jan 2025 21:19:56.254,663.219
36,15 Jan 2025 22:43:21.658,15 Jan 2025 22:53:14.316,592.658
37,16 Jan 2025 20:50:38.774,16 Jan 2025 21:00:59.460,620.686
38,16 Jan 2025 22:24:03.875,16 Jan 2025 22:34:52.915,649.039
39,17 Jan 2025 20:32:38.641,17 Jan 2025 20:41:54.612,555.971
40,17 Jan 2025 22:05:01.085,17 Jan 2025 22:16:22.082,680.998
41,18 Jan 2025 20:14:56.833,18 Jan 2025 20:22:37.810,460.977
42,18 Jan 2025 21:46:11.008,18 Jan 2025 21:57:44.046,693.038
43,18 Jan 2025 23:23:26.552,18 Jan 2025 23:29:12.018,345.466
44,19 Jan 2025 19:57:45.862,19 Jan 2025 20:02:56.889,311.026
45,19 Jan 2025 21:27:32.674,19 Jan 2025 21:38:59.789,687.115
46,19 Jan 2025 23:03:13.478,19 Jan 2025 23:11:34.058,500.581
47,20 Jan 2025 21:09:05.960,20 Jan 2025 21:20:09.563,663.603
48,20 Jan 2025 22:43:35.359,20 Jan 2025 22:53:27.178,591.819
49,21 Jan 2025 20:50:51.542,21 Jan 2025 21:01:12.854,621.312
50,21 Jan 2025 22:24:17.373,21 Jan 2025 22:35:05.906,648.533
51,22 Jan 2025 20:32:51.229,22 Jan 2025 20:42:08.113,556.884
52,22 Jan 2025 22:05:14.426,22 Jan 2025 22:16:35.171,680.744
53,23 Jan 2025 20:15:09.163,23 Jan 2025 20:22:51.492,462.329
54,23 Jan 2025 21:46:24.208,23 Jan 2025 21:57:57.211,693.003
55,23 Jan 2025 23:23:41.167,23 Jan 2025 23:29:24.108,342.941
56,24 Jan 2025 19:57:57.656,24 Jan 2025 20:03:11.027,313.371
57,24 Jan 2025 21:27:45.739,24 Jan 2025 21:39:13.024,687.286
58,24 Jan 2025 23:03:27.469,24 Jan 2025 23:11:46.697,499.228
59,25 Jan 2025 21:09:18.885,25 Jan 2025 21:20:22.869,663.984
60,25 Jan 2025 22:43:49.060,25 Jan 2025 22:53:40.037,590.977
61,26 Jan 2025 20:51:04.316,26 Jan 2025 21:01:26.238,621.923
62,26 Jan 2025 22:24:30.876,26 Jan 2025 22:35:18.898,648.021
63,27 Jan 2025 20:33:03.822,27 Jan 2025 20:42:21.612,557.790
64,27 Jan 2025 22:05:27.770,27 Jan 2025 22:16:48.257,680.488
65,28 Jan 2025 20:15:21.496,28 Jan 2025 20:23:05.172,463.676
66,28 Jan 2025 21:46:37.409,28 Jan 2025 21:58:10.375,692.965
67,28 Jan 2025 23:23:55.794,28 Jan 2025 23:29:36.183,340.389
68,29 Jan 2025 19:58:09.459,29 Jan 2025 20:03:25.157,315.698
69,29 Jan 2025 21:27:58.804,29 Jan 2025 21:39:26.259,687.455
70,29 Jan 2025 23:03:41.465,29 Jan 2025 23:11:59.330,497.865
71,30 Jan 2025 21:09:31.812,30 Jan 2025 21:20:36.175,664.363
72,30 Jan 2025 22:44:02.765,30 Jan 2025 22:53:52.894,590.129
73,31 Jan 2025 20:51:17.091,31 Jan 2025 21:01:39.628,622.537
74,31 Jan 2025 22:24:44.382,31 Jan 2025 22:35:31.888,647.506
75,1 Feb 2025 20:33:16.415,1 Feb 2025 20:42:35.110,558.696
76,1 Feb 2025 22:05:41.116,1 Feb 2025 22:17:01.343,680.228
77,2 Feb 2025 20:15:33.834,2 Feb 2025 20:23:18.849,465.016
78,2 Feb 2025 21:46:50.613,2 Feb 2025 21:58:23.539,692.925
79,2 Feb 2025 23:24:10.437,2 Feb 2025 23:29:48.247,337.809
80,3 Feb 2025 19:58:21.275,3 Feb 2025 20:03:39.277,318.002
81,3 Feb 2025 21:28:11.872,3 Feb 2025 21:39:39.494,687.621
82,3 Feb 2025 23:03:55.467,3 Feb 2025 23:12:11.962,496.495
83,4 Feb 2025 21:09:44.742,4 Feb 2025 21:20:49.481,664.739
84,4 Feb 2025 22:44:16.473,4 Feb 2025 22:54:05.751,589.278
85,5 Feb 2025 20:51:29.869,5 Feb 2025 21:01:53.018,623.149
86,5 Feb 2025 22:24:57.890,5 Feb 2025 22:35:44.878,646.988
87,6 Feb 2025 20:33:29.011,6 Feb 2025 20:42:48.606,559.595
88,6 Feb 2025 22:05:54.463,6 Feb 2025 22:17:14.432,679.969
89,7 Feb 2025 20:15:46.175,7 Feb 2025 20:23:32.521,466.346
90,7 Feb 2025 21:47:03.818,7 Feb 2025 21:58:36.701,692.883
91,7 Feb 2025 23:24:25.091,7 Feb 2025 23:30:00.299,335.207
92,8 Feb 2025 19:58:33.101,8 Feb 2025 20:03:53.384,320.283
93,8 Feb 2025 21:28:24.941,8 Feb 2025 21:39:52.726,687.785
94,8 Feb 2025 23:04:09.471,8 Feb 2025 23:12:24.590,495.118
95,9 Feb 2025 21:09:57.672,9 Feb 2025 21:21:02.784,665.112
96,9 Feb 2025 22:44:30.182,9 Feb 2025 22:54:18.604,588.422
97,10 Feb 2025 20:51:42.648,10 Feb 2025 21:02:06.404,623.756
98,10 Feb 2025 22:25:11.398,10 Feb 2025 22:35:57.865,646.467
99,11 Feb 2025 20:33:41.608,11 Feb 2025 20:43:02.100,560.492
100,11 Feb 2025 22:06:07.812,11 Feb 2025 22:17:27.516,679.704
101,12 Feb 2025 20:15:58.520,12 Feb 2025 20:23:46.192,467.672
102,12 Feb 2025 21:47:17.024,12 Feb 2025 21:58:49.862,692.838
103,12 Feb 2025 23:24:39.761,12 Feb 2025 23:30:12.336,332.575
104,13 Feb 2025 19:58:44.937,13 Feb 2025 20:04:07.486,322.549
105,13 Feb 2025 21:28:38.012,13 Feb 2025 21:40:05.959,687.947
106,13 Feb 2025 23:04:23.481,13 Feb 2025 23:12:37.213,493.731
107,14 Feb 2025 21:10:10.605,14 Feb 2025 21:21:16.088,665.483
108,14 Feb 2025 22:44:43.895,14 Feb 2025 22:54:31.456,587.560
109,15 Feb 2025 20:51:55.430,15 Feb 2025 21:02:19.790,624.360
110,15 Feb 2025 22:25:24.911,15 Feb 2025 22:36:10.853,645.942
111,16 Feb 2025 20:33:54.209,16 Feb 2025 20:43:15.593,561.384
112,16 Feb 2025 22:06:21.161,16 Feb 2025 22:17:40.600,679.438
113,17 Feb 2025 20:16:10.870,17 Feb 2025 20:23:59.860,468.990
114,17 Feb 2025 21:47:30.233,17 Feb 2025 21:59:03.024,692.791
115,17 Feb 2025 23:24:54.446,17 Feb 2025 23:30:24.362,329.916
116,18 Feb 2025 19:58:56.785,18 Feb 2025 20:04:21.576,324.791
117,18 Feb 2025 21:28:51.085,18 Feb 2025 21:40:19.191,688.106
118,18 Feb 2025 23:04:37.497,18 Feb 2025 23:12:49.835,492.338
119,19 Feb 2025 21:10:23.540,19 Feb 2025 21:21:29.391,665.851
120,19 Feb 2025 22:44:57.612,19 Feb 2025 22:54:44.307,586.696
121,20 Feb 2025 20:52:08.214,20 Feb 2025 21:02:33.174,624.960
122,20 Feb 2025 22:25:38.425,20 Feb 2025 22:36:23.839,645.415
123,21 Feb 2025 20:34:06.813,21 Feb 2025 20:43:29.084,562.272
124,21 Feb 2025 22:06:34.514,21 Feb 2025 22:17:53.682,679.168
125,22 Feb 2025 20:16:23.224,22 Feb 2025 20:24:13.524,470.300
126,22 Feb 2025 21:47:43.443,22 Feb 2025 21:59:16.184,692.741
127,22 Feb 2025 23:25:09.143,22 Feb 2025 23:30:36.374,327.231
128,23 Feb 2025 19:59:08.643,23 Feb 2025 20:04:35.655,327.012
129,23 Feb 2025 21:29:04.159,23 Feb 2025 21:40:32.421,688.262
130,23 Feb 2025 23:04:51.515,23 Feb 2025 23:13:02.452,490.937
131,24 Feb 2025 21:10:36.475,24 Feb 2025 21:21:42.692,666.216
132,24 Feb 2025 22:45:11.326,24 Feb 2025 22:54:57.156,585.830
133,25 Feb 2025 20:52:20.999,25 Feb 2025 21:02:46.556,625.557
134,25 Feb 2025 22:25:51.940,25 Feb 2025 22:36:36.823,644.884
135,26 Feb 2025 20:34:19.417,26 Feb 2025 20:43:42.573,563.156
136,26 Feb 2025 22:06:47.868,26 Feb 2025 22:18:06.763,678.895
137,27 Feb 2025 20:16:35.580,27 Feb 2025 20:24:27.186,471.605
138,27 Feb 2025 21:47:56.654,27 Feb 2025 21:59:29.343,692.689
139,27 Feb 2025 23:25:23.857,27 Feb 2025 23:30:48.371,324.514
140,28 Feb 2025 19:59:20.510,28 Feb 2025 20:04:49.727,329.217
141,28 Feb 2025 21:29:17.235,28 Feb 2025 21:40:45.649,688.415
142,28 Feb 2025 23:05:05.539,28 Feb 2025 23:13:15.064,489.526
143,1 Mar 2025 21:10:49.413,1 Mar 2025 21:21:55.993,666.580
144,1 Mar 2025 22:45:25.049,1 Mar 2025 22:55:10.002,584.953
145,2 Mar 2025 20:52:33.787,2 Mar 2025 21:02:59.938,626.151
146,2 Mar 2025 22:26:05.459,2 Mar 2025 22:36:49.807,644.349
147,3 Mar 2025 20:34:32.026,3 Mar 2025 20:43:56.062,564.036
148,3 Mar 2025 22:07:01.225,3 Mar 2025 22:18:19.844,678.619
149,4 Mar 2025 20:16:47.945,4 Mar 2025 20:24:40.844,472.899
150,4 Mar 2025 21:48:09.869,4 Mar 2025 21:59:42.498,692.630
151,4 Mar 2025 23:25:38.588,4 Mar 2025 23:31:00.360,321.771
152,5 Mar 2025 19:59:32.386,5 Mar 2025 20:05:03.783,331.398
153,5 Mar 2025 21:29:30.314,5 Mar 2025 21:40:58.879,688.565
154,5 Mar 2025 23:05:19.570,5 Mar 2025 23:13:27.675,488.105
155,6 Mar 2025 21:11:02.353,6 Mar 2025 21:22:09.293,666.939
156,6 Mar 2025 22:45:38.774,6 Mar 2025 22:55:22.848,584.074
157,7 Mar 2025 20:52:46.576,7 Mar 2025 21:03:13.318,626.742
158,7 Mar 2025 22:26:18.979,7 Mar 2025 22:37:02.790,643.812
159,8 Mar 2025 20:34:44.637,8 Mar 2025 20:44:09.548,564.911
160,8 Mar 2025 22:07:14.583,8 Mar 2025 22:18:32.924,678.341
161,9 Mar 2025 20:17:00.307,9 Mar 2025 20:24:54.495,474.188
162,9 Mar 2025 21:48:23.082,9 Mar 2025 21:59:55.660,692.578
163,9 Mar 2025 23:25:53.333,9 Mar 2025 23:31:12.324,318.991
164,10 Mar 2025 19:59:44.276,10 Mar 2025 20:05:17.840,333.564
165,10 Mar 2025 21:29:43.391,10 Mar 2025 21:41:12.108,688.717
166,10 Mar 2025 23:05:33.600,10 Mar 2025 23:13:40.281,486.682
167,11 Mar 2025 21:11:15.294,11 Mar 2025 21:22:22.592,667.297
168,11 Mar 2025 22:45:52.502,11 Mar 2025 22:55:35.691,583.189
169,12 Mar 2025 20:52:59.368,12 Mar 2025 21:03:26.698,627.330
170,12 Mar 2025 22:26:32.501,12 Mar 2025 22:37:15.771,643.271
171,13 Mar 2025 20:34:57.250,13 Mar 2025 20:44:23.033,565.783
172,13 Mar 2025 22:07:27.943,13 Mar 2025 22:18:46.003,678.060
173,14 Mar 2025 20:17:12.676,14 Mar 2025 20:25:08.150,475.474
174,14 Mar 2025 21:48:36.299,14 Mar 2025 22:00:08.818,692.519
175,14 Mar 2025 23:26:08.096,14 Mar 2025 23:31:24.277,316.181
176,15 Mar 2025 19:59:56.172,15 Mar 2025 20:05:31.886,335.714
177,15 Mar 2025 21:29:56.473,15 Mar 2025 21:41:25.336,688.863
178,15 Mar 2025 23:05:47.639,15 Mar 2025 23:13:52.884,485.245
179,16 Mar 2025 21:11:28.239,16 Mar 2025 21:22:35.891,667.652
180,16 Mar 2025 22:46:06.228,16 Mar 2025 22:55:48.534,582.305
181,17 Mar 2025 20:53:12.162,17 Mar 2025 21:03:40.077,627.915
182,17 Mar 2025 22:26:46.027,17 Mar 2025 22:37:28.753,642.726
183,18 Mar 2025 20:35:09.867,18 Mar 2025 20:44:36.518,566.651
184,18 Mar 2025 22:07:41.306,18 Mar 2025 22:18:59.082,677.776
185,19 Mar 2025 20:17:25.050,19 Mar 2025 20:25:21.802,476.752
186,19 Mar 2025 21:48:49.518,19 Mar 2025 22:00:21.975,692.457
187,19 Mar 2025 23:26:22.876,19 Mar 2025 23:31:36.217,313.342
188,20 Mar 2025 20:00:08.080,20 Mar 2025 20:05:45.923,337.842
189,20 Mar 2025 21:30:09.557,20 Mar 2025 21:41:38.564,689.008
190,20 Mar 2025 23:06:01.683,20 Mar 2025 23:14:05.485,483.802
191,21 Mar 2025 21:11:41.184,21 Mar 2025 21:22:49.189,668.005
192,21 Mar 2025 22:46:19.962,21 Mar 2025 22:56:01.375,581.413
193,22 Mar 2025 20:53:24.958,22 Mar 2025 21:03:53.455,628.497
194,22 Mar 2025 22:26:59.554,22 Mar 2025 22:37:41.733,642.179
195,23 Mar 2025 20:35:22.486,23 Mar 2025 20:44:49.999,567.514
196,23 Mar 2025 22:07:54.670,23 Mar 2025 22:19:12.160,677.490
197,24 Mar 2025 20:17:37.427,24 Mar 2025 20:25:35.449,478.023
198,24 Mar 2025 21:49:02.739,24 Mar 2025 22:00:35.131,692.393
199,24 Mar 2025 23:26:37.671,24 Mar 2025 23:31:48.140,310.469
200,25 Mar 2025 20:00:19.996,25 Mar 2025 20:05:59.950,339.955
201,25 Mar 2025 21:30:22.641,25 Mar 2025 21:41:51.791,689.150
202,25 Mar 2025 23:06:15.730,25 Mar 2025 23:14:18.080,482.350
203,26 Mar 2025 21:11:54.131,26 Mar 2025 21:23:02.486,668.355
204,26 Mar 2025 22:46:33.697,26 Mar 2025 22:56:14.212,580.515
205,27 Mar 2025 20:53:37.756,27 Mar 2025 21:04:06.832,629.076
206,27 Mar 2025 22:27:13.083,27 Mar 2025 22:37:54.710,641.628
207,28 Mar 2025 20:35:35.109,28 Mar 2025 20:45:03.476,568.367
208,28 Mar 2025 22:08:08.036,28 Mar 2025 22:19:25.236,677.200
209,29 Mar 2025 20:17:49.809,29 Mar 2025 20:25:49.097,479.288
210,29 Mar 2025 21:49:15.962,29 Mar 2025 22:00:48.287,692.325
211,29 Mar 2025 23:26:52.482,29 Mar 2025 23:32:00.046,307.564
212,30 Mar 2025 20:00:31.921,30 Mar 2025 20:06:13.973,342.052
213,30 Mar 2025 21:30:35.728,30 Mar 2025 21:42:05.017,689.289
214,30 Mar 2025 23:06:29.784,30 Mar 2025 23:14:30.671,480.887
215,31 Mar 2025 21:12:07.081,31 Mar 2025 21:23:15.783,668.702
216,31 Mar 2025 22:46:47.438,31 Mar 2025 22:56:27.054,579.616
217,1 Apr 2025 20:53:50.557,1 Apr 2025 21:04:20.209,629.652
218,1 Apr 2025 22:27:26.616,1 Apr 2025 22:38:07.689,641.073
219,2 Apr 2025 20:35:47.735,2 Apr 2025 20:45:16.957,569.222
220,2 Apr 2025 22:08:21.405,2 Apr 2025 22:19:38.313,676.909
221,3 Apr 2025 20:18:02.195,3 Apr 2025 20:26:02.741,480.546
222,3 Apr 2025 21:49:29.187,3 Apr 2025 22:01:01.443,692.256
223,3 Apr 2025 23:27:07.314,3 Apr 2025 23:32:11.938,304.624
224,4 Apr 2025 20:00:43.854,4 Apr 2025 20:06:27.985,344.131
225,4 Apr 2025 21:30:48.817,4 Apr 2025 21:42:18.243,689.426
226,4 Apr 2025 23:06:43.843,4 Apr 2025 23:14:43.260,479.418
227,5 Apr 2025 21:12:20.032,5 Apr 2025 21:23:29.079,669.047
228,5 Apr 2025 22:47:01.180,5 Apr 2025 22:56:39.889,578.709
229,6 Apr 2025 20:54:03.359,6 Apr 2025 21:04:33.584,630.225
230,6 Apr 2025 22:27:40.149,6 Apr 2025 22:38:20.665,640.516
231,7 Apr 2025 20:36:00.361,7 Apr 2025 20:45:30.435,570.074
232,7 Apr 2025 22:08:34.774,7 Apr 2025 22:19:51.385,676.611
233,8 Apr 2025 20:18:14.583,8 Apr 2025 20:26:16.381,481.799
234,8 Apr 2025 21:49:42.412,8 Apr 2025 22:01:14.597,692.184
235,8 Apr 2025 23:27:22.165,8 Apr 2025 23:32:23.809,301.644
236,9 Apr 2025 20:00:55.795,9 Apr 2025 20:06:41.991,346.197
237,9 Apr 2025 21:31:01.907,9 Apr 2025 21:42:31.469,689.562
238,9 Apr 2025 23:06:57.906,9 Apr 2025 23:14:55.846,477.940
239,10 Apr 2025 21:12:32.985,10 Apr 2025 21:23:42.375,669.390
240,10 Apr 2025 22:47:14.927,10 Apr 2025 22:56:52.722,577.795
241,11 Apr 2025 20:54:16.164,11 Apr 2025 21:04:46.959,630.796
242,11 Apr 2025 22:27:53.686,11 Apr 2025 22:38:33.640,639.954
243,12 Apr 2025 20:36:12.990,12 Apr 2025 20:45:43.914,570.923
244,12 Apr 2025 22:08:48.147,12 Apr 2025 22:20:04.463,676.317
245,13 Apr 2025 20:18:26.975,13 Apr 2025 20:26:30.022,483.047
246,13 Apr 2025 21:49:55.641,13 Apr 2025 22:01:27.751,692.110
247,13 Apr 2025 23:27:37.038,13 Apr 2025 23:32:35.663,298.625
248,14 Apr 2025 20:01:07.745,14 Apr 2025 20:06:55.989,348.245
249,14 Apr 2025 21:31:15.000,14 Apr 2025 21:42:44.694,689.693
250,14 Apr 2025 23:07:11.982,14 Apr 2025 23:15:08.427,476.445
251,15 Apr 2025 21:12:45.941,15 Apr 2025 21:23:55.671,669.730
252,15 Apr 2025 22:47:28.677,15 Apr 2025 22:57:05.555,576.877
253,16 Apr 2025 20:54:28.971,16 Apr 2025 21:05:00.334,631.363
254,16 Apr 2025 22:28:07.227,16 Apr 2025 22:38:46.616,639.389
255,17 Apr 2025 20:36:25.623,17 Apr 2025 20:45:57.391,571.767
256,17 Apr 2025 22:09:01.522,17 Apr 2025 22:20:17.538,676.016
257,18 Apr 2025 20:18:39.372,18 Apr 2025 20:26:43.659,484.287
258,18 Apr 2025 21:50:08.872,18 Apr 2025 22:01:40.905,692.033
259,18 Apr 2025 23:27:51.934,18 Apr 2025 23:32:47.500,295.566
260,19 Apr 2025 20:01:19.705,19 Apr 2025 20:07:09.981,350.276
261,19 Apr 2025 21:31:28.095,19 Apr 2025 21:42:57.916,689.821
262,19 Apr 2025 23:07:26.057,19 Apr 2025 23:15:21.004,474.948
263,20 Apr 2025 21:12:58.898,20 Apr 2025 21:24:08.965,670.067
264,20 Apr 2025 22:47:42.429,20 Apr 2025 22:57:18.384,575.956
265,21 Apr 2025 20:54:41.780,21 Apr 2025 21:05:13.707,631.927
266,21 Apr 2025 22:28:20.768,21 Apr 2025 22:38:59.589,638.821
267,22 Apr 2025 20:36:38.257,22 Apr 2025 20:46:10.865,572.608
268,22 Apr 2025 22:09:14.898,22 Apr 2025 22:20:30.611,675.713
269,23 Apr 2025 20:18:51.771,23 Apr 2025 20:26:57.293,485.522
270,23 Apr 2025 21:50:22.104,23 Apr 2025 22:01:54.058,691.954
271,23 Apr 2025 23:28:06.846,23 Apr 2025 23:32:59.314,292.468
272,24 Apr 2025 20:01:31.672,24 Apr 2025 20:07:23.967,352.295
273,24 Apr 2025 21:31:41.190,24 Apr 2025 21:43:11.140,689.950
274,24 Apr 2025 23:07:40.136,24 Apr 2025 23:15:33.576,473.439
275,25 Apr 2025 21:13:11.857,25 Apr 2025 21:24:22.258,670.402
276,25 Apr 2025 22:47:56.184,25 Apr 2025 22:57:31.211,575.027
277,26 Apr 2025 20:54:54.591,26 Apr 2025 21:05:27.080,632.489
278,26 Apr 2025 22:28:34.317,26 Apr 2025 22:39:12.561,638.244
279,27 Apr 2025 20:36:50.895,27 Apr 2025 20:46:24.341,573.446
280,27 Apr 2025 22:09:28.277,27 Apr 2025 22:20:43.684,675.407
281,28 Apr 2025 20:19:04.175,28 Apr 2025 20:27:10.922,486.747
282,28 Apr 2025 21:50:35.339,28 Apr 2025 22:02:07.211,691.872
283,28 Apr 2025 23:28:21.782,28 Apr 2025 23:33:11.110,289.328
284,29 Apr 2025 20:01:43.650,29 Apr 2025 20:07:37.948,354.298
285,29 Apr 2025 21:31:54.289,29 Apr 2025 21:43:24.366,690.076
286,29 Apr 2025 23:07:54.224,29 Apr 2025 23:15:46.145,471.921
287,30 Apr 2025 21:13:24.818,30 Apr 2025 21:24:35.553,670.734
288,30 Apr 2025 22:48:09.945,30 Apr 2025 22:57:44.039,574.094
289,1 May 2025 20:55:07.404,1 May 2025 21:05:40.452,633.048
290,1 May 2025 22:28:47.864,1 May 2025 22:39:25.533,637.669
291,2 May 2025 20:37:03.535,2 May 2025 20:46:37.814,574.279
292,2 May 2025 22:09:41.658,2 May 2025 22:20:56.757,675.099
293,3 May 2025 20:19:16.581,3 May 2025 20:27:24.556,487.975
294,3 May 2025 21:50:48.578,3 May 2025 22:02:20.358,691.780
295,3 May 2025 23:28:36.732,3 May 2025 23:33:22.882,286.150
296,4 May 2025 20:01:55.639,4 May 2025 20:07:51.919,356.280
297,4 May 2025 21:32:07.388,4 May 2025 21:43:37.590,690.202
298,4 May 2025 23:08:08.312,4 May 2025 23:15:58.711,470.399
299,5 May 2025 21:13:37.781,5 May 2025 21:24:48.845,671.064
300,5 May 2025 22:48:23.707,5 May 2025 22:57:56.862,573.156
301,6 May 2025 20:55:20.219,6 May 2025 21:05:53.823,633.604
302,6 May 2025 22:29:01.413,6 May 2025 22:39:38.502,637.090
303,7 May 2025 20:37:16.176,7 May 2025 20:46:51.286,575.110
304,7 May 2025 22:09:55.040,7 May 2025 22:21:09.827,674.787
305,8 May 2025 20:19:28.990,8 May 2025 20:27:38.184,489.194
306,8 May 2025 21:51:01.816,8 May 2025 22:02:33.509,691.693
307,8 May 2025 23:28:51.713,8 May 2025 23:33:34.633,282.921
308,9 May 2025 20:02:07.630,9 May 2025 20:08:05.887,358.257
309,9 May 2025 21:32:20.490,9 May 2025 21:43:50.812,690.322
310,9 May 2025 23:08:22.410,9 May 2025 23:16:11.270,468.859
311,10 May 2025 21:13:50.749,10 May 2025 21:25:02.138,671.389
312,10 May 2025 22:48:37.470,10 May 2025 22:58:09.684,572.214
313,11 May 2025 20:55:33.037,11 May 2025 21:06:07.195,634.158
314,11 May 2025 22:29:14.960,11 May 2025 22:39:51.472,636.511
315,12 May 2025 20:37:28.821,12 May 2025 20:47:04.759,575.937
316,12 May 2025 22:10:08.426,12 May 2025 22:21:22.898,674.472
317,13 May 2025 20:19:41.404,13 May 2025 20:27:51.812,490.408
318,13 May 2025 21:51:15.057,13 May 2025 22:02:46.661,691.604
319,13 May 2025 23:29:06.718,13 May 2025 23:33:46.364,279.646
320,14 May 2025 20:02:19.628,14 May 2025 20:08:19.848,360.220
321,14 May 2025 21:32:33.595,14 May 2025 21:44:04.035,690.440
322,14 May 2025 23:08:36.516,14 May 2025 23:16:23.826,467.310
323,15 May 2025 19:46:40.555,15 May 2025 19:47:12.178,31.624
324,15 May 2025 21:14:03.716,15 May 2025 21:25:15.431,671.714
325,15 May 2025 22:48:51.240,15 May 2025 22:58:22.505,571.265
326,16 May 2025 20:55:45.856,16 May 2025 21:06:20.565,634.709
327,16 May 2025 22:29:28.518,16 May 2025 22:40:04.440,635.922
328,17 May 2025 20:37:41.469,17 May 2025 20:47:18.229,576.760
329,17 May 2025 22:10:21.813,17 May 2025 22:21:35.968,674.155
330,18 May 2025 20:19:53.821,18 May 2025 20:28:05.436,491.614
331,18 May 2025 21:51:28.299,18 May 2025 22:02:59.811,691.512
332,18 May 2025 23:29:21.746,18 May 2025 23:33:58.072,276.326
333,19 May 2025 20:02:31.633,19 May 2025 20:08:33.801,362.168
334,19 May 2025 21:32:46.700,19 May 2025 21:44:17.255,690.555
335,19 May 2025 23:08:50.620,19 May 2025 23:16:36.379,465.759
336,20 May 2025 19:46:43.773,20 May 2025 19:47:34.831,51.057
337,20 May 2025 21:14:16.684,20 May 2025 21:25:28.721,672.037
338,20 May 2025 22:49:05.011,20 May 2025 22:58:35.322,570.312
339,21 May 2025 20:55:58.677,21 May 2025 21:06:33.934,635.257
340,21 May 2025 22:29:42.075,21 May 2025 22:40:17.406,635.330
341,22 May 2025 20:37:54.118,22 May 2025 20:47:31.698,577.580
342,22 May 2025 22:10:35.202,22 May 2025 22:21:49.036,673.835
343,23 May 2025 20:20:06.241,23 May 2025 20:28:19.058,492.817
344,23 May 2025 21:51:41.542,23 May 2025 22:03:12.960,691.418
345,23 May 2025 23:29:36.800,23 May 2025 23:34:09.753,272.952
346,24 May 2025 20:02:43.647,24 May 2025 20:08:47.751,364.104
347,24 May 2025 21:32:59.808,24 May 2025 21:44:30.472,690.664
348,24 May 2025 23:09:04.736,24 May 2025 23:16:48.925,464.189
349,25 May 2025 19:46:49.784,25 May 2025 19:47:54.699,64.916
350,25 May 2025 21:14:29.655,25 May 2025 21:25:42.013,672.357
351,25 May 2025 22:49:18.787,25 May 2025 22:58:48.138,569.351
352,26 May 2025 20:56:11.501,26 May 2025 21:06:47.304,635.803
353,26 May 2025 22:29:55.631,26 May 2025 22:40:30.371,634.740
354,27 May 2025 20:38:06.770,27 May 2025 20:47:45.168,578.397
355,27 May 2025 22:10:48.594,27 May 2025 22:22:02.105,673.511
356,28 May 2025 20:20:18.666,28 May 2025 20:28:32.680,494.014
357,28 May 2025 21:51:54.789,28 May 2025 22:03:26.109,691.321
358,28 May 2025 23:29:51.882,28 May 2025 23:34:21.411,269.529
359,29 May 2025 20:02:55.670,29 May 2025 20:09:01.694,366.024
360,29 May 2025 21:33:12.917,29 May 2025 21:44:43.695,690.777
361,29 May 2025 23:09:18.858,29 May 2025 23:17:01.468,462.610
362,30 May 2025 19:46:57.051,30 May 2025 19:48:13.317,76.266
363,30 May 2025 21:14:42.628,30 May 2025 21:25:55.303,672.675
364,30 May 2025 22:49:32.567,30 May 2025 22:59:00.953,568.386
365,31 May 2025 20:56:24.327,31 May 2025 21:07:00.672,636.345
366,31 May 2025 22:30:09.193,31 May 2025 22:40:43.336,634.143
367,1 Jun 2025 20:38:19.424,1 Jun 2025 20:47:58.632,579.208
368,1 Jun 2025 22:11:01.987,1 Jun 2025 22:22:15.172,673.185
369,2 Jun 2025 20:20:31.092,2 Jun 2025 20:28:46.297,495.205
370,2 Jun 2025 21:52:08.035,2 Jun 2025 22:03:39.257,691.221
371,2 Jun 2025 23:30:06.990,2 Jun 2025 23:34:33.042,266.053
372,3 Jun 2025 20:03:07.698,3 Jun 2025 20:09:15.630,367.932
373,3 Jun 2025 21:33:26.028,3 Jun 2025 21:44:56.916,690.888
374,3 Jun 2025 23:09:32.984,3 Jun 2025 23:17:14.004,461.020
375,4 Jun 2025 19:47:05.055,4 Jun 2025 19:48:31.194,86.139
376,4 Jun 2025 21:14:55.601,4 Jun 2025 21:26:08.592,672.991
377,4 Jun 2025 22:49:46.348,4 Jun 2025 22:59:13.763,567.415
378,5 Jun 2025 20:56:37.153,5 Jun 2025 21:07:14.039,636.885
379,5 Jun 2025 22:30:22.757,5 Jun 2025 22:40:56.297,633.540
380,6 Jun 2025 20:38:32.080,6 Jun 2025 20:48:12.099,580.018
381,6 Jun 2025 22:11:15.382,6 Jun 2025 22:22:28.237,672.855
382,7 Jun 2025 20:20:43.522,7 Jun 2025 20:28:59.915,496.393
383,7 Jun 2025 21:52:21.285,7 Jun 2025 22:03:52.404,691.119
384,7 Jun 2025 23:30:22.129,7 Jun 2025 23:34:44.644,262.515
385,8 Jun 2025 20:03:19.733,8 Jun 2025 20:09:29.563,369.830
386,8 Jun 2025 21:33:39.141,8 Jun 2025 21:45:10.135,690.994
387,8 Jun 2025 23:09:47.119,8 Jun 2025 23:17:26.535,459.416
388,9 Jun 2025 19:47:13.572,9 Jun 2025 19:48:48.556,94.984
389,9 Jun 2025 21:15:08.578,9 Jun 2025 21:26:21.882,673.304
390,9 Jun 2025 22:50:00.135,9 Jun 2025 22:59:26.572,566.437
391,10 Jun 2025 20:56:49.983,10 Jun 2025 21:07:27.406,637.423
392,10 Jun 2025 22:30:36.325,10 Jun 2025 22:41:09.259,632.934
393,11 Jun 2025 20:38:44.740,11 Jun 2025 20:48:25.565,580.825
394,11 Jun 2025 22:11:28.776,11 Jun 2025 22:22:41.303,672.526
395,12 Jun 2025 20:20:55.956,12 Jun 2025 20:29:13.531,497.575
396,12 Jun 2025 21:52:34.537,12 Jun 2025 22:04:05.551,691.014
397,12 Jun 2025 23:30:37.297,12 Jun 2025 23:34:56.220,258.923
398,13 Jun 2025 20:03:31.777,13 Jun 2025 20:09:43.490,371.713
399,13 Jun 2025 21:33:52.255,13 Jun 2025 21:45:23.353,691.098
400,13 Jun 2025 23:10:01.257,13 Jun 2025 23:17:39.064,457.807
401,14 Jun 2025 19:47:22.478,14 Jun 2025 19:49:05.539,103.061
402,14 Jun 2025 21:15:21.555,14 Jun 2025 21:26:35.170,673.615
403,14 Jun 2025 22:50:13.924,14 Jun 2025 22:59:39.379,565.455
404,15 Jun 2025 20:57:02.814,15 Jun 2025 21:07:40.772,637.958
405,15 Jun 2025 22:30:49.894,15 Jun 2025 22:41:22.218,632.324
406,16 Jun 2025 20:38:57.396,16 Jun 2025 20:48:39.032,581.636
407,16 Jun 2025 22:11:42.175,16 Jun 2025 22:22:54.366,672.192
408,17 Jun 2025 20:21:08.392,17 Jun 2025 20:29:27.143,498.751
409,17 Jun 2025 21:52:47.789,17 Jun 2025 22:04:18.696,690.907
410,17 Jun 2025 23:30:52.494,17 Jun 2025 23:35:07.764,255.270
411,18 Jun 2025 20:03:43.830,18 Jun 2025 20:09:57.409,373.579
412,18 Jun 2025 21:34:05.370,18 Jun 2025 21:45:36.570,691.200
413,18 Jun 2025 23:10:15.401,18 Jun 2025 23:17:51.586,456.185
414,19 Jun 2025 19:47:31.679,19 Jun 2025 19:49:22.219,110.541
415,19 Jun 2025 21:15:34.534,19 Jun 2025 21:26:48.457,673.923
416,19 Jun 2025 22:50:27.716,19 Jun 2025 22:59:52.182,564.466
417,20 Jun 2025 20:57:15.647,20 Jun 2025 21:07:54.137,638.490
418,20 Jun 2025 22:31:03.466,20 Jun 2025 22:41:35.175,631.710
419,21 Jun 2025 20:39:10.059,21 Jun 2025 20:48:52.496,582.437
420,21 Jun 2025 22:11:55.576,21 Jun 2025 22:23:07.429,671.853
421,22 Jun 2025 20:21:20.832,22 Jun 2025 20:29:40.755,499.923
422,22 Jun 2025 21:53:01.044,22 Jun 2025 22:04:31.841,690.797
423,22 Jun 2025 23:31:07.727,22 Jun 2025 23:35:19.274,251.547
424,23 Jun 2025 20:03:55.885,23 Jun 2025 20:10:11.327,375.441
425,23 Jun 2025 21:34:18.488,23 Jun 2025 21:45:49.787,691.299
426,23 Jun 2025 23:10:29.553,23 Jun 2025 23:18:04.103,454.550
427,24 Jun 2025 19:47:41.120,24 Jun 2025 19:49:38.667,117.547
428,24 Jun 2025 21:15:47.516,24 Jun 2025 21:27:01.745,674.230
429,24 Jun 2025 22:50:41.513,24 Jun 2025 23:00:04.985,563.472
430,25 Jun 2025 20:57:28.482,25 Jun 2025 21:08:07.502,639.020
431,25 Jun 2025 22:31:17.041,25 Jun 2025 22:41:48.133,631.091
432,26 Jun 2025 20:39:22.725,26 Jun 2025 20:49:05.959,583.234
433,26 Jun 2025 22:12:08.980,26 Jun 2025 22:23:20.491,671.512
434,27 Jun 2025 20:21:33.275,27 Jun 2025 20:29:54.364,501.089
435,27 Jun 2025 21:53:14.300,27 Jun 2025 22:04:44.985,690.685
436,27 Jun 2025 23:31:22.991,27 Jun 2025 23:35:30.754,247.763
437,28 Jun 2025 20:04:07.948,28 Jun 2025 20:10:25.236,377.288
438,28 Jun 2025 21:34:31.608,28 Jun 2025 21:46:03.003,691.395
439,28 Jun 2025 23:10:43.709,28 Jun 2025 23:18:16.615,452.905
440,29 Jun 2025 19:47:50.765,29 Jun 2025 19:49:54.910,124.145
441,29 Jun 2025 21:16:00.497,29 Jun 2025 21:27:15.027,674.529
442,29 Jun 2025 22:50:55.314,29 Jun 2025 23:00:17.784,562.470
443,30 Jun 2025 20:57:41.319,30 Jun 2025 21:08:20.865,639.546
444,30 Jun 2025 22:31:30.614,30 Jun 2025 22:42:01.087,630.473
445,1 Jul 2025 20:39:35.392,1 Jul 2025 20:49:19.419,584.027
446,1 Jul 2025 22:12:22.384,1 Jul 2025 22:23:33.551,671.167
447,2 Jul 2025 20:21:45.720,2 Jul 2025 20:30:07.971,502.251
448,2 Jul 2025 21:53:27.557,2 Jul 2025 22:04:58.127,690.570
449,2 Jul 2025 23:31:38.291,2 Jul 2025 23:35:42.197,243.906
450,3 Jul 2025 20:04:20.014,3 Jul 2025 20:10:39.141,379.127
451,3 Jul 2025 21:34:44.728,3 Jul 2025 21:46:16.217,691.489
452,3 Jul 2025 23:10:57.871,3 Jul 2025 23:18:29.119,451.248
453,4 Jul 2025 19:48:00.576,4 Jul 2025 19:50:10.990,130.415
454,4 Jul 2025 21:16:13.481,4 Jul 2025 21:27:28.312,674.831
455,4 Jul 2025 22:51:09.113,4 Jul 2025 23:00:30.579,561.466
456,5 Jul 2025 20:57:54.156,5 Jul 2025 21:08:34.228,640.071
457,5 Jul 2025 22:31:44.193,5 Jul 2025 22:42:14.040,629.847
458,6 Jul 2025 20:39:48.061,6 Jul 2025 20:49:32.879,584.818
459,6 Jul 2025 22:12:35.791,6 Jul 2025 22:23:46.610,670.819
460,7 Jul 2025 20:21:58.169,7 Jul 2025 20:30:21.578,503.409
461,7 Jul 2025 21:53:40.817,7 Jul 2025 22:05:11.270,690.452
462,7 Jul 2025 23:31:53.630,7 Jul 2025 23:35:53.603,239.973
463,8 Jul 2025 20:04:32.088,8 Jul 2025 20:10:53.043,380.955
464,8 Jul 2025 21:34:57.851,8 Jul 2025 21:46:29.432,691.581
465,8 Jul 2025 23:11:12.041,8 Jul 2025 23:18:41.620,449.579
466,9 Jul 2025 19:48:10.536,9 Jul 2025 19:50:26.922,136.386
467,9 Jul 2025 21:16:26.467,9 Jul 2025 21:27:41.597,675.129
468,9 Jul 2025 22:51:22.919,9 Jul 2025 23:00:43.373,560.454
469,10 Jul 2025 20:58:06.997,10 Jul 2025 21:08:47.590,640.593
470,10 Jul 2025 22:31:57.775,10 Jul 2025 22:42:26.991,629.217
471,11 Jul 2025 20:40:00.733,11 Jul 2025 20:49:46.338,585.605
472,11 Jul 2025 22:12:49.199,11 Jul 2025 22:23:59.669,670.469
473,12 Jul 2025 20:22:10.621,12 Jul 2025 20:30:35.181,504.560
474,12 Jul 2025 21:53:54.078,12 Jul 2025 22:05:24.411,690.332
475,12 Jul 2025 23:32:09.006,12 Jul 2025 23:36:04.973,235.967
476,13 Jul 2025 20:04:44.171,13 Jul 2025 20:11:06.937,382.766
477,13 Jul 2025 21:35:10.974,13 Jul 2025 21:46:42.645,691.671
478,13 Jul 2025 23:11:26.215,13 Jul 2025 23:18:54.115,447.900
479,14 Jul 2025 19:48:20.629,14 Jul 2025 19:50:42.720,142.091
480,14 Jul 2025 21:16:39.454,14 Jul 2025 21:27:54.880,675.426
481,14 Jul 2025 22:51:36.726,14 Jul 2025 23:00:56.164,559.438
482,15 Jul 2025 20:58:19.838,15 Jul 2025 21:09:00.949,641.112
483,15 Jul 2025 22:32:11.357,15 Jul 2025 22:42:39.943,628.586
484,16 Jul 2025 20:40:13.406,16 Jul 2025 20:49:59.794,586.388
485,16 Jul 2025 22:13:02.609,16 Jul 2025 22:24:12.724,670.115
486,17 Jul 2025 20:22:23.075,17 Jul 2025 20:30:48.781,505.707
487,17 Jul 2025 21:54:07.340,17 Jul 2025 22:05:37.550,690.209
488,17 Jul 2025 23:32:24.422,17 Jul 2025 23:36:16.300,231.878
489,18 Jul 2025 20:04:56.255,18 Jul 2025 20:11:20.826,384.571
490,18 Jul 2025 21:35:24.099,18 Jul 2025 21:46:55.856,691.757
491,18 Jul 2025 23:11:40.396,18 Jul 2025 23:19:06.602,446.207
492,19 Jul 2025 19:48:30.829,19 Jul 2025 19:50:58.414,147.585
493,19 Jul 2025 21:16:52.442,19 Jul 2025 21:28:08.162,675.720
494,19 Jul 2025 22:51:50.538,19 Jul 2025 23:01:08.951,558.414
495,20 Jul 2025 20:58:32.681,20 Jul 2025 21:09:14.310,641.629
496,20 Jul 2025 22:32:24.941,20 Jul 2025 22:42:52.890,627.950
497,21 Jul 2025 20:40:26.081,21 Jul 2025 20:50:13.246,587.165
498,21 Jul 2025 22:13:16.021,21 Jul 2025 22:24:25.780,669.758
499,22 Jul 2025 20:22:35.532,22 Jul 2025 20:31:02.382,506.850
500,22 Jul 2025 21:54:20.605,22 Jul 2025 22:05:50.689,690.084
501,22 Jul 2025 23:32:39.884,22 Jul 2025 23:36:27.585,227.701
502,23 Jul 2025 20:05:08.347,23 Jul 2025 20:11:34.712,386.366
503,23 Jul 2025 21:35:37.226,23 Jul 2025 21:47:09.068,691.842
504,23 Jul 2025 23:11:54.584,23 Jul 2025 23:19:19.086,444.502
505,24 Jul 2025 19:48:41.136,24 Jul 2025 19:51:14.003,152.867
506,24 Jul 2025 21:17:05.433,24 Jul 2025 21:28:21.445,676.012
507,24 Jul 2025 22:52:04.353,24 Jul 2025 23:01:21.738,557.384
508,25 Jul 2025 20:58:45.526,25 Jul 2025 21:09:27.668,642.142
509,25 Jul 2025 22:32:38.529,25 Jul 2025 22:43:05.837,627.308
510,26 Jul 2025 20:40:38.759,26 Jul 2025 20:50:26.702,587.943
511,26 Jul 2025 22:13:29.435,26 Jul 2025 22:24:38.834,669.399
512,27 Jul 2025 20:22:47.992,27 Jul 2025 20:31:15.974,507.982
513,27 Jul 2025 21:54:33.870,27 Jul 2025 22:06:03.826,689.956
514,27 Jul 2025 23:32:55.388,27 Jul 2025 23:36:38.827,223.439
515,28 Jul 2025 20:05:20.444,28 Jul 2025 20:11:48.591,388.147
516,28 Jul 2025 21:35:50.354,28 Jul 2025 21:47:22.278,691.924
517,28 Jul 2025 23:12:08.776,28 Jul 2025 23:19:31.563,442.787
518,29 Jul 2025 19:48:51.530,29 Jul 2025 19:51:29.499,157.969
519,29 Jul 2025 21:17:18.423,29 Jul 2025 21:28:34.724,676.301
520,29 Jul 2025 22:52:18.170,29 Jul 2025 23:01:34.519,556.349
521,30 Jul 2025 20:58:58.371,30 Jul 2025 21:09:41.025,642.653
522,30 Jul 2025 22:32:52.117,30 Jul 2025 22:43:18.780,626.663
523,31 Jul 2025 20:40:51.437,31 Jul 2025 20:50:40.153,588.716
524,31 Jul 2025 22:13:42.849,31 Jul 2025 22:24:51.885,669.036
525,1 Aug 2025 20:23:00.454,1 Aug 2025 20:31:29.569,509.115
526,1 Aug 2025 21:54:47.137,1 Aug 2025 22:06:16.962,689.825
527,1 Aug 2025 23:33:10.941,1 Aug 2025 23:36:50.018,219.077
528,2 Aug 2025 20:05:32.546,2 Aug 2025 20:12:02.466,389.920
529,2 Aug 2025 21:36:03.483,2 Aug 2025 21:47:35.486,692.004
530,2 Aug 2025 23:12:22.976,2 Aug 2025 23:19:44.033,441.057
531,3 Aug 2025 19:49:02.007,3 Aug 2025 19:51:44.918,162.912
532,3 Aug 2025 21:17:31.416,3 Aug 2025 21:28:48.004,676.588
533,3 Aug 2025 22:52:31.990,3 Aug 2025 23:01:47.298,555.307
534,4 Aug 2025 20:59:11.219,4 Aug 2025 21:09:54.379,643.159
535,4 Aug 2025 22:33:05.709,4 Aug 2025 22:43:31.721,626.013
536,5 Aug 2025 20:41:04.118,5 Aug 2025 20:50:53.607,589.488
537,5 Aug 2025 22:13:56.267,5 Aug 2025 22:25:04.936,668.670
538,6 Aug 2025 20:23:12.919,6 Aug 2025 20:31:43.162,510.243
539,6 Aug 2025 21:55:00.405,6 Aug 2025 22:06:30.097,689.692
540,6 Aug 2025 23:33:26.546,6 Aug 2025 23:37:01.159,214.614
541,7 Aug 2025 20:05:44.656,7 Aug 2025 20:12:16.336,391.680
542,7 Aug 2025 21:36:16.614,7 Aug 2025 21:47:48.695,692.081
543,7 Aug 2025 23:12:37.177,7 Aug 2025 23:19:56.498,439.320
544,8 Aug 2025 19:49:12.562,8 Aug 2025 19:52:00.259,167.696
545,8 Aug 2025 21:17:44.410,8 Aug 2025 21:29:01.283,676.872
546,8 Aug 2025 22:52:45.814,8 Aug 2025 23:02:00.075,554.260
547,9 Aug 2025 20:59:24.069,9 Aug 2025 21:10:07.734,643.665
548,9 Aug 2025 22:33:19.300,9 Aug 2025 22:43:44.662,625.362
549,10 Aug 2025 20:41:16.801,10 Aug 2025 20:51:07.058,590.257
550,10 Aug 2025 22:14:09.685,10 Aug 2025 22:25:17.986,668.301
551,11 Aug 2025 20:23:25.387,11 Aug 2025 20:31:56.752,511.365
552,11 Aug 2025 21:55:13.674,11 Aug 2025 22:06:43.230,689.556
553,11 Aug 2025 23:33:42.201,11 Aug 2025 23:37:12.250,210.048
554,12 Aug 2025 20:05:56.770,12 Aug 2025 20:12:30.199,393.428
555,12 Aug 2025 21:36:29.745,12 Aug 2025 21:48:01.901,692.156
556,12 Aug 2025 23:12:51.388,12 Aug 2025 23:20:08.956,437.568
557,13 Aug 2025 19:49:23.186,13 Aug 2025 19:52:15.528,172.342
558,13 Aug 2025 21:17:57.405,13 Aug 2025 21:29:14.559,677.154
559,13 Aug 2025 22:52:59.640,13 Aug 2025 23:02:12.847,553.207
560,14 Aug 2025 20:59:36.918,14 Aug 2025 21:10:21.086,644.168
561,14 Aug 2025 22:33:32.894,14 Aug 2025 22:43:57.599,624.705
562,15 Aug 2025 20:41:29.485,15 Aug 2025 20:51:20.508,591.023
563,15 Aug 2025 22:14:23.104,15 Aug 2025 22:25:31.032,667.929
564,16 Aug 2025 20:23:37.857,16 Aug 2025 20:32:10.341,512.484
565,16 Aug 2025 21:55:26.944,16 Aug 2025 22:06:56.366,689.422
566,16 Aug 2025 23:33:57.918,16 Aug 2025 23:37:23.276,205.357
567,17 Aug 2025 20:06:08.890,17 Aug 2025 20:12:44.059,395.169
568,17 Aug 2025 21:36:42.878,17 Aug 2025 21:48:15.106,692.228
569,17 Aug 2025 23:13:05.607,17 Aug 2025 23:20:21.407,435.800
570,18 Aug 2025 19:49:33.871,18 Aug 2025 19:52:30.740,176.869
571,18 Aug 2025 21:18:10.402,18 Aug 2025 21:29:27.835,677.434
572,18 Aug 2025 22:53:13.470,18 Aug 2025 23:02:25.617,552.147
573,19 Aug 2025 20:59:49.771,19 Aug 2025 21:10:34.440,644.669
574,19 Aug 2025 22:33:46.492,19 Aug 2025 22:44:10.535,624.043
575,20 Aug 2025 20:41:42.172,20 Aug 2025 20:51:33.956,591.784
576,20 Aug 2025 22:14:36.526,20 Aug 2025 22:25:44.079,667.553
577,21 Aug 2025 20:23:50.330,21 Aug 2025 20:32:23.927,513.597
578,21 Aug 2025 21:55:40.217,21 Aug 2025 22:07:09.498,689.281
579,21 Aug 2025 23:34:13.696,21 Aug 2025 23:37:34.249,200.554
580,22 Aug 2025 20:06:21.016,22 Aug 2025 20:12:57.913,396.897
581,22 Aug 2025 21:36:56.013,22 Aug 2025 21:48:28.311,692.298
582,22 Aug 2025 23:13:19.831,22 Aug 2025 23:20:33.853,434.022
583,23 Aug 2025 19:49:44.617,23 Aug 2025 19:52:45.893,181.275
584,23 Aug 2025 21:18:23.400,23 Aug 2025 21:29:41.110,677.710
585,23 Aug 2025 22:53:27.302,23 Aug 2025 23:02:38.385,551.082
586,24 Aug 2025 21:00:02.624,24 Aug 2025 21:10:47.790,645.167
587,24 Aug 2025 22:34:00.090,24 Aug 2025 22:44:23.469,623.379
588,25 Aug 2025 20:41:54.859,25 Aug 2025 20:51:47.401,592.541
589,25 Aug 2025 22:14:49.948,25 Aug 2025 22:25:57.120,667.172
590,26 Aug 2025 20:24:02.806,26 Aug 2025 20:32:37.509,514.703
591,26 Aug 2025 21:55:53.486,26 Aug 2025 22:07:22.624,689.138
592,26 Aug 2025 23:34:29.535,26 Aug 2025 23:37:45.151,195.616
593,27 Aug 2025 20:06:33.147,27 Aug 2025 20:13:11.761,398.614
594,27 Aug 2025 21:37:09.147,27 Aug 2025 21:48:41.513,692.366
595,27 Aug 2025 23:13:34.061,27 Aug 2025 23:20:46.291,432.231
596,28 Aug 2025 19:49:55.418,28 Aug 2025 19:53:00.987,185.570
597,28 Aug 2025 21:18:36.398,28 Aug 2025 21:29:54.383,677.985
598,28 Aug 2025 22:53:41.133,28 Aug 2025 23:02:51.147,550.014
599,29 Aug 2025 21:00:15.478,29 Aug 2025 21:11:01.139,645.662
600,29 Aug 2025 22:34:13.690,29 Aug 2025 22:44:36.399,622.709
601,30 Aug 2025 20:42:07.548,30 Aug 2025 20:52:00.844,593.296
602,30 Aug 2025 22:15:03.376,30 Aug 2025 22:26:10.162,666.786
603,31 Aug 2025 20:24:15.283,31 Aug 2025 20:32:51.090,515.807
604,31 Aug 2025 21:56:06.761,31 Aug 2025 22:07:35.752,688.991
605,31 Aug 2025 23:34:45.447,31 Aug 2025 23:37:55.981,190.534
606,1 Sep 2025 20:06:45.282,1 Sep 2025 20:13:25.606,400.323
607,1 Sep 2025 21:37:22.284,1 Sep 2025 21:48:54.714,692.431
608,1 Sep 2025 23:13:48.298,1 Sep 2025 23:20:58.723,430.425
609,2 Sep 2025 19:50:06.269,2 Sep 2025 19:53:16.034,189.765
610,2 Sep 2025 21:18:49.398,2 Sep 2025 21:30:07.655,678.257
611,2 Sep 2025 22:53:54.972,2 Sep 2025 23:03:03.908,548.936
612,3 Sep 2025 21:00:28.334,3 Sep 2025 21:11:14.488,646.154
613,3 Sep 2025 22:34:27.293,3 Sep 2025 22:44:49.329,622.036
614,4 Sep 2025 20:42:20.240,4 Sep 2025 20:52:14.287,594.047
615,4 Sep 2025 22:15:16.802,4 Sep 2025 22:26:23.204,666.402
616,5 Sep 2025 20:24:27.764,5 Sep 2025 20:33:04.668,516.904
617,5 Sep 2025 21:56:20.037,5 Sep 2025 22:07:48.879,688.842
618,5 Sep 2025 23:35:01.434,5 Sep 2025 23:38:06.738,185.304
619,6 Sep 2025 20:06:57.425,6 Sep 2025 20:13:39.444,402.020
620,6 Sep 2025 21:37:35.422,6 Sep 2025 21:49:07.915,692.493
621,6 Sep 2025 23:14:02.542,6 Sep 2025 23:21:11.150,428.608
622,7 Sep 2025 19:50:17.172,7 Sep 2025 19:53:31.027,193.856
623,7 Sep 2025 21:19:02.399,7 Sep 2025 21:30:20.926,678.527
624,7 Sep 2025 22:54:08.812,7 Sep 2025 23:03:16.666,547.854
625,8 Sep 2025 21:00:41.191,8 Sep 2025 21:11:27.835,646.644
626,8 Sep 2025 22:34:40.897,8 Sep 2025 22:45:02.256,621.360
627,9 Sep 2025 20:42:32.933,9 Sep 2025 20:52:27.726,594.793
628,9 Sep 2025 22:15:30.228,9 Sep 2025 22:26:36.243,666.014
629,10 Sep 2025 20:24:40.247,10 Sep 2025 20:33:18.243,517.996
630,10 Sep 2025 21:56:33.313,10 Sep 2025 22:08:02.003,688.690
631,10 Sep 2025 23:35:17.502,10 Sep 2025 23:38:17.414,179.912
632,11 Sep 2025 20:07:09.570,11 Sep 2025 20:13:53.277,403.706
633,11 Sep 2025 21:37:48.559,11 Sep 2025 21:49:21.113,692.553
634,11 Sep 2025 23:14:16.790,11 Sep 2025 23:21:23.568,426.777
635,12 Sep 2025 19:50:28.116,12 Sep 2025 19:53:45.979,197.862
636,12 Sep 2025 21:19:15.401,12 Sep 2025 21:30:34.194,678.794
637,12 Sep 2025 22:54:22.655,12 Sep 2025 23:03:29.419,546.764
638,13 Sep 2025 21:00:54.049,13 Sep 2025 21:11:41.180,647.131
639,13 Sep 2025 22:34:54.502,13 Sep 2025 22:45:15.181,620.678
640,14 Sep 2025 20:42:45.627,14 Sep 2025 20:52:41.165,595.538
641,14 Sep 2025 22:15:43.657,14 Sep 2025 22:26:49.280,665.624
642,15 Sep 2025 20:24:52.732,15 Sep 2025 20:33:31.817,519.086
643,15 Sep 2025 21:56:46.591,15 Sep 2025 22:08:15.126,688.536
644,15 Sep 2025 23:35:33.666,15 Sep 2025 23:38:27.994,174.328
645,16 Sep 2025 20:07:21.722,16 Sep 2025 20:14:07.106,405.385
646,16 Sep 2025 21:38:01.700,16 Sep 2025 21:49:34.311,692.611
647,16 Sep 2025 23:14:31.047,16 Sep 2025 23:21:35.980,424.932
648,17 Sep 2025 19:50:39.108,17 Sep 2025 19:54:00.888,201.781
649,17 Sep 2025 21:19:28.405,17 Sep 2025 21:30:47.463,679.058
650,17 Sep 2025 22:54:36.503,17 Sep 2025 23:03:42.171,545.668
651,18 Sep 2025 21:01:06.909,18 Sep 2025 21:11:54.524,647.615
652,18 Sep 2025 22:35:08.111,18 Sep 2025 22:45:28.105,619.994
653,19 Sep 2025 20:42:58.323,19 Sep 2025 20:52:54.602,596.278
654,19 Sep 2025 22:15:57.087,19 Sep 2025 22:27:02.317,665.230
655,20 Sep 2025 20:25:05.220,20 Sep 2025 20:33:45.388,520.167
656,20 Sep 2025 21:56:59.870,20 Sep 2025 22:08:28.249,688.379
657,20 Sep 2025 23:35:49.925,20 Sep 2025 23:38:38.480,168.555
658,21 Sep 2025 20:07:33.879,21 Sep 2025 20:14:20.928,407.049
659,21 Sep 2025 21:38:14.840,21 Sep 2025 21:49:47.507,692.666
660,21 Sep 2025 23:14:45.309,21 Sep 2025 23:21:48.386,423.077
661,22 Sep 2025 19:50:50.138,22 Sep 2025 19:54:15.753,205.615
662,22 Sep 2025 21:19:41.409,22 Sep 2025 21:31:00.729,679.320
663,22 Sep 2025 22:54:50.351,22 Sep 2025 23:03:54.919,544.567
664,23 Sep 2025 21:01:19.769,23 Sep 2025 21:12:07.866,648.096
665,23 Sep 2025 22:35:21.719,23 Sep 2025 22:45:41.025,619.306
666,24 Sep 2025 20:43:11.020,24 Sep 2025 20:53:08.035,597.015
667,24 Sep 2025 22:16:10.516,24 Sep 2025 22:27:15.350,664.834
668,25 Sep 2025 20:25:17.707,25 Sep 2025 20:33:58.955,521.248
669,25 Sep 2025 21:57:13.149,25 Sep 2025 22:08:41.368,688.219
670,25 Sep 2025 23:36:06.297,25 Sep 2025 23:38:48.853,162.556
671,26 Sep 2025 20:07:46.040,26 Sep 2025 20:14:34.746,408.706
672,26 Sep 2025 21:38:27.981,26 Sep 2025 21:50:00.700,692.719
673,26 Sep 2025 23:14:59.578,26 Sep 2025 23:22:00.788,421.211
674,27 Sep 2025 19:51:01.201,27 Sep 2025 19:54:30.582,209.381
675,27 Sep 2025 21:19:54.410,27 Sep 2025 21:31:13.998,679.588
676,27 Sep 2025 22:55:04.203,27 Sep 2025 23:04:07.659,543.456
677,28 Sep 2025 21:01:32.631,28 Sep 2025 21:12:21.206,648.574
678,28 Sep 2025 22:35:35.329,28 Sep 2025 22:45:53.943,618.613
679,29 Sep 2025 20:43:23.719,29 Sep 2025 20:53:21.468,597.749
680,29 Sep 2025 22:16:23.948,29 Sep 2025 22:27:28.383,664.435
681,30 Sep 2025 20:25:30.199,30 Sep 2025 20:34:12.522,522.322
682,30 Sep 2025 21:57:26.431,30 Sep 2025 22:08:54.487,688.057
683,30 Sep 2025 23:36:22.788,30 Sep 2025 23:38:59.102,156.314
684,1 Oct 2025 20:07:58.207,1 Oct 2025 20:14:48.559,410.352
685,1 Oct 2025 21:38:41.124,1 Oct 2025 21:50:13.894,692.770
686,1 Oct 2025 23:15:13.854,1 Oct 2025 23:22:13.180,419.326
687,2 Oct 2025 19:51:12.306,2 Oct 2025 19:54:45.376,213.070
688,2 Oct 2025 21:20:07.418,2 Oct 2025 21:31:27.262,679.845
689,2 Oct 2025 22:55:18.059,2 Oct 2025 23:04:20.401,542.342
690,3 Oct 2025 21:01:45.495,3 Oct 2025 21:12:34.545,649.050
691,3 Oct 2025 22:35:48.943,3 Oct 2025 22:46:06.860,617.917
692,4 Oct 2025 20:43:36.421,4 Oct 2025 20:53:34.899,598.478
693,4 Oct 2025 22:16:37.382,4 Oct 2025 22:27:41.414,664.032
694,5 Oct 2025 20:25:42.695,5 Oct 2025 20:34:26.085,523.390
695,5 Oct 2025 21:57:39.713,5 Oct 2025 22:09:07.605,687.892
696,5 Oct 2025 23:36:39.417,5 Oct 2025 23:39:09.219,149.802
697,6 Oct 2025 20:08:10.379,6 Oct 2025 20:15:02.366,411.986
698,6 Oct 2025 21:38:54.268,6 Oct 2025 21:50:27.086,692.818
699,6 Oct 2025 23:15:28.136,6 Oct 2025 23:22:25.566,417.430
700,7 Oct 2025 19:51:23.446,7 Oct 2025 19:55:00.132,216.686
701,7 Oct 2025 21:20:20.425,7 Oct 2025 21:31:40.524,680.099
702,7 Oct 2025 22:55:31.916,7 Oct 2025 23:04:33.140,541.224
703,8 Oct 2025 21:01:58.359,8 Oct 2025 21:12:47.882,649.523
704,8 Oct 2025 22:36:02.557,8 Oct 2025 22:46:19.774,617.218
705,9 Oct 2025 20:43:49.123,9 Oct 2025 20:53:48.327,599.204
706,9 Oct 2025 22:16:50.816,9 Oct 2025 22:27:54.443,663.627
707,10 Oct 2025 20:25:55.192,10 Oct 2025 20:34:39.643,524.451
708,10 Oct 2025 21:57:52.996,10 Oct 2025 22:09:20.721,687.725
709,10 Oct 2025 23:36:56.202,10 Oct 2025 23:39:19.173,142.970
710,11 Oct 2025 20:08:22.555,11 Oct 2025 20:15:16.166,413.610
711,11 Oct 2025 21:39:07.416,11 Oct 2025 21:50:40.275,692.860
712,11 Oct 2025 23:15:42.429,11 Oct 2025 23:22:37.942,415.513
713,12 Oct 2025 19:51:34.616,12 Oct 2025 19:55:14.859,220.243
714,12 Oct 2025 21:20:33.434,12 Oct 2025 21:31:53.785,680.351
715,12 Oct 2025 22:55:45.776,12 Oct 2025 23:04:45.874,540.098
716,13 Oct 2025 21:02:11.225,13 Oct 2025 21:13:01.218,649.993
717,13 Oct 2025 22:36:16.173,13 Oct 2025 22:46:32.687,616.514
718,14 Oct 2025 20:44:01.827,14 Oct 2025 20:54:01.755,599.928
719,14 Oct 2025 22:17:04.252,14 Oct 2025 22:28:07.471,663.219
720,15 Oct 2025 20:26:07.692,15 Oct 2025 20:34:53.205,525.513
721,15 Oct 2025 21:58:06.281,15 Oct 2025 22:09:33.836,687.555
722,15 Oct 2025 23:37:13.170,15 Oct 2025 23:39:28.951,135.781
723,16 Oct 2025 20:08:34.742,16 Oct 2025 20:15:29.962,415.219
724,16 Oct 2025 21:39:20.562,16 Oct 2025 21:50:53.461,692.899
725,16 Oct 2025 23:15:56.722,16 Oct 2025 23:22:50.309,413.587
726,17 Oct 2025 19:51:45.820,17 Oct 2025 19:55:29.551,223.731
727,17 Oct 2025 21:20:46.444,17 Oct 2025 21:32:07.044,680.600
728,17 Oct 2025 22:55:59.640,17 Oct 2025 23:04:58.608,538.967
729,18 Oct 2025 21:02:24.093,18 Oct 2025 21:13:14.553,650.460
730,18 Oct 2025 22:36:29.791,18 Oct 2025 22:46:45.598,615.807
731,19 Oct 2025 20:44:14.533,19 Oct 2025 20:54:15.180,600.646
732,19 Oct 2025 22:17:17.689,19 Oct 2025 22:28:20.497,662.808
733,20 Oct 2025 20:26:20.195,20 Oct 2025 20:35:06.759,526.564
734,20 Oct 2025 21:58:19.566,20 Oct 2025 22:09:46.949,687.383
735,20 Oct 2025 23:37:30.346,20 Oct 2025 23:39:38.523,128.177
736,21 Oct 2025 20:08:46.929,21 Oct 2025 20:15:43.752,416.823
737,21 Oct 2025 21:39:33.708,21 Oct 2025 21:51:06.648,692.940
738,21 Oct 2025 23:16:11.025,21 Oct 2025 23:23:02.674,411.649
739,22 Oct 2025 19:51:57.054,22 Oct 2025 19:55:44.212,227.158
740,22 Oct 2025 21:20:59.454,22 Oct 2025 21:32:20.301,680.847
741,22 Oct 2025 22:56:13.505,22 Oct 2025 23:05:11.337,537.831
742,23 Oct 2025 21:02:36.961,23 Oct 2025 21:13:27.885,650.924
743,23 Oct 2025 22:36:43.410,23 Oct 2025 22:46:58.506,615.096
744,24 Oct 2025 20:44:27.240,24 Oct 2025 20:54:28.602,601.362
745,24 Oct 2025 22:17:31.127,24 Oct 2025 22:28:33.521,662.394
746,25 Oct 2025 20:26:32.699,25 Oct 2025 20:35:20.310,527.611
747,25 Oct 2025 21:58:32.852,25 Oct 2025 22:10:00.061,687.208
748,25 Oct 2025 23:37:47.765,25 Oct 2025 23:39:47.842,120.077
749,26 Oct 2025 20:08:59.119,26 Oct 2025 20:15:57.539,418.419
750,26 Oct 2025 21:39:46.856,26 Oct 2025 21:51:19.834,692.978
751,26 Oct 2025 23:16:25.336,26 Oct 2025 23:23:15.030,409.694
752,27 Oct 2025 19:52:08.315,27 Oct 2025 19:55:58.846,230.531
753,27 Oct 2025 21:21:12.466,27 Oct 2025 21:32:33.558,681.091
754,27 Oct 2025 22:56:27.375,27 Oct 2025 23:05:24.063,536.688
755,28 Oct 2025 21:02:49.831,28 Oct 2025 21:13:41.214,651.383
756,28 Oct 2025 22:36:57.032,28 Oct 2025 22:47:11.412,614.381
757,29 Oct 2025 20:44:39.950,29 Oct 2025 20:54:42.024,602.074
758,29 Oct 2025 22:17:44.567,29 Oct 2025 22:28:46.544,661.977
759,30 Oct 2025 20:26:45.207,30 Oct 2025 20:35:33.859,528.653
760,30 Oct 2025 21:58:46.141,30 Oct 2025 22:10:13.172,687.031
761,30 Oct 2025 23:38:05.497,30 Oct 2025 23:39:56.859,111.362
762,31 Oct 2025 20:09:11.316,31 Oct 2025 20:16:11.321,420.005
763,31 Oct 2025 21:40:00.006,31 Oct 2025 21:51:33.020,693.014
764,31 Oct 2025 23:16:39.653,31 Oct 2025 23:23:27.381,407.728
765,1 Nov 2025 19:52:19.607,1 Nov 2025 19:56:13.452,233.846
766,1 Nov 2025 21:21:25.481,1 Nov 2025 21:32:46.814,681.333
767,1 Nov 2025 22:56:41.247,1 Nov 2025 23:05:36.787,535.540
768,2 Nov 2025 21:03:02.703,2 Nov 2025 21:13:54.544,651.841
769,2 Nov 2025 22:37:10.656,2 Nov 2025 22:47:24.318,613.663
770,3 Nov 2025 20:44:52.661,3 Nov 2025 20:54:55.443,602.781
771,3 Nov 2025 22:17:58.009,3 Nov 2025 22:28:59.567,661.558
772,4 Nov 2025 20:26:57.717,4 Nov 2025 20:35:47.405,529.688
773,4 Nov 2025 21:58:59.430,4 Nov 2025 22:10:26.281,686.852
774,4 Nov 2025 23:38:23.599,4 Nov 2025 23:40:05.499,101.900
775,5 Nov 2025 20:09:23.517,5 Nov 2025 20:16:25.097,421.580
776,5 Nov 2025 21:40:13.158,5 Nov 2025 21:51:46.203,693.045
777,5 Nov 2025 23:16:53.977,5 Nov 2025 23:23:39.724,405.747
778,6 Nov 2025 19:52:30.923,6 Nov 2025 19:56:28.030,237.106
779,6 Nov 2025 21:21:38.494,6 Nov 2025 21:33:00.067,681.572
780,6 Nov 2025 22:56:55.125,6 Nov 2025 23:05:49.507,534.383
781,7 Nov 2025 21:03:15.575,7 Nov 2025 21:14:07.871,652.297
782,7 Nov 2025 22:37:24.280,7 Nov 2025 22:47:37.220,612.940
783,8 Nov 2025 20:45:05.374,8 Nov 2025 20:55:08.860,603.485
784,8 Nov 2025 22:18:11.446,8 Nov 2025 22:29:12.589,661.143
785,9 Nov 2025 20:27:10.229,9 Nov 2025 20:36:00.945,530.716
786,9 Nov 2025 21:59:12.720,9 Nov 2025 22:10:39.389,686.670
787,9 Nov 2025 23:38:42.210,9 Nov 2025 23:40:13.631,91.421
788,10 Nov 2025 20:09:35.723,10 Nov 2025 20:16:38.869,423.146
789,10 Nov 2025 21:40:26.307,10 Nov 2025 21:51:59.385,693.078
790,10 Nov 2025 23:17:08.309,10 Nov 2025 23:23:52.059,403.750
791,11 Nov 2025 19:52:42.265,11 Nov 2025 19:56:42.585,240.321
792,11 Nov 2025 21:21:51.511,11 Nov 2025 21:33:13.320,681.809
793,11 Nov 2025 22:57:09.003,11 Nov 2025 23:06:02.225,533.222
794,12 Nov 2025 21:03:28.449,12 Nov 2025 21:14:21.199,652.750
795,12 Nov 2025 22:37:37.908,12 Nov 2025 22:47:50.122,612.214
796,13 Nov 2025 20:45:18.090,13 Nov 2025 20:55:22.271,604.182
797,13 Nov 2025 22:18:24.891,13 Nov 2025 22:29:25.609,660.718
798,14 Nov 2025 20:27:22.745,14 Nov 2025 20:36:14.487,531.742
799,14 Nov 2025 21:59:26.012,14 Nov 2025 22:10:52.497,686.485
800,14 Nov 2025 23:39:01.515,14 Nov 2025 23:40:21.075,79.560
801,15 Nov 2025 20:09:47.934,15 Nov 2025 20:16:52.636,424.702
802,15 Nov 2025 21:40:39.461,15 Nov 2025 21:52:12.567,693.107
803,15 Nov 2025 23:17:22.648,15 Nov 2025 23:24:04.389,401.741
804,16 Nov 2025 19:52:53.634,16 Nov 2025 19:56:57.112,243.478
805,16 Nov 2025 21:22:04.528,16 Nov 2025 21:33:26.571,682.043
806,16 Nov 2025 22:57:22.886,16 Nov 2025 23:06:14.941,532.055
807,17 Nov 2025 21:03:41.325,17 Nov 2025 21:14:34.524,653.199
808,17 Nov 2025 22:37:51.532,17 Nov 2025 22:48:03.022,611.490
809,18 Nov 2025 20:45:30.806,18 Nov 2025 20:55:35.685,604.879
810,18 Nov 2025 22:18:38.337,18 Nov 2025 22:29:38.626,660.290
811,19 Nov 2025 20:27:35.263,19 Nov 2025 20:36:28.025,532.762
812,19 Nov 2025 21:59:39.305,19 Nov 2025 22:11:05.602,686.298
813,19 Nov 2025 23:39:21.884,19 Nov 2025 23:40:27.453,65.569
814,20 Nov 2025 20:10:00.149,20 Nov 2025 20:17:06.397,426.247
815,20 Nov 2025 21:40:52.614,20 Nov 2025 21:52:25.747,693.133
816,20 Nov 2025 23:17:36.994,20 Nov 2025 23:24:16.711,399.718
817,21 Nov 2025 19:53:05.025,21 Nov 2025 19:57:11.616,246.591
818,21 Nov 2025 21:22:17.546,21 Nov 2025 21:33:39.820,682.274
819,21 Nov 2025 22:57:36.770,21 Nov 2025 23:06:27.653,530.883
820,22 Nov 2025 21:03:54.202,22 Nov 2025 21:14:47.848,653.646
821,22 Nov 2025 22:38:05.163,22 Nov 2025 22:48:15.919,610.756
822,23 Nov 2025 20:45:43.524,23 Nov 2025 20:55:49.099,605.574
823,23 Nov 2025 22:18:51.783,23 Nov 2025 22:29:51.642,659.859
824,24 Nov 2025 20:27:47.784,24 Nov 2025 20:36:41.561,533.778
825,24 Nov 2025 21:59:52.599,24 Nov 2025 22:11:18.707,686.108
826,24 Nov 2025 23:39:44.255,24 Nov 2025 23:40:31.826,47.571
827,25 Nov 2025 20:10:12.376,25 Nov 2025 20:17:20.155,427.779
828,25 Nov 2025 21:41:05.772,25 Nov 2025 21:52:38.926,693.154
829,25 Nov 2025 23:17:51.348,25 Nov 2025 23:24:29.026,397.678
830,26 Nov 2025 19:53:16.439,26 Nov 2025 19:57:26.099,249.660
831,26 Nov 2025 21:22:30.567,26 Nov 2025 21:33:53.070,682.503
832,26 Nov 2025 22:57:50.658,26 Nov 2025 23:06:40.363,529.705
833,27 Nov 2025 21:04:07.085,27 Nov 2025 21:15:01.170,654.085
834,27 Nov 2025 22:38:18.802,27 Nov 2025 22:48:28.816,610.015
835,28 Nov 2025 20:45:56.249,28 Nov 2025 20:56:02.512,606.263
836,28 Nov 2025 22:19:05.238,28 Nov 2025 22:30:04.655,659.417
837,29 Nov 2025 20:28:00.308,29 Nov 2025 20:36:55.095,534.788
838,29 Nov 2025 22:00:05.896,29 Nov 2025 22:11:31.812,685.916
839,29 Nov 2025 23:40:13.925,29 Nov 2025 23:40:28.902,14.977
840,30 Nov 2025 20:10:24.599,30 Nov 2025 20:17:33.912,429.313
841,30 Nov 2025 21:41:18.925,30 Nov 2025 21:52:52.109,693.184
842,30 Nov 2025 23:18:05.706,30 Nov 2025 23:24:41.340,395.634
843,1 Dec 2025 19:53:27.878,1 Dec 2025 19:57:40.558,252.680
844,1 Dec 2025 21:22:43.588,1 Dec 2025 21:34:06.318,682.730
845,1 Dec 2025 22:58:04.550,1 Dec 2025 23:06:53.072,528.522
846,2 Dec 2025 21:04:19.962,2 Dec 2025 21:15:14.493,654.531
847,2 Dec 2025 22:38:32.432,2 Dec 2025 22:48:41.712,609.279
848,3 Dec 2025 20:46:08.968,3 Dec 2025 20:56:15.920,606.952
849,3 Dec 2025 22:19:18.684,3 Dec 2025 22:30:17.672,658.989
850,4 Dec 2025 20:28:12.834,4 Dec 2025 20:37:08.626,535.792
851,4 Dec 2025 22:00:19.193,4 Dec 2025 22:11:44.913,685.721
852,5 Dec 2025 20:10:36.830,5 Dec 2025 20:17:47.654,430.824
853,5 Dec 2025 21:41:32.082,5 Dec 2025 21:53:05.285,693.203
854,5 Dec 2025 23:18:20.076,5 Dec 2025 23:24:53.640,393.564
855,6 Dec 2025 19:53:39.334,6 Dec 2025 19:57:54.996,255.662
856,6 Dec 2025 21:22:56.611,6 Dec 2025 21:34:19.564,682.954
857,6 Dec 2025 22:58:18.443,6 Dec 2025 23:07:05.776,527.332
858,7 Dec 2025 21:04:32.847,7 Dec 2025 21:15:27.812,654.964
859,7 Dec 2025 22:38:46.070,7 Dec 2025 22:48:54.605,608.535
860,8 Dec 2025 20:46:21.696,8 Dec 2025 20:56:29.327,607.631
861,8 Dec 2025 22:19:32.141,8 Dec 2025 22:30:30.682,658.541
862,9 Dec 2025 20:28:25.363,9 Dec 2025 20:37:22.153,536.790
863,9 Dec 2025 22:00:32.492,9 Dec 2025 22:11:58.016,685.524
864,10 Dec 2025 20:10:49.069,10 Dec 2025 20:18:01.404,432.335
865,10 Dec 2025 21:41:45.244,10 Dec 2025 21:53:18.463,693.219
866,10 Dec 2025 23:18:34.456,10 Dec 2025 23:25:05.934,391.478
867,11 Dec 2025 19:53:50.814,11 Dec 2025 19:58:09.416,258.602
868,11 Dec 2025 21:23:09.636,11 Dec 2025 21:34:32.811,683.175
869,11 Dec 2025 22:58:32.342,11 Dec 2025 23:07:18.479,526.137
870,12 Dec 2025 21:04:45.732,12 Dec 2025 21:15:41.132,655.399
871,12 Dec 2025 22:38:59.711,12 Dec 2025 22:49:07.498,607.787
872,13 Dec 2025 20:46:34.424,13 Dec 2025 20:56:42.734,608.310
873,13 Dec 2025 22:19:45.593,13 Dec 2025 22:30:43.695,658.102
874,14 Dec 2025 20:28:37.896,14 Dec 2025 20:37:35.680,537.784
875,14 Dec 2025 22:00:45.793,14 Dec 2025 22:12:11.118,685.325
876,15 Dec 2025 20:11:01.312,15 Dec 2025 20:18:15.142,433.830
877,15 Dec 2025 21:41:58.406,15 Dec 2025 21:53:31.638,693.233
878,15 Dec 2025 23:18:48.843,15 Dec 2025 23:25:18.221,389.379
879,16 Dec 2025 19:54:02.316,16 Dec 2025 19:58:23.813,261.497
880,16 Dec 2025 21:23:22.663,16 Dec 2025 21:34:46.056,683.393
881,16 Dec 2025 22:58:46.243,16 Dec 2025 23:07:31.179,524.936
882,17 Dec 2025 21:04:58.618,17 Dec 2025 21:15:54.449,655.831
883,17 Dec 2025 22:39:13.353,17 Dec 2025 22:49:20.389,607.036
884,18 Dec 2025 20:46:47.153,18 Dec 2025 20:56:56.137,608.985
885,18 Dec 2025 22:19:59.051,18 Dec 2025 22:30:56.709,657.658
886,19 Dec 2025 20:28:50.433,19 Dec 2025 20:37:49.203,538.770
887,19 Dec 2025 22:00:59.095,19 Dec 2025 22:12:24.218,685.123
888,20 Dec 2025 20:11:13.557,20 Dec 2025 20:18:28.876,435.319
889,20 Dec 2025 21:42:11.568,20 Dec 2025 21:53:44.813,693.244
890,20 Dec 2025 23:19:03.238,20 Dec 2025 23:25:30.500,387.262
891,21 Dec 2025 19:54:13.835,21 Dec 2025 19:58:38.192,264.357
892,21 Dec 2025 21:23:35.690,21 Dec 2025 21:34:59.300,683.610
893,21 Dec 2025 22:59:00.148,21 Dec 2025 23:07:43.877,523.729
894,22 Dec 2025 21:05:11.506,22 Dec 2025 21:16:07.764,656.259
895,22 Dec 2025 22:39:26.998,22 Dec 2025 22:49:33.278,606.281
896,23 Dec 2025 20:46:59.884,23 Dec 2025 20:57:09.541,609.657
897,23 Dec 2025 22:20:12.506,23 Dec 2025 22:31:09.720,657.214
898,24 Dec 2025 20:29:02.971,24 Dec 2025 20:38:02.727,539.755
899,24 Dec 2025 22:01:12.400,24 Dec 2025 22:12:37.318,684.918
900,25 Dec 2025 20:11:25.808,25 Dec 2025 20:18:42.608,436.800
901,25 Dec 2025 21:42:24.734,25 Dec 2025 21:53:57.988,693.254
902,25 Dec 2025 23:19:17.644,25 Dec 2025 23:25:42.772,385.128
903,26 Dec 2025 19:54:25.375,26 Dec 2025 19:58:52.556,267.181
904,26 Dec 2025 21:23:48.721,26 Dec 2025 21:35:12.545,683.823
905,26 Dec 2025 22:59:14.058,26 Dec 2025 23:07:56.573,522.515
906,27 Dec 2025 21:05:24.396,27 Dec 2025 21:16:21.082,656.685
907,27 Dec 2025 22:39:40.646,27 Dec 2025 22:49:46.168,605.522
908,28 Dec 2025 20:47:12.618,28 Dec 2025 20:57:22.943,610.324
909,28 Dec 2025 22:20:25.967,28 Dec 2025 22:31:22.730,656.763
910,29 Dec 2025 20:29:15.513,29 Dec 2025 20:38:16.247,540.734
911,29 Dec 2025 22:01:25.707,29 Dec 2025 22:12:50.418,684.711
912,30 Dec 2025 20:11:38.070,30 Dec 2025 20:18:56.331,438.260
913,30 Dec 2025 21:42:37.904,30 Dec 2025 21:54:11.158,693.254
914,30 Dec 2025 23:19:32.062,30 Dec 2025 23:25:55.033,382.971
915,31 Dec 2025 19:54:36.934,31 Dec 2025 19:59:06.895,269.961
916,31 Dec 2025 21:24:01.752,31 Dec 2025 21:35:25.783,684.032
917,31 Dec 2025 22:59:27.968,31 Dec 2025 23:08:09.267,521.299

Global Statistics
"Min Duration",839,29 Nov 2025 23:40:13.925,29 Nov 2025 23:40:28.902,14.977
"Max Duration",901,25 Dec 2025 21:42:24.734,25 Dec 2025 21:53:57.988,693.254
"Mean Duration",,,,541.396
"Total Duration",,,,496460.187


