3UCubedIntegratedSim/Reports & Plots/Comms/SSU/Sat3 Comms.csv

"Access","Start Time (UTCG)","Stop Time (UTCG)","Duration (sec)"
1,1 Jan 2025 20:54:17.914,1 Jan 2025 20:58:42.925,265.011
2,1 Jan 2025 22:23:40.143,1 Jan 2025 22:35:03.811,683.668
3,1 Jan 2025 23:59:04.857,1 Jan 2025 23:59:59.992,55.136
4,1 Jan 2025 23:59:59.992,2 Jan 2025 00:07:48.277,468.285
5,2 Jan 2025 09:56:28.304,2 Jan 2025 10:03:02.142,393.837
6,2 Jan 2025 11:28:16.811,2 Jan 2025 11:39:50.009,693.198
7,2 Jan 2025 13:03:34.558,2 Jan 2025 13:10:45.153,430.594
8,2 Jan 2025 22:05:15.919,2 Jan 2025 22:16:12.290,656.371
9,2 Jan 2025 23:39:31.636,2 Jan 2025 23:49:37.724,606.088
10,3 Jan 2025 11:09:37.160,3 Jan 2025 11:21:02.912,685.751
11,3 Jan 2025 12:44:13.551,3 Jan 2025 12:53:09.194,535.643
12,3 Jan 2025 21:47:04.255,3 Jan 2025 21:57:14.080,609.826
13,3 Jan 2025 23:20:17.092,3 Jan 2025 23:31:14.191,657.100
14,4 Jan 2025 10:51:04.394,4 Jan 2025 11:02:03.437,659.043
15,4 Jan 2025 12:25:06.235,4 Jan 2025 12:35:13.089,606.853
16,4 Jan 2025 21:29:07.290,4 Jan 2025 21:38:07.294,540.004
17,4 Jan 2025 23:01:16.940,4 Jan 2025 23:12:41.808,684.868
18,5 Jan 2025 10:32:40.332,5 Jan 2025 10:42:49.710,609.379
19,5 Jan 2025 12:06:07.637,5 Jan 2025 12:17:02.113,654.476
20,5 Jan 2025 21:11:30.056,5 Jan 2025 21:18:47.212,437.155
21,5 Jan 2025 22:42:29.236,5 Jan 2025 22:54:02.488,693.252
22,6 Jan 2025 00:19:22.506,6 Jan 2025 00:25:47.065,384.559
23,6 Jan 2025 10:14:28.938,6 Jan 2025 10:23:17.622,528.683
24,6 Jan 2025 11:47:15.803,6 Jan 2025 11:58:38.499,682.696
25,6 Jan 2025 13:23:41.792,6 Jan 2025 13:27:53.991,252.199
26,6 Jan 2025 20:54:29.455,6 Jan 2025 20:58:57.300,267.845
27,6 Jan 2025 22:23:53.183,6 Jan 2025 22:35:17.062,683.879
28,6 Jan 2025 23:59:18.780,6 Jan 2025 23:59:59.992,41.212
29,6 Jan 2025 23:59:59.992,7 Jan 2025 00:08:00.975,480.983
30,7 Jan 2025 09:56:40.613,7 Jan 2025 10:03:16.520,395.906
31,7 Jan 2025 11:28:29.997,7 Jan 2025 11:40:03.174,693.177
32,7 Jan 2025 13:03:48.314,7 Jan 2025 13:10:57.390,429.076
33,7 Jan 2025 22:05:28.812,7 Jan 2025 22:16:25.615,656.803
34,7 Jan 2025 23:39:45.293,7 Jan 2025 23:49:50.617,605.324
35,8 Jan 2025 09:40:49.559,8 Jan 2025 09:41:11.789,22.230
36,8 Jan 2025 11:09:50.271,8 Jan 2025 11:21:16.216,685.946
37,8 Jan 2025 12:44:27.090,8 Jan 2025 12:53:21.727,534.636
38,8 Jan 2025 21:47:16.994,8 Jan 2025 21:57:27.490,610.496
39,8 Jan 2025 23:20:30.559,8 Jan 2025 23:31:27.206,656.647
40,9 Jan 2025 10:51:17.411,9 Jan 2025 11:02:16.898,659.487
41,9 Jan 2025 12:25:19.646,9 Jan 2025 12:35:25.813,606.167
42,9 Jan 2025 21:29:19.835,9 Jan 2025 21:38:20.818,540.984
43,9 Jan 2025 23:01:30.254,9 Jan 2025 23:12:54.917,684.663
44,10 Jan 2025 10:32:53.235,10 Jan 2025 10:43:03.352,610.118
45,10 Jan 2025 12:06:20.965,10 Jan 2025 12:17:14.999,654.035
46,10 Jan 2025 21:11:42.317,10 Jan 2025 21:19:00.946,438.629
47,10 Jan 2025 22:42:42.408,10 Jan 2025 22:54:15.667,693.260
48,11 Jan 2025 00:19:36.932,11 Jan 2025 00:25:59.327,382.395
49,11 Jan 2025 10:14:41.650,11 Jan 2025 10:23:31.519,529.869
50,11 Jan 2025 11:47:29.056,11 Jan 2025 11:58:51.526,682.469
51,11 Jan 2025 13:23:56.262,11 Jan 2025 13:28:05.429,249.167
52,11 Jan 2025 20:54:41.015,11 Jan 2025 20:59:11.655,270.640
53,11 Jan 2025 22:24:06.220,11 Jan 2025 22:35:30.311,684.091
54,11 Jan 2025 23:59:32.702,11 Jan 2025 23:59:59.992,27.290
55,11 Jan 2025 23:59:59.992,12 Jan 2025 00:08:13.669,493.677
56,12 Jan 2025 09:56:52.928,12 Jan 2025 10:03:30.887,397.959
57,12 Jan 2025 11:28:43.181,12 Jan 2025 11:40:16.336,693.155
58,12 Jan 2025 13:04:02.073,12 Jan 2025 13:11:09.621,427.548
59,12 Jan 2025 22:05:41.708,12 Jan 2025 22:16:38.937,657.229
60,12 Jan 2025 23:39:58.950,12 Jan 2025 23:50:03.506,604.556
61,13 Jan 2025 09:40:48.894,13 Jan 2025 09:41:39.216,50.322
62,13 Jan 2025 11:10:03.385,13 Jan 2025 11:21:29.517,686.133
63,13 Jan 2025 12:44:40.629,13 Jan 2025 12:53:34.255,533.626
64,13 Jan 2025 21:47:29.734,13 Jan 2025 21:57:40.898,611.164
65,13 Jan 2025 23:20:44.028,13 Jan 2025 23:31:40.218,656.190
66,14 Jan 2025 10:51:30.432,14 Jan 2025 11:02:30.352,659.920
67,14 Jan 2025 12:25:33.062,14 Jan 2025 12:35:38.539,605.477
68,14 Jan 2025 21:29:32.382,14 Jan 2025 21:38:34.345,541.963
69,14 Jan 2025 23:01:43.567,14 Jan 2025 23:13:08.015,684.448
70,15 Jan 2025 10:33:06.137,15 Jan 2025 10:43:16.991,610.854
71,15 Jan 2025 12:06:34.292,15 Jan 2025 12:17:27.883,653.591
72,15 Jan 2025 21:11:54.580,15 Jan 2025 21:19:14.681,440.101
73,15 Jan 2025 22:42:55.582,15 Jan 2025 22:54:28.845,693.263
74,16 Jan 2025 00:19:51.369,16 Jan 2025 00:26:11.579,380.210
75,16 Jan 2025 10:14:54.368,16 Jan 2025 10:23:45.413,531.046
76,16 Jan 2025 11:47:42.311,16 Jan 2025 11:59:04.552,682.241
77,16 Jan 2025 13:24:10.750,16 Jan 2025 13:28:16.848,246.099
78,16 Jan 2025 20:54:52.589,16 Jan 2025 20:59:25.996,273.407
79,16 Jan 2025 22:24:19.259,16 Jan 2025 22:35:43.559,684.300
80,16 Jan 2025 23:59:46.628,16 Jan 2025 23:59:59.992,13.363
81,16 Jan 2025 23:59:59.992,17 Jan 2025 00:08:26.359,506.367
82,17 Jan 2025 09:57:05.252,17 Jan 2025 10:03:45.246,399.994
83,17 Jan 2025 11:28:56.367,17 Jan 2025 11:40:29.498,693.131
84,17 Jan 2025 13:04:15.834,17 Jan 2025 13:11:21.849,426.014
85,17 Jan 2025 22:05:54.607,17 Jan 2025 22:16:52.259,657.652
86,17 Jan 2025 23:40:12.611,17 Jan 2025 23:50:16.394,603.783
87,18 Jan 2025 09:40:53.653,18 Jan 2025 09:42:01.219,67.566
88,18 Jan 2025 11:10:16.494,18 Jan 2025 11:21:42.819,686.325
89,18 Jan 2025 12:44:54.169,18 Jan 2025 12:53:46.782,532.614
90,18 Jan 2025 21:47:42.477,18 Jan 2025 21:57:54.306,611.829
91,18 Jan 2025 23:20:57.501,18 Jan 2025 23:31:53.230,655.729
92,19 Jan 2025 10:51:43.456,19 Jan 2025 11:02:43.806,660.350
93,19 Jan 2025 12:25:46.480,19 Jan 2025 12:35:51.264,604.784
94,19 Jan 2025 21:29:44.934,19 Jan 2025 21:38:47.872,542.938
95,19 Jan 2025 23:01:56.884,19 Jan 2025 23:13:21.118,684.234
96,20 Jan 2025 10:33:19.044,20 Jan 2025 10:43:30.629,611.585
97,20 Jan 2025 12:06:47.623,20 Jan 2025 12:17:40.767,653.144
98,20 Jan 2025 21:12:06.850,20 Jan 2025 21:19:28.412,441.562
99,20 Jan 2025 22:43:08.760,20 Jan 2025 22:54:42.023,693.264
100,21 Jan 2025 00:20:05.816,21 Jan 2025 00:26:23.824,378.008
101,21 Jan 2025 10:15:07.088,21 Jan 2025 10:23:59.306,532.217
102,21 Jan 2025 11:47:55.568,21 Jan 2025 11:59:17.580,682.012
103,21 Jan 2025 13:24:25.261,21 Jan 2025 13:28:28.244,242.982
104,21 Jan 2025 20:55:04.183,21 Jan 2025 20:59:40.317,276.134
105,21 Jan 2025 22:24:32.297,21 Jan 2025 22:35:56.803,684.506
106,22 Jan 2025 00:00:00.558,22 Jan 2025 00:08:39.047,518.490
107,22 Jan 2025 09:57:17.583,22 Jan 2025 10:03:59.599,402.016
108,22 Jan 2025 11:29:09.553,22 Jan 2025 11:40:42.659,693.106
109,22 Jan 2025 13:04:29.602,22 Jan 2025 13:11:34.071,424.468
110,22 Jan 2025 22:06:07.508,22 Jan 2025 22:17:05.580,658.072
111,22 Jan 2025 23:40:26.275,22 Jan 2025 23:50:29.282,603.007
112,23 Jan 2025 09:41:00.205,23 Jan 2025 09:42:21.422,81.217
113,23 Jan 2025 11:10:29.607,23 Jan 2025 11:21:56.119,686.512
114,23 Jan 2025 12:45:07.710,23 Jan 2025 12:53:59.307,531.596
115,23 Jan 2025 21:47:55.222,23 Jan 2025 21:58:07.712,612.489
116,23 Jan 2025 23:21:10.976,23 Jan 2025 23:32:06.241,655.264
117,24 Jan 2025 10:51:56.480,24 Jan 2025 11:02:57.258,660.778
118,24 Jan 2025 12:25:59.899,24 Jan 2025 12:36:03.986,604.087
119,24 Jan 2025 21:29:57.488,24 Jan 2025 21:39:01.396,543.908
120,24 Jan 2025 23:02:10.202,24 Jan 2025 23:13:34.219,684.017
121,25 Jan 2025 10:33:31.949,25 Jan 2025 10:43:44.264,612.315
122,25 Jan 2025 12:07:00.955,25 Jan 2025 12:17:53.648,652.692
123,25 Jan 2025 21:12:19.124,25 Jan 2025 21:19:42.135,443.012
124,25 Jan 2025 22:43:21.937,25 Jan 2025 22:54:55.200,693.263
125,26 Jan 2025 00:20:20.268,26 Jan 2025 00:26:36.060,375.793
126,26 Jan 2025 10:15:19.810,26 Jan 2025 10:24:13.193,533.383
127,26 Jan 2025 11:48:08.824,26 Jan 2025 11:59:30.602,681.778
128,26 Jan 2025 13:24:39.796,26 Jan 2025 13:28:39.614,239.817
129,26 Jan 2025 20:55:15.793,26 Jan 2025 20:59:54.624,278.831
130,26 Jan 2025 22:24:45.339,26 Jan 2025 22:36:10.049,684.711
131,27 Jan 2025 00:00:14.492,27 Jan 2025 00:08:51.737,517.245
132,27 Jan 2025 09:57:29.919,27 Jan 2025 10:04:13.937,404.018
133,27 Jan 2025 11:29:22.740,27 Jan 2025 11:40:55.818,693.078
134,27 Jan 2025 13:04:43.373,27 Jan 2025 13:11:46.287,422.914
135,27 Jan 2025 22:06:20.410,27 Jan 2025 22:17:18.899,658.489
136,27 Jan 2025 23:40:39.940,27 Jan 2025 23:50:42.166,602.227
137,28 Jan 2025 09:41:07.766,28 Jan 2025 09:42:40.621,92.855
138,28 Jan 2025 11:10:42.720,28 Jan 2025 11:22:09.415,686.695
139,28 Jan 2025 12:45:21.255,28 Jan 2025 12:54:11.827,530.572
140,28 Jan 2025 21:48:07.968,28 Jan 2025 21:58:21.115,613.147
141,28 Jan 2025 23:21:24.453,28 Jan 2025 23:32:19.249,654.796
142,29 Jan 2025 10:52:09.504,29 Jan 2025 11:03:10.703,661.198
143,29 Jan 2025 12:26:13.323,29 Jan 2025 12:36:16.704,603.381
144,29 Jan 2025 21:30:10.043,29 Jan 2025 21:39:14.917,544.874
145,29 Jan 2025 23:02:23.521,29 Jan 2025 23:13:47.319,683.798
146,30 Jan 2025 10:33:44.857,30 Jan 2025 10:43:57.895,613.038
147,30 Jan 2025 12:07:14.284,30 Jan 2025 12:18:06.526,652.242
148,30 Jan 2025 21:12:31.401,30 Jan 2025 21:19:55.858,444.457
149,30 Jan 2025 22:43:35.117,30 Jan 2025 22:55:08.375,693.258
150,31 Jan 2025 00:20:34.734,31 Jan 2025 00:26:48.285,373.551
151,31 Jan 2025 10:15:32.535,31 Jan 2025 10:24:27.075,534.540
152,31 Jan 2025 11:48:22.081,31 Jan 2025 11:59:43.623,681.541
153,31 Jan 2025 13:24:54.351,31 Jan 2025 13:28:50.962,236.610
154,31 Jan 2025 20:55:27.416,31 Jan 2025 21:00:08.918,281.502
155,31 Jan 2025 22:24:58.383,31 Jan 2025 22:36:23.295,684.913
156,1 Feb 2025 00:00:28.429,1 Feb 2025 00:09:04.417,515.988
157,1 Feb 2025 09:57:42.265,1 Feb 2025 10:04:28.272,406.007
158,1 Feb 2025 11:29:35.927,1 Feb 2025 11:41:08.973,693.046
159,1 Feb 2025 13:04:57.147,1 Feb 2025 13:11:58.500,421.353
160,1 Feb 2025 22:06:33.314,1 Feb 2025 22:17:32.216,658.902
161,1 Feb 2025 23:40:53.608,1 Feb 2025 23:50:55.049,601.441
162,2 Feb 2025 09:41:15.999,2 Feb 2025 09:42:59.150,103.151
163,2 Feb 2025 11:10:55.835,2 Feb 2025 11:22:22.710,686.875
164,2 Feb 2025 12:45:34.802,2 Feb 2025 12:54:24.346,529.544
165,2 Feb 2025 21:48:20.717,2 Feb 2025 21:58:34.520,613.802
166,2 Feb 2025 23:21:37.930,2 Feb 2025 23:32:32.257,654.328
167,3 Feb 2025 10:52:22.531,3 Feb 2025 11:03:24.151,661.619
168,3 Feb 2025 12:26:26.745,3 Feb 2025 12:36:29.425,602.680
169,3 Feb 2025 21:30:22.603,3 Feb 2025 21:39:28.440,545.836
170,3 Feb 2025 23:02:36.843,3 Feb 2025 23:14:00.419,683.576
171,4 Feb 2025 10:33:57.767,4 Feb 2025 10:44:11.526,613.758
172,4 Feb 2025 12:07:27.619,4 Feb 2025 12:18:19.405,651.785
173,4 Feb 2025 21:12:43.688,4 Feb 2025 21:20:09.582,445.894
174,4 Feb 2025 22:43:48.296,4 Feb 2025 22:55:21.555,693.260
175,5 Feb 2025 00:20:49.211,5 Feb 2025 00:27:00.503,371.292
176,5 Feb 2025 10:15:45.264,5 Feb 2025 10:24:40.956,535.692
177,5 Feb 2025 11:48:35.341,5 Feb 2025 11:59:56.642,681.302
178,5 Feb 2025 13:25:08.936,5 Feb 2025 13:29:02.283,233.347
179,5 Feb 2025 20:55:39.058,5 Feb 2025 21:00:23.197,284.139
180,5 Feb 2025 22:25:11.429,5 Feb 2025 22:36:36.541,685.112
181,6 Feb 2025 00:00:42.371,6 Feb 2025 00:09:17.097,514.726
182,6 Feb 2025 09:57:54.616,6 Feb 2025 10:04:42.600,407.984
183,6 Feb 2025 11:29:49.116,6 Feb 2025 11:41:22.129,693.012
184,6 Feb 2025 13:05:10.928,6 Feb 2025 13:12:10.706,419.779
185,6 Feb 2025 22:06:46.220,6 Feb 2025 22:17:45.535,659.315
186,6 Feb 2025 23:41:07.279,6 Feb 2025 23:51:07.932,600.653
187,7 Feb 2025 09:41:24.698,7 Feb 2025 09:43:17.203,112.504
188,7 Feb 2025 11:11:08.950,7 Feb 2025 11:22:36.007,687.057
189,7 Feb 2025 12:45:48.352,7 Feb 2025 12:54:36.861,528.509
190,7 Feb 2025 21:48:33.468,7 Feb 2025 21:58:47.921,614.453
191,7 Feb 2025 23:21:51.409,7 Feb 2025 23:32:45.265,653.856
192,8 Feb 2025 10:52:35.558,8 Feb 2025 11:03:37.596,662.038
193,8 Feb 2025 12:26:40.167,8 Feb 2025 12:36:42.142,601.976
194,8 Feb 2025 21:30:35.165,8 Feb 2025 21:39:41.958,546.793
195,8 Feb 2025 23:02:50.166,8 Feb 2025 23:14:13.517,683.351
196,9 Feb 2025 10:34:10.678,9 Feb 2025 10:44:25.153,614.475
197,9 Feb 2025 12:07:40.955,9 Feb 2025 12:18:32.280,651.325
198,9 Feb 2025 21:12:55.975,9 Feb 2025 21:20:23.296,447.321
199,9 Feb 2025 22:44:01.478,9 Feb 2025 22:55:34.729,693.252
200,10 Feb 2025 00:21:03.696,10 Feb 2025 00:27:12.712,369.016
201,10 Feb 2025 10:15:57.993,10 Feb 2025 10:24:54.831,536.838
202,10 Feb 2025 11:48:48.596,10 Feb 2025 12:00:09.659,681.063
203,10 Feb 2025 13:25:23.543,10 Feb 2025 13:29:13.576,230.033
204,10 Feb 2025 20:55:50.713,10 Feb 2025 21:00:37.460,286.747
205,10 Feb 2025 22:25:24.475,10 Feb 2025 22:36:49.784,685.309
206,11 Feb 2025 00:00:56.316,11 Feb 2025 00:09:29.773,513.457
207,11 Feb 2025 09:58:06.976,11 Feb 2025 10:04:56.918,409.942
208,11 Feb 2025 11:30:02.305,11 Feb 2025 11:41:35.284,692.978
209,11 Feb 2025 13:05:24.710,11 Feb 2025 13:12:22.908,418.197
210,11 Feb 2025 22:06:59.127,11 Feb 2025 22:17:58.851,659.723
211,11 Feb 2025 23:41:20.952,11 Feb 2025 23:51:20.807,599.856
212,12 Feb 2025 09:41:33.773,12 Feb 2025 09:43:34.881,121.108
213,12 Feb 2025 11:11:22.065,12 Feb 2025 11:22:49.299,687.234
214,12 Feb 2025 12:46:01.906,12 Feb 2025 12:54:49.375,527.468
215,12 Feb 2025 21:48:46.216,12 Feb 2025 21:59:01.320,615.104
216,12 Feb 2025 23:22:04.887,12 Feb 2025 23:32:58.266,653.379
217,13 Feb 2025 10:52:48.591,13 Feb 2025 11:03:51.040,662.449
218,13 Feb 2025 12:26:53.591,13 Feb 2025 12:36:54.856,601.265
219,13 Feb 2025 21:30:47.730,13 Feb 2025 21:39:55.475,547.745
220,13 Feb 2025 23:03:03.491,13 Feb 2025 23:14:26.615,683.124
221,14 Feb 2025 10:34:23.591,14 Feb 2025 10:44:38.778,615.187
222,14 Feb 2025 12:07:54.287,14 Feb 2025 12:18:45.154,650.867
223,14 Feb 2025 21:13:08.266,14 Feb 2025 21:20:37.009,448.743
224,14 Feb 2025 22:44:14.662,14 Feb 2025 22:55:47.903,693.241
225,15 Feb 2025 00:21:18.194,15 Feb 2025 00:27:24.911,366.717
226,15 Feb 2025 10:16:10.728,15 Feb 2025 10:25:08.704,537.975
227,15 Feb 2025 11:49:01.857,15 Feb 2025 12:00:22.676,680.819
228,15 Feb 2025 13:25:38.177,15 Feb 2025 13:29:24.845,226.668
229,15 Feb 2025 20:56:02.383,15 Feb 2025 21:00:51.713,289.331
230,15 Feb 2025 22:25:37.525,15 Feb 2025 22:37:03.028,685.503
231,16 Feb 2025 00:01:10.268,16 Feb 2025 00:09:42.446,512.178
232,16 Feb 2025 09:58:19.344,16 Feb 2025 10:05:11.230,411.886
233,16 Feb 2025 11:30:15.496,16 Feb 2025 11:41:48.437,692.941
234,16 Feb 2025 13:05:38.499,16 Feb 2025 13:12:35.105,416.607
235,16 Feb 2025 22:07:12.037,16 Feb 2025 22:18:12.167,660.130
236,16 Feb 2025 23:41:34.628,16 Feb 2025 23:51:33.686,599.058
237,17 Feb 2025 09:41:43.139,17 Feb 2025 09:43:52.268,129.129
238,17 Feb 2025 11:11:35.182,17 Feb 2025 11:23:02.590,687.407
239,17 Feb 2025 12:46:15.462,17 Feb 2025 12:55:01.885,526.423
240,17 Feb 2025 21:48:58.972,17 Feb 2025 21:59:14.722,615.750
241,17 Feb 2025 23:22:18.372,17 Feb 2025 23:33:11.272,652.900
242,18 Feb 2025 10:53:01.618,18 Feb 2025 11:04:04.483,662.866
243,18 Feb 2025 12:27:07.018,18 Feb 2025 12:37:07.568,600.550
244,18 Feb 2025 21:31:00.296,18 Feb 2025 21:40:08.990,548.694
245,18 Feb 2025 23:03:16.822,18 Feb 2025 23:14:39.712,682.890
246,19 Feb 2025 10:34:36.507,19 Feb 2025 10:44:52.402,615.895
247,19 Feb 2025 12:08:07.624,19 Feb 2025 12:18:58.027,650.403
248,19 Feb 2025 21:13:20.562,19 Feb 2025 21:20:50.718,450.156
249,19 Feb 2025 22:44:27.849,19 Feb 2025 22:56:01.077,693.227
250,20 Feb 2025 00:21:32.703,20 Feb 2025 00:27:37.103,364.400
251,20 Feb 2025 10:16:23.466,20 Feb 2025 10:25:22.574,539.107
252,20 Feb 2025 11:49:15.119,20 Feb 2025 12:00:35.691,680.572
253,20 Feb 2025 13:25:52.843,20 Feb 2025 13:29:36.082,223.239
254,20 Feb 2025 20:56:14.069,20 Feb 2025 21:01:05.951,291.882
255,20 Feb 2025 22:25:50.576,20 Feb 2025 22:37:16.271,685.695
256,21 Feb 2025 00:01:24.220,21 Feb 2025 00:09:55.114,510.894
257,21 Feb 2025 09:58:31.717,21 Feb 2025 10:05:25.536,413.819
258,21 Feb 2025 11:30:28.688,21 Feb 2025 11:42:01.585,692.897
259,21 Feb 2025 13:05:52.293,21 Feb 2025 13:12:47.296,415.004
260,21 Feb 2025 22:07:24.949,21 Feb 2025 22:18:25.482,660.533
261,21 Feb 2025 23:41:48.307,21 Feb 2025 23:51:46.564,598.257
262,22 Feb 2025 09:41:52.745,22 Feb 2025 09:44:09.415,136.670
263,22 Feb 2025 11:11:48.300,22 Feb 2025 11:23:15.879,687.579
264,22 Feb 2025 12:46:29.019,22 Feb 2025 12:55:14.391,525.372
265,22 Feb 2025 21:49:11.729,22 Feb 2025 21:59:28.121,616.391
266,22 Feb 2025 23:22:31.858,22 Feb 2025 23:33:24.276,652.419
267,23 Feb 2025 10:53:14.650,23 Feb 2025 11:04:17.924,663.274
268,23 Feb 2025 12:27:20.446,23 Feb 2025 12:37:20.278,599.832
269,23 Feb 2025 21:31:12.866,23 Feb 2025 21:40:22.502,549.637
270,23 Feb 2025 23:03:30.147,23 Feb 2025 23:14:52.809,682.662
271,24 Feb 2025 10:34:49.422,24 Feb 2025 10:45:06.023,616.601
272,24 Feb 2025 12:08:20.961,24 Feb 2025 12:19:10.897,649.936
273,24 Feb 2025 21:13:32.860,24 Feb 2025 21:21:04.423,451.563
274,24 Feb 2025 22:44:41.036,24 Feb 2025 22:56:14.248,693.212
275,25 Feb 2025 00:21:47.221,25 Feb 2025 00:27:49.282,362.061
276,25 Feb 2025 10:16:36.205,25 Feb 2025 10:25:36.434,540.229
277,25 Feb 2025 11:49:28.380,25 Feb 2025 12:00:48.704,680.323
278,25 Feb 2025 13:26:07.538,25 Feb 2025 13:29:47.287,219.748
279,25 Feb 2025 20:56:25.772,25 Feb 2025 21:01:20.178,294.406
280,25 Feb 2025 22:26:03.631,25 Feb 2025 22:37:29.513,685.881
281,26 Feb 2025 00:01:38.178,26 Feb 2025 00:10:07.780,509.602
282,26 Feb 2025 09:58:44.095,26 Feb 2025 10:05:39.832,415.736
283,26 Feb 2025 11:30:41.880,26 Feb 2025 11:42:14.737,692.857
284,26 Feb 2025 13:06:06.091,26 Feb 2025 13:12:59.482,413.391
285,26 Feb 2025 22:07:37.861,26 Feb 2025 22:18:38.795,660.934
286,26 Feb 2025 23:42:01.988,26 Feb 2025 23:51:59.439,597.450
287,27 Feb 2025 09:42:02.565,27 Feb 2025 09:44:26.354,143.789
288,27 Feb 2025 11:12:01.414,27 Feb 2025 11:23:29.162,687.747
289,27 Feb 2025 12:46:42.575,27 Feb 2025 12:55:26.894,524.319
290,27 Feb 2025 21:49:24.491,27 Feb 2025 21:59:41.519,617.028
291,27 Feb 2025 23:22:45.345,27 Feb 2025 23:33:37.282,651.937
292,28 Feb 2025 10:53:27.682,28 Feb 2025 11:04:31.361,663.678
293,28 Feb 2025 12:27:33.873,28 Feb 2025 12:37:32.985,599.112
294,28 Feb 2025 21:31:25.438,28 Feb 2025 21:40:36.014,550.577
295,28 Feb 2025 23:03:43.477,28 Feb 2025 23:15:05.904,682.426
296,1 Mar 2025 10:35:02.340,1 Mar 2025 10:45:19.641,617.301
297,1 Mar 2025 12:08:34.300,1 Mar 2025 12:19:23.766,649.466
298,1 Mar 2025 21:13:45.162,1 Mar 2025 21:21:18.126,452.964
299,1 Mar 2025 22:44:54.226,1 Mar 2025 22:56:27.420,693.194
300,2 Mar 2025 00:22:01.753,2 Mar 2025 00:28:01.451,359.697
301,2 Mar 2025 10:16:48.945,2 Mar 2025 10:25:50.297,541.353
302,2 Mar 2025 11:49:41.644,2 Mar 2025 12:01:01.716,680.072
303,2 Mar 2025 13:26:22.258,2 Mar 2025 13:29:58.463,216.204
304,2 Mar 2025 20:56:37.484,2 Mar 2025 21:01:34.392,296.908
305,2 Mar 2025 22:26:16.686,2 Mar 2025 22:37:42.755,686.069
306,3 Mar 2025 00:01:52.142,3 Mar 2025 00:10:20.444,508.302
307,3 Mar 2025 09:58:56.479,3 Mar 2025 10:05:54.122,417.643
308,3 Mar 2025 11:30:55.074,3 Mar 2025 11:42:27.885,692.811
309,3 Mar 2025 13:06:19.895,3 Mar 2025 13:13:11.664,411.769
310,3 Mar 2025 22:07:50.777,3 Mar 2025 22:18:52.110,661.332
311,3 Mar 2025 23:42:15.673,3 Mar 2025 23:52:12.313,596.640
312,4 Mar 2025 09:42:12.555,4 Mar 2025 09:44:43.116,150.561
313,4 Mar 2025 11:12:14.535,4 Mar 2025 11:23:42.449,687.914
314,4 Mar 2025 12:46:56.135,4 Mar 2025 12:55:39.396,523.261
315,4 Mar 2025 21:49:37.253,4 Mar 2025 21:59:54.917,617.663
316,4 Mar 2025 23:22:58.836,4 Mar 2025 23:33:50.285,651.449
317,5 Mar 2025 10:53:40.716,5 Mar 2025 11:04:44.800,664.084
318,5 Mar 2025 12:27:47.305,5 Mar 2025 12:37:45.691,598.387
319,5 Mar 2025 21:31:38.014,5 Mar 2025 21:40:49.524,551.510
320,5 Mar 2025 23:03:56.813,5 Mar 2025 23:15:18.999,682.186
321,6 Mar 2025 10:35:15.255,6 Mar 2025 10:45:33.255,618.001
322,6 Mar 2025 12:08:47.636,6 Mar 2025 12:19:36.631,648.995
323,6 Mar 2025 21:13:57.475,6 Mar 2025 21:21:31.825,454.350
324,6 Mar 2025 22:45:07.419,6 Mar 2025 22:56:40.591,693.173
325,7 Mar 2025 00:22:16.295,7 Mar 2025 00:28:13.611,357.316
326,7 Mar 2025 10:17:01.687,7 Mar 2025 10:26:04.158,542.471
327,7 Mar 2025 11:49:54.909,7 Mar 2025 12:01:14.726,679.817
328,7 Mar 2025 13:26:37.018,7 Mar 2025 13:30:09.604,212.586
329,7 Mar 2025 20:56:49.211,7 Mar 2025 21:01:48.591,299.380
330,7 Mar 2025 22:26:29.742,7 Mar 2025 22:37:55.996,686.253
331,8 Mar 2025 00:02:06.109,8 Mar 2025 00:10:33.106,506.997
332,8 Mar 2025 09:59:08.871,8 Mar 2025 10:06:08.405,419.534
333,8 Mar 2025 11:31:08.266,8 Mar 2025 11:42:41.031,692.765
334,8 Mar 2025 13:06:33.704,8 Mar 2025 13:13:23.839,410.136
335,8 Mar 2025 22:08:03.694,8 Mar 2025 22:19:05.422,661.728
336,8 Mar 2025 23:42:29.360,8 Mar 2025 23:52:25.187,595.827
337,9 Mar 2025 09:42:22.695,9 Mar 2025 09:44:59.727,157.032
338,9 Mar 2025 11:12:27.655,9 Mar 2025 11:23:55.733,688.077
339,9 Mar 2025 12:47:09.699,9 Mar 2025 12:55:51.889,522.190
340,9 Mar 2025 21:49:50.017,9 Mar 2025 22:00:08.312,618.294
341,9 Mar 2025 23:23:12.328,9 Mar 2025 23:34:03.286,650.957
342,10 Mar 2025 10:53:53.748,10 Mar 2025 11:04:58.234,664.487
343,10 Mar 2025 12:28:00.736,10 Mar 2025 12:37:58.392,597.656
344,10 Mar 2025 21:31:50.591,10 Mar 2025 21:41:03.032,552.440
345,10 Mar 2025 23:04:10.148,10 Mar 2025 23:15:32.093,681.945
346,11 Mar 2025 10:35:28.175,11 Mar 2025 10:45:46.870,618.695
347,11 Mar 2025 12:09:00.976,11 Mar 2025 12:19:49.497,648.521
348,11 Mar 2025 21:14:09.788,11 Mar 2025 21:21:45.520,455.732
349,11 Mar 2025 22:45:20.611,11 Mar 2025 22:56:53.761,693.150
350,12 Mar 2025 00:22:30.849,12 Mar 2025 00:28:25.759,354.910
351,12 Mar 2025 10:17:14.434,12 Mar 2025 10:26:18.013,543.580
352,12 Mar 2025 11:50:08.174,12 Mar 2025 12:01:27.735,679.561
353,12 Mar 2025 13:26:51.807,12 Mar 2025 13:30:20.713,208.906
354,12 Mar 2025 20:57:00.946,12 Mar 2025 21:02:02.780,301.834
355,12 Mar 2025 22:26:42.800,12 Mar 2025 22:38:09.236,686.436
356,13 Mar 2025 00:02:20.079,13 Mar 2025 00:10:45.768,505.688
357,13 Mar 2025 09:59:21.270,13 Mar 2025 10:06:22.681,421.411
358,13 Mar 2025 11:31:21.461,13 Mar 2025 11:42:54.176,692.714
359,13 Mar 2025 13:06:47.514,13 Mar 2025 13:13:36.010,408.496
360,13 Mar 2025 22:08:16.612,13 Mar 2025 22:19:18.733,662.121
361,13 Mar 2025 23:42:43.050,13 Mar 2025 23:52:38.057,595.008
362,14 Mar 2025 09:42:32.974,14 Mar 2025 09:45:16.198,163.224
363,14 Mar 2025 11:12:40.777,14 Mar 2025 11:24:09.016,688.238
364,14 Mar 2025 12:47:23.264,14 Mar 2025 12:56:04.385,521.121
365,14 Mar 2025 21:50:02.783,14 Mar 2025 22:00:21.707,618.924
366,14 Mar 2025 23:23:25.824,14 Mar 2025 23:34:16.285,650.461
367,15 Mar 2025 10:54:06.784,15 Mar 2025 11:05:11.669,664.885
368,15 Mar 2025 12:28:14.169,15 Mar 2025 12:38:11.097,596.928
369,15 Mar 2025 21:32:03.173,15 Mar 2025 21:41:16.540,553.366
370,15 Mar 2025 23:04:23.481,15 Mar 2025 23:15:45.186,681.705
371,16 Mar 2025 10:35:41.098,16 Mar 2025 10:46:00.484,619.386
372,16 Mar 2025 12:09:14.318,16 Mar 2025 12:20:02.362,648.044
373,16 Mar 2025 21:14:22.106,16 Mar 2025 21:21:59.215,457.109
374,16 Mar 2025 22:45:33.807,16 Mar 2025 22:57:06.932,693.125
375,17 Mar 2025 00:22:45.419,17 Mar 2025 00:28:37.897,352.478
376,17 Mar 2025 10:17:27.185,17 Mar 2025 10:26:31.868,544.683
377,17 Mar 2025 11:50:21.441,17 Mar 2025 12:01:40.743,679.302
378,17 Mar 2025 13:27:06.634,17 Mar 2025 13:30:31.786,205.153
379,17 Mar 2025 20:57:12.698,17 Mar 2025 21:02:16.959,304.261
380,17 Mar 2025 22:26:55.860,17 Mar 2025 22:38:22.476,686.616
381,18 Mar 2025 00:02:34.056,18 Mar 2025 00:10:58.423,504.367
382,18 Mar 2025 09:59:33.676,18 Mar 2025 10:06:36.954,423.279
383,18 Mar 2025 11:31:34.658,18 Mar 2025 11:43:07.320,692.662
384,18 Mar 2025 13:07:01.332,18 Mar 2025 13:13:48.181,406.850
385,18 Mar 2025 22:08:29.538,18 Mar 2025 22:19:32.042,662.504
386,18 Mar 2025 23:42:56.744,18 Mar 2025 23:52:50.931,594.187
387,19 Mar 2025 09:42:43.372,19 Mar 2025 09:45:32.549,169.177
388,19 Mar 2025 11:12:53.902,19 Mar 2025 11:24:22.300,688.398
389,19 Mar 2025 12:47:36.833,19 Mar 2025 12:56:16.879,520.045
390,19 Mar 2025 21:50:15.553,19 Mar 2025 22:00:35.102,619.549
391,19 Mar 2025 23:23:39.324,19 Mar 2025 23:34:29.286,649.961
392,20 Mar 2025 10:54:19.824,20 Mar 2025 11:05:25.101,665.277
393,20 Mar 2025 12:28:27.605,20 Mar 2025 12:38:23.798,596.192
394,20 Mar 2025 21:32:15.758,20 Mar 2025 21:41:30.046,554.288
395,20 Mar 2025 23:04:36.821,20 Mar 2025 23:15:58.280,681.458
396,21 Mar 2025 10:35:54.023,21 Mar 2025 10:46:14.096,620.073
397,21 Mar 2025 12:09:27.661,21 Mar 2025 12:20:15.225,647.564
398,21 Mar 2025 21:14:34.424,21 Mar 2025 21:22:12.905,458.481
399,21 Mar 2025 22:45:47.008,21 Mar 2025 22:57:20.097,693.089
400,22 Mar 2025 00:23:00.001,22 Mar 2025 00:28:50.025,350.024
401,22 Mar 2025 10:17:39.938,22 Mar 2025 10:26:45.719,545.781
402,22 Mar 2025 11:50:34.709,22 Mar 2025 12:01:53.749,679.040
403,22 Mar 2025 13:27:21.502,22 Mar 2025 13:30:42.819,201.317
404,22 Mar 2025 20:57:24.462,22 Mar 2025 21:02:31.125,306.663
405,22 Mar 2025 22:27:08.922,22 Mar 2025 22:38:35.716,686.793
406,23 Mar 2025 00:02:48.037,23 Mar 2025 00:11:11.076,503.039
407,23 Mar 2025 09:59:46.088,23 Mar 2025 10:06:51.216,425.128
408,23 Mar 2025 11:31:47.855,23 Mar 2025 11:43:20.462,692.607
409,23 Mar 2025 13:07:15.154,23 Mar 2025 13:14:00.341,405.187
410,23 Mar 2025 22:08:42.461,23 Mar 2025 22:19:45.354,662.893
411,23 Mar 2025 23:43:10.439,23 Mar 2025 23:53:03.799,593.360
412,24 Mar 2025 09:42:53.876,24 Mar 2025 09:45:48.798,174.922
413,24 Mar 2025 11:13:07.026,24 Mar 2025 11:24:35.578,688.553
414,24 Mar 2025 12:47:50.403,24 Mar 2025 12:56:29.368,518.965
415,24 Mar 2025 21:50:28.323,24 Mar 2025 22:00:48.495,620.171
416,24 Mar 2025 23:23:52.822,24 Mar 2025 23:34:42.283,649.461
417,25 Mar 2025 10:54:32.863,25 Mar 2025 11:05:38.530,665.667
418,25 Mar 2025 12:28:41.042,25 Mar 2025 12:38:36.495,595.453
419,25 Mar 2025 21:32:28.342,25 Mar 2025 21:41:43.549,555.207
420,25 Mar 2025 23:04:50.164,25 Mar 2025 23:16:11.371,681.207
421,26 Mar 2025 10:36:06.949,26 Mar 2025 10:46:27.704,620.755
422,26 Mar 2025 12:09:41.005,26 Mar 2025 12:20:28.086,647.081
423,26 Mar 2025 21:14:46.749,26 Mar 2025 21:22:26.592,459.844
424,26 Mar 2025 22:46:00.207,26 Mar 2025 22:57:33.265,693.058
425,27 Mar 2025 00:23:14.591,27 Mar 2025 00:29:02.140,347.549
426,27 Mar 2025 10:17:52.694,27 Mar 2025 10:26:59.566,546.871
427,27 Mar 2025 11:50:47.982,27 Mar 2025 12:02:06.749,678.767
428,27 Mar 2025 13:27:36.409,27 Mar 2025 13:30:53.816,197.406
429,27 Mar 2025 20:57:36.239,27 Mar 2025 21:02:45.281,309.041
430,27 Mar 2025 22:27:21.982,27 Mar 2025 22:38:48.953,686.971
431,28 Mar 2025 00:03:02.021,28 Mar 2025 00:11:23.724,501.702
432,28 Mar 2025 09:59:58.506,28 Mar 2025 10:07:05.471,426.964
433,28 Mar 2025 11:32:01.054,28 Mar 2025 11:43:33.599,692.545
434,28 Mar 2025 13:07:28.974,28 Mar 2025 13:14:12.496,403.521
435,28 Mar 2025 22:08:55.385,28 Mar 2025 22:19:58.666,663.280
436,28 Mar 2025 23:43:24.138,28 Mar 2025 23:53:16.664,592.526
437,29 Mar 2025 09:43:04.480,29 Mar 2025 09:46:04.942,180.463
438,29 Mar 2025 11:13:20.151,29 Mar 2025 11:24:48.858,688.707
439,29 Mar 2025 12:48:03.975,29 Mar 2025 12:56:41.856,517.881
440,29 Mar 2025 21:50:41.095,29 Mar 2025 22:01:01.888,620.792
441,29 Mar 2025 23:24:06.325,29 Mar 2025 23:34:55.280,648.955
442,30 Mar 2025 10:54:45.904,30 Mar 2025 11:05:51.962,666.058
443,30 Mar 2025 12:28:54.475,30 Mar 2025 12:38:49.192,594.717
444,30 Mar 2025 21:32:40.931,30 Mar 2025 21:41:57.053,556.121
445,30 Mar 2025 23:05:03.507,30 Mar 2025 23:16:24.463,680.956
446,31 Mar 2025 10:36:19.882,31 Mar 2025 10:46:41.311,621.428
447,31 Mar 2025 12:09:54.353,31 Mar 2025 12:20:40.948,646.594
448,31 Mar 2025 21:14:59.079,31 Mar 2025 21:22:40.275,461.195
449,31 Mar 2025 22:46:13.409,31 Mar 2025 22:57:46.434,693.025
450,1 Apr 2025 00:23:29.198,1 Apr 2025 00:29:14.244,345.046
451,1 Apr 2025 10:18:05.455,1 Apr 2025 10:27:13.412,547.957
452,1 Apr 2025 11:51:01.253,1 Apr 2025 12:02:19.754,678.500
453,1 Apr 2025 13:27:51.359,1 Apr 2025 13:31:04.763,193.404
454,1 Apr 2025 20:57:48.028,1 Apr 2025 21:02:59.428,311.400
455,1 Apr 2025 22:27:35.049,1 Apr 2025 22:39:02.193,687.144
456,2 Apr 2025 00:03:16.013,2 Apr 2025 00:11:36.370,500.357
457,2 Apr 2025 10:00:10.931,2 Apr 2025 10:07:19.721,428.790
458,2 Apr 2025 11:32:14.255,2 Apr 2025 11:43:46.740,692.485
459,2 Apr 2025 13:07:42.807,2 Apr 2025 13:14:24.645,401.838
460,2 Apr 2025 22:09:08.313,2 Apr 2025 22:20:11.976,663.663
461,2 Apr 2025 23:43:37.841,2 Apr 2025 23:53:29.530,591.690
462,3 Apr 2025 09:43:15.169,3 Apr 2025 09:46:21.003,185.834
463,3 Apr 2025 11:13:33.279,3 Apr 2025 11:25:02.137,688.858
464,3 Apr 2025 12:48:17.551,3 Apr 2025 12:56:54.341,516.790
465,3 Apr 2025 21:50:53.871,3 Apr 2025 22:01:15.280,621.409
466,3 Apr 2025 23:24:19.828,3 Apr 2025 23:35:08.278,648.449
467,4 Apr 2025 10:54:58.947,4 Apr 2025 11:06:05.392,666.445
468,4 Apr 2025 12:29:07.916,4 Apr 2025 12:39:01.886,593.970
469,4 Apr 2025 21:32:53.524,4 Apr 2025 21:42:10.554,557.030
470,4 Apr 2025 23:05:16.850,4 Apr 2025 23:16:37.554,680.704
471,5 Apr 2025 10:36:32.808,5 Apr 2025 10:46:54.915,622.108
472,5 Apr 2025 12:10:07.699,5 Apr 2025 12:20:53.806,646.108
473,5 Apr 2025 21:15:11.414,5 Apr 2025 21:22:53.957,462.543
474,5 Apr 2025 22:46:26.611,5 Apr 2025 22:57:59.602,692.990
475,6 Apr 2025 00:23:43.815,6 Apr 2025 00:29:26.338,342.523
476,6 Apr 2025 10:18:18.213,6 Apr 2025 10:27:27.253,549.040
477,6 Apr 2025 11:51:14.524,6 Apr 2025 12:02:32.755,678.231
478,6 Apr 2025 13:28:06.354,6 Apr 2025 13:31:15.663,189.309
479,6 Apr 2025 20:57:59.828,6 Apr 2025 21:03:13.562,313.735
480,6 Apr 2025 22:27:48.115,6 Apr 2025 22:39:15.430,687.314
481,7 Apr 2025 00:03:30.007,7 Apr 2025 00:11:49.012,499.005
482,7 Apr 2025 10:00:23.361,7 Apr 2025 10:07:33.962,430.602
483,7 Apr 2025 11:32:27.456,7 Apr 2025 11:43:59.877,692.422
484,7 Apr 2025 13:07:56.644,7 Apr 2025 13:14:36.789,400.145
485,7 Apr 2025 22:09:21.241,7 Apr 2025 22:20:25.284,664.043
486,7 Apr 2025 23:43:51.545,7 Apr 2025 23:53:42.393,590.848
487,8 Apr 2025 09:43:25.941,8 Apr 2025 09:46:36.977,191.036
488,8 Apr 2025 11:13:46.406,8 Apr 2025 11:25:15.415,689.009
489,8 Apr 2025 12:48:31.127,8 Apr 2025 12:57:06.822,515.695
490,8 Apr 2025 21:51:06.647,8 Apr 2025 22:01:28.667,622.020
491,8 Apr 2025 23:24:33.335,8 Apr 2025 23:35:21.272,647.937
492,9 Apr 2025 10:55:11.989,9 Apr 2025 11:06:18.817,666.827
493,9 Apr 2025 12:29:21.356,9 Apr 2025 12:39:14.578,593.222
494,9 Apr 2025 21:33:06.119,9 Apr 2025 21:42:24.054,557.935
495,9 Apr 2025 23:05:30.198,9 Apr 2025 23:16:50.643,680.446
496,10 Apr 2025 10:36:45.740,10 Apr 2025 10:47:08.517,622.777
497,10 Apr 2025 12:10:21.048,10 Apr 2025 12:21:06.663,645.615
498,10 Apr 2025 21:15:23.751,10 Apr 2025 21:23:07.635,463.884
499,10 Apr 2025 22:46:39.816,10 Apr 2025 22:58:12.768,692.952
500,11 Apr 2025 00:23:58.447,11 Apr 2025 00:29:38.417,339.970
501,11 Apr 2025 10:18:30.978,11 Apr 2025 10:27:41.090,550.112
502,11 Apr 2025 11:51:27.796,11 Apr 2025 12:02:45.756,677.960
503,11 Apr 2025 13:28:21.393,11 Apr 2025 13:31:26.522,185.129
504,11 Apr 2025 20:58:11.637,11 Apr 2025 21:03:27.690,316.053
505,11 Apr 2025 22:28:01.185,11 Apr 2025 22:39:28.667,687.482
506,12 Apr 2025 00:03:44.008,12 Apr 2025 00:12:01.651,497.643
507,12 Apr 2025 10:00:35.798,12 Apr 2025 10:07:48.198,432.399
508,12 Apr 2025 11:32:40.662,12 Apr 2025 11:44:13.014,692.352
509,12 Apr 2025 13:08:10.484,12 Apr 2025 13:14:48.928,398.444
510,12 Apr 2025 22:09:34.172,12 Apr 2025 22:20:38.593,664.421
511,12 Apr 2025 23:44:05.253,12 Apr 2025 23:53:55.250,589.996
512,13 Apr 2025 09:43:36.791,13 Apr 2025 09:46:52.876,196.085
513,13 Apr 2025 11:13:59.536,13 Apr 2025 11:25:28.690,689.154
514,13 Apr 2025 12:48:44.706,13 Apr 2025 12:57:19.303,514.597
515,13 Apr 2025 21:51:19.427,13 Apr 2025 22:01:42.058,622.632
516,13 Apr 2025 23:24:46.845,13 Apr 2025 23:35:34.267,647.422
517,14 Apr 2025 10:55:25.035,14 Apr 2025 11:06:32.242,667.207
518,14 Apr 2025 12:29:34.800,14 Apr 2025 12:39:27.270,592.470
519,14 Apr 2025 21:33:18.715,14 Apr 2025 21:42:37.555,558.840
520,14 Apr 2025 23:05:43.548,14 Apr 2025 23:17:03.733,680.186
521,15 Apr 2025 10:36:58.676,15 Apr 2025 10:47:22.118,623.442
522,15 Apr 2025 12:10:34.401,15 Apr 2025 12:21:19.520,645.119
523,15 Apr 2025 21:15:36.096,15 Apr 2025 21:23:21.319,465.223
524,15 Apr 2025 22:46:53.020,15 Apr 2025 22:58:25.940,692.920
525,16 Apr 2025 00:24:13.094,16 Apr 2025 00:29:50.485,337.390
526,16 Apr 2025 10:18:43.746,16 Apr 2025 10:27:54.926,551.180
527,16 Apr 2025 11:51:41.071,16 Apr 2025 12:02:58.756,677.686
528,16 Apr 2025 13:28:36.488,16 Apr 2025 13:31:37.328,180.841
529,16 Apr 2025 20:58:23.459,16 Apr 2025 21:03:41.809,318.350
530,16 Apr 2025 22:28:14.257,16 Apr 2025 22:39:41.904,687.648
531,17 Apr 2025 00:03:58.014,17 Apr 2025 00:12:14.287,496.273
532,17 Apr 2025 10:00:48.242,17 Apr 2025 10:08:02.428,434.186
533,17 Apr 2025 11:32:53.865,17 Apr 2025 11:44:26.151,692.286
534,17 Apr 2025 13:08:24.332,17 Apr 2025 13:15:01.062,396.729
535,17 Apr 2025 22:09:47.106,17 Apr 2025 22:20:51.902,664.796
536,17 Apr 2025 23:44:18.965,17 Apr 2025 23:54:08.110,589.145
537,18 Apr 2025 09:43:47.708,18 Apr 2025 09:47:08.709,201.001
538,18 Apr 2025 11:14:12.670,18 Apr 2025 11:25:41.966,689.296
539,18 Apr 2025 12:48:58.289,18 Apr 2025 12:57:31.779,513.490
540,18 Apr 2025 21:51:32.209,18 Apr 2025 22:01:55.448,623.240
541,18 Apr 2025 23:25:00.357,18 Apr 2025 23:35:47.261,646.904
542,19 Apr 2025 10:55:38.081,19 Apr 2025 11:06:45.665,667.584
543,19 Apr 2025 12:29:48.245,19 Apr 2025 12:39:39.959,591.713
544,19 Apr 2025 21:33:31.312,19 Apr 2025 21:42:51.050,559.737
545,19 Apr 2025 23:05:56.898,19 Apr 2025 23:17:16.823,679.925
546,20 Apr 2025 10:37:11.609,20 Apr 2025 10:47:35.712,624.103
547,20 Apr 2025 12:10:47.747,20 Apr 2025 12:21:32.371,644.624
548,20 Apr 2025 21:15:48.444,20 Apr 2025 21:23:34.993,466.549
549,20 Apr 2025 22:47:06.228,20 Apr 2025 22:58:39.106,692.878
550,21 Apr 2025 00:24:27.753,21 Apr 2025 00:30:02.540,334.787
551,21 Apr 2025 10:18:56.513,21 Apr 2025 10:28:08.757,552.244
552,21 Apr 2025 11:51:54.346,21 Apr 2025 12:03:11.754,677.409
553,21 Apr 2025 13:28:51.637,21 Apr 2025 13:31:48.073,176.436
554,21 Apr 2025 20:58:35.291,21 Apr 2025 21:03:55.915,320.624
555,21 Apr 2025 22:28:27.329,21 Apr 2025 22:39:55.140,687.811
556,22 Apr 2025 00:04:12.023,22 Apr 2025 00:12:26.919,494.897
557,22 Apr 2025 10:01:00.690,22 Apr 2025 10:08:16.646,435.955
558,22 Apr 2025 11:33:07.071,22 Apr 2025 11:44:39.285,692.214
559,22 Apr 2025 13:08:38.184,22 Apr 2025 13:15:13.188,395.005
560,22 Apr 2025 22:10:00.040,22 Apr 2025 22:21:05.208,665.169
561,22 Apr 2025 23:44:32.679,22 Apr 2025 23:54:20.968,588.290
562,23 Apr 2025 09:43:58.689,23 Apr 2025 09:47:24.473,205.784
563,23 Apr 2025 11:14:25.802,23 Apr 2025 11:25:55.237,689.435
564,23 Apr 2025 12:49:11.873,23 Apr 2025 12:57:44.253,512.380
565,23 Apr 2025 21:51:44.991,23 Apr 2025 22:02:08.838,623.847
566,23 Apr 2025 23:25:13.865,23 Apr 2025 23:36:00.249,646.384
567,24 Apr 2025 10:55:51.123,24 Apr 2025 11:06:59.082,667.959
568,24 Apr 2025 12:30:01.694,24 Apr 2025 12:39:52.643,590.949
569,24 Apr 2025 21:33:43.918,24 Apr 2025 21:43:04.549,560.631
570,24 Apr 2025 23:06:10.251,24 Apr 2025 23:17:29.910,679.659
571,25 Apr 2025 10:37:24.546,25 Apr 2025 10:47:49.312,624.766
572,25 Apr 2025 12:11:01.099,25 Apr 2025 12:21:45.223,644.125
573,25 Apr 2025 21:16:00.790,25 Apr 2025 21:23:48.661,467.871
574,25 Apr 2025 22:47:19.438,25 Apr 2025 22:58:52.271,692.833
575,26 Apr 2025 00:24:42.428,26 Apr 2025 00:30:14.580,332.153
576,26 Apr 2025 10:19:09.286,26 Apr 2025 10:28:22.586,553.299
577,26 Apr 2025 11:52:07.621,26 Apr 2025 12:03:24.751,677.130
578,26 Apr 2025 13:29:06.842,26 Apr 2025 13:31:58.764,171.923
579,26 Apr 2025 20:58:47.133,26 Apr 2025 21:04:10.016,322.883
580,26 Apr 2025 22:28:40.404,26 Apr 2025 22:40:08.376,687.972
581,27 Apr 2025 00:04:26.037,27 Apr 2025 00:12:39.547,493.510
582,27 Apr 2025 10:01:13.147,27 Apr 2025 10:08:30.862,437.715
583,27 Apr 2025 11:33:20.277,27 Apr 2025 11:44:52.418,692.142
584,27 Apr 2025 13:08:52.040,27 Apr 2025 13:15:25.311,393.271
585,27 Apr 2025 22:10:12.977,27 Apr 2025 22:21:18.516,665.539
586,27 Apr 2025 23:44:46.396,27 Apr 2025 23:54:33.824,587.428
587,28 Apr 2025 09:44:09.733,28 Apr 2025 09:47:40.178,210.445
588,28 Apr 2025 11:14:38.935,28 Apr 2025 11:26:08.508,689.573
589,28 Apr 2025 12:49:25.461,28 Apr 2025 12:57:56.726,511.265
590,28 Apr 2025 21:51:57.773,28 Apr 2025 22:02:22.228,624.455
591,28 Apr 2025 23:25:27.382,28 Apr 2025 23:36:13.241,645.859
592,29 Apr 2025 10:56:04.173,29 Apr 2025 11:07:12.503,668.330
593,29 Apr 2025 12:30:15.144,29 Apr 2025 12:40:05.330,590.186
594,29 Apr 2025 21:33:56.522,29 Apr 2025 21:43:18.046,561.524
595,29 Apr 2025 23:06:23.607,29 Apr 2025 23:17:42.998,679.391
596,30 Apr 2025 10:37:37.486,30 Apr 2025 10:48:02.908,625.421
597,30 Apr 2025 12:11:14.453,30 Apr 2025 12:21:58.074,643.620
598,30 Apr 2025 21:16:13.146,30 Apr 2025 21:24:02.333,469.187
599,30 Apr 2025 22:47:32.651,30 Apr 2025 22:59:05.437,692.786
600,1 May 2025 00:24:57.118,1 May 2025 00:30:26.610,329.491
601,1 May 2025 10:19:22.062,1 May 2025 10:28:36.413,554.350
602,1 May 2025 11:52:20.899,1 May 2025 12:03:37.747,676.848
603,1 May 2025 13:29:22.117,1 May 2025 13:32:09.387,167.270
604,1 May 2025 20:58:58.987,1 May 2025 21:04:24.107,325.120
605,1 May 2025 22:28:53.481,1 May 2025 22:40:21.612,688.130
606,2 May 2025 00:04:40.057,2 May 2025 00:12:52.169,492.112
607,2 May 2025 10:01:25.603,2 May 2025 10:08:45.073,439.470
608,2 May 2025 11:33:33.484,2 May 2025 11:45:05.551,692.067
609,2 May 2025 13:09:05.904,2 May 2025 13:15:37.427,391.524
610,2 May 2025 22:10:25.916,2 May 2025 22:21:31.822,665.906
611,2 May 2025 23:45:00.117,2 May 2025 23:54:46.680,586.563
612,3 May 2025 09:44:20.830,3 May 2025 09:47:55.829,214.999
613,3 May 2025 11:14:52.070,3 May 2025 11:26:21.777,689.707
614,3 May 2025 12:49:39.051,3 May 2025 12:58:09.194,510.143
615,3 May 2025 21:52:10.561,3 May 2025 22:02:35.615,625.054
616,3 May 2025 23:25:40.900,3 May 2025 23:36:26.232,645.331
617,4 May 2025 10:56:17.222,4 May 2025 11:07:25.919,668.697
618,4 May 2025 12:30:28.593,4 May 2025 12:40:18.013,589.420
619,4 May 2025 21:34:09.131,4 May 2025 21:43:31.540,562.409
620,4 May 2025 23:06:36.963,4 May 2025 23:17:56.084,679.121
621,5 May 2025 10:37:50.431,5 May 2025 10:48:16.500,626.069
622,5 May 2025 12:11:27.810,5 May 2025 12:22:10.924,643.114
623,5 May 2025 21:16:25.507,5 May 2025 21:24:16.002,470.495
624,5 May 2025 22:47:45.866,5 May 2025 22:59:18.597,692.731
625,6 May 2025 00:25:11.821,6 May 2025 00:30:38.623,326.802
626,6 May 2025 10:19:34.840,6 May 2025 10:28:50.235,555.395
627,6 May 2025 11:52:34.177,6 May 2025 12:03:50.741,676.564
628,6 May 2025 13:29:37.457,6 May 2025 13:32:19.938,162.481
629,6 May 2025 20:59:10.849,6 May 2025 21:04:38.189,327.340
630,6 May 2025 22:29:06.559,6 May 2025 22:40:34.845,688.286
631,7 May 2025 00:04:54.080,7 May 2025 00:13:04.790,490.710
632,7 May 2025 10:01:38.070,7 May 2025 10:08:59.276,441.206
633,7 May 2025 11:33:46.691,7 May 2025 11:45:18.680,691.989
634,7 May 2025 13:09:19.770,7 May 2025 13:15:49.538,389.768
635,7 May 2025 22:10:38.856,7 May 2025 22:21:45.127,666.272
636,7 May 2025 23:45:13.840,7 May 2025 23:54:59.532,585.692
637,8 May 2025 09:44:31.983,8 May 2025 09:48:11.424,219.441
638,8 May 2025 11:15:05.205,8 May 2025 11:26:35.045,689.839
639,8 May 2025 12:49:52.641,8 May 2025 12:58:21.659,509.019
640,8 May 2025 21:52:23.350,8 May 2025 22:02:49.002,625.652
641,8 May 2025 23:25:54.421,8 May 2025 23:36:39.220,644.799
642,9 May 2025 10:56:30.274,9 May 2025 11:07:39.337,669.063
643,9 May 2025 12:30:42.043,9 May 2025 12:40:30.695,588.652
644,9 May 2025 21:34:21.741,9 May 2025 21:43:45.034,563.293
645,9 May 2025 23:06:50.322,9 May 2025 23:18:09.170,678.847
646,10 May 2025 10:38:03.371,10 May 2025 10:48:30.090,626.719
647,10 May 2025 12:11:41.166,10 May 2025 12:22:23.775,642.609
648,10 May 2025 21:16:37.865,10 May 2025 21:24:29.670,471.805
649,10 May 2025 22:47:59.082,10 May 2025 22:59:31.764,692.682
650,11 May 2025 00:25:26.543,11 May 2025 00:30:50.621,324.078
651,11 May 2025 10:19:47.618,11 May 2025 10:29:04.054,556.436
652,11 May 2025 11:52:47.456,11 May 2025 12:04:03.734,676.278
653,11 May 2025 13:29:52.870,11 May 2025 13:32:30.417,157.547
654,11 May 2025 20:59:22.721,11 May 2025 21:04:52.267,329.546
655,11 May 2025 22:29:19.640,11 May 2025 22:40:48.081,688.441
656,12 May 2025 00:05:08.110,12 May 2025 00:13:17.407,489.296
657,12 May 2025 10:01:50.545,12 May 2025 10:09:13.474,442.929
658,12 May 2025 11:33:59.900,12 May 2025 11:45:31.810,691.910
659,12 May 2025 13:09:33.642,12 May 2025 13:16:01.644,388.002
660,12 May 2025 22:10:51.798,12 May 2025 22:21:58.433,666.635
661,12 May 2025 23:45:27.567,12 May 2025 23:55:12.383,584.816
662,13 May 2025 09:44:43.186,13 May 2025 09:48:26.970,223.784
663,13 May 2025 11:15:18.343,13 May 2025 11:26:48.309,689.966
664,13 May 2025 12:50:06.234,13 May 2025 12:58:34.123,507.889
665,13 May 2025 21:52:36.143,13 May 2025 22:03:02.389,626.246
666,13 May 2025 23:26:07.945,13 May 2025 23:36:52.208,644.264
667,14 May 2025 10:56:43.328,14 May 2025 11:07:52.752,669.425
668,14 May 2025 12:30:55.491,14 May 2025 12:40:43.375,587.884
669,14 May 2025 21:34:34.354,14 May 2025 21:43:58.527,564.173
670,14 May 2025 23:07:03.684,14 May 2025 23:18:22.255,678.571
671,15 May 2025 10:38:16.318,15 May 2025 10:48:43.679,627.361
672,15 May 2025 12:11:54.523,15 May 2025 12:22:36.622,642.099
673,15 May 2025 21:16:50.232,15 May 2025 21:24:43.334,473.102
674,15 May 2025 22:48:12.301,15 May 2025 22:59:44.928,692.627
675,16 May 2025 00:25:41.282,16 May 2025 00:31:02.606,321.324
676,16 May 2025 10:20:00.402,16 May 2025 10:29:17.872,557.469
677,16 May 2025 11:53:00.737,16 May 2025 12:04:16.726,675.989
678,16 May 2025 13:30:08.371,16 May 2025 13:32:40.811,152.440
679,16 May 2025 20:59:34.604,16 May 2025 21:05:06.330,331.726
680,16 May 2025 22:29:32.723,16 May 2025 22:41:01.315,688.593
681,17 May 2025 00:05:22.146,17 May 2025 00:13:30.022,487.876
682,17 May 2025 10:02:03.024,17 May 2025 10:09:27.667,444.643
683,17 May 2025 11:34:13.111,17 May 2025 11:45:44.938,691.827
684,17 May 2025 13:09:47.520,17 May 2025 13:16:13.743,386.223
685,17 May 2025 22:11:04.740,17 May 2025 22:22:11.738,666.998
686,17 May 2025 23:45:41.299,17 May 2025 23:55:25.232,583.934
687,18 May 2025 09:44:54.433,18 May 2025 09:48:42.469,228.036
688,18 May 2025 11:15:31.480,18 May 2025 11:27:01.574,690.094
689,18 May 2025 12:50:19.830,18 May 2025 12:58:46.583,506.754
690,18 May 2025 21:52:48.937,18 May 2025 22:03:15.774,626.837
691,18 May 2025 23:26:21.470,18 May 2025 23:37:05.195,643.725
692,19 May 2025 10:56:56.382,19 May 2025 11:08:06.168,669.786
693,19 May 2025 12:31:08.945,19 May 2025 12:40:56.053,587.108
694,19 May 2025 21:34:46.969,19 May 2025 21:44:12.018,565.048
695,19 May 2025 23:07:17.046,19 May 2025 23:18:35.339,678.293
696,20 May 2025 10:38:29.266,20 May 2025 10:48:57.265,627.999
697,20 May 2025 12:12:07.881,20 May 2025 12:22:49.466,641.585
698,20 May 2025 21:17:02.601,20 May 2025 21:24:56.994,474.392
699,20 May 2025 22:48:25.520,20 May 2025 22:59:58.090,692.570
700,21 May 2025 00:25:56.035,21 May 2025 00:31:14.575,318.539
701,21 May 2025 10:20:13.188,21 May 2025 10:29:31.684,558.496
702,21 May 2025 11:53:14.014,21 May 2025 12:04:29.718,675.704
703,21 May 2025 13:30:23.956,21 May 2025 13:32:51.115,147.159
704,21 May 2025 20:59:46.493,21 May 2025 21:05:20.391,333.898
705,21 May 2025 22:29:45.805,21 May 2025 22:41:14.549,688.744
706,22 May 2025 00:05:36.184,22 May 2025 00:13:42.631,486.447
707,22 May 2025 10:02:15.509,22 May 2025 10:09:41.853,446.344
708,22 May 2025 11:34:26.321,22 May 2025 11:45:58.065,691.744
709,22 May 2025 13:10:01.402,22 May 2025 13:16:25.836,384.434
710,22 May 2025 22:11:17.685,22 May 2025 22:22:25.041,667.356
711,22 May 2025 23:45:55.033,22 May 2025 23:55:38.078,583.045
712,23 May 2025 09:45:05.727,23 May 2025 09:48:57.919,232.192
713,23 May 2025 11:15:44.618,23 May 2025 11:27:14.837,690.219
714,23 May 2025 12:50:33.426,23 May 2025 12:58:59.040,505.614
715,23 May 2025 21:53:01.732,23 May 2025 22:03:29.158,627.426
716,23 May 2025 23:26:34.997,23 May 2025 23:37:18.180,643.182
717,24 May 2025 10:57:09.437,24 May 2025 11:08:19.580,670.143
718,24 May 2025 12:31:22.399,24 May 2025 12:41:08.728,586.329
719,24 May 2025 21:34:59.587,24 May 2025 21:44:25.508,565.921
720,24 May 2025 23:07:30.411,24 May 2025 23:18:48.422,678.011
721,25 May 2025 10:38:42.214,25 May 2025 10:49:10.846,628.632
722,25 May 2025 12:12:21.241,25 May 2025 12:23:02.309,641.069
723,25 May 2025 21:17:14.974,25 May 2025 21:25:10.650,475.676
724,25 May 2025 22:48:38.742,25 May 2025 23:00:11.252,692.510
725,26 May 2025 00:26:10.808,26 May 2025 00:31:26.526,315.718
726,26 May 2025 10:20:25.978,26 May 2025 10:29:45.492,559.513
727,26 May 2025 11:53:27.297,26 May 2025 12:04:42.708,675.411
728,26 May 2025 13:30:39.645,26 May 2025 13:33:01.314,141.670
729,26 May 2025 20:59:58.393,26 May 2025 21:05:34.444,336.051
730,26 May 2025 22:29:58.892,26 May 2025 22:41:27.783,688.892
731,27 May 2025 00:05:50.230,27 May 2025 00:13:55.237,485.007
732,27 May 2025 10:02:28.001,27 May 2025 10:09:56.033,448.031
733,27 May 2025 11:34:39.534,27 May 2025 11:46:11.191,691.657
734,27 May 2025 13:10:15.290,27 May 2025 13:16:37.925,382.635
735,27 May 2025 22:11:30.633,27 May 2025 22:22:38.345,667.712
736,27 May 2025 23:46:08.771,27 May 2025 23:55:50.924,582.153
737,28 May 2025 09:45:17.063,28 May 2025 09:49:13.329,236.266
738,28 May 2025 11:15:57.759,28 May 2025 11:27:28.101,690.342
739,28 May 2025 12:50:47.026,28 May 2025 12:59:11.500,504.474
740,28 May 2025 21:53:14.531,28 May 2025 22:03:42.543,628.012
741,28 May 2025 23:26:48.528,28 May 2025 23:37:31.165,642.636
742,29 May 2025 10:57:22.497,29 May 2025 11:08:32.991,670.494
743,29 May 2025 12:31:35.857,29 May 2025 12:41:21.398,585.541
744,29 May 2025 21:35:12.208,29 May 2025 21:44:38.993,566.785
745,29 May 2025 23:07:43.779,29 May 2025 23:19:01.505,677.726
746,30 May 2025 10:38:55.166,30 May 2025 10:49:24.429,629.263
747,30 May 2025 12:12:34.602,30 May 2025 12:23:15.151,640.550
748,30 May 2025 21:17:27.352,30 May 2025 21:25:24.307,476.956
749,30 May 2025 22:48:51.966,30 May 2025 23:00:24.413,692.447
750,31 May 2025 00:26:25.597,31 May 2025 00:31:38.464,312.867
751,31 May 2025 10:20:38.770,31 May 2025 10:29:59.300,560.530
752,31 May 2025 11:53:40.580,31 May 2025 12:04:55.695,675.115
753,31 May 2025 13:30:55.453,31 May 2025 13:33:11.398,135.945
754,31 May 2025 21:00:10.304,31 May 2025 21:05:48.481,338.177
755,31 May 2025 22:30:11.980,31 May 2025 22:41:41.012,689.033
756,1 Jun 2025 00:06:04.282,1 Jun 2025 00:14:07.837,483.555
757,1 Jun 2025 10:02:40.497,1 Jun 2025 10:10:10.207,449.710
758,1 Jun 2025 11:34:52.747,1 Jun 2025 11:46:24.313,691.566
759,1 Jun 2025 13:10:29.185,1 Jun 2025 13:16:50.005,380.820
760,1 Jun 2025 22:11:43.583,1 Jun 2025 22:22:51.647,668.065
761,1 Jun 2025 23:46:22.505,1 Jun 2025 23:56:03.767,581.262
762,2 Jun 2025 09:45:28.437,2 Jun 2025 09:49:28.699,240.263
763,2 Jun 2025 11:16:10.899,2 Jun 2025 11:27:41.361,690.461
764,2 Jun 2025 12:51:00.628,2 Jun 2025 12:59:23.951,503.323
765,2 Jun 2025 21:53:27.330,2 Jun 2025 22:03:55.925,628.595
766,2 Jun 2025 23:27:02.060,2 Jun 2025 23:37:44.147,642.087
767,3 Jun 2025 10:57:35.556,3 Jun 2025 11:08:46.398,670.842
768,3 Jun 2025 12:31:49.313,3 Jun 2025 12:41:34.070,584.756
769,3 Jun 2025 21:35:24.828,3 Jun 2025 21:44:52.485,567.657
770,3 Jun 2025 23:07:57.147,3 Jun 2025 23:19:14.589,677.442
771,4 Jun 2025 10:39:08.116,4 Jun 2025 10:49:38.007,629.892
772,4 Jun 2025 12:12:47.962,4 Jun 2025 12:23:27.991,640.029
773,4 Jun 2025 21:17:39.731,4 Jun 2025 21:25:37.961,478.230
774,4 Jun 2025 22:49:05.190,4 Jun 2025 23:00:37.573,692.382
775,5 Jun 2025 00:26:40.403,5 Jun 2025 00:31:50.382,309.979
776,5 Jun 2025 10:20:51.565,5 Jun 2025 10:30:13.103,561.539
777,5 Jun 2025 11:53:53.863,5 Jun 2025 12:05:08.679,674.815
778,5 Jun 2025 13:31:11.386,5 Jun 2025 13:33:21.357,129.971
779,5 Jun 2025 21:00:22.221,5 Jun 2025 21:06:02.518,340.297
780,5 Jun 2025 22:30:25.068,5 Jun 2025 22:41:54.241,689.173
781,6 Jun 2025 00:06:18.337,6 Jun 2025 00:14:20.432,482.095
782,6 Jun 2025 10:02:53.000,6 Jun 2025 10:10:24.375,451.376
783,6 Jun 2025 11:35:05.961,6 Jun 2025 11:46:37.436,691.476
784,6 Jun 2025 13:10:43.083,6 Jun 2025 13:17:02.081,378.997
785,6 Jun 2025 22:11:56.533,6 Jun 2025 22:23:04.949,668.415
786,6 Jun 2025 23:46:36.246,6 Jun 2025 23:56:16.611,580.364
787,7 Jun 2025 09:45:39.856,7 Jun 2025 09:49:44.031,244.175
788,7 Jun 2025 11:16:24.041,7 Jun 2025 11:27:54.620,690.578
789,7 Jun 2025 12:51:14.231,7 Jun 2025 12:59:36.400,502.169
790,7 Jun 2025 21:53:40.132,7 Jun 2025 22:04:09.307,629.176
791,7 Jun 2025 23:27:15.595,7 Jun 2025 23:37:57.128,641.533
792,8 Jun 2025 10:57:48.615,8 Jun 2025 11:08:59.805,671.190
793,8 Jun 2025 12:32:02.772,8 Jun 2025 12:41:46.740,583.969
794,8 Jun 2025 21:35:37.453,8 Jun 2025 21:45:05.973,568.520
795,8 Jun 2025 23:08:10.518,8 Jun 2025 23:19:27.669,677.151
796,9 Jun 2025 10:39:21.071,9 Jun 2025 10:49:51.585,630.515
797,9 Jun 2025 12:13:01.324,9 Jun 2025 12:23:40.829,639.505
798,9 Jun 2025 21:17:52.115,9 Jun 2025 21:25:51.615,479.500
799,9 Jun 2025 22:49:18.418,9 Jun 2025 23:00:50.732,692.315
800,10 Jun 2025 00:26:55.229,10 Jun 2025 00:32:02.283,307.053
801,10 Jun 2025 10:21:04.363,10 Jun 2025 10:30:26.903,562.540
802,10 Jun 2025 11:54:07.149,10 Jun 2025 12:05:21.665,674.516
803,10 Jun 2025 13:31:27.460,10 Jun 2025 13:33:31.170,123.710
804,10 Jun 2025 21:00:34.147,10 Jun 2025 21:06:16.550,342.403
805,10 Jun 2025 22:30:38.159,10 Jun 2025 22:42:07.473,689.314
806,11 Jun 2025 00:06:32.400,11 Jun 2025 00:14:33.027,480.627
807,11 Jun 2025 10:03:05.509,11 Jun 2025 10:10:38.535,453.026
808,11 Jun 2025 11:35:19.176,11 Jun 2025 11:46:50.556,691.380
809,11 Jun 2025 13:10:56.988,11 Jun 2025 13:17:14.151,377.163
810,11 Jun 2025 22:12:09.487,11 Jun 2025 22:23:18.251,668.764
811,11 Jun 2025 23:46:49.992,11 Jun 2025 23:56:29.450,579.457
812,12 Jun 2025 09:45:51.302,12 Jun 2025 09:49:59.330,248.029
813,12 Jun 2025 11:16:37.181,12 Jun 2025 11:28:07.881,690.700
814,12 Jun 2025 12:51:27.838,12 Jun 2025 12:59:48.844,501.005
815,12 Jun 2025 21:53:52.940,12 Jun 2025 22:04:22.687,629.746
816,12 Jun 2025 23:27:29.137,12 Jun 2025 23:38:10.110,640.974
817,13 Jun 2025 10:58:01.678,13 Jun 2025 11:09:13.210,671.532
818,13 Jun 2025 12:32:16.232,13 Jun 2025 12:41:59.410,583.178
819,13 Jun 2025 21:35:50.081,13 Jun 2025 21:45:19.458,569.377
820,13 Jun 2025 23:08:23.891,13 Jun 2025 23:19:40.749,676.857
821,14 Jun 2025 10:39:34.027,14 Jun 2025 10:50:05.161,631.135
822,14 Jun 2025 12:13:14.687,14 Jun 2025 12:23:53.666,638.979
823,14 Jun 2025 21:18:04.501,14 Jun 2025 21:26:05.265,480.764
824,14 Jun 2025 22:49:31.646,14 Jun 2025 23:01:03.891,692.245
825,15 Jun 2025 00:27:10.073,15 Jun 2025 00:32:14.167,304.094
826,15 Jun 2025 10:21:17.163,15 Jun 2025 10:30:40.702,563.539
827,15 Jun 2025 11:54:20.434,15 Jun 2025 12:05:34.647,674.213
828,15 Jun 2025 13:31:43.718,15 Jun 2025 13:33:40.806,117.088
829,15 Jun 2025 21:00:46.083,15 Jun 2025 21:06:30.572,344.489
830,15 Jun 2025 22:30:51.252,15 Jun 2025 22:42:20.702,689.450
831,16 Jun 2025 00:06:46.465,16 Jun 2025 00:14:45.615,479.150
832,16 Jun 2025 10:03:18.021,16 Jun 2025 10:10:52.688,454.667
833,16 Jun 2025 11:35:32.389,16 Jun 2025 11:47:03.676,691.287
834,16 Jun 2025 13:11:10.898,16 Jun 2025 13:17:26.213,375.316
835,16 Jun 2025 22:12:22.441,16 Jun 2025 22:23:31.551,669.109
836,16 Jun 2025 23:47:03.740,16 Jun 2025 23:56:42.285,578.545
837,17 Jun 2025 09:46:02.784,17 Jun 2025 09:50:14.590,251.806
838,17 Jun 2025 11:16:50.325,17 Jun 2025 11:28:21.138,690.813
839,17 Jun 2025 12:51:41.446,17 Jun 2025 13:00:01.286,499.840
840,17 Jun 2025 21:54:05.745,17 Jun 2025 22:04:36.064,630.318
841,17 Jun 2025 23:27:42.675,17 Jun 2025 23:38:23.088,640.413
842,18 Jun 2025 10:58:14.740,18 Jun 2025 11:09:26.611,671.872
843,18 Jun 2025 12:32:29.693,18 Jun 2025 12:42:12.076,582.384
844,18 Jun 2025 21:36:02.711,18 Jun 2025 21:45:32.942,570.231
845,18 Jun 2025 23:08:37.265,18 Jun 2025 23:19:53.826,676.561
846,19 Jun 2025 10:39:46.983,19 Jun 2025 10:50:18.731,631.748
847,19 Jun 2025 12:13:28.050,19 Jun 2025 12:24:06.500,638.450
848,19 Jun 2025 21:18:16.887,19 Jun 2025 21:26:18.912,482.025
849,19 Jun 2025 22:49:44.876,19 Jun 2025 23:01:17.047,692.172
850,20 Jun 2025 00:27:24.936,20 Jun 2025 00:32:26.031,301.095
851,20 Jun 2025 10:21:29.965,20 Jun 2025 10:30:54.497,564.532
852,20 Jun 2025 11:54:33.720,20 Jun 2025 12:05:47.627,673.907
853,20 Jun 2025 13:32:00.161,20 Jun 2025 13:33:50.241,110.079
854,20 Jun 2025 21:00:58.024,20 Jun 2025 21:06:44.586,346.562
855,20 Jun 2025 22:31:04.345,20 Jun 2025 22:42:33.931,689.587
856,21 Jun 2025 00:07:00.535,21 Jun 2025 00:14:58.197,477.662
857,21 Jun 2025 10:03:30.540,21 Jun 2025 10:11:06.837,456.297
858,21 Jun 2025 11:35:45.605,21 Jun 2025 11:47:16.795,691.190
859,21 Jun 2025 13:11:24.807,21 Jun 2025 13:17:38.270,373.463
860,21 Jun 2025 22:12:35.397,21 Jun 2025 22:23:44.850,669.453
861,21 Jun 2025 23:47:17.491,21 Jun 2025 23:56:55.118,577.627
862,22 Jun 2025 09:46:14.303,22 Jun 2025 09:50:29.816,255.513
863,22 Jun 2025 11:17:03.469,22 Jun 2025 11:28:34.392,690.922
864,22 Jun 2025 12:51:55.055,22 Jun 2025 13:00:13.727,498.672
865,22 Jun 2025 21:54:18.552,22 Jun 2025 22:04:49.444,630.892
866,22 Jun 2025 23:27:56.216,22 Jun 2025 23:38:36.064,639.848
867,23 Jun 2025 10:58:27.803,23 Jun 2025 11:09:40.012,672.209
868,23 Jun 2025 12:32:43.155,23 Jun 2025 12:42:24.740,581.585
869,23 Jun 2025 21:36:15.342,23 Jun 2025 21:45:46.422,571.079
870,23 Jun 2025 23:08:50.641,23 Jun 2025 23:20:06.903,676.261
871,24 Jun 2025 10:39:59.943,24 Jun 2025 10:50:32.307,632.364
872,24 Jun 2025 12:13:41.410,24 Jun 2025 12:24:19.334,637.923
873,24 Jun 2025 21:18:29.281,24 Jun 2025 21:26:32.559,483.278
874,24 Jun 2025 22:49:58.108,24 Jun 2025 23:01:30.205,692.097
875,25 Jun 2025 00:27:39.821,25 Jun 2025 00:32:37.876,298.055
876,25 Jun 2025 10:21:42.772,25 Jun 2025 10:31:08.290,565.518
877,25 Jun 2025 11:54:47.008,25 Jun 2025 12:06:00.607,673.599
878,25 Jun 2025 13:32:16.853,25 Jun 2025 13:33:59.433,102.579
879,25 Jun 2025 21:01:09.976,25 Jun 2025 21:06:58.595,348.619
880,25 Jun 2025 22:31:17.441,25 Jun 2025 22:42:47.161,689.720
881,26 Jun 2025 00:07:14.608,26 Jun 2025 00:15:10.777,476.169
882,26 Jun 2025 10:03:43.065,26 Jun 2025 10:11:20.981,457.916
883,26 Jun 2025 11:35:58.823,26 Jun 2025 11:47:29.911,691.088
884,26 Jun 2025 13:11:38.728,26 Jun 2025 13:17:50.321,371.592
885,26 Jun 2025 22:12:48.356,26 Jun 2025 22:23:58.149,669.794
886,26 Jun 2025 23:47:31.247,26 Jun 2025 23:57:07.950,576.704
887,27 Jun 2025 09:46:25.851,27 Jun 2025 09:50:45.011,259.161
888,27 Jun 2025 11:17:16.616,27 Jun 2025 11:28:47.645,691.029
889,27 Jun 2025 12:52:08.668,27 Jun 2025 13:00:26.164,497.496
890,27 Jun 2025 21:54:31.362,27 Jun 2025 22:05:02.823,631.461
891,27 Jun 2025 23:28:09.760,27 Jun 2025 23:38:49.040,639.280
892,28 Jun 2025 10:58:40.867,28 Jun 2025 11:09:53.412,672.544
893,28 Jun 2025 12:32:56.619,28 Jun 2025 12:42:37.401,580.783
894,28 Jun 2025 21:36:27.976,28 Jun 2025 21:45:59.903,571.927
895,28 Jun 2025 23:09:04.019,28 Jun 2025 23:20:19.979,675.959
896,29 Jun 2025 10:40:12.903,29 Jun 2025 10:50:45.875,632.972
897,29 Jun 2025 12:13:54.776,29 Jun 2025 12:24:32.164,637.389
898,29 Jun 2025 21:18:41.677,29 Jun 2025 21:26:46.201,484.524
899,29 Jun 2025 22:50:11.341,29 Jun 2025 23:01:43.360,692.019
900,30 Jun 2025 00:27:54.727,30 Jun 2025 00:32:49.702,294.976
901,30 Jun 2025 10:21:55.578,30 Jun 2025 10:31:22.079,566.500
902,30 Jun 2025 11:55:00.296,30 Jun 2025 12:06:13.584,673.288
903,30 Jun 2025 13:32:33.851,30 Jun 2025 13:34:08.322,94.471
904,30 Jun 2025 21:01:21.935,30 Jun 2025 21:07:12.593,350.659
905,30 Jun 2025 22:31:30.537,30 Jun 2025 22:43:00.388,689.851
906,1 Jul 2025 00:07:28.687,1 Jul 2025 00:15:23.351,474.663
907,1 Jul 2025 10:03:55.593,1 Jul 2025 10:11:35.119,459.526
908,1 Jul 2025 11:36:12.040,1 Jul 2025 11:47:43.026,690.986
909,1 Jul 2025 13:11:52.653,1 Jul 2025 13:18:02.363,369.710
910,1 Jul 2025 22:13:01.314,1 Jul 2025 22:24:11.446,670.132
911,1 Jul 2025 23:47:45.003,1 Jul 2025 23:57:20.778,575.775
912,2 Jul 2025 09:46:37.428,2 Jul 2025 09:51:00.173,262.745
913,2 Jul 2025 11:17:29.761,2 Jul 2025 11:29:00.895,691.134
914,2 Jul 2025 12:52:22.280,2 Jul 2025 13:00:38.597,496.317
915,2 Jul 2025 21:54:44.172,2 Jul 2025 22:05:16.204,632.032
916,2 Jul 2025 23:28:23.300,2 Jul 2025 23:39:02.013,638.713
917,3 Jul 2025 10:58:53.932,3 Jul 2025 11:10:06.808,672.876
918,3 Jul 2025 12:33:10.082,3 Jul 2025 12:42:50.060,579.978
919,3 Jul 2025 21:36:40.611,3 Jul 2025 21:46:13.383,572.772
920,3 Jul 2025 23:09:17.398,3 Jul 2025 23:20:33.052,675.654
921,4 Jul 2025 10:40:25.864,4 Jul 2025 10:50:59.441,633.576
922,4 Jul 2025 12:14:08.141,4 Jul 2025 12:24:44.990,636.849
923,4 Jul 2025 21:18:54.075,4 Jul 2025 21:26:59.842,485.767
924,4 Jul 2025 22:50:24.575,4 Jul 2025 23:01:56.514,691.939
925,5 Jul 2025 00:28:09.651,5 Jul 2025 00:33:01.506,291.854
926,5 Jul 2025 10:22:08.389,5 Jul 2025 10:31:35.863,567.474
927,5 Jul 2025 11:55:13.584,5 Jul 2025 12:06:26.559,672.976
928,5 Jul 2025 13:32:51.221,5 Jul 2025 13:34:16.834,85.613
929,5 Jul 2025 21:01:33.900,5 Jul 2025 21:07:26.588,352.688
930,5 Jul 2025 22:31:43.635,5 Jul 2025 22:43:13.614,689.979
931,6 Jul 2025 00:07:42.775,6 Jul 2025 00:15:35.919,473.144
932,6 Jul 2025 10:04:08.129,6 Jul 2025 10:11:49.252,461.123
933,6 Jul 2025 11:36:25.257,6 Jul 2025 11:47:56.139,690.881
934,6 Jul 2025 13:12:06.582,6 Jul 2025 13:18:14.396,367.814
935,6 Jul 2025 22:13:14.278,6 Jul 2025 22:24:24.743,670.465
936,6 Jul 2025 23:47:58.760,6 Jul 2025 23:57:33.604,574.844
937,7 Jul 2025 09:46:49.037,7 Jul 2025 09:51:15.306,266.268
938,7 Jul 2025 11:17:42.909,7 Jul 2025 11:29:14.144,691.235
939,7 Jul 2025 12:52:35.895,7 Jul 2025 13:00:51.028,495.133
940,7 Jul 2025 21:54:56.984,7 Jul 2025 22:05:29.581,632.597
941,7 Jul 2025 23:28:36.848,7 Jul 2025 23:39:14.984,638.137
942,8 Jul 2025 10:59:06.999,8 Jul 2025 11:10:20.203,673.204
943,8 Jul 2025 12:33:23.547,8 Jul 2025 12:43:02.717,579.170
944,8 Jul 2025 21:36:53.249,8 Jul 2025 21:46:26.863,573.614
945,8 Jul 2025 23:09:30.779,8 Jul 2025 23:20:46.125,675.345
946,9 Jul 2025 10:40:38.824,9 Jul 2025 10:51:13.004,634.181
947,9 Jul 2025 12:14:21.508,9 Jul 2025 12:24:57.818,636.310
948,9 Jul 2025 21:19:06.478,9 Jul 2025 21:27:13.481,487.003
949,9 Jul 2025 22:50:37.812,9 Jul 2025 23:02:09.668,691.856
950,10 Jul 2025 00:28:24.600,10 Jul 2025 00:33:13.289,288.688
951,10 Jul 2025 10:22:21.206,10 Jul 2025 10:31:49.645,568.440
952,10 Jul 2025 11:55:26.873,10 Jul 2025 12:06:39.534,672.661
953,10 Jul 2025 13:33:09.118,10 Jul 2025 13:34:24.817,75.699
954,10 Jul 2025 21:01:45.874,10 Jul 2025 21:07:40.575,354.701
955,10 Jul 2025 22:31:56.736,10 Jul 2025 22:43:26.839,690.103
956,11 Jul 2025 00:07:56.869,11 Jul 2025 00:15:48.484,471.615
957,11 Jul 2025 10:04:20.670,11 Jul 2025 10:12:03.378,462.708
958,11 Jul 2025 11:36:38.477,11 Jul 2025 11:48:09.250,690.773
959,11 Jul 2025 13:12:20.518,11 Jul 2025 13:18:26.426,365.908
960,11 Jul 2025 22:13:27.241,11 Jul 2025 22:24:38.040,670.799
961,11 Jul 2025 23:48:12.523,11 Jul 2025 23:57:46.428,573.905
962,12 Jul 2025 09:47:00.672,12 Jul 2025 09:51:30.411,269.740
963,12 Jul 2025 11:17:56.057,12 Jul 2025 11:29:27.391,691.334
964,12 Jul 2025 12:52:49.512,12 Jul 2025 13:01:03.455,493.943
965,12 Jul 2025 21:55:09.798,12 Jul 2025 22:05:42.956,633.158
966,12 Jul 2025 23:28:50.397,12 Jul 2025 23:39:27.955,637.557
967,13 Jul 2025 10:59:20.066,13 Jul 2025 11:10:33.596,673.530
968,13 Jul 2025 12:33:37.014,13 Jul 2025 12:43:15.371,578.357
969,13 Jul 2025 21:37:05.888,13 Jul 2025 21:46:40.340,574.452
970,13 Jul 2025 23:09:44.162,13 Jul 2025 23:20:59.197,675.034
971,14 Jul 2025 10:40:51.788,14 Jul 2025 10:51:26.565,634.778
972,14 Jul 2025 12:14:34.875,14 Jul 2025 12:25:10.643,635.767
973,14 Jul 2025 21:19:18.883,14 Jul 2025 21:27:27.116,488.233
974,14 Jul 2025 22:50:51.049,14 Jul 2025 23:02:22.820,691.770
975,15 Jul 2025 00:28:39.567,15 Jul 2025 00:33:25.051,285.484
976,15 Jul 2025 10:22:34.015,15 Jul 2025 10:32:03.423,569.408
977,15 Jul 2025 11:55:40.167,15 Jul 2025 12:06:52.505,672.338
978,15 Jul 2025 13:33:27.784,15 Jul 2025 13:34:32.034,64.250
