3UCubedIntegratedSim/Reports & Plots/Comms/SSU/Sat4 Comms.csv

"Access","Start Time (UTCG)","Stop Time (UTCG)","Duration (sec)"
1,1 Jan 2025 22:26:01.683,1 Jan 2025 22:34:46.596,524.912
2,1 Jan 2025 23:57:59.852,1 Jan 2025 23:59:59.994,120.143
3,1 Jan 2025 23:59:59.994,2 Jan 2025 00:09:27.508,567.514
4,2 Jan 2025 01:37:04.690,2 Jan 2025 01:39:24.530,139.840
5,2 Jan 2025 11:29:29.345,2 Jan 2025 11:39:27.251,597.906
6,2 Jan 2025 13:02:50.239,2 Jan 2025 13:13:50.944,660.705
7,2 Jan 2025 22:08:28.912,2 Jan 2025 22:15:23.212,414.300
8,2 Jan 2025 23:39:14.203,2 Jan 2025 23:50:47.088,692.885
9,3 Jan 2025 01:15:49.747,3 Jan 2025 01:22:44.417,414.669
10,3 Jan 2025 11:11:20.891,3 Jan 2025 11:19:51.217,510.326
11,3 Jan 2025 12:43:59.479,3 Jan 2025 12:55:25.258,685.779
12,3 Jan 2025 14:20:09.359,3 Jan 2025 14:25:02.364,293.005
13,3 Jan 2025 21:51:40.559,3 Jan 2025 21:55:22.278,221.720
14,3 Jan 2025 23:20:40.164,3 Jan 2025 23:32:00.624,680.460
15,4 Jan 2025 00:55:52.907,4 Jan 2025 01:04:52.506,539.599
16,4 Jan 2025 10:53:39.120,4 Jan 2025 10:59:42.487,363.367
17,4 Jan 2025 12:25:14.709,4 Jan 2025 12:36:47.924,693.215
18,4 Jan 2025 14:00:24.828,4 Jan 2025 14:07:55.607,450.779
19,4 Jan 2025 23:02:17.887,4 Jan 2025 23:13:08.084,650.197
20,5 Jan 2025 00:36:23.183,5 Jan 2025 00:46:39.392,616.209
21,5 Jan 2025 12:06:36.103,5 Jan 2025 12:17:58.895,682.792
22,5 Jan 2025 13:41:06.641,5 Jan 2025 13:50:15.754,549.113
23,5 Jan 2025 22:44:08.416,5 Jan 2025 22:54:08.656,600.239
24,6 Jan 2025 00:17:11.181,6 Jan 2025 00:28:14.224,663.043
25,6 Jan 2025 11:48:04.580,6 Jan 2025 11:58:57.271,652.690
26,6 Jan 2025 13:22:00.959,6 Jan 2025 13:32:16.988,616.029
27,6 Jan 2025 22:26:14.192,6 Jan 2025 22:35:00.152,525.960
28,6 Jan 2025 23:58:13.144,6 Jan 2025 23:59:59.994,106.850
29,6 Jan 2025 23:59:59.994,7 Jan 2025 00:09:40.627,580.633
30,7 Jan 2025 01:37:21.739,7 Jan 2025 01:39:34.235,132.496
31,7 Jan 2025 11:29:42.221,7 Jan 2025 11:39:40.931,598.710
32,7 Jan 2025 13:03:03.556,7 Jan 2025 13:14:03.857,660.301
33,7 Jan 2025 22:08:41.102,7 Jan 2025 22:15:37.006,415.905
34,7 Jan 2025 23:39:27.353,7 Jan 2025 23:51:00.280,692.927
35,8 Jan 2025 01:16:04.048,8 Jan 2025 01:22:56.793,412.744
36,8 Jan 2025 11:11:33.560,8 Jan 2025 11:20:05.174,511.614
37,8 Jan 2025 12:44:12.722,8 Jan 2025 12:55:38.310,685.588
38,8 Jan 2025 14:20:23.594,8 Jan 2025 14:25:14.054,290.460
39,8 Jan 2025 21:51:51.785,8 Jan 2025 21:55:36.952,225.167
40,8 Jan 2025 23:20:53.176,8 Jan 2025 23:32:13.886,680.710
41,9 Jan 2025 00:56:06.776,9 Jan 2025 01:05:05.242,538.466
42,9 Jan 2025 10:53:51.303,9 Jan 2025 10:59:57.001,365.698
43,9 Jan 2025 12:25:27.882,9 Jan 2025 12:37:01.112,693.231
44,9 Jan 2025 14:00:38.536,9 Jan 2025 14:08:07.904,449.368
45,9 Jan 2025 23:02:30.759,9 Jan 2025 23:13:21.421,650.662
46,10 Jan 2025 00:36:36.804,10 Jan 2025 00:46:52.308,615.503
47,10 Jan 2025 12:06:49.195,10 Jan 2025 12:18:12.222,683.027
48,10 Jan 2025 13:41:20.158,10 Jan 2025 13:50:28.319,548.160
49,10 Jan 2025 22:44:21.130,10 Jan 2025 22:54:22.082,600.952
50,11 Jan 2025 00:17:24.623,11 Jan 2025 00:28:27.253,662.630
51,11 Jan 2025 11:48:17.584,11 Jan 2025 11:59:10.756,653.173
52,11 Jan 2025 13:22:14.358,11 Jan 2025 13:32:29.744,615.386
53,11 Jan 2025 22:26:26.700,11 Jan 2025 22:35:13.709,527.009
54,11 Jan 2025 23:58:26.429,11 Jan 2025 23:59:59.994,93.564
55,11 Jan 2025 23:59:59.994,12 Jan 2025 00:09:53.740,593.746
56,12 Jan 2025 01:37:39.006,12 Jan 2025 01:39:43.720,124.714
57,12 Jan 2025 11:29:55.097,12 Jan 2025 11:39:54.603,599.506
58,12 Jan 2025 13:03:16.871,12 Jan 2025 13:14:16.768,659.898
59,12 Jan 2025 22:08:53.296,12 Jan 2025 22:15:50.794,417.498
60,12 Jan 2025 23:39:40.505,12 Jan 2025 23:51:13.466,692.962
61,13 Jan 2025 01:16:18.355,13 Jan 2025 01:23:09.162,410.807
62,13 Jan 2025 11:11:46.229,13 Jan 2025 11:20:19.125,512.896
63,13 Jan 2025 12:44:25.961,13 Jan 2025 12:55:51.355,685.394
64,13 Jan 2025 14:20:37.843,13 Jan 2025 14:25:25.728,287.886
65,13 Jan 2025 21:52:03.041,13 Jan 2025 21:55:51.596,228.555
66,13 Jan 2025 23:21:06.190,13 Jan 2025 23:32:27.146,680.956
67,14 Jan 2025 00:56:20.645,14 Jan 2025 01:05:17.976,537.331
68,14 Jan 2025 10:54:03.495,14 Jan 2025 11:00:11.502,368.007
69,14 Jan 2025 12:25:41.054,14 Jan 2025 12:37:14.298,693.244
70,14 Jan 2025 14:00:52.246,14 Jan 2025 14:08:20.197,447.951
71,14 Jan 2025 23:02:43.635,14 Jan 2025 23:13:34.755,651.120
72,15 Jan 2025 00:36:50.427,15 Jan 2025 00:47:05.217,614.790
73,15 Jan 2025 12:07:02.291,15 Jan 2025 12:18:25.547,683.256
74,15 Jan 2025 13:41:33.675,15 Jan 2025 13:50:40.883,547.209
75,15 Jan 2025 22:44:33.842,15 Jan 2025 22:54:35.502,601.660
76,16 Jan 2025 00:17:38.065,16 Jan 2025 00:28:40.281,662.217
77,16 Jan 2025 11:48:30.588,16 Jan 2025 11:59:24.238,653.650
78,16 Jan 2025 13:22:27.758,16 Jan 2025 13:32:42.498,614.740
79,16 Jan 2025 22:26:39.211,16 Jan 2025 22:35:27.261,528.050
80,16 Jan 2025 23:58:39.720,16 Jan 2025 23:59:59.993,80.273
81,16 Jan 2025 23:59:59.993,17 Jan 2025 00:10:06.855,606.862
82,17 Jan 2025 01:37:56.552,17 Jan 2025 01:39:52.929,116.377
83,17 Jan 2025 11:30:07.979,17 Jan 2025 11:40:08.281,600.302
84,17 Jan 2025 13:03:30.182,17 Jan 2025 13:14:29.677,659.495
85,17 Jan 2025 22:09:05.496,17 Jan 2025 22:16:04.580,419.084
86,17 Jan 2025 23:39:53.659,17 Jan 2025 23:51:26.656,692.997
87,18 Jan 2025 01:16:32.671,18 Jan 2025 01:23:21.518,408.848
88,18 Jan 2025 11:11:58.904,18 Jan 2025 11:20:33.072,514.169
89,18 Jan 2025 12:44:39.205,18 Jan 2025 12:56:04.403,685.198
90,18 Jan 2025 14:20:52.098,18 Jan 2025 14:25:37.391,285.292
91,18 Jan 2025 21:52:14.323,18 Jan 2025 21:56:06.216,231.894
92,18 Jan 2025 23:21:19.207,18 Jan 2025 23:32:40.406,681.198
93,19 Jan 2025 00:56:34.520,19 Jan 2025 01:05:30.708,536.188
94,19 Jan 2025 10:54:15.700,19 Jan 2025 11:00:25.994,370.294
95,19 Jan 2025 12:25:54.228,19 Jan 2025 12:37:27.477,693.249
96,19 Jan 2025 14:01:05.960,19 Jan 2025 14:08:32.486,446.526
97,19 Jan 2025 23:02:56.511,19 Jan 2025 23:13:48.090,651.579
98,20 Jan 2025 00:37:04.055,20 Jan 2025 00:47:18.130,614.075
99,20 Jan 2025 12:07:15.390,20 Jan 2025 12:18:38.871,683.481
100,20 Jan 2025 13:41:47.188,20 Jan 2025 13:50:53.447,546.258
101,20 Jan 2025 22:44:46.558,20 Jan 2025 22:54:48.928,602.370
102,21 Jan 2025 00:17:51.510,21 Jan 2025 00:28:53.311,661.801
103,21 Jan 2025 11:48:43.595,21 Jan 2025 11:59:37.720,654.124
104,21 Jan 2025 13:22:41.161,21 Jan 2025 13:32:55.251,614.090
105,21 Jan 2025 22:26:51.726,21 Jan 2025 22:35:40.812,529.086
106,21 Jan 2025 23:58:53.014,21 Jan 2025 23:59:59.993,66.979
107,21 Jan 2025 23:59:59.993,22 Jan 2025 00:10:19.971,619.978
108,22 Jan 2025 01:38:14.428,22 Jan 2025 01:40:01.810,107.382
109,22 Jan 2025 11:30:20.862,22 Jan 2025 11:40:21.954,601.092
110,22 Jan 2025 13:03:43.500,22 Jan 2025 13:14:42.584,659.084
111,22 Jan 2025 22:09:17.702,22 Jan 2025 22:16:18.360,420.659
112,22 Jan 2025 23:40:06.816,22 Jan 2025 23:51:39.846,693.030
113,23 Jan 2025 01:16:46.995,23 Jan 2025 01:23:33.875,406.880
114,23 Jan 2025 11:12:11.581,23 Jan 2025 11:20:47.017,515.436
115,23 Jan 2025 12:44:52.450,23 Jan 2025 12:56:17.450,685.000
116,23 Jan 2025 14:21:06.378,23 Jan 2025 14:25:49.037,282.659
117,23 Jan 2025 21:52:25.635,23 Jan 2025 21:56:20.808,235.173
118,23 Jan 2025 23:21:32.226,23 Jan 2025 23:32:53.665,681.439
119,24 Jan 2025 00:56:48.398,24 Jan 2025 01:05:43.439,535.041
120,24 Jan 2025 10:54:27.911,24 Jan 2025 11:00:40.472,372.561
121,24 Jan 2025 12:26:07.403,24 Jan 2025 12:37:40.664,693.261
122,24 Jan 2025 14:01:19.680,24 Jan 2025 14:08:44.770,445.090
123,24 Jan 2025 23:03:09.384,24 Jan 2025 23:14:01.421,652.037
124,25 Jan 2025 00:37:17.683,25 Jan 2025 00:47:31.042,613.358
125,25 Jan 2025 12:07:28.489,25 Jan 2025 12:18:52.194,683.705
126,25 Jan 2025 13:42:00.709,25 Jan 2025 13:51:06.006,545.298
127,25 Jan 2025 22:44:59.276,25 Jan 2025 22:55:02.351,603.076
128,26 Jan 2025 00:18:04.957,26 Jan 2025 00:29:06.339,661.382
129,26 Jan 2025 11:48:56.602,26 Jan 2025 11:59:51.198,654.596
130,26 Jan 2025 13:22:54.564,26 Jan 2025 13:33:08.000,613.436
131,26 Jan 2025 22:27:04.243,26 Jan 2025 22:35:54.359,530.116
132,26 Jan 2025 23:59:06.308,26 Jan 2025 23:59:59.993,53.685
133,26 Jan 2025 23:59:59.993,27 Jan 2025 00:10:33.086,633.093
134,27 Jan 2025 01:38:32.728,27 Jan 2025 01:40:10.268,97.540
135,27 Jan 2025 11:30:33.743,27 Jan 2025 11:40:35.619,601.876
136,27 Jan 2025 13:03:56.817,27 Jan 2025 13:14:55.488,658.671
137,27 Jan 2025 22:09:29.912,27 Jan 2025 22:16:32.136,422.224
138,27 Jan 2025 23:40:19.970,27 Jan 2025 23:51:53.034,693.064
139,28 Jan 2025 01:17:01.325,28 Jan 2025 01:23:46.223,404.899
140,28 Jan 2025 11:12:24.260,28 Jan 2025 11:21:00.956,516.696
141,28 Jan 2025 12:45:05.695,28 Jan 2025 12:56:30.494,684.799
142,28 Jan 2025 14:21:20.666,28 Jan 2025 14:26:00.667,280.001
143,28 Jan 2025 21:52:36.971,28 Jan 2025 21:56:35.374,238.402
144,28 Jan 2025 23:21:45.246,28 Jan 2025 23:33:06.922,681.676
145,29 Jan 2025 00:57:02.275,29 Jan 2025 01:05:56.165,533.890
146,29 Jan 2025 10:54:40.132,29 Jan 2025 11:00:54.942,374.810
147,29 Jan 2025 12:26:20.578,29 Jan 2025 12:37:53.843,693.265
148,29 Jan 2025 14:01:33.402,29 Jan 2025 14:08:57.049,443.647
149,29 Jan 2025 23:03:22.262,29 Jan 2025 23:14:14.754,652.492
150,30 Jan 2025 00:37:31.314,30 Jan 2025 00:47:43.950,612.636
151,30 Jan 2025 12:07:41.588,30 Jan 2025 12:19:05.510,683.922
152,30 Jan 2025 13:42:14.229,30 Jan 2025 13:51:18.563,544.334
153,30 Jan 2025 22:45:11.995,30 Jan 2025 22:55:15.771,603.776
154,31 Jan 2025 00:18:18.405,31 Jan 2025 00:29:19.364,660.959
155,31 Jan 2025 11:49:09.612,31 Jan 2025 12:00:04.674,655.062
156,31 Jan 2025 13:23:07.972,31 Jan 2025 13:33:20.750,612.778
157,31 Jan 2025 22:27:16.762,31 Jan 2025 22:36:07.905,531.143
158,31 Jan 2025 23:59:19.604,31 Jan 2025 23:59:59.992,40.389
159,31 Jan 2025 23:59:59.992,1 Feb 2025 00:10:46.199,646.206
160,1 Feb 2025 01:38:51.599,1 Feb 2025 01:40:18.147,86.548
161,1 Feb 2025 11:30:46.628,1 Feb 2025 11:40:49.288,602.660
162,1 Feb 2025 13:04:10.136,1 Feb 2025 13:15:08.392,658.255
163,1 Feb 2025 22:09:42.127,1 Feb 2025 22:16:45.909,423.782
164,1 Feb 2025 23:40:33.128,1 Feb 2025 23:52:06.221,693.093
165,2 Feb 2025 01:17:15.665,2 Feb 2025 01:23:58.564,402.899
166,2 Feb 2025 11:12:36.945,2 Feb 2025 11:21:14.892,517.947
167,2 Feb 2025 12:45:18.941,2 Feb 2025 12:56:43.537,684.596
168,2 Feb 2025 14:21:34.968,2 Feb 2025 14:26:12.284,277.316
169,2 Feb 2025 21:52:48.332,2 Feb 2025 21:56:49.919,241.587
170,2 Feb 2025 23:21:58.268,2 Feb 2025 23:33:20.180,681.912
171,3 Feb 2025 00:57:16.159,3 Feb 2025 01:06:08.889,532.730
172,3 Feb 2025 10:54:52.365,3 Feb 2025 11:01:09.405,377.040
173,3 Feb 2025 12:26:33.751,3 Feb 2025 12:38:07.022,693.271
174,3 Feb 2025 14:01:47.129,3 Feb 2025 14:09:09.325,442.196
175,3 Feb 2025 23:03:35.147,3 Feb 2025 23:14:28.085,652.938
176,4 Feb 2025 00:37:44.948,4 Feb 2025 00:47:56.858,611.910
177,4 Feb 2025 12:07:54.690,4 Feb 2025 12:19:18.829,684.140
178,4 Feb 2025 13:42:27.754,4 Feb 2025 13:51:31.121,543.367
179,4 Feb 2025 22:45:24.717,4 Feb 2025 22:55:29.192,604.475
180,5 Feb 2025 00:18:31.856,5 Feb 2025 00:29:32.390,660.534
181,5 Feb 2025 11:49:22.621,5 Feb 2025 12:00:18.149,655.528
182,5 Feb 2025 13:23:21.375,5 Feb 2025 13:33:33.496,612.122
183,5 Feb 2025 22:27:29.284,5 Feb 2025 22:36:21.450,532.166
184,5 Feb 2025 23:59:32.903,5 Feb 2025 23:59:59.992,27.090
185,5 Feb 2025 23:59:59.992,6 Feb 2025 00:10:59.312,659.320
186,6 Feb 2025 01:39:11.297,6 Feb 2025 01:40:25.220,73.924
187,6 Feb 2025 11:30:59.513,6 Feb 2025 11:41:02.955,603.442
188,6 Feb 2025 13:04:23.457,6 Feb 2025 13:15:21.293,657.836
189,6 Feb 2025 22:09:54.347,6 Feb 2025 22:16:59.681,425.334
190,6 Feb 2025 23:40:46.284,6 Feb 2025 23:52:19.413,693.129
191,7 Feb 2025 01:17:30.014,7 Feb 2025 01:24:10.900,400.886
192,7 Feb 2025 11:12:49.628,7 Feb 2025 11:21:28.825,519.197
193,7 Feb 2025 12:45:32.189,7 Feb 2025 12:56:56.579,684.391
194,7 Feb 2025 14:21:49.289,7 Feb 2025 14:26:23.882,274.593
195,7 Feb 2025 21:52:59.719,7 Feb 2025 21:57:04.437,244.718
196,7 Feb 2025 23:22:11.292,7 Feb 2025 23:33:33.436,682.144
197,8 Feb 2025 00:57:30.048,8 Feb 2025 01:06:21.612,531.564
198,8 Feb 2025 10:55:04.599,8 Feb 2025 11:01:23.856,379.257
199,8 Feb 2025 12:26:46.928,8 Feb 2025 12:38:20.200,693.271
200,8 Feb 2025 14:02:00.858,8 Feb 2025 14:09:21.595,440.737
201,8 Feb 2025 23:03:48.029,8 Feb 2025 23:14:41.415,653.386
202,9 Feb 2025 00:37:58.584,9 Feb 2025 00:48:09.765,611.181
203,9 Feb 2025 12:08:07.791,9 Feb 2025 12:19:32.146,684.355
204,9 Feb 2025 13:42:41.280,9 Feb 2025 13:51:43.668,542.388
205,9 Feb 2025 22:45:37.440,9 Feb 2025 22:55:42.609,605.169
206,10 Feb 2025 00:18:45.308,10 Feb 2025 00:29:45.414,660.106
207,10 Feb 2025 11:49:35.632,10 Feb 2025 12:00:31.621,655.989
208,10 Feb 2025 13:23:34.782,10 Feb 2025 13:33:46.239,611.457
209,10 Feb 2025 22:27:41.809,10 Feb 2025 22:36:34.991,533.182
210,10 Feb 2025 23:59:46.202,10 Feb 2025 23:59:59.992,13.790
211,10 Feb 2025 23:59:59.992,11 Feb 2025 00:11:12.423,672.431
212,11 Feb 2025 01:39:32.336,11 Feb 2025 01:40:30.939,58.602
213,11 Feb 2025 11:31:12.400,11 Feb 2025 11:41:16.616,604.216
214,11 Feb 2025 13:04:36.777,11 Feb 2025 13:15:34.192,657.415
215,11 Feb 2025 22:10:06.572,11 Feb 2025 22:17:13.445,426.873
216,11 Feb 2025 23:40:59.444,11 Feb 2025 23:52:32.598,693.154
217,12 Feb 2025 01:17:44.372,12 Feb 2025 01:24:23.226,398.855
218,12 Feb 2025 11:13:02.319,12 Feb 2025 11:21:42.749,520.430
219,12 Feb 2025 12:45:45.439,12 Feb 2025 12:57:09.618,684.179
220,12 Feb 2025 14:22:03.617,12 Feb 2025 14:26:35.464,271.847
221,12 Feb 2025 21:53:11.126,12 Feb 2025 21:57:18.936,247.810
222,12 Feb 2025 23:22:24.320,12 Feb 2025 23:33:46.691,682.372
223,13 Feb 2025 00:57:43.941,13 Feb 2025 01:06:34.331,530.390
224,13 Feb 2025 10:55:16.848,13 Feb 2025 11:01:38.299,381.451
225,13 Feb 2025 12:27:00.106,13 Feb 2025 12:38:33.375,693.268
226,13 Feb 2025 14:02:14.591,13 Feb 2025 14:09:33.862,439.271
227,13 Feb 2025 23:04:00.913,13 Feb 2025 23:14:54.744,653.831
228,14 Feb 2025 00:38:12.222,14 Feb 2025 00:48:22.669,610.447
229,14 Feb 2025 12:08:20.894,14 Feb 2025 12:19:45.462,684.568
230,14 Feb 2025 13:42:54.808,14 Feb 2025 13:51:56.217,541.409
231,14 Feb 2025 22:45:50.165,14 Feb 2025 22:55:56.026,605.861
232,15 Feb 2025 00:18:58.759,15 Feb 2025 00:29:58.437,659.678
233,15 Feb 2025 11:49:48.647,15 Feb 2025 12:00:45.089,656.443
234,15 Feb 2025 13:23:48.193,15 Feb 2025 13:33:58.981,610.788
235,15 Feb 2025 22:27:54.337,15 Feb 2025 22:36:48.527,534.190
236,15 Feb 2025 23:59:59.508,15 Feb 2025 23:59:59.991,0.483
237,15 Feb 2025 23:59:59.991,16 Feb 2025 00:11:25.535,685.544
238,16 Feb 2025 01:39:56.327,16 Feb 2025 01:40:33.706,37.379
239,16 Feb 2025 11:31:25.291,16 Feb 2025 11:41:30.277,604.986
240,16 Feb 2025 13:04:50.100,16 Feb 2025 13:15:47.091,656.991
241,16 Feb 2025 22:10:18.803,16 Feb 2025 22:17:27.206,428.404
242,16 Feb 2025 23:41:12.607,16 Feb 2025 23:52:45.784,693.176
243,17 Feb 2025 01:17:58.733,17 Feb 2025 01:24:35.546,396.813
244,17 Feb 2025 11:13:15.011,17 Feb 2025 11:21:56.674,521.663
245,17 Feb 2025 12:45:58.689,17 Feb 2025 12:57:22.658,683.968
246,17 Feb 2025 14:22:17.968,17 Feb 2025 14:26:47.031,269.063
247,17 Feb 2025 21:53:22.557,17 Feb 2025 21:57:33.415,250.858
248,17 Feb 2025 23:22:37.348,17 Feb 2025 23:33:59.947,682.600
249,18 Feb 2025 00:57:57.839,18 Feb 2025 01:06:47.048,529.209
250,18 Feb 2025 10:55:29.106,18 Feb 2025 11:01:52.734,383.628
251,18 Feb 2025 12:27:13.287,18 Feb 2025 12:38:46.546,693.260
252,18 Feb 2025 14:02:28.324,18 Feb 2025 14:09:46.120,437.795
253,18 Feb 2025 23:04:13.800,18 Feb 2025 23:15:08.072,654.272
254,19 Feb 2025 00:38:25.865,19 Feb 2025 00:48:35.574,609.709
255,19 Feb 2025 12:08:33.999,19 Feb 2025 12:19:58.777,684.778
256,19 Feb 2025 13:43:08.340,19 Feb 2025 13:52:08.765,540.426
257,19 Feb 2025 22:46:02.894,19 Feb 2025 22:56:09.443,606.549
258,20 Feb 2025 00:19:12.217,20 Feb 2025 00:30:11.461,659.244
259,20 Feb 2025 11:50:01.661,20 Feb 2025 12:00:58.560,656.899
260,20 Feb 2025 13:24:01.604,20 Feb 2025 13:34:11.722,610.118
261,20 Feb 2025 22:28:06.870,20 Feb 2025 22:37:02.067,535.197
262,21 Feb 2025 00:00:12.813,21 Feb 2025 00:11:38.647,685.834
263,21 Feb 2025 11:31:38.183,21 Feb 2025 11:41:43.935,605.753
264,21 Feb 2025 13:05:03.424,21 Feb 2025 13:15:59.988,656.564
265,21 Feb 2025 22:10:31.039,21 Feb 2025 22:17:40.958,429.919
266,21 Feb 2025 23:41:25.772,21 Feb 2025 23:52:58.969,693.197
267,22 Feb 2025 01:18:13.112,22 Feb 2025 01:24:47.860,394.749
268,22 Feb 2025 11:13:27.706,22 Feb 2025 11:22:10.596,522.890
269,22 Feb 2025 12:46:11.942,22 Feb 2025 12:57:35.696,683.754
270,22 Feb 2025 14:22:32.338,22 Feb 2025 14:26:58.579,266.241
271,22 Feb 2025 21:53:34.011,22 Feb 2025 21:57:47.871,253.860
272,22 Feb 2025 23:22:50.377,22 Feb 2025 23:34:13.202,682.825
273,23 Feb 2025 00:58:11.740,23 Feb 2025 01:06:59.763,528.023
274,23 Feb 2025 10:55:41.371,23 Feb 2025 11:02:07.158,385.787
275,23 Feb 2025 12:27:26.467,23 Feb 2025 12:38:59.719,693.252
276,23 Feb 2025 14:02:42.066,23 Feb 2025 14:09:58.377,436.311
277,23 Feb 2025 23:04:26.688,23 Feb 2025 23:15:21.400,654.712
278,24 Feb 2025 00:38:39.509,24 Feb 2025 00:48:48.476,608.967
279,24 Feb 2025 12:08:47.103,24 Feb 2025 12:20:12.089,684.986
280,24 Feb 2025 13:43:21.870,24 Feb 2025 13:52:21.309,539.440
281,24 Feb 2025 22:46:15.624,24 Feb 2025 22:56:22.857,607.233
282,25 Feb 2025 00:19:25.675,25 Feb 2025 00:30:24.482,658.807
283,25 Feb 2025 11:50:14.677,25 Feb 2025 12:01:12.027,657.350
284,25 Feb 2025 13:24:15.014,25 Feb 2025 13:34:24.459,609.446
285,25 Feb 2025 22:28:19.404,25 Feb 2025 22:37:15.604,536.199
286,26 Feb 2025 00:00:26.117,26 Feb 2025 00:11:51.757,685.640
287,26 Feb 2025 11:31:51.075,26 Feb 2025 11:41:57.590,606.514
288,26 Feb 2025 13:05:16.752,26 Feb 2025 13:16:12.883,656.131
289,26 Feb 2025 22:10:43.278,26 Feb 2025 22:17:54.711,431.432
290,26 Feb 2025 23:41:38.938,26 Feb 2025 23:53:12.153,693.215
291,27 Feb 2025 01:18:27.493,27 Feb 2025 01:25:00.165,392.672
292,27 Feb 2025 11:13:40.408,27 Feb 2025 11:22:24.513,524.105
293,27 Feb 2025 12:46:25.192,27 Feb 2025 12:57:48.732,683.540
294,27 Feb 2025 14:22:46.722,27 Feb 2025 14:27:10.109,263.388
295,27 Feb 2025 21:53:45.483,27 Feb 2025 21:58:02.308,256.825
296,27 Feb 2025 23:23:03.404,27 Feb 2025 23:34:26.455,683.051
297,28 Feb 2025 00:58:25.644,28 Feb 2025 01:07:12.470,526.826
298,28 Feb 2025 10:55:53.646,28 Feb 2025 11:02:21.571,387.925
299,28 Feb 2025 12:27:39.648,28 Feb 2025 12:39:12.890,693.242
300,28 Feb 2025 14:02:55.809,28 Feb 2025 14:10:10.630,434.821
301,28 Feb 2025 23:04:39.577,28 Feb 2025 23:15:34.727,655.150
302,1 Mar 2025 00:38:53.155,1 Mar 2025 00:49:01.376,608.221
303,1 Mar 2025 12:09:00.210,1 Mar 2025 12:20:25.400,685.191
304,1 Mar 2025 13:43:35.403,1 Mar 2025 13:52:33.852,538.449
305,1 Mar 2025 22:46:28.356,1 Mar 2025 22:56:36.272,607.915
306,2 Mar 2025 00:19:39.136,2 Mar 2025 00:30:37.502,658.365
307,2 Mar 2025 11:50:27.689,2 Mar 2025 12:01:25.496,657.806
308,2 Mar 2025 13:24:28.424,2 Mar 2025 13:34:37.196,608.772
309,2 Mar 2025 22:28:31.941,2 Mar 2025 22:37:29.139,537.197
310,3 Mar 2025 00:00:39.425,3 Mar 2025 00:12:04.865,685.440
311,3 Mar 2025 11:32:03.971,3 Mar 2025 11:42:11.243,607.272
312,3 Mar 2025 13:05:30.075,3 Mar 2025 13:16:25.773,655.698
313,3 Mar 2025 22:10:55.524,3 Mar 2025 22:18:08.461,432.937
314,3 Mar 2025 23:41:52.107,3 Mar 2025 23:53:25.337,693.230
315,4 Mar 2025 01:18:41.886,4 Mar 2025 01:25:12.462,390.577
316,4 Mar 2025 11:13:53.110,4 Mar 2025 11:22:38.428,525.318
317,4 Mar 2025 12:46:38.445,4 Mar 2025 12:58:01.767,683.322
318,4 Mar 2025 14:23:01.126,4 Mar 2025 14:27:21.622,260.496
319,4 Mar 2025 21:53:56.977,4 Mar 2025 21:58:16.728,259.752
320,4 Mar 2025 23:23:16.438,4 Mar 2025 23:34:39.709,683.271
321,5 Mar 2025 00:58:39.554,5 Mar 2025 01:07:25.180,525.626
322,5 Mar 2025 10:56:05.929,5 Mar 2025 11:02:35.977,390.048
323,5 Mar 2025 12:27:52.832,5 Mar 2025 12:39:26.061,693.229
324,5 Mar 2025 14:03:09.559,5 Mar 2025 14:10:22.879,433.320
325,5 Mar 2025 23:04:52.470,5 Mar 2025 23:15:48.052,655.582
326,6 Mar 2025 00:39:06.808,6 Mar 2025 00:49:14.276,607.468
327,6 Mar 2025 12:09:13.318,6 Mar 2025 12:20:38.711,685.393
328,6 Mar 2025 13:43:48.941,6 Mar 2025 13:52:46.392,537.451
329,6 Mar 2025 22:46:41.092,6 Mar 2025 22:56:49.685,608.593
330,7 Mar 2025 00:19:52.600,7 Mar 2025 00:30:50.517,657.917
331,7 Mar 2025 11:50:40.712,7 Mar 2025 12:01:38.961,658.249
332,7 Mar 2025 13:24:41.842,7 Mar 2025 13:34:49.931,608.089
333,7 Mar 2025 22:28:44.483,7 Mar 2025 22:37:42.672,538.189
334,8 Mar 2025 00:00:52.735,8 Mar 2025 00:12:17.975,685.241
335,8 Mar 2025 11:32:16.867,8 Mar 2025 11:42:24.894,608.027
336,8 Mar 2025 13:05:43.403,8 Mar 2025 13:16:38.665,655.262
337,8 Mar 2025 22:11:07.774,8 Mar 2025 22:18:22.206,434.432
338,8 Mar 2025 23:42:05.277,8 Mar 2025 23:53:38.520,693.243
339,9 Mar 2025 01:18:56.286,9 Mar 2025 01:25:24.753,388.468
340,9 Mar 2025 11:14:05.812,9 Mar 2025 11:22:52.339,526.527
341,9 Mar 2025 12:46:51.699,9 Mar 2025 12:58:14.800,683.102
342,9 Mar 2025 14:23:15.550,9 Mar 2025 14:27:33.113,257.563
343,9 Mar 2025 21:54:08.491,9 Mar 2025 21:58:31.127,262.637
344,9 Mar 2025 23:23:29.472,9 Mar 2025 23:34:52.961,683.489
345,10 Mar 2025 00:58:53.463,10 Mar 2025 01:07:37.886,524.423
346,10 Mar 2025 10:56:18.219,10 Mar 2025 11:02:50.373,392.154
347,10 Mar 2025 12:28:06.017,10 Mar 2025 12:39:39.229,693.213
348,10 Mar 2025 14:03:23.311,10 Mar 2025 14:10:35.122,431.811
349,10 Mar 2025 23:05:05.364,10 Mar 2025 23:16:01.378,656.015
350,11 Mar 2025 00:39:20.457,11 Mar 2025 00:49:27.169,606.712
351,11 Mar 2025 12:09:26.427,11 Mar 2025 12:20:52.019,685.591
352,11 Mar 2025 13:44:02.478,11 Mar 2025 13:52:58.928,536.450
353,11 Mar 2025 22:46:53.828,11 Mar 2025 22:57:03.096,609.268
354,12 Mar 2025 00:20:06.065,12 Mar 2025 00:31:03.537,657.472
355,12 Mar 2025 11:50:53.726,12 Mar 2025 12:01:52.419,658.693
356,12 Mar 2025 13:24:55.257,12 Mar 2025 13:35:02.663,607.406
357,12 Mar 2025 22:28:57.023,12 Mar 2025 22:37:56.205,539.182
358,13 Mar 2025 00:01:06.045,13 Mar 2025 00:12:31.082,685.037
359,13 Mar 2025 11:32:29.761,13 Mar 2025 11:42:38.542,608.781
360,13 Mar 2025 13:05:56.732,13 Mar 2025 13:16:51.555,654.823
361,13 Mar 2025 22:11:20.029,13 Mar 2025 22:18:35.951,435.922
362,13 Mar 2025 23:42:18.453,13 Mar 2025 23:53:51.698,693.245
363,14 Mar 2025 01:19:10.696,14 Mar 2025 01:25:37.034,386.338
364,14 Mar 2025 11:14:18.520,14 Mar 2025 11:23:06.247,527.727
365,14 Mar 2025 12:47:04.953,14 Mar 2025 12:58:27.834,682.881
366,14 Mar 2025 14:23:29.989,14 Mar 2025 14:27:44.585,254.596
367,14 Mar 2025 21:54:20.021,14 Mar 2025 21:58:45.511,265.490
368,14 Mar 2025 23:23:42.507,14 Mar 2025 23:35:06.210,683.702
369,15 Mar 2025 00:59:07.379,15 Mar 2025 01:07:50.588,523.209
370,15 Mar 2025 10:56:30.520,15 Mar 2025 11:03:04.761,394.241
371,15 Mar 2025 12:28:19.202,15 Mar 2025 12:39:52.397,693.195
372,15 Mar 2025 14:03:37.067,15 Mar 2025 14:10:47.362,430.295
373,15 Mar 2025 23:05:18.260,15 Mar 2025 23:16:14.705,656.445
374,16 Mar 2025 00:39:34.113,16 Mar 2025 00:49:40.065,605.952
375,16 Mar 2025 12:09:39.541,16 Mar 2025 12:21:05.326,685.785
376,16 Mar 2025 13:44:16.016,16 Mar 2025 13:53:11.463,535.447
377,16 Mar 2025 22:47:06.568,16 Mar 2025 22:57:16.508,609.940
378,17 Mar 2025 00:20:19.533,17 Mar 2025 00:31:16.557,657.024
379,17 Mar 2025 11:51:06.749,17 Mar 2025 12:02:05.881,659.131
380,17 Mar 2025 13:25:08.674,17 Mar 2025 13:35:15.394,606.720
381,17 Mar 2025 22:29:09.570,17 Mar 2025 22:38:09.738,540.168
382,18 Mar 2025 00:01:19.359,18 Mar 2025 00:12:44.193,684.834
383,18 Mar 2025 11:32:42.663,18 Mar 2025 11:42:52.190,609.527
384,18 Mar 2025 13:06:10.063,18 Mar 2025 13:17:04.445,654.383
385,18 Mar 2025 22:11:32.290,18 Mar 2025 22:18:49.694,437.404
386,18 Mar 2025 23:42:31.626,18 Mar 2025 23:54:04.885,693.259
387,19 Mar 2025 01:19:25.117,19 Mar 2025 01:25:49.308,384.191
388,19 Mar 2025 11:14:31.232,19 Mar 2025 11:23:20.152,528.920
389,19 Mar 2025 12:47:18.210,19 Mar 2025 12:58:40.866,682.656
390,19 Mar 2025 14:23:44.451,19 Mar 2025 14:27:56.038,251.587
391,19 Mar 2025 21:54:31.572,19 Mar 2025 21:58:59.878,268.307
392,19 Mar 2025 23:23:55.547,19 Mar 2025 23:35:19.462,683.916
393,20 Mar 2025 00:59:21.301,20 Mar 2025 01:08:03.290,521.989
394,20 Mar 2025 10:56:42.828,20 Mar 2025 11:03:19.141,396.314
395,20 Mar 2025 12:28:32.390,20 Mar 2025 12:40:05.564,693.174
396,20 Mar 2025 14:03:50.830,20 Mar 2025 14:10:59.598,428.769
397,20 Mar 2025 23:05:31.155,20 Mar 2025 23:16:28.031,656.876
398,21 Mar 2025 00:39:47.774,21 Mar 2025 00:49:52.962,605.189
399,21 Mar 2025 10:40:48.112,21 Mar 2025 10:41:18.089,29.977
400,21 Mar 2025 12:09:52.653,21 Mar 2025 12:21:18.634,685.981
401,21 Mar 2025 13:44:29.560,21 Mar 2025 13:53:23.996,534.437
402,21 Mar 2025 22:47:19.310,21 Mar 2025 22:57:29.919,610.609
403,22 Mar 2025 00:20:33.004,22 Mar 2025 00:31:29.572,656.568
404,22 Mar 2025 11:51:19.775,22 Mar 2025 12:02:19.341,659.566
405,22 Mar 2025 13:25:22.095,22 Mar 2025 13:35:28.124,606.029
406,22 Mar 2025 22:29:22.120,22 Mar 2025 22:38:23.269,541.149
407,23 Mar 2025 00:01:32.675,23 Mar 2025 00:12:57.300,684.625
408,23 Mar 2025 11:32:55.565,23 Mar 2025 11:43:05.834,610.269
409,23 Mar 2025 13:06:23.395,23 Mar 2025 13:17:17.333,653.938
410,23 Mar 2025 22:11:44.556,23 Mar 2025 22:19:03.430,438.874
411,23 Mar 2025 23:42:44.802,23 Mar 2025 23:54:18.067,693.265
412,24 Mar 2025 01:19:39.546,24 Mar 2025 01:26:01.574,382.028
413,24 Mar 2025 11:14:43.946,24 Mar 2025 11:23:34.053,530.107
414,24 Mar 2025 12:47:31.467,24 Mar 2025 12:58:53.895,682.428
415,24 Mar 2025 14:23:58.933,24 Mar 2025 14:28:07.469,248.535
416,24 Mar 2025 21:54:43.140,24 Mar 2025 21:59:14.227,271.088
417,24 Mar 2025 23:24:08.587,24 Mar 2025 23:35:32.713,684.126
418,25 Mar 2025 00:59:35.225,25 Mar 2025 01:08:15.988,520.763
419,25 Mar 2025 10:56:55.142,25 Mar 2025 11:03:33.512,398.370
420,25 Mar 2025 12:28:45.577,25 Mar 2025 12:40:18.728,693.152
421,25 Mar 2025 14:04:04.595,25 Mar 2025 14:11:11.828,427.234
422,25 Mar 2025 23:05:44.054,25 Mar 2025 23:16:41.355,657.300
423,26 Mar 2025 00:40:01.436,26 Mar 2025 00:50:05.857,604.421
424,26 Mar 2025 10:40:49.360,26 Mar 2025 10:41:43.600,54.241
425,26 Mar 2025 12:10:05.762,26 Mar 2025 12:21:31.938,686.176
426,26 Mar 2025 13:44:43.103,26 Mar 2025 13:53:36.525,533.422
427,26 Mar 2025 22:47:32.053,26 Mar 2025 22:57:43.328,611.275
428,27 Mar 2025 00:20:46.476,27 Mar 2025 00:31:42.585,656.110
429,27 Mar 2025 11:51:32.797,27 Mar 2025 12:02:32.798,660.001
430,27 Mar 2025 13:25:35.515,27 Mar 2025 13:35:40.850,605.335
431,27 Mar 2025 22:29:34.671,27 Mar 2025 22:38:36.797,542.126
432,28 Mar 2025 00:01:45.992,28 Mar 2025 00:13:10.405,684.414
433,28 Mar 2025 11:33:08.470,28 Mar 2025 11:43:19.473,611.003
434,28 Mar 2025 13:06:36.722,28 Mar 2025 13:17:30.218,653.496
435,28 Mar 2025 22:11:56.822,28 Mar 2025 22:19:17.158,440.337
436,28 Mar 2025 23:42:57.976,28 Mar 2025 23:54:31.243,693.267
437,29 Mar 2025 01:19:53.986,29 Mar 2025 01:26:13.829,379.844
438,29 Mar 2025 11:14:56.665,29 Mar 2025 11:23:47.950,531.284
439,29 Mar 2025 12:47:44.725,29 Mar 2025 12:59:06.922,682.197
440,29 Mar 2025 14:24:13.436,29 Mar 2025 14:28:18.882,245.446
441,29 Mar 2025 21:54:54.726,29 Mar 2025 21:59:28.568,273.842
442,29 Mar 2025 23:24:21.632,29 Mar 2025 23:35:45.967,684.336
443,30 Mar 2025 00:59:49.154,30 Mar 2025 01:08:28.682,519.528
444,30 Mar 2025 10:57:07.467,30 Mar 2025 11:03:47.875,400.408
445,30 Mar 2025 12:28:58.765,30 Mar 2025 12:40:31.892,693.127
446,30 Mar 2025 14:04:18.363,30 Mar 2025 14:11:24.055,425.692
447,30 Mar 2025 23:05:56.956,30 Mar 2025 23:16:54.678,657.722
448,31 Mar 2025 00:40:15.099,31 Mar 2025 00:50:18.750,603.652
449,31 Mar 2025 10:40:54.574,31 Mar 2025 10:42:05.151,70.576
450,31 Mar 2025 12:10:18.878,31 Mar 2025 12:21:45.241,686.363
451,31 Mar 2025 13:44:56.647,31 Mar 2025 13:53:49.054,532.407
452,31 Mar 2025 22:47:44.800,31 Mar 2025 22:57:56.737,611.938
453,1 Apr 2025 00:20:59.951,1 Apr 2025 00:31:55.605,655.654
454,1 Apr 2025 11:51:45.822,1 Apr 2025 12:02:46.255,660.433
455,1 Apr 2025 13:25:48.938,1 Apr 2025 13:35:53.577,604.639
456,1 Apr 2025 22:29:47.227,1 Apr 2025 22:38:50.325,543.098
457,2 Apr 2025 00:01:59.312,2 Apr 2025 00:13:23.512,684.199
458,2 Apr 2025 11:33:21.377,2 Apr 2025 11:43:33.113,611.736
459,2 Apr 2025 13:06:50.057,2 Apr 2025 13:17:43.105,653.048
460,2 Apr 2025 22:12:09.096,2 Apr 2025 22:19:30.890,441.794
461,2 Apr 2025 23:43:11.157,2 Apr 2025 23:54:44.425,693.268
462,3 Apr 2025 01:20:08.436,3 Apr 2025 01:26:26.079,377.642
463,3 Apr 2025 11:15:09.389,3 Apr 2025 11:24:01.845,532.456
464,3 Apr 2025 12:47:57.982,3 Apr 2025 12:59:19.949,681.967
465,3 Apr 2025 14:24:27.965,3 Apr 2025 14:28:30.269,242.305
466,3 Apr 2025 21:55:06.328,3 Apr 2025 21:59:42.888,276.560
467,3 Apr 2025 23:24:34.677,3 Apr 2025 23:35:59.218,684.541
468,4 Apr 2025 01:00:03.088,4 Apr 2025 01:08:41.376,518.287
469,4 Apr 2025 10:57:19.798,4 Apr 2025 11:04:02.231,402.433
470,4 Apr 2025 12:29:11.955,4 Apr 2025 12:40:45.056,693.102
471,4 Apr 2025 14:04:32.138,4 Apr 2025 14:11:36.277,424.138
472,4 Apr 2025 23:06:09.861,4 Apr 2025 23:17:08.002,658.141
473,5 Apr 2025 00:40:28.767,5 Apr 2025 00:50:31.642,602.875
474,5 Apr 2025 10:41:01.363,5 Apr 2025 10:42:25.129,83.766
475,5 Apr 2025 12:10:31.993,5 Apr 2025 12:21:58.544,686.550
476,5 Apr 2025 13:45:10.196,5 Apr 2025 13:54:01.579,531.382
477,5 Apr 2025 22:47:57.549,5 Apr 2025 22:58:10.145,612.597
478,6 Apr 2025 00:21:13.428,6 Apr 2025 00:32:08.620,655.192
479,6 Apr 2025 11:51:58.849,6 Apr 2025 12:02:59.708,660.859
480,6 Apr 2025 13:26:02.362,6 Apr 2025 13:36:06.300,603.939
481,6 Apr 2025 22:29:59.783,6 Apr 2025 22:39:03.849,544.067
482,7 Apr 2025 00:02:12.630,7 Apr 2025 00:13:36.616,683.986
483,7 Apr 2025 11:33:34.289,7 Apr 2025 11:43:46.755,612.465
484,7 Apr 2025 13:07:03.391,7 Apr 2025 13:17:55.991,652.601
485,7 Apr 2025 22:12:21.374,7 Apr 2025 22:19:44.615,443.241
486,7 Apr 2025 23:43:24.340,7 Apr 2025 23:54:57.604,693.263
487,8 Apr 2025 01:20:22.892,8 Apr 2025 01:26:38.318,375.425
488,8 Apr 2025 11:15:22.114,8 Apr 2025 11:24:15.734,533.621
489,8 Apr 2025 12:48:11.242,8 Apr 2025 12:59:32.974,681.732
490,8 Apr 2025 14:24:42.514,8 Apr 2025 14:28:41.633,239.119
491,8 Apr 2025 21:55:17.945,8 Apr 2025 21:59:57.194,279.249
492,8 Apr 2025 23:24:47.722,8 Apr 2025 23:36:12.467,684.745
493,9 Apr 2025 01:00:17.025,9 Apr 2025 01:08:54.064,517.039
494,9 Apr 2025 10:57:32.137,9 Apr 2025 11:04:16.572,404.435
495,9 Apr 2025 12:29:25.144,9 Apr 2025 12:40:58.216,693.072
496,9 Apr 2025 14:04:45.915,9 Apr 2025 14:11:48.493,422.578
497,9 Apr 2025 23:06:22.766,9 Apr 2025 23:17:21.319,658.553
498,10 Apr 2025 00:40:42.434,10 Apr 2025 00:50:44.530,602.096
499,10 Apr 2025 10:41:09.075,10 Apr 2025 10:42:44.176,95.102
500,10 Apr 2025 12:10:45.109,10 Apr 2025 12:22:11.845,686.737
501,10 Apr 2025 13:45:23.747,10 Apr 2025 13:54:14.101,530.354
502,10 Apr 2025 22:48:10.294,10 Apr 2025 22:58:23.549,613.255
503,11 Apr 2025 00:21:26.907,11 Apr 2025 00:32:21.632,654.725
504,11 Apr 2025 11:52:11.877,11 Apr 2025 12:03:13.162,661.285
505,11 Apr 2025 13:26:15.786,11 Apr 2025 13:36:19.022,603.236
506,11 Apr 2025 22:30:12.343,11 Apr 2025 22:39:17.373,545.031
507,12 Apr 2025 00:02:25.953,12 Apr 2025 00:13:49.720,683.766
508,12 Apr 2025 11:33:47.196,12 Apr 2025 11:44:00.390,613.194
509,12 Apr 2025 13:07:16.726,12 Apr 2025 13:18:08.868,652.142
510,12 Apr 2025 22:12:33.656,12 Apr 2025 22:19:58.341,444.685
511,12 Apr 2025 23:43:37.525,12 Apr 2025 23:55:10.783,693.258
512,13 Apr 2025 01:20:37.364,13 Apr 2025 01:26:50.547,373.183
513,13 Apr 2025 11:15:34.842,13 Apr 2025 11:24:29.621,534.779
514,13 Apr 2025 12:48:24.503,13 Apr 2025 12:59:45.998,681.495
515,13 Apr 2025 14:24:57.083,13 Apr 2025 14:28:52.975,235.892
516,13 Apr 2025 21:55:29.576,13 Apr 2025 22:00:11.488,281.912
517,13 Apr 2025 23:25:00.770,13 Apr 2025 23:36:25.717,684.946
518,14 Apr 2025 01:00:30.968,14 Apr 2025 01:09:06.750,515.782
519,14 Apr 2025 10:57:44.486,14 Apr 2025 11:04:30.911,406.425
520,14 Apr 2025 12:29:38.336,14 Apr 2025 12:41:11.377,693.040
521,14 Apr 2025 14:04:59.697,14 Apr 2025 14:12:00.707,421.010
522,14 Apr 2025 23:06:35.675,14 Apr 2025 23:17:34.646,658.971
523,15 Apr 2025 00:40:56.107,15 Apr 2025 00:50:57.417,601.310
524,15 Apr 2025 10:41:17.407,15 Apr 2025 10:43:02.608,105.201
525,15 Apr 2025 12:10:58.227,15 Apr 2025 12:22:25.145,686.918
526,15 Apr 2025 13:45:37.303,15 Apr 2025 13:54:26.622,529.319
527,15 Apr 2025 22:48:23.047,15 Apr 2025 22:58:36.957,613.910
528,16 Apr 2025 00:21:40.389,16 Apr 2025 00:32:34.645,654.255
529,16 Apr 2025 11:52:24.908,16 Apr 2025 12:03:26.614,661.706
530,16 Apr 2025 13:26:29.208,16 Apr 2025 13:36:31.743,602.535
531,16 Apr 2025 22:30:24.906,16 Apr 2025 22:39:30.897,545.991
532,17 Apr 2025 00:02:39.279,17 Apr 2025 00:14:02.824,683.544
533,17 Apr 2025 11:34:00.110,17 Apr 2025 11:44:14.025,613.915
534,17 Apr 2025 13:07:30.064,17 Apr 2025 13:18:21.750,651.687
535,17 Apr 2025 22:12:45.944,17 Apr 2025 22:20:12.062,446.118
536,17 Apr 2025 23:43:50.709,17 Apr 2025 23:55:23.963,693.254
537,18 Apr 2025 01:20:51.847,18 Apr 2025 01:27:02.769,370.922
538,18 Apr 2025 11:15:47.573,18 Apr 2025 11:24:43.502,535.929
539,18 Apr 2025 12:48:37.766,18 Apr 2025 12:59:59.021,681.255
540,18 Apr 2025 14:25:11.680,18 Apr 2025 14:29:04.290,232.610
541,18 Apr 2025 21:55:41.224,18 Apr 2025 22:00:25.767,284.543
542,18 Apr 2025 23:25:13.821,18 Apr 2025 23:36:38.966,685.145
543,19 Apr 2025 01:00:44.915,19 Apr 2025 01:09:19.434,514.519
544,19 Apr 2025 10:57:56.843,19 Apr 2025 11:04:45.243,408.400
545,19 Apr 2025 12:29:51.529,19 Apr 2025 12:41:24.538,693.009
546,19 Apr 2025 14:05:13.484,19 Apr 2025 14:12:12.915,419.431
547,19 Apr 2025 23:06:48.585,19 Apr 2025 23:17:47.967,659.382
548,20 Apr 2025 00:41:09.783,20 Apr 2025 00:51:10.304,600.520
549,20 Apr 2025 10:41:26.188,20 Apr 2025 10:43:20.590,114.402
550,20 Apr 2025 12:11:11.345,20 Apr 2025 12:22:38.442,687.097
551,20 Apr 2025 13:45:50.859,20 Apr 2025 13:54:39.139,528.279
552,20 Apr 2025 22:48:35.804,20 Apr 2025 22:58:50.365,614.561
553,21 Apr 2025 00:21:53.876,21 Apr 2025 00:32:47.656,653.780
554,21 Apr 2025 11:52:37.938,21 Apr 2025 12:03:40.065,662.127
555,21 Apr 2025 13:26:42.636,21 Apr 2025 13:36:44.462,601.825
556,21 Apr 2025 22:30:37.472,21 Apr 2025 22:39:44.418,546.945
557,22 Apr 2025 00:02:52.606,22 Apr 2025 00:14:15.926,683.320
558,22 Apr 2025 11:34:13.025,22 Apr 2025 11:44:27.656,614.631
559,22 Apr 2025 13:07:43.402,22 Apr 2025 13:18:34.630,651.229
560,22 Apr 2025 22:12:58.235,22 Apr 2025 22:20:25.781,447.546
561,22 Apr 2025 23:44:03.896,22 Apr 2025 23:55:37.141,693.244
562,23 Apr 2025 01:21:06.339,23 Apr 2025 01:27:14.981,368.642
563,23 Apr 2025 11:16:00.302,23 Apr 2025 11:24:57.382,537.079
564,23 Apr 2025 12:48:51.029,23 Apr 2025 13:00:12.042,681.012
565,23 Apr 2025 14:25:26.300,23 Apr 2025 14:29:15.579,229.279
566,23 Apr 2025 21:55:52.886,23 Apr 2025 22:00:40.032,287.146
567,23 Apr 2025 23:25:26.871,23 Apr 2025 23:36:52.213,685.342
568,24 Apr 2025 01:00:58.865,24 Apr 2025 01:09:32.113,513.248
569,24 Apr 2025 10:58:09.206,24 Apr 2025 11:04:59.566,410.359
570,24 Apr 2025 12:30:04.722,24 Apr 2025 12:41:37.695,692.973
571,24 Apr 2025 14:05:27.273,24 Apr 2025 14:12:25.117,417.844
572,24 Apr 2025 23:07:01.496,24 Apr 2025 23:18:01.286,659.790
573,25 Apr 2025 00:41:23.461,25 Apr 2025 00:51:23.187,599.726
574,25 Apr 2025 10:41:35.331,25 Apr 2025 10:43:38.212,122.881
575,25 Apr 2025 12:11:24.464,25 Apr 2025 12:22:51.737,687.273
576,25 Apr 2025 13:46:04.416,25 Apr 2025 13:54:51.653,527.237
577,25 Apr 2025 22:48:48.559,25 Apr 2025 22:59:03.768,615.209
578,26 Apr 2025 00:22:07.359,26 Apr 2025 00:33:00.665,653.306
579,26 Apr 2025 11:52:50.966,26 Apr 2025 12:03:53.513,662.547
580,26 Apr 2025 13:26:56.065,26 Apr 2025 13:36:57.174,601.109
581,26 Apr 2025 22:30:50.038,26 Apr 2025 22:39:57.936,547.897
582,27 Apr 2025 00:03:05.935,27 Apr 2025 00:14:29.027,683.092
583,27 Apr 2025 11:34:25.940,27 Apr 2025 11:44:41.281,615.341
584,27 Apr 2025 13:07:56.741,27 Apr 2025 13:18:47.507,650.766
585,27 Apr 2025 22:13:10.535,27 Apr 2025 22:20:39.501,448.966
586,27 Apr 2025 23:44:17.083,27 Apr 2025 23:55:50.323,693.240
587,28 Apr 2025 01:21:20.844,28 Apr 2025 01:27:27.182,366.338
588,28 Apr 2025 11:16:13.041,28 Apr 2025 11:25:11.259,538.218
589,28 Apr 2025 12:49:04.295,28 Apr 2025 13:00:25.062,680.767
590,28 Apr 2025 14:25:40.944,28 Apr 2025 14:29:26.842,225.898
591,28 Apr 2025 21:56:04.561,28 Apr 2025 22:00:54.287,289.726
592,28 Apr 2025 23:25:39.925,28 Apr 2025 23:37:05.458,685.533
593,29 Apr 2025 01:01:12.821,29 Apr 2025 01:09:44.790,511.968
594,29 Apr 2025 10:58:21.577,29 Apr 2025 11:05:13.882,412.305
595,29 Apr 2025 12:30:17.918,29 Apr 2025 12:41:50.852,692.934
596,29 Apr 2025 14:05:41.069,29 Apr 2025 14:12:37.317,416.248
597,29 Apr 2025 23:07:14.410,29 Apr 2025 23:18:14.607,660.197
598,30 Apr 2025 00:41:37.144,30 Apr 2025 00:51:36.070,598.927
599,30 Apr 2025 10:41:44.756,30 Apr 2025 10:43:55.556,130.800
600,30 Apr 2025 12:11:37.583,30 Apr 2025 12:23:05.029,687.446
601,30 Apr 2025 13:46:17.974,30 Apr 2025 13:55:04.166,526.192
602,30 Apr 2025 22:49:01.324,30 Apr 2025 22:59:17.174,615.851
603,1 May 2025 00:22:20.850,1 May 2025 00:33:13.675,652.825
604,1 May 2025 11:53:04.001,1 May 2025 12:04:06.961,662.960
605,1 May 2025 13:27:09.496,1 May 2025 13:37:09.890,600.393
606,1 May 2025 22:31:02.611,1 May 2025 22:40:11.457,548.846
607,2 May 2025 00:03:19.268,2 May 2025 00:14:42.130,682.862
608,2 May 2025 11:34:38.859,2 May 2025 11:44:54.912,616.052
609,2 May 2025 13:08:10.082,2 May 2025 13:19:00.384,650.302
610,2 May 2025 22:13:22.835,2 May 2025 22:20:53.214,450.379
611,2 May 2025 23:44:30.274,2 May 2025 23:56:03.500,693.227
612,3 May 2025 01:21:35.360,3 May 2025 01:27:39.376,364.016
613,3 May 2025 11:16:25.782,3 May 2025 11:25:25.134,539.352
614,3 May 2025 12:49:17.561,3 May 2025 13:00:38.081,680.520
615,3 May 2025 14:25:55.622,3 May 2025 14:29:38.075,222.452
616,3 May 2025 21:56:16.252,3 May 2025 22:01:08.527,292.274
617,3 May 2025 23:25:52.981,3 May 2025 23:37:18.705,685.724
618,4 May 2025 01:01:26.781,4 May 2025 01:09:57.469,510.687
619,4 May 2025 10:58:33.953,4 May 2025 11:05:28.190,414.238
620,4 May 2025 12:30:31.114,4 May 2025 12:42:04.006,692.892
621,4 May 2025 14:05:54.870,4 May 2025 14:12:49.510,414.639
622,4 May 2025 23:07:27.326,4 May 2025 23:18:27.926,660.600
623,5 May 2025 00:41:50.827,5 May 2025 00:51:48.951,598.124
624,5 May 2025 10:41:54.412,5 May 2025 10:44:12.660,138.248
625,5 May 2025 12:11:50.704,5 May 2025 12:23:18.322,687.617
626,5 May 2025 13:46:31.536,5 May 2025 13:55:16.675,525.138
627,5 May 2025 22:49:14.085,5 May 2025 22:59:30.577,616.492
628,6 May 2025 00:22:34.343,6 May 2025 00:33:26.682,652.340
629,6 May 2025 11:53:17.036,6 May 2025 12:04:20.401,663.365
630,6 May 2025 13:27:22.931,6 May 2025 13:37:22.606,599.675
631,6 May 2025 22:31:15.185,6 May 2025 22:40:24.974,549.789
632,7 May 2025 00:03:32.600,7 May 2025 00:14:55.229,682.629
633,7 May 2025 11:34:51.779,7 May 2025 11:45:08.538,616.759
634,7 May 2025 13:08:23.423,7 May 2025 13:19:13.259,649.837
635,7 May 2025 22:13:35.134,7 May 2025 22:21:06.921,451.787
636,7 May 2025 23:44:43.468,7 May 2025 23:56:16.672,693.204
637,8 May 2025 01:21:49.886,8 May 2025 01:27:51.555,361.669
638,8 May 2025 11:16:38.526,8 May 2025 11:25:39.001,540.475
639,8 May 2025 12:49:30.830,8 May 2025 13:00:51.093,680.263
640,8 May 2025 14:26:10.325,8 May 2025 14:29:49.275,218.950
641,8 May 2025 21:56:27.951,8 May 2025 22:01:22.755,294.803
642,8 May 2025 23:26:06.034,8 May 2025 23:37:31.951,685.917
643,9 May 2025 01:01:40.745,9 May 2025 01:10:10.137,509.392
644,9 May 2025 10:58:46.337,9 May 2025 11:05:42.490,416.153
645,9 May 2025 12:30:44.311,9 May 2025 12:42:17.159,692.848
646,9 May 2025 14:06:08.673,9 May 2025 14:13:01.699,413.026
647,9 May 2025 23:07:40.242,9 May 2025 23:18:41.244,661.001
648,10 May 2025 00:42:04.509,10 May 2025 00:52:01.829,597.320
649,10 May 2025 10:42:04.273,10 May 2025 10:44:29.560,145.287
650,10 May 2025 12:12:03.827,10 May 2025 12:23:31.613,687.785
651,10 May 2025 13:46:45.097,10 May 2025 13:55:29.182,524.085
652,10 May 2025 22:49:26.847,10 May 2025 22:59:43.980,617.133
653,11 May 2025 00:22:47.836,11 May 2025 00:33:39.689,651.853
654,11 May 2025 11:53:30.073,11 May 2025 12:04:33.844,663.771
655,11 May 2025 13:27:36.365,11 May 2025 13:37:35.318,598.952
656,11 May 2025 22:31:27.762,11 May 2025 22:40:38.491,550.730
657,12 May 2025 00:03:45.936,12 May 2025 00:15:08.328,682.392
658,12 May 2025 11:35:04.702,12 May 2025 11:45:22.161,617.459
659,12 May 2025 13:08:36.765,12 May 2025 13:19:26.133,649.368
660,12 May 2025 22:13:47.442,12 May 2025 22:21:20.631,453.189
661,12 May 2025 23:44:56.664,12 May 2025 23:56:29.848,693.184
662,13 May 2025 01:22:04.426,13 May 2025 01:28:03.724,359.297
663,13 May 2025 11:16:51.276,13 May 2025 11:25:52.870,541.594
664,13 May 2025 12:49:44.100,13 May 2025 13:01:04.109,680.009
665,13 May 2025 14:26:25.059,13 May 2025 14:30:00.450,215.391
666,13 May 2025 21:56:39.667,13 May 2025 22:01:36.974,297.307
667,13 May 2025 23:26:19.093,13 May 2025 23:37:45.197,686.104
668,14 May 2025 01:01:54.715,14 May 2025 01:10:22.804,508.089
669,14 May 2025 10:58:58.730,14 May 2025 11:05:56.783,418.053
670,14 May 2025 12:30:57.507,14 May 2025 12:42:30.311,692.804
671,14 May 2025 14:06:22.480,14 May 2025 14:13:13.884,411.404
672,14 May 2025 23:07:53.162,14 May 2025 23:18:54.563,661.400
673,15 May 2025 00:42:18.200,15 May 2025 00:52:14.707,596.507
674,15 May 2025 10:42:14.303,15 May 2025 10:44:46.293,151.990
675,15 May 2025 12:12:16.953,15 May 2025 12:23:44.903,687.951
676,15 May 2025 13:46:58.663,15 May 2025 13:55:41.683,523.020
677,15 May 2025 22:49:39.613,15 May 2025 22:59:57.382,617.769
678,16 May 2025 00:23:01.331,16 May 2025 00:33:52.695,651.364
679,16 May 2025 11:53:43.112,16 May 2025 12:04:47.285,664.174
680,16 May 2025 13:27:49.799,16 May 2025 13:37:48.028,598.229
681,16 May 2025 22:31:40.340,16 May 2025 22:40:52.007,551.667
682,17 May 2025 00:03:59.274,17 May 2025 00:15:21.427,682.154
683,17 May 2025 11:35:17.628,17 May 2025 11:45:35.782,618.155
684,17 May 2025 13:08:50.109,17 May 2025 13:19:39.005,648.896
685,17 May 2025 22:13:59.754,17 May 2025 22:21:34.336,454.582
686,17 May 2025 23:45:09.861,17 May 2025 23:56:43.023,693.162
687,18 May 2025 01:22:18.977,18 May 2025 01:28:15.883,356.906
688,18 May 2025 11:17:04.023,18 May 2025 11:26:06.735,542.712
689,18 May 2025 12:49:57.369,18 May 2025 13:01:17.123,679.754
690,18 May 2025 14:26:39.831,18 May 2025 14:30:11.590,211.759
691,18 May 2025 21:56:51.397,18 May 2025 22:01:51.180,299.783
692,18 May 2025 23:26:32.154,18 May 2025 23:37:58.442,686.289
693,19 May 2025 01:02:08.693,19 May 2025 01:10:35.467,506.774
694,19 May 2025 10:59:11.129,19 May 2025 11:06:11.073,419.944
695,19 May 2025 12:31:10.704,19 May 2025 12:42:43.461,692.757
696,19 May 2025 14:06:36.291,19 May 2025 14:13:26.067,409.776
697,19 May 2025 23:08:06.088,19 May 2025 23:19:07.875,661.787
698,20 May 2025 00:42:31.892,20 May 2025 00:52:27.582,595.690
699,20 May 2025 10:42:24.481,20 May 2025 10:45:02.874,158.393
700,20 May 2025 12:12:30.078,20 May 2025 12:23:58.191,688.114
701,20 May 2025 13:47:12.230,20 May 2025 13:55:54.184,521.955
702,20 May 2025 22:49:52.380,20 May 2025 23:00:10.782,618.402
703,21 May 2025 00:23:14.829,21 May 2025 00:34:05.698,650.870
704,21 May 2025 11:53:56.150,21 May 2025 12:05:00.724,664.574
705,21 May 2025 13:28:03.235,21 May 2025 13:38:00.730,597.495
706,21 May 2025 22:31:52.921,21 May 2025 22:41:05.520,552.599
707,22 May 2025 00:04:12.612,22 May 2025 00:15:34.520,681.908
708,22 May 2025 11:35:30.555,22 May 2025 11:45:49.399,618.845
709,22 May 2025 13:09:03.453,22 May 2025 13:19:51.874,648.421
710,22 May 2025 22:14:12.069,22 May 2025 22:21:48.038,455.969
711,22 May 2025 23:45:23.058,22 May 2025 23:56:56.196,693.139
712,23 May 2025 01:22:33.540,23 May 2025 01:28:28.030,354.490
713,23 May 2025 11:17:16.776,23 May 2025 11:26:20.595,543.818
714,23 May 2025 12:50:10.638,23 May 2025 13:01:30.135,679.498
715,23 May 2025 14:26:54.627,23 May 2025 14:30:22.697,208.070
716,23 May 2025 21:57:03.137,23 May 2025 22:02:05.376,302.239
717,23 May 2025 23:26:45.215,23 May 2025 23:38:11.686,686.471
718,24 May 2025 01:02:22.671,24 May 2025 01:10:48.126,505.455
719,24 May 2025 10:59:23.535,24 May 2025 11:06:25.350,421.815
720,24 May 2025 12:31:23.904,24 May 2025 12:42:56.609,692.705
721,24 May 2025 14:06:50.105,24 May 2025 14:13:38.241,408.136
722,24 May 2025 23:08:19.010,24 May 2025 23:19:21.193,662.182
723,25 May 2025 00:42:45.587,25 May 2025 00:52:40.454,594.868
724,25 May 2025 10:42:34.797,25 May 2025 10:45:19.318,164.521
725,25 May 2025 12:12:43.204,25 May 2025 12:24:11.479,688.274
726,25 May 2025 13:47:25.798,25 May 2025 13:56:06.684,520.886
727,25 May 2025 22:50:05.150,25 May 2025 23:00:24.182,619.033
728,26 May 2025 00:23:28.329,26 May 2025 00:34:18.701,650.372
729,26 May 2025 11:54:09.192,26 May 2025 12:05:14.162,664.971
730,26 May 2025 13:28:16.672,26 May 2025 13:38:13.438,596.766
731,26 May 2025 22:32:05.506,26 May 2025 22:41:19.033,553.527
732,27 May 2025 00:04:25.954,27 May 2025 00:15:47.617,681.663
733,27 May 2025 11:35:43.484,27 May 2025 11:46:03.016,619.532
734,27 May 2025 13:09:16.801,27 May 2025 13:20:04.743,647.942
735,27 May 2025 22:14:24.391,27 May 2025 22:22:01.739,457.348
736,27 May 2025 23:45:36.255,27 May 2025 23:57:09.375,693.120
737,28 May 2025 01:22:48.120,28 May 2025 01:28:40.165,352.045
738,28 May 2025 11:17:29.531,28 May 2025 11:26:34.452,544.921
739,28 May 2025 12:50:23.909,28 May 2025 13:01:43.147,679.238
740,28 May 2025 14:27:09.462,28 May 2025 14:30:33.769,204.307
741,28 May 2025 21:57:14.890,28 May 2025 22:02:19.562,304.672
742,28 May 2025 23:26:58.280,28 May 2025 23:38:24.931,686.651
743,29 May 2025 01:02:36.654,29 May 2025 01:11:00.782,504.128
744,29 May 2025 10:59:35.949,29 May 2025 11:06:39.622,423.674
745,29 May 2025 12:31:37.106,29 May 2025 12:43:09.754,692.648
746,29 May 2025 14:07:03.921,29 May 2025 14:13:50.411,406.490
747,29 May 2025 23:08:31.935,29 May 2025 23:19:34.512,662.577
748,30 May 2025 00:42:59.286,30 May 2025 00:52:53.327,594.041
749,30 May 2025 10:42:45.226,30 May 2025 10:45:35.651,170.425
750,30 May 2025 12:12:56.333,30 May 2025 12:24:24.766,688.433
751,30 May 2025 13:47:39.369,30 May 2025 13:56:19.181,519.811
752,30 May 2025 22:50:17.922,30 May 2025 23:00:37.582,619.660
753,31 May 2025 00:23:41.831,31 May 2025 00:34:31.703,649.872
754,31 May 2025 11:54:22.238,31 May 2025 12:05:27.599,665.361
755,31 May 2025 13:28:30.111,31 May 2025 13:38:26.143,596.032
756,31 May 2025 22:32:18.093,31 May 2025 22:41:32.544,554.451
757,1 Jun 2025 00:04:39.299,1 Jun 2025 00:16:00.713,681.414
758,1 Jun 2025 11:35:56.414,1 Jun 2025 11:46:16.630,620.215
759,1 Jun 2025 13:09:30.148,1 Jun 2025 13:20:17.610,647.461
760,1 Jun 2025 22:14:36.716,1 Jun 2025 22:22:15.435,458.719
761,1 Jun 2025 23:45:49.456,1 Jun 2025 23:57:22.548,693.092
762,2 Jun 2025 01:23:02.705,2 Jun 2025 01:28:52.290,349.585
763,2 Jun 2025 11:17:42.289,2 Jun 2025 11:26:48.304,546.015
764,2 Jun 2025 12:50:37.180,2 Jun 2025 13:01:56.157,678.976
765,2 Jun 2025 14:27:24.335,2 Jun 2025 14:30:44.801,200.466
766,2 Jun 2025 21:57:26.656,2 Jun 2025 22:02:33.735,307.080
767,2 Jun 2025 23:27:11.344,2 Jun 2025 23:38:38.173,686.829
768,3 Jun 2025 01:02:50.640,3 Jun 2025 01:11:13.434,502.793
769,3 Jun 2025 10:59:48.367,3 Jun 2025 11:06:53.885,425.519
770,3 Jun 2025 12:31:50.308,3 Jun 2025 12:43:22.898,692.590
771,3 Jun 2025 14:07:17.743,3 Jun 2025 14:14:02.574,404.831
772,3 Jun 2025 23:08:44.861,3 Jun 2025 23:19:47.826,662.965
773,4 Jun 2025 00:43:12.986,4 Jun 2025 00:53:06.195,593.209
774,4 Jun 2025 10:42:55.763,4 Jun 2025 10:45:51.872,176.109
775,4 Jun 2025 12:13:09.461,4 Jun 2025 12:24:38.049,688.588
776,4 Jun 2025 13:47:52.941,4 Jun 2025 13:56:31.674,518.733
777,4 Jun 2025 22:50:30.695,4 Jun 2025 23:00:50.979,620.284
778,5 Jun 2025 00:23:55.334,5 Jun 2025 00:34:44.702,649.368
779,5 Jun 2025 11:54:35.277,5 Jun 2025 12:05:41.030,665.753
780,5 Jun 2025 13:28:43.549,5 Jun 2025 13:38:38.843,595.294
781,5 Jun 2025 22:32:30.680,5 Jun 2025 22:41:46.053,555.373
782,6 Jun 2025 00:04:52.644,6 Jun 2025 00:16:13.807,681.163
783,6 Jun 2025 11:36:09.344,6 Jun 2025 11:46:30.240,620.896
784,6 Jun 2025 13:09:43.496,6 Jun 2025 13:20:30.474,646.977
785,6 Jun 2025 22:14:49.042,6 Jun 2025 22:22:29.129,460.087
786,6 Jun 2025 23:46:02.658,6 Jun 2025 23:57:35.719,693.061
787,7 Jun 2025 01:23:17.310,7 Jun 2025 01:29:04.399,347.089
788,7 Jun 2025 11:17:55.048,7 Jun 2025 11:27:02.153,547.105
789,7 Jun 2025 12:50:50.452,7 Jun 2025 13:02:09.164,678.712
790,7 Jun 2025 14:27:39.242,7 Jun 2025 14:30:55.796,196.553
791,7 Jun 2025 21:57:38.430,7 Jun 2025 22:02:47.901,309.470
792,7 Jun 2025 23:27:24.411,7 Jun 2025 23:38:51.415,687.004
793,8 Jun 2025 01:03:04.632,8 Jun 2025 01:11:26.081,501.449
794,8 Jun 2025 11:00:00.793,8 Jun 2025 11:07:08.140,427.347
795,8 Jun 2025 12:32:03.511,8 Jun 2025 12:43:36.042,692.531
796,8 Jun 2025 14:07:31.569,8 Jun 2025 14:14:14.734,403.164
797,8 Jun 2025 23:08:57.788,8 Jun 2025 23:20:01.140,663.352
798,9 Jun 2025 00:43:26.690,9 Jun 2025 00:53:19.062,592.372
799,9 Jun 2025 10:43:06.398,9 Jun 2025 10:46:07.995,181.597
800,9 Jun 2025 12:13:22.590,9 Jun 2025 12:24:51.330,688.740
801,9 Jun 2025 13:48:06.514,9 Jun 2025 13:56:44.165,517.652
802,9 Jun 2025 22:50:43.470,9 Jun 2025 23:01:04.377,620.907
803,10 Jun 2025 00:24:08.840,10 Jun 2025 00:34:57.698,648.858
804,10 Jun 2025 11:54:48.324,10 Jun 2025 12:05:54.463,666.139
805,10 Jun 2025 13:28:56.989,10 Jun 2025 13:38:51.545,594.556
806,10 Jun 2025 22:32:43.272,10 Jun 2025 22:41:59.562,556.290
807,11 Jun 2025 00:05:05.991,11 Jun 2025 00:16:26.901,680.910
808,11 Jun 2025 11:36:22.279,11 Jun 2025 11:46:43.849,621.570
809,11 Jun 2025 13:09:56.843,11 Jun 2025 13:20:43.337,646.494
810,11 Jun 2025 22:15:01.374,11 Jun 2025 22:22:42.822,461.448
811,11 Jun 2025 23:46:15.862,11 Jun 2025 23:57:48.890,693.027
812,12 Jun 2025 01:23:31.926,12 Jun 2025 01:29:16.498,344.572
813,12 Jun 2025 11:18:07.813,12 Jun 2025 11:27:15.999,548.186
814,12 Jun 2025 12:51:03.725,12 Jun 2025 13:02:22.171,678.446
815,12 Jun 2025 14:27:54.194,12 Jun 2025 14:31:06.747,192.553
816,12 Jun 2025 21:57:50.218,12 Jun 2025 22:03:02.056,311.838
817,12 Jun 2025 23:27:37.480,12 Jun 2025 23:39:04.657,687.177
818,13 Jun 2025 01:03:18.628,13 Jun 2025 01:11:38.725,500.097
819,13 Jun 2025 11:00:13.226,13 Jun 2025 11:07:22.390,429.164
820,13 Jun 2025 12:32:16.715,13 Jun 2025 12:43:49.185,692.470
821,13 Jun 2025 14:07:45.401,13 Jun 2025 14:14:26.888,401.486
822,13 Jun 2025 23:09:10.718,13 Jun 2025 23:20:14.454,663.736
823,14 Jun 2025 00:43:40.397,14 Jun 2025 00:53:31.927,591.530
824,14 Jun 2025 10:43:17.118,14 Jun 2025 10:46:24.033,186.915
825,14 Jun 2025 12:13:35.721,14 Jun 2025 12:25:04.611,688.890
826,14 Jun 2025 13:48:20.089,14 Jun 2025 13:56:56.654,516.564
827,14 Jun 2025 22:50:56.247,14 Jun 2025 23:01:17.773,621.526
828,15 Jun 2025 00:24:22.348,15 Jun 2025 00:35:10.696,648.347
829,15 Jun 2025 11:55:01.372,15 Jun 2025 12:06:07.892,666.521
830,15 Jun 2025 13:29:10.426,15 Jun 2025 13:39:04.243,593.817
831,15 Jun 2025 22:32:55.866,15 Jun 2025 22:42:13.069,557.203
832,16 Jun 2025 00:05:19.340,16 Jun 2025 00:16:39.993,680.653
833,16 Jun 2025 11:36:35.214,16 Jun 2025 11:46:57.455,622.242
834,16 Jun 2025 13:10:10.192,16 Jun 2025 13:20:56.198,646.006
835,16 Jun 2025 22:15:13.709,16 Jun 2025 22:22:56.509,462.801
836,16 Jun 2025 23:46:29.068,16 Jun 2025 23:58:02.059,692.991
837,17 Jun 2025 01:23:46.553,17 Jun 2025 01:29:28.585,342.032
838,17 Jun 2025 11:18:20.579,17 Jun 2025 11:27:29.841,549.262
839,17 Jun 2025 12:51:16.999,17 Jun 2025 13:02:35.175,678.176
840,17 Jun 2025 14:28:09.190,17 Jun 2025 14:31:17.651,188.460
841,17 Jun 2025 21:58:02.016,17 Jun 2025 22:03:16.199,314.183
842,17 Jun 2025 23:27:50.549,17 Jun 2025 23:39:17.897,687.348
843,18 Jun 2025 01:03:32.628,18 Jun 2025 01:11:51.366,498.738
844,18 Jun 2025 11:00:25.663,18 Jun 2025 11:07:36.626,430.963
845,18 Jun 2025 12:32:29.921,18 Jun 2025 12:44:02.325,692.404
846,18 Jun 2025 14:07:59.236,18 Jun 2025 14:14:39.035,399.799
847,18 Jun 2025 23:09:23.649,18 Jun 2025 23:20:27.765,664.117
848,19 Jun 2025 00:43:54.105,19 Jun 2025 00:53:44.784,590.679
849,19 Jun 2025 10:43:27.918,19 Jun 2025 10:46:39.987,192.069
850,19 Jun 2025 12:13:48.852,19 Jun 2025 12:25:17.891,689.039
851,19 Jun 2025 13:48:33.665,19 Jun 2025 13:57:09.138,515.473
852,19 Jun 2025 22:51:09.025,19 Jun 2025 23:01:31.164,622.140
853,20 Jun 2025 00:24:35.857,20 Jun 2025 00:35:23.691,647.833
854,20 Jun 2025 11:55:14.418,20 Jun 2025 12:06:21.321,666.903
855,20 Jun 2025 13:29:23.867,20 Jun 2025 13:39:16.937,593.070
856,20 Jun 2025 22:33:08.459,20 Jun 2025 22:42:26.573,558.115
857,21 Jun 2025 00:05:32.688,21 Jun 2025 00:16:53.083,680.395
858,21 Jun 2025 11:36:48.150,21 Jun 2025 11:47:11.058,622.908
859,21 Jun 2025 13:10:23.542,21 Jun 2025 13:21:09.057,645.515
860,21 Jun 2025 22:15:26.046,21 Jun 2025 22:23:10.195,464.149
861,21 Jun 2025 23:46:42.275,21 Jun 2025 23:58:15.228,692.953
862,22 Jun 2025 01:24:01.194,22 Jun 2025 01:29:40.656,339.462
863,22 Jun 2025 11:18:33.349,22 Jun 2025 11:27:43.678,550.330
864,22 Jun 2025 12:51:30.273,22 Jun 2025 13:02:48.182,677.910
865,22 Jun 2025 14:28:24.225,22 Jun 2025 14:31:28.512,184.286
866,22 Jun 2025 21:58:13.824,22 Jun 2025 22:03:30.335,316.511
867,22 Jun 2025 23:28:03.620,22 Jun 2025 23:39:31.136,687.516
868,23 Jun 2025 01:03:46.633,23 Jun 2025 01:12:04.001,497.368
869,23 Jun 2025 11:00:38.105,23 Jun 2025 11:07:50.860,432.755
870,23 Jun 2025 12:32:43.125,23 Jun 2025 12:44:15.464,692.339
871,23 Jun 2025 14:08:13.075,23 Jun 2025 14:14:51.178,398.104
872,23 Jun 2025 23:09:36.581,23 Jun 2025 23:20:41.077,664.496
873,24 Jun 2025 00:44:07.817,24 Jun 2025 00:53:57.644,589.827
874,24 Jun 2025 10:43:38.796,24 Jun 2025 10:46:55.866,197.070
875,24 Jun 2025 12:14:01.985,24 Jun 2025 12:25:31.168,689.183
876,24 Jun 2025 13:48:47.244,24 Jun 2025 13:57:21.622,514.378
877,24 Jun 2025 22:51:21.806,24 Jun 2025 23:01:44.559,622.754
878,25 Jun 2025 00:24:49.366,25 Jun 2025 00:35:36.685,647.319
879,25 Jun 2025 11:55:27.466,25 Jun 2025 12:06:34.749,667.283
880,25 Jun 2025 13:29:37.310,25 Jun 2025 13:39:29.631,592.321
881,25 Jun 2025 22:33:21.058,25 Jun 2025 22:42:40.079,559.021
882,26 Jun 2025 00:05:46.040,26 Jun 2025 00:17:06.174,680.133
883,26 Jun 2025 11:37:01.090,26 Jun 2025 11:47:24.658,623.568
884,26 Jun 2025 13:10:36.893,26 Jun 2025 13:21:21.915,645.022
885,26 Jun 2025 22:15:38.389,26 Jun 2025 22:23:23.879,465.490
886,26 Jun 2025 23:46:55.484,26 Jun 2025 23:58:28.396,692.912
887,27 Jun 2025 01:24:15.850,27 Jun 2025 01:29:52.716,336.866
888,27 Jun 2025 11:18:46.121,27 Jun 2025 11:27:57.514,551.393
889,27 Jun 2025 12:51:43.549,27 Jun 2025 13:03:01.184,677.636
890,27 Jun 2025 14:28:39.319,27 Jun 2025 14:31:39.317,179.998
891,27 Jun 2025 21:58:25.644,27 Jun 2025 22:03:44.460,318.816
892,27 Jun 2025 23:28:16.694,27 Jun 2025 23:39:44.375,687.681
893,28 Jun 2025 01:04:00.642,28 Jun 2025 01:12:16.631,495.989
894,28 Jun 2025 11:00:50.556,28 Jun 2025 11:08:05.089,434.533
895,28 Jun 2025 12:32:56.331,28 Jun 2025 12:44:28.601,692.271
896,28 Jun 2025 14:08:26.919,28 Jun 2025 14:15:03.315,396.396
897,28 Jun 2025 23:09:49.516,28 Jun 2025 23:20:54.388,664.872
898,29 Jun 2025 00:44:21.532,29 Jun 2025 00:54:10.503,588.971
899,29 Jun 2025 10:43:49.738,29 Jun 2025 10:47:11.678,201.940
900,29 Jun 2025 12:14:15.121,29 Jun 2025 12:25:44.443,689.322
901,29 Jun 2025 13:49:00.825,29 Jun 2025 13:57:34.101,513.276
902,29 Jun 2025 22:51:34.588,29 Jun 2025 23:01:57.952,623.364
903,30 Jun 2025 00:25:02.879,30 Jun 2025 00:35:49.678,646.798
904,30 Jun 2025 11:55:40.516,30 Jun 2025 12:06:48.172,667.657
905,30 Jun 2025 13:29:50.754,30 Jun 2025 13:39:42.322,591.568
906,30 Jun 2025 22:33:33.658,30 Jun 2025 22:42:53.580,559.922
907,1 Jul 2025 00:05:59.393,1 Jul 2025 00:17:19.262,679.870
908,1 Jul 2025 11:37:14.029,1 Jul 2025 11:47:38.256,624.227
909,1 Jul 2025 13:10:50.243,1 Jul 2025 13:21:34.770,644.527
910,1 Jul 2025 22:15:50.734,1 Jul 2025 22:23:37.559,466.825
911,1 Jul 2025 23:47:08.694,1 Jul 2025 23:58:41.562,692.868
912,2 Jul 2025 01:24:30.517,2 Jul 2025 01:30:04.761,334.244
913,2 Jul 2025 11:18:58.895,2 Jul 2025 11:28:11.344,552.449
914,2 Jul 2025 12:51:56.820,2 Jul 2025 13:03:14.183,677.363
915,2 Jul 2025 14:28:54.464,2 Jul 2025 14:31:50.066,175.602
916,2 Jul 2025 21:58:37.472,2 Jul 2025 22:03:58.575,321.102
917,2 Jul 2025 23:28:29.767,2 Jul 2025 23:39:57.612,687.844
918,3 Jul 2025 01:04:14.651,3 Jul 2025 01:12:29.257,494.606
919,3 Jul 2025 11:01:03.012,3 Jul 2025 11:08:19.308,436.296
920,3 Jul 2025 12:33:09.535,3 Jul 2025 12:44:41.736,692.200
921,3 Jul 2025 14:08:40.766,3 Jul 2025 14:15:15.446,394.680
922,3 Jul 2025 23:10:02.450,3 Jul 2025 23:21:07.696,665.246
923,4 Jul 2025 00:44:35.248,4 Jul 2025 00:54:23.358,588.110
924,4 Jul 2025 10:44:00.746,4 Jul 2025 10:47:27.422,206.676
925,4 Jul 2025 12:14:28.255,4 Jul 2025 12:25:57.715,689.461
926,4 Jul 2025 13:49:14.405,4 Jul 2025 13:57:46.577,512.172
927,4 Jul 2025 22:51:47.370,4 Jul 2025 23:02:11.345,623.974
928,5 Jul 2025 00:25:16.394,5 Jul 2025 00:36:02.667,646.274
929,5 Jul 2025 11:55:53.565,5 Jul 2025 12:07:01.589,668.024
930,5 Jul 2025 13:30:04.198,5 Jul 2025 13:39:55.010,590.812
931,5 Jul 2025 22:33:46.259,5 Jul 2025 22:43:07.080,560.821
932,6 Jul 2025 00:06:12.746,6 Jul 2025 00:17:32.349,679.602
933,6 Jul 2025 11:37:26.970,6 Jul 2025 11:47:51.853,624.883
934,6 Jul 2025 13:11:03.590,6 Jul 2025 13:21:47.620,644.030
935,6 Jul 2025 22:16:03.083,6 Jul 2025 22:23:51.235,468.152
936,6 Jul 2025 23:47:21.905,6 Jul 2025 23:58:54.723,692.818
937,7 Jul 2025 01:24:45.200,7 Jul 2025 01:30:16.791,331.591
938,7 Jul 2025 11:19:11.673,7 Jul 2025 11:28:25.168,553.495
939,7 Jul 2025 12:52:10.095,7 Jul 2025 13:03:27.180,677.085
940,7 Jul 2025 14:29:09.664,7 Jul 2025 14:32:00.759,171.095
941,7 Jul 2025 21:58:49.310,7 Jul 2025 22:04:12.682,323.372
942,7 Jul 2025 23:28:42.842,7 Jul 2025 23:40:10.848,688.006
943,8 Jul 2025 01:04:28.669,8 Jul 2025 01:12:41.880,493.210
944,8 Jul 2025 11:01:15.475,8 Jul 2025 11:08:33.520,438.045
945,8 Jul 2025 12:33:22.742,8 Jul 2025 12:44:54.869,692.127
946,8 Jul 2025 14:08:54.617,8 Jul 2025 14:15:27.573,392.956
947,8 Jul 2025 23:10:15.384,8 Jul 2025 23:21:21.005,665.621
948,9 Jul 2025 00:44:48.971,9 Jul 2025 00:54:36.210,587.239
949,9 Jul 2025 10:44:11.814,9 Jul 2025 10:47:43.107,211.293
950,9 Jul 2025 12:14:41.389,9 Jul 2025 12:26:10.986,689.597
951,9 Jul 2025 13:49:27.990,9 Jul 2025 13:57:59.052,511.062
952,9 Jul 2025 22:52:00.152,9 Jul 2025 23:02:24.737,624.585
953,10 Jul 2025 00:25:29.912,10 Jul 2025 00:36:15.657,645.745
954,10 Jul 2025 11:56:06.613,10 Jul 2025 12:07:15.011,668.398
955,10 Jul 2025 13:30:17.644,10 Jul 2025 13:40:07.693,590.049
956,10 Jul 2025 22:33:58.862,10 Jul 2025 22:43:20.580,561.718
957,11 Jul 2025 00:06:26.103,11 Jul 2025 00:17:45.435,679.332
958,11 Jul 2025 11:37:39.913,11 Jul 2025 11:48:05.448,625.535
959,11 Jul 2025 13:11:16.942,11 Jul 2025 13:22:00.472,643.530
960,11 Jul 2025 22:16:15.435,11 Jul 2025 22:24:04.911,469.476
961,11 Jul 2025 23:47:35.121,11 Jul 2025 23:59:07.888,692.767
962,12 Jul 2025 01:24:59.897,12 Jul 2025 01:30:28.808,328.911
963,12 Jul 2025 11:19:24.453,12 Jul 2025 11:28:38.993,554.540
964,12 Jul 2025 12:52:23.372,12 Jul 2025 13:03:40.176,676.804
965,12 Jul 2025 14:29:24.931,12 Jul 2025 14:32:11.384,166.453
966,12 Jul 2025 21:59:01.159,12 Jul 2025 22:04:26.780,325.621
967,12 Jul 2025 23:28:55.920,12 Jul 2025 23:40:24.085,688.165
968,13 Jul 2025 01:04:42.692,13 Jul 2025 01:12:54.500,491.808
969,13 Jul 2025 11:01:27.943,13 Jul 2025 11:08:47.727,439.784
970,13 Jul 2025 12:33:35.949,13 Jul 2025 12:45:08.003,692.054
971,13 Jul 2025 14:09:08.474,13 Jul 2025 14:15:39.692,391.218
972,13 Jul 2025 23:10:28.322,13 Jul 2025 23:21:34.312,665.990
973,14 Jul 2025 00:45:02.689,14 Jul 2025 00:54:49.062,586.372
974,14 Jul 2025 10:44:22.934,14 Jul 2025 10:47:58.739,215.805
975,14 Jul 2025 12:14:54.525,14 Jul 2025 12:26:24.254,689.730
976,14 Jul 2025 13:49:41.575,14 Jul 2025 13:58:11.522,509.947
977,14 Jul 2025 22:52:12.938,14 Jul 2025 23:02:38.125,625.187
978,15 Jul 2025 00:25:43.430,15 Jul 2025 00:36:28.644,645.214
