3UCubedIntegratedSim/Reports & Plots/Comms/SSU/Sat5 Comms.csv

"Access","Start Time (UTCG)","Stop Time (UTCG)","Duration (sec)"
1,1 Jan 2025 23:59:07.347,1 Jan 2025 23:59:59.993,52.645
2,1 Jan 2025 23:59:59.993,2 Jan 2025 00:09:50.352,590.360
3,2 Jan 2025 01:33:01.603,2 Jan 2025 01:43:27.811,626.209
4,2 Jan 2025 13:03:22.138,2 Jan 2025 13:14:41.191,679.053
5,2 Jan 2025 14:37:46.559,2 Jan 2025 14:47:09.217,562.658
6,2 Jan 2025 23:41:00.301,2 Jan 2025 23:50:49.550,589.249
7,3 Jan 2025 01:13:52.215,3 Jan 2025 01:25:00.996,668.781
8,3 Jan 2025 12:44:52.025,3 Jan 2025 12:55:37.207,645.182
9,3 Jan 2025 14:18:42.517,3 Jan 2025 14:29:07.738,625.221
10,3 Jan 2025 23:23:09.166,3 Jan 2025 23:31:39.065,509.899
11,4 Jan 2025 00:54:56.399,4 Jan 2025 01:06:26.131,689.732
12,4 Jan 2025 02:33:21.807,4 Jan 2025 02:36:57.805,215.998
13,4 Jan 2025 12:26:31.615,4 Jan 2025 12:36:17.934,586.320
14,4 Jan 2025 13:59:46.335,4 Jan 2025 14:10:52.342,666.007
15,4 Jan 2025 23:05:41.009,4 Jan 2025 23:12:12.156,391.148
16,5 Jan 2025 00:36:12.655,5 Jan 2025 00:47:44.704,692.049
17,5 Jan 2025 02:12:32.879,5 Jan 2025 02:19:52.733,439.854
18,5 Jan 2025 12:08:26.188,5 Jan 2025 12:16:37.914,491.726
19,5 Jan 2025 13:40:56.565,5 Jan 2025 13:52:24.740,688.175
20,5 Jan 2025 15:16:53.812,5 Jan 2025 15:22:19.576,325.765
21,5 Jan 2025 22:49:09.375,5 Jan 2025 22:51:55.644,166.269
22,6 Jan 2025 00:17:40.490,6 Jan 2025 00:28:57.278,676.788
23,6 Jan 2025 01:52:41.630,6 Jan 2025 02:01:56.215,554.584
24,6 Jan 2025 11:50:51.919,6 Jan 2025 11:56:20.666,328.747
25,6 Jan 2025 13:22:12.763,6 Jan 2025 13:33:45.534,692.770
26,6 Jan 2025 14:57:15.708,6 Jan 2025 15:05:05.268,469.559
27,6 Jan 2025 23:59:20.193,6 Jan 2025 23:59:59.992,39.799
28,6 Jan 2025 23:59:59.992,7 Jan 2025 00:10:03.703,603.711
29,7 Jan 2025 01:33:15.190,7 Jan 2025 01:43:40.750,625.560
30,7 Jan 2025 13:03:35.221,7 Jan 2025 13:14:54.545,679.324
31,7 Jan 2025 14:38:00.051,7 Jan 2025 14:47:21.822,561.772
32,7 Jan 2025 23:41:12.981,7 Jan 2025 23:51:02.996,590.015
33,8 Jan 2025 01:14:05.628,8 Jan 2025 01:25:14.043,668.415
34,8 Jan 2025 12:45:05.011,8 Jan 2025 12:55:50.722,645.711
35,8 Jan 2025 14:18:55.905,8 Jan 2025 14:29:20.523,624.617
36,8 Jan 2025 23:23:21.631,8 Jan 2025 23:31:52.649,511.018
37,9 Jan 2025 00:55:09.665,9 Jan 2025 01:06:39.262,689.598
38,9 Jan 2025 02:33:37.434,9 Jan 2025 02:37:08.918,211.484
39,9 Jan 2025 12:26:44.464,9 Jan 2025 12:36:31.652,587.188
40,9 Jan 2025 13:59:59.638,9 Jan 2025 14:11:05.277,665.640
41,9 Jan 2025 23:05:53.123,9 Jan 2025 23:12:26.012,392.889
42,10 Jan 2025 00:36:25.782,10 Jan 2025 00:47:57.908,692.126
43,10 Jan 2025 02:12:47.078,10 Jan 2025 02:20:05.200,438.122
44,10 Jan 2025 12:08:38.806,10 Jan 2025 12:16:51.932,493.126
45,10 Jan 2025 13:41:09.798,10 Jan 2025 13:52:37.813,688.015
46,10 Jan 2025 15:17:07.899,10 Jan 2025 15:22:31.422,323.524
47,10 Jan 2025 22:49:19.993,10 Jan 2025 22:52:10.915,170.923
48,11 Jan 2025 00:17:53.482,11 Jan 2025 00:29:10.547,677.065
49,11 Jan 2025 01:52:55.451,11 Jan 2025 02:02:08.989,553.538
50,11 Jan 2025 11:51:03.936,11 Jan 2025 11:56:35.358,331.422
51,11 Jan 2025 13:22:25.923,11 Jan 2025 13:33:58.742,692.819
52,11 Jan 2025 14:57:29.376,11 Jan 2025 15:05:17.617,468.241
53,11 Jan 2025 23:59:33.040,11 Jan 2025 23:59:59.992,26.952
54,11 Jan 2025 23:59:59.992,12 Jan 2025 00:10:17.049,617.057
55,12 Jan 2025 01:33:28.779,12 Jan 2025 01:43:53.685,624.906
56,12 Jan 2025 13:03:48.302,12 Jan 2025 13:15:07.895,679.593
57,12 Jan 2025 14:38:13.543,12 Jan 2025 14:47:34.423,560.880
58,12 Jan 2025 23:41:25.663,12 Jan 2025 23:51:16.438,590.775
59,13 Jan 2025 01:14:19.042,13 Jan 2025 01:25:27.089,668.046
60,13 Jan 2025 12:45:17.996,13 Jan 2025 12:56:04.234,646.237
61,13 Jan 2025 14:19:09.286,13 Jan 2025 14:29:33.304,624.018
62,13 Jan 2025 23:23:34.098,13 Jan 2025 23:32:06.229,512.130
63,14 Jan 2025 00:55:22.930,14 Jan 2025 01:06:52.391,689.461
64,14 Jan 2025 02:33:53.114,14 Jan 2025 02:37:19.977,206.863
65,14 Jan 2025 12:26:57.314,14 Jan 2025 12:36:45.366,588.052
66,14 Jan 2025 14:00:12.940,14 Jan 2025 14:11:18.210,665.270
67,14 Jan 2025 23:06:05.242,14 Jan 2025 23:12:39.862,394.620
68,15 Jan 2025 00:36:38.910,15 Jan 2025 00:48:11.109,692.199
69,15 Jan 2025 02:13:01.288,15 Jan 2025 02:20:17.655,436.367
70,15 Jan 2025 12:08:51.428,15 Jan 2025 12:17:05.943,494.516
71,15 Jan 2025 13:41:23.029,15 Jan 2025 13:52:50.884,687.855
72,15 Jan 2025 15:17:21.992,15 Jan 2025 15:22:43.262,321.270
73,15 Jan 2025 22:49:30.670,15 Jan 2025 22:52:26.124,175.454
74,16 Jan 2025 00:18:06.474,16 Jan 2025 00:29:23.818,677.344
75,16 Jan 2025 01:53:09.274,16 Jan 2025 02:02:21.759,552.485
76,16 Jan 2025 11:51:15.971,16 Jan 2025 11:56:50.033,334.063
77,16 Jan 2025 13:22:39.084,16 Jan 2025 13:34:11.945,692.861
78,16 Jan 2025 14:57:43.047,16 Jan 2025 15:05:29.965,466.918
79,16 Jan 2025 23:59:45.888,16 Jan 2025 23:59:59.992,14.103
80,16 Jan 2025 23:59:59.992,17 Jan 2025 00:10:30.398,630.406
81,17 Jan 2025 01:33:42.366,17 Jan 2025 01:44:06.624,624.258
82,17 Jan 2025 13:04:01.386,17 Jan 2025 13:15:21.245,679.859
83,17 Jan 2025 14:38:27.036,17 Jan 2025 14:47:47.022,559.986
84,17 Jan 2025 23:41:38.346,17 Jan 2025 23:51:29.880,591.534
85,18 Jan 2025 01:14:32.459,18 Jan 2025 01:25:40.133,667.674
86,18 Jan 2025 12:45:30.984,18 Jan 2025 12:56:17.744,646.760
87,18 Jan 2025 14:19:22.673,18 Jan 2025 14:29:46.084,623.411
88,18 Jan 2025 23:23:46.569,18 Jan 2025 23:32:19.809,513.240
89,19 Jan 2025 00:55:36.196,19 Jan 2025 01:07:05.520,689.324
90,19 Jan 2025 02:34:08.857,19 Jan 2025 02:37:30.976,202.119
91,19 Jan 2025 12:27:10.168,19 Jan 2025 12:36:59.078,588.910
92,19 Jan 2025 14:00:26.244,19 Jan 2025 14:11:31.142,664.898
93,19 Jan 2025 23:06:17.367,19 Jan 2025 23:12:53.709,396.341
94,20 Jan 2025 00:36:52.042,20 Jan 2025 00:48:24.312,692.270
95,20 Jan 2025 02:13:15.505,20 Jan 2025 02:20:30.105,434.600
96,20 Jan 2025 12:09:04.054,20 Jan 2025 12:17:19.952,495.898
97,20 Jan 2025 13:41:36.262,20 Jan 2025 13:53:03.954,687.692
98,20 Jan 2025 15:17:36.098,20 Jan 2025 15:22:55.093,318.995
99,20 Jan 2025 22:49:41.409,20 Jan 2025 22:52:41.274,179.865
100,21 Jan 2025 00:18:19.469,21 Jan 2025 00:29:37.090,677.621
101,21 Jan 2025 01:53:23.099,21 Jan 2025 02:02:34.528,551.429
102,21 Jan 2025 11:51:28.018,21 Jan 2025 11:57:04.695,336.677
103,21 Jan 2025 13:22:52.250,21 Jan 2025 13:34:25.152,692.901
104,21 Jan 2025 14:57:56.721,21 Jan 2025 15:05:42.309,465.588
105,21 Jan 2025 23:59:58.744,21 Jan 2025 23:59:59.991,1.247
106,21 Jan 2025 23:59:59.991,22 Jan 2025 00:10:43.746,643.754
107,22 Jan 2025 01:33:55.960,22 Jan 2025 01:44:19.555,623.595
108,22 Jan 2025 13:04:14.471,22 Jan 2025 13:15:34.593,680.122
109,22 Jan 2025 14:38:40.533,22 Jan 2025 14:47:59.619,559.087
110,22 Jan 2025 23:41:51.033,22 Jan 2025 23:51:43.321,592.288
111,23 Jan 2025 01:14:45.879,23 Jan 2025 01:25:53.178,667.299
112,23 Jan 2025 12:45:43.969,23 Jan 2025 12:56:31.250,647.281
113,23 Jan 2025 14:19:36.062,23 Jan 2025 14:29:58.862,622.799
114,23 Jan 2025 23:23:59.044,23 Jan 2025 23:32:33.386,514.342
115,24 Jan 2025 00:55:49.466,24 Jan 2025 01:07:18.649,689.183
116,24 Jan 2025 02:34:24.662,24 Jan 2025 02:37:41.916,197.254
117,24 Jan 2025 12:27:23.018,24 Jan 2025 12:37:12.783,589.765
118,24 Jan 2025 14:00:39.549,24 Jan 2025 14:11:44.072,664.523
119,24 Jan 2025 23:06:29.500,24 Jan 2025 23:13:07.549,398.049
120,25 Jan 2025 00:37:05.174,25 Jan 2025 00:48:37.515,692.340
121,25 Jan 2025 02:13:29.729,25 Jan 2025 02:20:42.551,432.822
122,25 Jan 2025 12:09:16.682,25 Jan 2025 12:17:33.956,497.273
123,25 Jan 2025 13:41:49.496,25 Jan 2025 13:53:17.023,687.527
124,25 Jan 2025 15:17:50.214,25 Jan 2025 15:23:06.911,316.697
125,25 Jan 2025 22:49:52.210,25 Jan 2025 22:52:56.364,184.154
126,26 Jan 2025 00:18:32.466,26 Jan 2025 00:29:50.360,677.895
127,26 Jan 2025 01:53:36.929,26 Jan 2025 02:02:47.296,550.366
128,26 Jan 2025 11:51:40.073,26 Jan 2025 11:57:19.347,339.274
129,26 Jan 2025 13:23:05.411,26 Jan 2025 13:34:38.356,692.944
130,26 Jan 2025 14:58:10.397,26 Jan 2025 15:05:54.648,464.250
131,27 Jan 2025 00:00:11.595,27 Jan 2025 00:10:57.093,645.499
132,27 Jan 2025 01:34:09.556,27 Jan 2025 01:44:32.492,622.936
133,27 Jan 2025 13:04:27.556,27 Jan 2025 13:15:47.939,680.383
134,27 Jan 2025 14:38:54.031,27 Jan 2025 14:48:12.213,558.183
135,27 Jan 2025 23:42:03.721,27 Jan 2025 23:51:56.760,593.038
136,28 Jan 2025 01:14:59.299,28 Jan 2025 01:26:06.217,666.919
137,28 Jan 2025 12:45:56.958,28 Jan 2025 12:56:44.757,647.799
138,28 Jan 2025 14:19:49.450,28 Jan 2025 14:30:11.638,622.188
139,28 Jan 2025 23:24:11.521,28 Jan 2025 23:32:46.961,515.439
140,29 Jan 2025 00:56:02.737,29 Jan 2025 01:07:31.775,689.038
141,29 Jan 2025 02:34:40.533,29 Jan 2025 02:37:52.788,192.254
142,29 Jan 2025 12:27:35.874,29 Jan 2025 12:37:26.493,590.619
143,29 Jan 2025 14:00:52.855,29 Jan 2025 14:11:57.000,664.146
144,29 Jan 2025 23:06:41.637,29 Jan 2025 23:13:21.384,399.747
145,30 Jan 2025 00:37:18.308,30 Jan 2025 00:48:50.714,692.406
146,30 Jan 2025 02:13:43.957,30 Jan 2025 02:20:54.990,431.032
147,30 Jan 2025 12:09:29.315,30 Jan 2025 12:17:47.954,498.639
148,30 Jan 2025 13:42:02.729,30 Jan 2025 13:53:30.089,687.359
149,30 Jan 2025 15:18:04.338,30 Jan 2025 15:23:18.719,314.380
150,30 Jan 2025 22:50:03.058,30 Jan 2025 22:53:11.405,188.347
151,31 Jan 2025 00:18:45.463,31 Jan 2025 00:30:03.629,678.166
152,31 Jan 2025 01:53:50.759,31 Jan 2025 02:03:00.059,549.300
153,31 Jan 2025 11:51:52.145,31 Jan 2025 11:57:33.982,341.837
154,31 Jan 2025 13:23:18.576,31 Jan 2025 13:34:51.558,692.981
155,31 Jan 2025 14:58:24.072,31 Jan 2025 15:06:06.983,462.912
156,1 Feb 2025 00:00:24.450,1 Feb 2025 00:11:10.438,645.988
157,1 Feb 2025 01:34:23.154,1 Feb 2025 01:44:45.422,622.268
158,1 Feb 2025 13:04:40.642,1 Feb 2025 13:16:01.283,680.641
159,1 Feb 2025 14:39:07.532,1 Feb 2025 14:48:24.806,557.273
160,1 Feb 2025 23:42:16.412,1 Feb 2025 23:52:10.198,593.786
161,2 Feb 2025 01:15:12.721,2 Feb 2025 01:26:19.259,666.538
162,2 Feb 2025 12:46:09.950,2 Feb 2025 12:56:58.260,648.310
163,2 Feb 2025 14:20:02.839,2 Feb 2025 14:30:24.413,621.574
164,2 Feb 2025 23:24:24.001,2 Feb 2025 23:33:00.534,516.533
165,3 Feb 2025 00:56:16.010,3 Feb 2025 01:07:44.902,688.892
166,3 Feb 2025 02:34:56.482,3 Feb 2025 02:38:03.585,187.103
167,3 Feb 2025 12:27:48.733,3 Feb 2025 12:37:40.197,591.464
168,3 Feb 2025 14:01:06.162,3 Feb 2025 14:12:09.927,663.766
169,3 Feb 2025 23:06:53.781,3 Feb 2025 23:13:35.216,401.436
170,4 Feb 2025 00:37:31.444,4 Feb 2025 00:49:03.914,692.469
171,4 Feb 2025 02:13:58.194,4 Feb 2025 02:21:07.423,429.229
172,4 Feb 2025 12:09:41.952,4 Feb 2025 12:18:01.949,499.997
173,4 Feb 2025 13:42:15.965,4 Feb 2025 13:53:43.155,687.189
174,4 Feb 2025 15:18:18.475,4 Feb 2025 15:23:30.516,312.041
175,4 Feb 2025 22:50:13.957,4 Feb 2025 22:53:26.398,192.441
176,5 Feb 2025 00:18:58.464,5 Feb 2025 00:30:16.903,678.440
177,5 Feb 2025 01:54:04.596,5 Feb 2025 02:03:12.819,548.222
178,5 Feb 2025 11:52:04.228,5 Feb 2025 11:57:48.605,344.377
179,5 Feb 2025 13:23:31.742,5 Feb 2025 13:35:04.759,693.017
180,5 Feb 2025 14:58:37.755,5 Feb 2025 15:06:19.314,461.559
181,6 Feb 2025 00:00:37.307,6 Feb 2025 00:11:23.783,646.476
182,6 Feb 2025 01:34:36.760,6 Feb 2025 01:44:58.353,621.593
183,6 Feb 2025 13:04:53.733,6 Feb 2025 13:16:14.627,680.894
184,6 Feb 2025 14:39:21.031,6 Feb 2025 14:48:37.399,556.368
185,6 Feb 2025 23:42:29.106,6 Feb 2025 23:52:23.637,594.530
186,7 Feb 2025 01:15:26.146,7 Feb 2025 01:26:32.301,666.155
187,7 Feb 2025 12:46:22.943,7 Feb 2025 12:57:11.765,648.823
188,7 Feb 2025 14:20:16.226,7 Feb 2025 14:30:37.186,620.960
189,7 Feb 2025 23:24:36.486,7 Feb 2025 23:33:14.105,517.619
190,8 Feb 2025 00:56:29.286,8 Feb 2025 01:07:58.028,688.742
191,8 Feb 2025 02:35:12.507,8 Feb 2025 02:38:14.308,181.801
192,8 Feb 2025 12:28:01.593,8 Feb 2025 12:37:53.899,592.306
193,8 Feb 2025 14:01:19.470,8 Feb 2025 14:12:22.853,663.383
194,8 Feb 2025 23:07:05.931,8 Feb 2025 23:13:49.042,403.111
195,9 Feb 2025 00:37:44.580,9 Feb 2025 00:49:17.112,692.532
196,9 Feb 2025 02:14:12.437,9 Feb 2025 02:21:19.853,427.416
197,9 Feb 2025 12:09:54.591,9 Feb 2025 12:18:15.939,501.348
198,9 Feb 2025 13:42:29.201,9 Feb 2025 13:53:56.215,687.014
199,9 Feb 2025 15:18:32.623,9 Feb 2025 15:23:42.300,309.677
200,9 Feb 2025 22:50:24.904,9 Feb 2025 22:53:41.342,196.438
201,10 Feb 2025 00:19:11.465,10 Feb 2025 00:30:30.171,678.706
202,10 Feb 2025 01:54:18.436,10 Feb 2025 02:03:25.576,547.141
203,10 Feb 2025 11:52:16.321,10 Feb 2025 11:58:03.214,346.893
204,10 Feb 2025 13:23:44.909,10 Feb 2025 13:35:17.959,693.049
205,10 Feb 2025 14:58:51.441,10 Feb 2025 15:06:31.642,460.201
206,11 Feb 2025 00:00:50.166,11 Feb 2025 00:11:37.125,646.959
207,11 Feb 2025 01:34:50.360,11 Feb 2025 01:45:11.282,620.922
208,11 Feb 2025 13:05:06.821,11 Feb 2025 13:16:27.964,681.144
209,11 Feb 2025 14:39:34.534,11 Feb 2025 14:48:49.985,555.451
210,11 Feb 2025 23:42:41.801,11 Feb 2025 23:52:37.071,595.270
211,12 Feb 2025 01:15:39.572,12 Feb 2025 01:26:45.340,665.768
212,12 Feb 2025 12:46:35.938,12 Feb 2025 12:57:25.267,649.329
213,12 Feb 2025 14:20:29.618,12 Feb 2025 14:30:49.957,620.339
214,12 Feb 2025 23:24:48.972,12 Feb 2025 23:33:27.674,518.701
215,13 Feb 2025 00:56:42.562,13 Feb 2025 01:08:11.152,688.591
216,13 Feb 2025 02:35:28.623,13 Feb 2025 02:38:24.941,176.318
217,13 Feb 2025 12:28:14.455,13 Feb 2025 12:38:07.597,593.142
218,13 Feb 2025 14:01:32.779,13 Feb 2025 14:12:35.776,662.997
219,13 Feb 2025 23:07:18.085,13 Feb 2025 23:14:02.864,404.778
220,14 Feb 2025 00:37:57.718,14 Feb 2025 00:49:30.310,692.591
221,14 Feb 2025 02:14:26.686,14 Feb 2025 02:21:32.274,425.588
222,14 Feb 2025 12:10:07.240,14 Feb 2025 12:18:29.925,502.685
223,14 Feb 2025 13:42:42.438,14 Feb 2025 13:54:09.278,686.839
224,14 Feb 2025 15:18:46.780,14 Feb 2025 15:23:54.075,307.295
225,14 Feb 2025 22:50:35.892,14 Feb 2025 22:53:56.248,200.356
226,15 Feb 2025 00:19:24.466,15 Feb 2025 00:30:43.439,678.973
227,15 Feb 2025 01:54:32.282,15 Feb 2025 02:03:38.334,546.051
228,15 Feb 2025 11:52:28.429,15 Feb 2025 11:58:17.809,349.380
229,15 Feb 2025 13:23:58.076,15 Feb 2025 13:35:31.157,693.081
230,15 Feb 2025 14:59:05.129,15 Feb 2025 15:06:43.966,458.837
231,16 Feb 2025 00:01:03.027,16 Feb 2025 00:11:50.468,647.441
232,16 Feb 2025 01:35:03.969,16 Feb 2025 01:45:24.209,620.240
233,16 Feb 2025 13:05:19.912,16 Feb 2025 13:16:41.304,681.392
234,16 Feb 2025 14:39:48.040,16 Feb 2025 14:49:02.570,554.530
235,16 Feb 2025 23:42:54.499,16 Feb 2025 23:52:50.506,596.007
236,17 Feb 2025 01:15:53.001,17 Feb 2025 01:26:58.380,665.379
237,17 Feb 2025 12:46:48.933,17 Feb 2025 12:57:38.768,649.835
238,17 Feb 2025 14:20:43.012,17 Feb 2025 14:31:02.727,619.715
239,17 Feb 2025 23:25:01.463,17 Feb 2025 23:33:41.242,519.779
240,18 Feb 2025 00:56:55.841,18 Feb 2025 01:08:24.277,688.436
241,18 Feb 2025 02:35:44.833,18 Feb 2025 02:38:35.480,170.647
242,18 Feb 2025 12:28:27.321,18 Feb 2025 12:38:21.294,593.973
243,18 Feb 2025 14:01:46.093,18 Feb 2025 14:12:48.700,662.607
244,18 Feb 2025 23:07:30.247,18 Feb 2025 23:14:16.682,406.436
245,19 Feb 2025 00:38:10.860,19 Feb 2025 00:49:43.508,692.648
246,19 Feb 2025 02:14:40.945,19 Feb 2025 02:21:44.691,423.746
247,19 Feb 2025 12:10:19.887,19 Feb 2025 12:18:43.908,504.021
248,19 Feb 2025 13:42:55.678,19 Feb 2025 13:54:22.340,686.662
249,19 Feb 2025 15:19:00.950,19 Feb 2025 15:24:05.837,304.888
250,19 Feb 2025 22:50:46.923,19 Feb 2025 22:54:11.113,204.190
251,20 Feb 2025 00:19:37.472,20 Feb 2025 00:30:56.706,679.235
252,20 Feb 2025 01:54:46.132,20 Feb 2025 02:03:51.090,544.958
253,20 Feb 2025 11:52:40.548,20 Feb 2025 11:58:32.395,351.847
254,20 Feb 2025 13:24:11.245,20 Feb 2025 13:35:44.354,693.109
255,20 Feb 2025 14:59:18.823,20 Feb 2025 15:06:56.287,457.464
256,21 Feb 2025 00:01:15.890,21 Feb 2025 00:12:03.807,647.917
257,21 Feb 2025 01:35:17.579,21 Feb 2025 01:45:37.136,619.558
258,21 Feb 2025 13:05:33.004,21 Feb 2025 13:16:54.644,681.640
259,21 Feb 2025 14:40:01.550,21 Feb 2025 14:49:15.153,553.603
260,21 Feb 2025 23:43:07.200,21 Feb 2025 23:53:03.939,596.740
261,22 Feb 2025 01:16:06.435,22 Feb 2025 01:27:11.417,664.982
262,22 Feb 2025 12:47:01.931,22 Feb 2025 12:57:52.266,650.335
263,22 Feb 2025 14:20:56.407,22 Feb 2025 14:31:15.495,619.088
264,22 Feb 2025 23:25:13.960,22 Feb 2025 23:33:54.804,520.845
265,23 Feb 2025 00:57:09.123,23 Feb 2025 01:08:37.402,688.279
266,23 Feb 2025 02:36:01.146,23 Feb 2025 02:38:45.921,164.775
267,23 Feb 2025 12:28:40.187,23 Feb 2025 12:38:34.983,594.796
268,23 Feb 2025 14:01:59.406,23 Feb 2025 14:13:01.619,662.213
269,23 Feb 2025 23:07:42.414,23 Feb 2025 23:14:30.490,408.076
270,24 Feb 2025 00:38:24.003,24 Feb 2025 00:49:56.704,692.702
271,24 Feb 2025 02:14:55.209,24 Feb 2025 02:21:57.102,421.894
272,24 Feb 2025 12:10:32.537,24 Feb 2025 12:18:57.887,505.350
273,24 Feb 2025 13:43:08.915,24 Feb 2025 13:54:35.399,686.484
274,24 Feb 2025 15:19:15.134,24 Feb 2025 15:24:17.586,302.453
275,24 Feb 2025 22:50:57.994,24 Feb 2025 22:54:25.938,207.944
276,25 Feb 2025 00:19:50.479,25 Feb 2025 00:31:09.972,679.494
277,25 Feb 2025 01:54:59.978,25 Feb 2025 02:04:03.843,543.865
278,25 Feb 2025 11:52:52.676,25 Feb 2025 11:58:46.967,354.291
279,25 Feb 2025 13:24:24.414,25 Feb 2025 13:35:57.550,693.136
280,25 Feb 2025 14:59:32.519,25 Feb 2025 15:07:08.603,456.084
281,26 Feb 2025 00:01:28.754,26 Feb 2025 00:12:17.148,648.394
282,26 Feb 2025 01:35:31.188,26 Feb 2025 01:45:50.061,618.873
283,26 Feb 2025 13:05:46.097,26 Feb 2025 13:17:07.980,681.884
284,26 Feb 2025 14:40:15.059,26 Feb 2025 14:49:27.733,552.674
285,26 Feb 2025 23:43:19.901,26 Feb 2025 23:53:17.371,597.469
286,27 Feb 2025 01:16:19.866,27 Feb 2025 01:27:24.454,664.589
287,27 Feb 2025 12:47:14.931,27 Feb 2025 12:58:05.760,650.829
288,27 Feb 2025 14:21:09.803,27 Feb 2025 14:31:28.260,618.457
289,27 Feb 2025 23:25:26.454,27 Feb 2025 23:34:08.367,521.913
290,28 Feb 2025 00:57:22.405,28 Feb 2025 01:08:50.525,688.120
291,28 Feb 2025 02:36:17.580,28 Feb 2025 02:38:56.241,158.660
292,28 Feb 2025 12:28:53.055,28 Feb 2025 12:38:48.674,595.619
293,28 Feb 2025 14:02:12.718,28 Feb 2025 14:13:14.540,661.822
294,28 Feb 2025 23:07:54.585,28 Feb 2025 23:14:44.299,409.714
295,1 Mar 2025 00:38:37.147,1 Mar 2025 00:50:09.900,692.753
296,1 Mar 2025 02:15:09.481,1 Mar 2025 02:22:09.506,420.025
297,1 Mar 2025 12:10:45.191,1 Mar 2025 12:19:11.860,506.669
298,1 Mar 2025 13:43:22.155,1 Mar 2025 13:54:48.457,686.303
299,1 Mar 2025 15:19:29.327,1 Mar 2025 15:24:29.325,299.997
300,1 Mar 2025 22:51:09.099,1 Mar 2025 22:54:40.731,211.632
301,2 Mar 2025 00:20:03.487,2 Mar 2025 00:31:23.238,679.751
302,2 Mar 2025 01:55:13.833,2 Mar 2025 02:04:16.594,542.760
303,2 Mar 2025 11:53:04.818,2 Mar 2025 11:59:01.527,356.709
304,2 Mar 2025 13:24:37.584,2 Mar 2025 13:36:10.743,693.160
305,2 Mar 2025 14:59:46.217,2 Mar 2025 15:07:20.916,454.699
306,3 Mar 2025 00:01:41.620,3 Mar 2025 00:12:30.488,648.868
307,3 Mar 2025 01:35:44.803,3 Mar 2025 01:46:02.984,618.181
308,3 Mar 2025 13:05:59.191,3 Mar 2025 13:17:21.316,682.125
309,3 Mar 2025 14:40:28.569,3 Mar 2025 14:49:40.311,551.743
310,3 Mar 2025 23:43:32.606,3 Mar 2025 23:53:30.803,598.196
311,4 Mar 2025 01:16:33.304,4 Mar 2025 01:27:37.492,664.188
312,4 Mar 2025 12:47:27.932,4 Mar 2025 12:58:19.255,651.323
313,4 Mar 2025 14:21:23.201,4 Mar 2025 14:31:41.025,617.824
314,4 Mar 2025 23:25:38.954,4 Mar 2025 23:34:21.930,522.975
315,5 Mar 2025 00:57:35.690,5 Mar 2025 01:09:03.648,687.958
316,5 Mar 2025 02:36:34.144,5 Mar 2025 02:39:06.431,152.287
317,5 Mar 2025 12:29:05.927,5 Mar 2025 12:39:02.369,596.443
318,5 Mar 2025 14:02:26.029,5 Mar 2025 14:13:27.456,661.427
319,5 Mar 2025 23:08:06.764,5 Mar 2025 23:14:58.109,411.345
320,6 Mar 2025 00:38:50.294,6 Mar 2025 00:50:23.097,692.802
321,6 Mar 2025 02:15:23.757,6 Mar 2025 02:22:21.905,418.149
322,6 Mar 2025 12:10:57.849,6 Mar 2025 12:19:25.832,507.983
323,6 Mar 2025 13:43:35.397,6 Mar 2025 13:55:01.515,686.118
324,6 Mar 2025 15:19:43.532,6 Mar 2025 15:24:41.050,297.518
325,6 Mar 2025 22:51:20.242,6 Mar 2025 22:54:55.488,215.246
326,7 Mar 2025 00:20:16.499,7 Mar 2025 00:31:36.504,680.005
327,7 Mar 2025 01:55:27.693,7 Mar 2025 02:04:29.343,541.650
328,7 Mar 2025 11:53:16.970,7 Mar 2025 11:59:16.078,359.108
329,7 Mar 2025 13:24:50.756,7 Mar 2025 13:36:23.937,693.181
330,7 Mar 2025 14:59:59.922,7 Mar 2025 15:07:33.225,453.303
331,8 Mar 2025 00:01:54.486,8 Mar 2025 00:12:43.829,649.343
332,8 Mar 2025 01:35:58.421,8 Mar 2025 01:46:15.908,617.487
333,8 Mar 2025 13:06:12.286,8 Mar 2025 13:17:34.651,682.365
334,8 Mar 2025 14:40:42.084,8 Mar 2025 14:49:52.887,550.803
335,8 Mar 2025 23:43:45.309,8 Mar 2025 23:53:44.232,598.923
336,9 Mar 2025 01:16:46.742,9 Mar 2025 01:27:50.529,663.787
337,9 Mar 2025 12:47:40.929,9 Mar 2025 12:58:32.748,651.818
338,9 Mar 2025 14:21:36.601,9 Mar 2025 14:31:53.786,617.185
339,9 Mar 2025 23:25:51.459,9 Mar 2025 23:34:35.493,524.034
340,10 Mar 2025 00:57:48.977,10 Mar 2025 01:09:16.771,687.794
341,10 Mar 2025 02:36:50.853,10 Mar 2025 02:39:16.478,145.625
342,10 Mar 2025 12:29:18.799,10 Mar 2025 12:39:16.056,597.257
343,10 Mar 2025 14:02:39.348,10 Mar 2025 14:13:40.372,661.024
344,10 Mar 2025 23:08:18.947,10 Mar 2025 23:15:11.909,412.962
345,11 Mar 2025 00:39:03.442,11 Mar 2025 00:50:36.291,692.849
346,11 Mar 2025 02:15:38.043,11 Mar 2025 02:22:34.298,416.254
347,11 Mar 2025 12:11:10.510,11 Mar 2025 12:19:39.798,509.288
348,11 Mar 2025 13:43:48.639,11 Mar 2025 13:55:14.571,685.931
349,11 Mar 2025 15:19:57.752,11 Mar 2025 15:24:52.761,295.009
350,11 Mar 2025 22:51:31.417,11 Mar 2025 22:55:10.213,218.796
351,12 Mar 2025 00:20:29.511,12 Mar 2025 00:31:49.768,680.257
352,12 Mar 2025 01:55:41.554,12 Mar 2025 02:04:42.089,540.534
353,12 Mar 2025 11:53:29.132,12 Mar 2025 11:59:30.615,361.483
354,12 Mar 2025 13:25:03.928,12 Mar 2025 13:36:37.131,693.204
355,12 Mar 2025 15:00:13.627,12 Mar 2025 15:07:45.529,451.902
356,13 Mar 2025 00:02:07.355,13 Mar 2025 00:12:57.167,649.812
357,13 Mar 2025 01:36:12.039,13 Mar 2025 01:46:28.828,616.789
358,13 Mar 2025 13:06:25.381,13 Mar 2025 13:17:47.983,682.601
359,13 Mar 2025 14:40:55.596,13 Mar 2025 14:50:05.460,549.864
360,13 Mar 2025 23:43:58.018,13 Mar 2025 23:53:57.661,599.643
361,14 Mar 2025 01:17:00.181,14 Mar 2025 01:28:03.564,663.383
362,14 Mar 2025 12:47:53.932,14 Mar 2025 12:58:46.238,652.306
363,14 Mar 2025 14:21:50.001,14 Mar 2025 14:32:06.547,616.546
364,14 Mar 2025 23:26:03.962,14 Mar 2025 23:34:49.051,525.089
365,15 Mar 2025 00:58:02.265,15 Mar 2025 01:09:29.892,687.627
366,15 Mar 2025 02:37:07.737,15 Mar 2025 02:39:26.351,138.614
367,15 Mar 2025 12:29:31.674,15 Mar 2025 12:39:29.740,598.066
368,15 Mar 2025 14:02:52.663,15 Mar 2025 14:13:53.287,660.625
369,15 Mar 2025 23:08:31.135,15 Mar 2025 23:15:25.702,414.567
370,16 Mar 2025 00:39:16.593,16 Mar 2025 00:50:49.486,692.893
371,16 Mar 2025 02:15:52.339,16 Mar 2025 02:22:46.682,414.343
372,16 Mar 2025 12:11:23.176,16 Mar 2025 12:19:53.761,510.585
373,16 Mar 2025 13:44:01.883,16 Mar 2025 13:55:27.625,685.742
374,16 Mar 2025 15:20:11.981,16 Mar 2025 15:25:04.461,292.480
375,16 Mar 2025 22:51:42.622,16 Mar 2025 22:55:24.912,222.289
376,17 Mar 2025 00:20:42.526,17 Mar 2025 00:32:03.032,680.506
377,17 Mar 2025 01:55:55.422,17 Mar 2025 02:04:54.832,539.410
378,17 Mar 2025 11:53:41.307,17 Mar 2025 11:59:45.142,363.834
379,17 Mar 2025 13:25:17.102,17 Mar 2025 13:36:50.324,693.222
380,17 Mar 2025 15:00:27.337,17 Mar 2025 15:07:57.831,450.494
381,18 Mar 2025 00:02:20.228,18 Mar 2025 00:13:10.505,650.277
382,18 Mar 2025 01:36:25.662,18 Mar 2025 01:46:41.748,616.086
383,18 Mar 2025 13:06:38.479,18 Mar 2025 13:18:01.315,682.836
384,18 Mar 2025 14:41:09.114,18 Mar 2025 14:50:18.031,548.918
385,18 Mar 2025 23:44:10.730,18 Mar 2025 23:54:11.091,600.360
386,19 Mar 2025 01:17:13.624,19 Mar 2025 01:28:16.599,662.974
387,19 Mar 2025 12:48:06.940,19 Mar 2025 12:58:59.727,652.788
388,19 Mar 2025 14:22:03.408,19 Mar 2025 14:32:19.307,615.899
389,19 Mar 2025 23:26:16.472,19 Mar 2025 23:35:02.610,526.138
390,20 Mar 2025 00:58:15.557,20 Mar 2025 01:09:43.014,687.457
391,20 Mar 2025 02:37:24.819,20 Mar 2025 02:39:36.030,131.211
392,20 Mar 2025 12:29:44.552,20 Mar 2025 12:39:43.419,598.867
393,20 Mar 2025 14:03:05.983,20 Mar 2025 14:14:06.204,660.221
394,20 Mar 2025 23:08:43.330,20 Mar 2025 23:15:39.496,416.166
395,21 Mar 2025 00:39:29.746,21 Mar 2025 00:51:02.681,692.935
396,21 Mar 2025 02:16:06.644,21 Mar 2025 02:22:59.063,412.419
397,21 Mar 2025 12:11:35.846,21 Mar 2025 12:20:07.721,511.875
398,21 Mar 2025 13:44:15.129,21 Mar 2025 13:55:40.679,685.550
399,21 Mar 2025 15:20:26.226,21 Mar 2025 15:25:16.148,289.922
400,21 Mar 2025 22:51:53.860,21 Mar 2025 22:55:39.580,225.719
401,22 Mar 2025 00:20:55.543,22 Mar 2025 00:32:16.297,680.753
402,22 Mar 2025 01:56:09.293,22 Mar 2025 02:05:07.574,538.281
403,22 Mar 2025 11:53:53.492,22 Mar 2025 11:59:59.659,366.167
404,22 Mar 2025 13:25:30.278,22 Mar 2025 13:37:03.513,693.236
405,22 Mar 2025 15:00:41.052,22 Mar 2025 15:08:10.128,449.076
406,23 Mar 2025 00:02:33.103,23 Mar 2025 00:13:23.844,650.741
407,23 Mar 2025 01:36:39.282,23 Mar 2025 01:46:54.667,615.385
408,23 Mar 2025 13:06:51.578,23 Mar 2025 13:18:14.650,683.071
409,23 Mar 2025 14:41:22.630,23 Mar 2025 14:50:30.600,547.971
410,23 Mar 2025 23:44:23.445,23 Mar 2025 23:54:24.517,601.072
411,24 Mar 2025 01:17:27.069,24 Mar 2025 01:28:29.631,662.562
412,24 Mar 2025 12:48:19.946,24 Mar 2025 12:59:13.215,653.268
413,24 Mar 2025 14:22:16.808,24 Mar 2025 14:32:32.064,615.256
414,24 Mar 2025 23:26:28.984,24 Mar 2025 23:35:16.161,527.177
415,25 Mar 2025 00:58:28.854,25 Mar 2025 01:09:56.134,687.280
416,25 Mar 2025 02:37:42.131,25 Mar 2025 02:39:45.482,123.351
417,25 Mar 2025 12:29:57.430,25 Mar 2025 12:39:57.099,599.669
418,25 Mar 2025 14:03:19.301,25 Mar 2025 14:14:19.116,659.815
419,25 Mar 2025 23:08:55.530,25 Mar 2025 23:15:53.285,417.755
420,26 Mar 2025 00:39:42.900,26 Mar 2025 00:51:15.874,692.974
421,26 Mar 2025 02:16:20.954,26 Mar 2025 02:23:11.435,410.481
422,26 Mar 2025 12:11:48.518,26 Mar 2025 12:20:21.676,513.157
423,26 Mar 2025 13:44:28.375,26 Mar 2025 13:55:53.730,685.356
424,26 Mar 2025 15:20:40.482,26 Mar 2025 15:25:27.820,287.338
425,26 Mar 2025 22:52:05.126,26 Mar 2025 22:55:54.218,229.093
426,27 Mar 2025 00:21:08.561,27 Mar 2025 00:32:29.559,680.998
427,27 Mar 2025 01:56:23.167,27 Mar 2025 02:05:20.312,537.145
428,27 Mar 2025 11:54:05.686,27 Mar 2025 12:00:14.160,368.474
429,27 Mar 2025 13:25:43.453,27 Mar 2025 13:37:16.700,693.247
430,27 Mar 2025 15:00:54.769,27 Mar 2025 15:08:22.420,447.651
431,28 Mar 2025 00:02:45.979,28 Mar 2025 00:13:37.180,651.201
432,28 Mar 2025 01:36:52.909,28 Mar 2025 01:47:07.584,614.675
433,28 Mar 2025 13:07:04.673,28 Mar 2025 13:18:27.977,683.303
434,28 Mar 2025 14:41:36.153,28 Mar 2025 14:50:43.163,547.010
435,28 Mar 2025 23:44:36.165,28 Mar 2025 23:54:37.939,601.774
436,29 Mar 2025 01:17:40.515,29 Mar 2025 01:28:42.663,662.149
437,29 Mar 2025 12:48:32.953,29 Mar 2025 12:59:26.699,653.746
438,29 Mar 2025 14:22:30.215,29 Mar 2025 14:32:44.820,614.604
439,29 Mar 2025 23:26:41.499,29 Mar 2025 23:35:29.717,528.218
440,30 Mar 2025 00:58:42.146,30 Mar 2025 01:10:09.251,687.105
441,30 Mar 2025 02:37:59.728,30 Mar 2025 02:39:54.648,114.920
442,30 Mar 2025 12:30:10.314,30 Mar 2025 12:40:10.780,600.466
443,30 Mar 2025 14:03:32.616,30 Mar 2025 14:14:32.027,659.411
444,30 Mar 2025 23:09:07.734,30 Mar 2025 23:16:07.072,419.338
445,31 Mar 2025 00:39:56.056,31 Mar 2025 00:51:29.067,693.011
446,31 Mar 2025 02:16:35.275,31 Mar 2025 02:23:23.800,408.526
447,31 Mar 2025 12:12:01.192,31 Mar 2025 12:20:35.623,514.431
448,31 Mar 2025 13:44:41.623,31 Mar 2025 13:56:06.782,685.158
449,31 Mar 2025 15:20:54.746,31 Mar 2025 15:25:39.476,284.729
450,31 Mar 2025 22:52:16.419,31 Mar 2025 22:56:08.835,232.417
451,1 Apr 2025 00:21:21.582,1 Apr 2025 00:32:42.822,681.240
452,1 Apr 2025 01:56:37.047,1 Apr 2025 02:05:33.048,536.002
453,1 Apr 2025 11:54:17.892,1 Apr 2025 12:00:28.655,370.763
454,1 Apr 2025 13:25:56.631,1 Apr 2025 13:37:29.887,693.256
455,1 Apr 2025 15:01:08.490,1 Apr 2025 15:08:34.710,446.220
456,2 Apr 2025 00:02:58.859,2 Apr 2025 00:13:50.518,651.660
457,2 Apr 2025 01:37:06.540,2 Apr 2025 01:47:20.500,613.960
458,2 Apr 2025 13:07:17.776,2 Apr 2025 13:18:41.305,683.529
459,2 Apr 2025 14:41:49.678,2 Apr 2025 14:50:55.728,546.051
460,2 Apr 2025 23:44:48.883,2 Apr 2025 23:54:51.368,602.485
461,3 Apr 2025 01:17:53.964,3 Apr 2025 01:28:55.697,661.732
462,3 Apr 2025 12:48:45.964,3 Apr 2025 12:59:40.181,654.217
463,3 Apr 2025 14:22:43.623,3 Apr 2025 14:32:57.574,613.951
464,3 Apr 2025 23:26:54.018,3 Apr 2025 23:35:43.267,529.248
465,4 Apr 2025 00:58:55.445,4 Apr 2025 01:10:22.372,686.927
466,4 Apr 2025 02:38:17.669,4 Apr 2025 02:40:03.474,105.805
467,4 Apr 2025 12:30:23.200,4 Apr 2025 12:40:24.457,601.257
468,4 Apr 2025 14:03:45.939,4 Apr 2025 14:14:44.937,658.998
469,4 Apr 2025 23:09:19.945,4 Apr 2025 23:16:20.854,420.909
470,5 Apr 2025 00:40:09.215,5 Apr 2025 00:51:42.260,693.045
471,5 Apr 2025 02:16:49.603,5 Apr 2025 02:23:36.160,406.557
472,5 Apr 2025 12:12:13.873,5 Apr 2025 12:20:49.572,515.699
473,5 Apr 2025 13:44:54.874,5 Apr 2025 13:56:19.832,684.958
474,5 Apr 2025 15:21:09.033,5 Apr 2025 15:25:51.119,282.086
475,5 Apr 2025 22:52:27.740,5 Apr 2025 22:56:23.423,235.684
476,6 Apr 2025 00:21:34.605,6 Apr 2025 00:32:56.081,681.476
477,6 Apr 2025 01:56:50.929,6 Apr 2025 02:05:45.783,534.854
478,6 Apr 2025 11:54:30.103,6 Apr 2025 12:00:43.142,373.038
479,6 Apr 2025 13:26:09.805,6 Apr 2025 13:37:43.072,693.267
480,6 Apr 2025 15:01:22.217,6 Apr 2025 15:08:46.994,444.778
481,7 Apr 2025 00:03:11.739,7 Apr 2025 00:14:03.856,652.117
482,7 Apr 2025 01:37:20.173,7 Apr 2025 01:47:33.411,613.239
483,7 Apr 2025 13:07:30.877,7 Apr 2025 13:18:54.630,683.753
484,7 Apr 2025 14:42:03.197,7 Apr 2025 14:51:08.290,545.092
485,7 Apr 2025 23:45:01.604,7 Apr 2025 23:55:04.795,603.191
486,8 Apr 2025 01:18:07.415,8 Apr 2025 01:29:08.728,661.313
487,8 Apr 2025 12:48:58.975,8 Apr 2025 12:59:53.663,654.687
488,8 Apr 2025 14:22:57.030,8 Apr 2025 14:33:10.326,613.296
489,8 Apr 2025 23:27:06.539,8 Apr 2025 23:35:56.817,530.278
490,9 Apr 2025 00:59:08.743,9 Apr 2025 01:10:35.488,686.745
491,9 Apr 2025 02:38:36.052,9 Apr 2025 02:40:11.854,95.802
492,9 Apr 2025 12:30:36.084,9 Apr 2025 12:40:38.125,602.041
493,9 Apr 2025 14:03:59.260,9 Apr 2025 14:14:57.844,658.584
494,9 Apr 2025 23:09:32.159,9 Apr 2025 23:16:34.632,422.473
495,10 Apr 2025 00:40:22.374,10 Apr 2025 00:51:55.447,693.074
496,10 Apr 2025 02:17:03.943,10 Apr 2025 02:23:48.507,404.564
497,10 Apr 2025 12:12:26.556,10 Apr 2025 12:21:03.514,516.958
498,10 Apr 2025 13:45:08.123,10 Apr 2025 13:56:32.879,684.757
499,10 Apr 2025 15:21:23.329,10 Apr 2025 15:26:02.748,279.419
500,10 Apr 2025 22:52:39.083,10 Apr 2025 22:56:37.990,238.907
501,11 Apr 2025 00:21:47.629,11 Apr 2025 00:33:09.342,681.713
502,11 Apr 2025 01:57:04.815,11 Apr 2025 02:05:58.510,533.694
503,11 Apr 2025 11:54:42.329,11 Apr 2025 12:00:57.614,375.285
504,11 Apr 2025 13:26:22.984,11 Apr 2025 13:37:56.255,693.271
505,11 Apr 2025 15:01:35.942,11 Apr 2025 15:08:59.275,443.333
506,12 Apr 2025 00:03:24.621,12 Apr 2025 00:14:17.187,652.566
507,12 Apr 2025 01:37:33.808,12 Apr 2025 01:47:46.324,612.516
508,12 Apr 2025 13:07:43.981,12 Apr 2025 13:19:07.950,683.969
509,12 Apr 2025 14:42:16.723,12 Apr 2025 14:51:20.850,544.126
510,12 Apr 2025 23:45:14.327,12 Apr 2025 23:55:18.219,603.892
511,13 Apr 2025 01:18:20.867,13 Apr 2025 01:29:21.758,660.890
512,13 Apr 2025 12:49:11.988,13 Apr 2025 13:00:07.143,655.155
513,13 Apr 2025 14:23:10.439,13 Apr 2025 14:33:23.077,612.637
514,13 Apr 2025 23:27:19.060,13 Apr 2025 23:36:10.367,531.307
515,14 Apr 2025 00:59:22.044,14 Apr 2025 01:10:48.607,686.563
516,14 Apr 2025 02:38:55.046,14 Apr 2025 02:40:19.626,84.580
517,14 Apr 2025 12:30:48.974,14 Apr 2025 12:40:51.801,602.827
518,14 Apr 2025 14:04:12.584,14 Apr 2025 14:15:10.751,658.167
519,14 Apr 2025 23:09:44.378,14 Apr 2025 23:16:48.409,424.031
520,15 Apr 2025 00:40:35.536,15 Apr 2025 00:52:08.639,693.103
521,15 Apr 2025 02:17:18.286,15 Apr 2025 02:24:00.850,402.565
522,15 Apr 2025 12:12:39.244,15 Apr 2025 12:21:17.455,518.211
523,15 Apr 2025 13:45:21.376,15 Apr 2025 13:56:45.927,684.551
524,15 Apr 2025 15:21:37.641,15 Apr 2025 15:26:14.363,276.722
525,15 Apr 2025 22:52:50.450,15 Apr 2025 22:56:52.536,242.085
526,16 Apr 2025 00:22:00.655,16 Apr 2025 00:33:22.604,681.948
527,16 Apr 2025 01:57:18.704,16 Apr 2025 02:06:11.237,532.533
528,16 Apr 2025 11:54:54.565,16 Apr 2025 12:01:12.082,377.517
529,16 Apr 2025 13:26:36.166,16 Apr 2025 13:38:09.438,693.273
530,16 Apr 2025 15:01:49.675,16 Apr 2025 15:09:11.553,441.878
531,17 Apr 2025 00:03:37.506,17 Apr 2025 00:14:30.527,653.021
532,17 Apr 2025 01:37:47.447,17 Apr 2025 01:47:59.236,611.789
533,17 Apr 2025 13:07:57.087,17 Apr 2025 13:19:21.274,684.187
534,17 Apr 2025 14:42:30.253,17 Apr 2025 14:51:33.410,543.157
535,17 Apr 2025 23:45:27.054,17 Apr 2025 23:55:31.643,604.590
536,18 Apr 2025 01:18:34.323,18 Apr 2025 01:29:34.788,660.464
537,18 Apr 2025 12:49:25.002,18 Apr 2025 13:00:20.621,655.618
538,18 Apr 2025 14:23:23.851,18 Apr 2025 14:33:35.826,611.976
539,18 Apr 2025 23:27:31.588,18 Apr 2025 23:36:23.917,532.329
540,19 Apr 2025 00:59:35.347,19 Apr 2025 01:11:01.726,686.378
541,19 Apr 2025 02:39:14.927,19 Apr 2025 02:40:26.516,71.589
542,19 Apr 2025 12:31:01.862,19 Apr 2025 12:41:05.470,603.608
543,19 Apr 2025 14:04:25.909,19 Apr 2025 14:15:23.656,657.747
544,19 Apr 2025 23:09:56.603,19 Apr 2025 23:17:02.185,425.583
545,20 Apr 2025 00:40:48.703,20 Apr 2025 00:52:21.830,693.127
546,20 Apr 2025 02:17:32.643,20 Apr 2025 02:24:13.188,400.546
547,20 Apr 2025 12:12:51.934,20 Apr 2025 12:21:31.392,519.458
548,20 Apr 2025 13:45:34.628,20 Apr 2025 13:56:58.970,684.342
549,20 Apr 2025 15:21:51.970,20 Apr 2025 15:26:25.961,273.991
550,20 Apr 2025 22:53:01.843,20 Apr 2025 22:57:07.057,245.213
551,21 Apr 2025 00:22:13.683,21 Apr 2025 00:33:35.864,682.181
552,21 Apr 2025 01:57:32.599,21 Apr 2025 02:06:23.963,531.364
553,21 Apr 2025 11:55:06.809,21 Apr 2025 12:01:26.539,379.729
554,21 Apr 2025 13:26:49.347,21 Apr 2025 13:38:22.616,693.268
555,21 Apr 2025 15:02:03.406,21 Apr 2025 15:09:23.821,440.415
556,22 Apr 2025 00:03:50.393,22 Apr 2025 00:14:43.861,653.468
557,22 Apr 2025 01:38:01.088,22 Apr 2025 01:48:12.147,611.058
558,22 Apr 2025 13:08:10.193,22 Apr 2025 13:19:34.595,684.402
559,22 Apr 2025 14:42:43.784,22 Apr 2025 14:51:45.965,542.181
560,22 Apr 2025 23:45:39.781,22 Apr 2025 23:55:45.065,605.284
561,23 Apr 2025 01:18:47.780,23 Apr 2025 01:29:47.815,660.035
562,23 Apr 2025 12:49:38.012,23 Apr 2025 13:00:34.102,656.089
563,23 Apr 2025 14:23:37.257,23 Apr 2025 14:33:48.569,611.312
564,23 Apr 2025 23:27:44.116,23 Apr 2025 23:36:37.460,533.344
565,24 Apr 2025 00:59:48.651,24 Apr 2025 01:11:14.842,686.191
566,24 Apr 2025 02:39:36.304,24 Apr 2025 02:40:31.909,55.605
567,24 Apr 2025 12:31:14.754,24 Apr 2025 12:41:19.136,604.382
568,24 Apr 2025 14:04:39.234,24 Apr 2025 14:15:36.559,657.325
569,24 Apr 2025 23:10:08.831,24 Apr 2025 23:17:15.953,427.122
570,25 Apr 2025 00:41:01.867,25 Apr 2025 00:52:35.019,693.152
571,25 Apr 2025 02:17:47.006,25 Apr 2025 02:24:25.516,398.510
572,25 Apr 2025 12:13:04.627,25 Apr 2025 12:21:45.323,520.696
573,25 Apr 2025 13:45:47.880,25 Apr 2025 13:57:12.014,684.134
574,25 Apr 2025 15:22:06.311,25 Apr 2025 15:26:37.544,271.233
575,25 Apr 2025 22:53:13.256,25 Apr 2025 22:57:21.557,248.301
576,26 Apr 2025 00:22:26.714,26 Apr 2025 00:33:49.123,682.409
577,26 Apr 2025 01:57:46.497,26 Apr 2025 02:06:36.684,530.188
578,26 Apr 2025 11:55:19.064,26 Apr 2025 12:01:40.982,381.918
579,26 Apr 2025 13:27:02.529,26 Apr 2025 13:38:35.795,693.265
580,26 Apr 2025 15:02:17.143,26 Apr 2025 15:09:36.090,438.948
581,27 Apr 2025 00:04:03.280,27 Apr 2025 00:14:57.194,653.913
582,27 Apr 2025 01:38:14.733,27 Apr 2025 01:48:25.055,610.322
583,27 Apr 2025 13:08:23.300,27 Apr 2025 13:19:47.914,684.614
584,27 Apr 2025 14:42:57.316,27 Apr 2025 14:51:58.513,541.197
585,27 Apr 2025 23:45:52.510,27 Apr 2025 23:55:58.487,605.976
586,28 Apr 2025 01:19:01.236,28 Apr 2025 01:30:00.842,659.606
587,28 Apr 2025 12:49:51.030,28 Apr 2025 13:00:47.577,656.547
588,28 Apr 2025 14:23:50.670,28 Apr 2025 14:34:01.316,610.646
589,28 Apr 2025 23:27:56.649,28 Apr 2025 23:36:51.007,534.358
590,29 Apr 2025 01:00:01.958,29 Apr 2025 01:11:27.957,686.000
591,29 Apr 2025 02:40:01.291,29 Apr 2025 02:40:33.695,32.403
592,29 Apr 2025 12:31:27.649,29 Apr 2025 12:41:32.800,605.151
593,29 Apr 2025 14:04:52.561,29 Apr 2025 14:15:49.461,656.900
594,29 Apr 2025 23:10:21.065,29 Apr 2025 23:17:29.720,428.655
595,30 Apr 2025 00:41:15.037,30 Apr 2025 00:52:48.210,693.173
596,30 Apr 2025 02:18:01.379,30 Apr 2025 02:24:37.838,396.458
597,30 Apr 2025 12:13:17.329,30 Apr 2025 12:21:59.253,521.923
598,30 Apr 2025 13:46:01.134,30 Apr 2025 13:57:25.058,683.924
599,30 Apr 2025 15:22:20.670,30 Apr 2025 15:26:49.111,268.441
600,30 Apr 2025 22:53:24.692,30 Apr 2025 22:57:36.040,251.348
601,1 May 2025 00:22:39.746,1 May 2025 00:34:02.384,682.638
602,1 May 2025 01:58:00.400,1 May 2025 02:06:49.405,529.005
603,1 May 2025 11:55:31.328,1 May 2025 12:01:55.419,384.090
604,1 May 2025 13:27:15.719,1 May 2025 13:38:48.974,693.255
605,1 May 2025 15:02:30.885,1 May 2025 15:09:48.356,437.471
606,2 May 2025 00:04:16.176,2 May 2025 00:15:10.528,654.351
607,2 May 2025 01:38:28.383,2 May 2025 01:48:37.963,609.580
608,2 May 2025 13:08:36.409,2 May 2025 13:20:01.233,684.824
609,2 May 2025 14:43:10.853,2 May 2025 14:52:11.064,540.211
610,2 May 2025 23:46:05.243,2 May 2025 23:56:11.908,606.665
611,3 May 2025 01:19:14.698,3 May 2025 01:30:13.869,659.170
612,3 May 2025 12:50:04.048,3 May 2025 13:01:01.051,657.003
613,3 May 2025 14:24:04.085,3 May 2025 14:34:14.057,609.972
614,3 May 2025 23:28:09.185,3 May 2025 23:37:04.555,535.370
615,4 May 2025 01:00:15.266,4 May 2025 01:11:41.072,685.806
616,4 May 2025 12:31:40.545,4 May 2025 12:41:46.462,605.916
617,4 May 2025 14:05:05.889,4 May 2025 14:16:02.361,656.473
618,4 May 2025 23:10:33.304,4 May 2025 23:17:43.476,430.172
619,5 May 2025 00:41:28.206,5 May 2025 00:53:01.398,693.193
620,5 May 2025 02:18:15.760,5 May 2025 02:24:50.152,394.392
621,5 May 2025 12:13:30.029,5 May 2025 12:22:13.178,523.149
622,5 May 2025 13:46:14.389,5 May 2025 13:57:38.099,683.711
623,5 May 2025 15:22:35.046,5 May 2025 15:27:00.659,265.613
624,5 May 2025 22:53:36.149,5 May 2025 22:57:50.500,254.352
625,6 May 2025 00:22:52.781,6 May 2025 00:34:15.642,682.861
626,6 May 2025 01:58:14.305,6 May 2025 02:07:02.121,527.815
627,6 May 2025 11:55:43.600,6 May 2025 12:02:09.844,386.244
628,6 May 2025 13:27:28.900,6 May 2025 13:39:02.150,693.250
629,6 May 2025 15:02:44.630,6 May 2025 15:10:00.616,435.986
630,7 May 2025 00:04:29.064,7 May 2025 00:15:23.856,654.792
631,7 May 2025 01:38:42.031,7 May 2025 01:48:50.867,608.836
632,7 May 2025 13:08:49.518,7 May 2025 13:20:14.549,685.031
633,7 May 2025 14:43:24.385,7 May 2025 14:52:23.611,539.226
634,7 May 2025 23:46:17.976,7 May 2025 23:56:25.327,607.351
635,8 May 2025 01:19:28.161,8 May 2025 01:30:26.892,658.731
636,8 May 2025 12:50:17.067,8 May 2025 13:01:14.522,657.454
637,8 May 2025 14:24:17.499,8 May 2025 14:34:26.799,609.300
638,8 May 2025 23:28:21.722,8 May 2025 23:37:18.096,536.374
639,9 May 2025 01:00:28.575,9 May 2025 01:11:54.185,685.610
640,9 May 2025 12:31:53.443,9 May 2025 12:42:00.120,606.676
641,9 May 2025 14:05:19.221,9 May 2025 14:16:15.260,656.038
642,9 May 2025 23:10:45.547,9 May 2025 23:17:57.235,431.688
643,10 May 2025 00:41:41.375,10 May 2025 00:53:14.587,693.212
644,10 May 2025 02:18:30.149,10 May 2025 02:25:02.455,392.306
645,10 May 2025 12:13:42.732,10 May 2025 12:22:27.099,524.366
646,10 May 2025 13:46:27.644,10 May 2025 13:57:51.141,683.498
647,10 May 2025 15:22:49.434,10 May 2025 15:27:12.187,262.753
648,10 May 2025 22:53:47.623,10 May 2025 22:58:04.945,257.322
649,11 May 2025 00:23:05.815,11 May 2025 00:34:28.899,683.084
650,11 May 2025 01:58:28.215,11 May 2025 02:07:14.833,526.618
651,11 May 2025 11:55:55.882,11 May 2025 12:02:24.259,388.376
652,11 May 2025 13:27:42.087,11 May 2025 13:39:15.325,693.238
653,11 May 2025 15:02:58.376,11 May 2025 15:10:12.873,434.496
654,12 May 2025 00:04:41.961,12 May 2025 00:15:37.187,655.226
655,12 May 2025 01:38:55.682,12 May 2025 01:49:03.769,608.087
656,12 May 2025 13:09:02.629,12 May 2025 13:20:27.864,685.235
657,12 May 2025 14:43:37.922,12 May 2025 14:52:36.157,538.235
658,12 May 2025 23:46:30.712,12 May 2025 23:56:38.746,608.034
659,13 May 2025 01:19:41.627,13 May 2025 01:30:39.911,658.284
660,13 May 2025 12:50:30.089,13 May 2025 13:01:27.991,657.902
661,13 May 2025 14:24:30.917,13 May 2025 14:34:39.543,608.627
662,13 May 2025 23:28:34.263,13 May 2025 23:37:31.633,537.371
663,14 May 2025 01:00:41.887,14 May 2025 01:12:07.297,685.410
664,14 May 2025 12:32:06.345,14 May 2025 12:42:13.777,607.432
665,14 May 2025 14:05:32.547,14 May 2025 14:16:28.154,655.606
666,14 May 2025 23:10:57.794,14 May 2025 23:18:10.992,433.198
667,15 May 2025 00:41:54.548,15 May 2025 00:53:27.774,693.226
668,15 May 2025 02:18:44.550,15 May 2025 02:25:14.752,390.202
669,15 May 2025 12:13:55.441,15 May 2025 12:22:41.017,525.576
670,15 May 2025 13:46:40.901,15 May 2025 13:58:04.180,683.279
671,15 May 2025 15:23:03.842,15 May 2025 15:27:23.702,259.860
672,15 May 2025 22:53:59.119,15 May 2025 22:58:19.372,260.253
673,16 May 2025 00:23:18.854,16 May 2025 00:34:42.158,683.304
674,16 May 2025 01:58:42.130,16 May 2025 02:07:27.543,525.413
675,16 May 2025 11:56:08.174,16 May 2025 12:02:38.666,390.492
676,16 May 2025 13:27:55.274,16 May 2025 13:39:28.499,693.225
677,16 May 2025 15:03:12.128,16 May 2025 15:10:25.125,432.997
678,17 May 2025 00:04:54.857,17 May 2025 00:15:50.518,655.661
679,17 May 2025 01:39:09.338,17 May 2025 01:49:16.671,607.333
680,17 May 2025 13:09:15.742,17 May 2025 13:20:41.178,685.436
681,17 May 2025 14:43:51.462,17 May 2025 14:52:48.701,537.239
682,17 May 2025 23:46:43.450,17 May 2025 23:56:52.164,608.714
683,18 May 2025 01:19:55.095,18 May 2025 01:30:52.938,657.842
684,18 May 2025 12:50:43.115,18 May 2025 13:01:41.456,658.341
685,18 May 2025 14:24:44.337,18 May 2025 14:34:52.281,607.944
686,18 May 2025 23:28:46.807,18 May 2025 23:37:45.173,538.366
687,19 May 2025 01:00:55.201,19 May 2025 01:12:20.409,685.208
688,19 May 2025 12:32:19.246,19 May 2025 12:42:27.431,608.185
689,19 May 2025 14:05:45.879,19 May 2025 14:16:41.049,655.170
690,19 May 2025 23:11:10.046,19 May 2025 23:18:24.743,434.697
691,20 May 2025 00:42:07.722,20 May 2025 00:53:40.960,693.238
692,20 May 2025 02:18:58.958,20 May 2025 02:25:27.040,388.082
693,20 May 2025 12:14:08.151,20 May 2025 12:22:54.930,526.779
694,20 May 2025 13:46:54.158,20 May 2025 13:58:17.216,683.058
695,20 May 2025 15:23:18.268,20 May 2025 15:27:35.199,256.931
696,20 May 2025 22:54:10.634,20 May 2025 22:58:33.778,263.144
697,21 May 2025 00:23:31.891,21 May 2025 00:34:55.415,683.524
698,21 May 2025 01:58:56.047,21 May 2025 02:07:40.249,524.202
699,21 May 2025 11:56:20.472,21 May 2025 12:02:53.063,392.591
700,21 May 2025 13:28:08.463,21 May 2025 13:39:41.670,693.208
701,21 May 2025 15:03:25.883,21 May 2025 15:10:37.372,431.489
702,22 May 2025 00:05:07.753,22 May 2025 00:16:03.847,656.094
703,22 May 2025 01:39:22.995,22 May 2025 01:49:29.570,606.574
704,22 May 2025 13:09:28.855,22 May 2025 13:20:54.489,685.634
705,22 May 2025 14:44:05.002,22 May 2025 14:53:01.240,536.238
706,22 May 2025 23:46:56.190,22 May 2025 23:57:05.580,609.391
707,23 May 2025 01:20:08.564,23 May 2025 01:31:05.957,657.393
708,23 May 2025 12:50:56.135,23 May 2025 13:01:54.920,658.785
709,23 May 2025 14:24:57.755,23 May 2025 14:35:05.017,607.262
710,23 May 2025 23:28:59.349,23 May 2025 23:37:58.710,539.361
711,24 May 2025 01:01:08.516,24 May 2025 01:12:33.519,685.003
712,24 May 2025 12:32:32.145,24 May 2025 12:42:41.082,608.936
713,24 May 2025 14:05:59.211,24 May 2025 14:16:53.942,654.731
714,24 May 2025 23:11:22.302,24 May 2025 23:18:38.492,436.190
715,25 May 2025 00:42:20.896,25 May 2025 00:53:54.148,693.251
716,25 May 2025 02:19:13.376,25 May 2025 02:25:39.318,385.942
717,25 May 2025 12:14:20.866,25 May 2025 12:23:08.839,527.973
718,25 May 2025 13:47:07.415,25 May 2025 13:58:30.251,682.835
719,25 May 2025 15:23:32.709,25 May 2025 15:27:46.675,253.967
720,25 May 2025 22:54:22.165,25 May 2025 22:58:48.171,266.006
721,26 May 2025 00:23:44.931,26 May 2025 00:35:08.671,683.740
722,26 May 2025 01:59:09.969,26 May 2025 02:07:52.952,522.982
723,26 May 2025 11:56:32.781,26 May 2025 12:03:07.451,394.670
724,26 May 2025 13:28:21.651,26 May 2025 13:39:54.841,693.190
725,26 May 2025 15:03:39.640,26 May 2025 15:10:49.617,429.977
726,27 May 2025 00:05:20.653,27 May 2025 00:16:17.177,656.524
727,27 May 2025 01:39:36.656,27 May 2025 01:49:42.467,605.811
728,27 May 2025 13:09:41.973,27 May 2025 13:21:07.799,685.827
729,27 May 2025 14:44:18.542,27 May 2025 14:53:13.780,535.238
730,27 May 2025 23:47:08.932,27 May 2025 23:57:18.997,610.065
731,28 May 2025 01:20:22.037,28 May 2025 01:31:18.977,656.940
732,28 May 2025 12:51:09.163,28 May 2025 13:02:08.385,659.222
733,28 May 2025 14:25:11.174,28 May 2025 14:35:17.752,606.578
734,28 May 2025 23:29:11.898,28 May 2025 23:38:12.249,540.351
735,29 May 2025 01:01:21.831,29 May 2025 01:12:46.629,684.798
736,29 May 2025 12:32:45.052,29 May 2025 12:42:54.732,609.679
737,29 May 2025 14:06:12.544,29 May 2025 14:17:06.835,654.292
738,29 May 2025 23:11:34.565,29 May 2025 23:18:52.244,437.679
739,30 May 2025 00:42:34.074,30 May 2025 00:54:07.335,693.261
740,30 May 2025 02:19:27.805,30 May 2025 02:25:51.590,383.784
741,30 May 2025 12:14:33.586,30 May 2025 12:23:22.746,529.160
742,30 May 2025 13:47:20.675,30 May 2025 13:58:43.285,682.609
743,30 May 2025 15:23:47.176,30 May 2025 15:27:58.132,250.955
744,30 May 2025 22:54:33.716,30 May 2025 22:59:02.546,268.830
745,31 May 2025 00:23:57.973,31 May 2025 00:35:21.927,683.954
746,31 May 2025 01:59:23.896,31 May 2025 02:08:05.652,521.756
747,31 May 2025 11:56:45.097,31 May 2025 12:03:21.831,396.735
748,31 May 2025 13:28:34.841,31 May 2025 13:40:08.010,693.170
749,31 May 2025 15:03:53.403,31 May 2025 15:11:01.856,428.453
750,1 Jun 2025 00:05:33.554,1 Jun 2025 00:16:30.506,656.952
751,1 Jun 2025 01:39:50.319,1 Jun 2025 01:49:55.363,605.044
752,1 Jun 2025 11:40:47.453,1 Jun 2025 11:41:23.719,36.265
753,1 Jun 2025 13:09:55.088,1 Jun 2025 13:21:21.109,686.021
754,1 Jun 2025 14:44:32.086,1 Jun 2025 14:53:26.315,534.229
755,1 Jun 2025 23:47:21.676,1 Jun 2025 23:57:32.412,610.736
756,2 Jun 2025 01:20:35.511,2 Jun 2025 01:31:31.995,656.484
757,2 Jun 2025 12:51:22.191,2 Jun 2025 13:02:21.846,659.655
758,2 Jun 2025 14:25:24.595,2 Jun 2025 14:35:30.483,605.888
759,2 Jun 2025 23:29:24.448,2 Jun 2025 23:38:25.784,541.335
760,3 Jun 2025 01:01:35.149,3 Jun 2025 01:12:59.737,684.588
761,3 Jun 2025 12:32:57.959,3 Jun 2025 12:43:08.374,610.415
762,3 Jun 2025 14:06:25.877,3 Jun 2025 14:17:19.724,653.847
763,3 Jun 2025 23:11:46.828,3 Jun 2025 23:19:05.980,439.153
764,4 Jun 2025 00:42:47.252,4 Jun 2025 00:54:20.517,693.265
765,4 Jun 2025 02:19:42.242,4 Jun 2025 02:26:03.851,381.609
766,4 Jun 2025 12:14:46.307,4 Jun 2025 12:23:36.647,530.340
767,4 Jun 2025 13:47:33.931,4 Jun 2025 13:58:56.315,682.385
768,4 Jun 2025 15:24:01.658,4 Jun 2025 15:28:09.566,247.908
769,4 Jun 2025 22:54:45.282,4 Jun 2025 22:59:16.904,271.622
770,5 Jun 2025 00:24:11.014,5 Jun 2025 00:35:35.182,684.168
771,5 Jun 2025 01:59:37.826,5 Jun 2025 02:08:18.351,520.526
772,5 Jun 2025 11:56:57.420,5 Jun 2025 12:03:36.200,398.780
773,5 Jun 2025 13:28:48.029,5 Jun 2025 13:40:21.178,693.149
774,5 Jun 2025 15:04:07.166,5 Jun 2025 15:11:14.090,426.924
775,6 Jun 2025 00:05:46.455,6 Jun 2025 00:16:43.830,657.375
776,6 Jun 2025 01:40:03.982,6 Jun 2025 01:50:08.255,604.273
777,6 Jun 2025 11:40:50.032,6 Jun 2025 11:41:47.915,57.883
778,6 Jun 2025 13:10:08.202,6 Jun 2025 13:21:34.413,686.211
779,6 Jun 2025 14:44:45.626,6 Jun 2025 14:53:38.848,533.222
780,6 Jun 2025 23:47:34.420,6 Jun 2025 23:57:45.825,611.404
781,7 Jun 2025 01:20:48.986,7 Jun 2025 01:31:45.011,656.025
782,7 Jun 2025 12:51:35.218,7 Jun 2025 13:02:35.305,660.087
783,7 Jun 2025 14:25:38.016,7 Jun 2025 14:35:43.213,605.197
784,7 Jun 2025 23:29:37.001,7 Jun 2025 23:38:39.318,542.317
785,8 Jun 2025 01:01:48.469,8 Jun 2025 01:13:12.844,684.375
786,8 Jun 2025 12:33:10.868,8 Jun 2025 12:43:22.018,611.150
787,8 Jun 2025 14:06:39.206,8 Jun 2025 14:17:32.613,653.407
788,8 Jun 2025 23:11:59.095,8 Jun 2025 23:19:19.721,440.625
789,9 Jun 2025 00:43:00.432,9 Jun 2025 00:54:33.701,693.269
790,9 Jun 2025 02:19:56.685,9 Jun 2025 02:26:16.102,379.416
791,9 Jun 2025 12:14:59.029,9 Jun 2025 12:23:50.544,531.515
792,9 Jun 2025 13:47:47.190,9 Jun 2025 13:59:09.345,682.155
793,9 Jun 2025 15:24:16.156,9 Jun 2025 15:28:20.982,244.826
794,9 Jun 2025 22:54:56.863,9 Jun 2025 22:59:31.249,274.386
795,10 Jun 2025 00:24:24.059,10 Jun 2025 00:35:48.435,684.377
796,10 Jun 2025 01:59:51.759,10 Jun 2025 02:08:31.043,519.284
797,10 Jun 2025 11:57:09.753,10 Jun 2025 12:03:50.557,400.803
798,10 Jun 2025 13:29:01.220,10 Jun 2025 13:40:34.343,693.123
799,10 Jun 2025 15:04:20.933,10 Jun 2025 15:11:26.320,425.387
800,11 Jun 2025 00:05:59.359,11 Jun 2025 00:16:57.158,657.799
801,11 Jun 2025 01:40:17.645,11 Jun 2025 01:50:21.146,603.501
802,11 Jun 2025 11:40:55.681,11 Jun 2025 11:42:09.035,73.353
803,11 Jun 2025 13:10:21.319,11 Jun 2025 13:21:47.719,686.400
804,11 Jun 2025 14:44:59.172,11 Jun 2025 14:53:51.379,532.207
805,11 Jun 2025 23:47:47.168,11 Jun 2025 23:57:59.238,612.070
806,12 Jun 2025 01:21:02.469,12 Jun 2025 01:31:58.026,655.557
807,12 Jun 2025 12:51:48.243,12 Jun 2025 13:02:48.763,660.519
808,12 Jun 2025 14:25:51.438,12 Jun 2025 14:35:55.942,604.504
809,12 Jun 2025 23:29:49.556,12 Jun 2025 23:38:52.847,543.291
810,13 Jun 2025 01:02:01.791,13 Jun 2025 01:13:25.950,684.159
811,13 Jun 2025 12:33:23.780,13 Jun 2025 12:43:35.658,611.878
812,13 Jun 2025 14:06:52.541,13 Jun 2025 14:17:45.501,652.961
813,13 Jun 2025 23:12:11.369,13 Jun 2025 23:19:33.458,442.089
814,14 Jun 2025 00:43:13.614,14 Jun 2025 00:54:46.883,693.269
815,14 Jun 2025 02:20:11.144,14 Jun 2025 02:26:28.344,377.201
816,14 Jun 2025 12:15:11.758,14 Jun 2025 12:24:04.438,532.680
817,14 Jun 2025 13:48:00.452,14 Jun 2025 13:59:22.374,681.922
818,14 Jun 2025 15:24:30.679,14 Jun 2025 15:28:32.374,241.695
819,14 Jun 2025 22:55:08.463,14 Jun 2025 22:59:45.578,277.115
820,15 Jun 2025 00:24:37.105,15 Jun 2025 00:36:01.688,684.583
821,15 Jun 2025 02:00:05.697,15 Jun 2025 02:08:43.733,518.035
822,15 Jun 2025 11:57:22.095,15 Jun 2025 12:04:04.910,402.815
823,15 Jun 2025 13:29:14.411,15 Jun 2025 13:40:47.507,693.096
824,15 Jun 2025 15:04:34.705,15 Jun 2025 15:11:38.545,423.840
825,16 Jun 2025 00:06:12.264,16 Jun 2025 00:17:10.482,658.218
826,16 Jun 2025 01:40:31.315,16 Jun 2025 01:50:34.035,602.720
827,16 Jun 2025 11:41:02.713,16 Jun 2025 11:42:28.775,86.063
828,16 Jun 2025 13:10:34.437,16 Jun 2025 13:22:01.022,686.585
829,16 Jun 2025 14:45:12.720,16 Jun 2025 14:54:03.906,531.186
830,16 Jun 2025 23:47:59.917,16 Jun 2025 23:58:12.649,612.732
831,17 Jun 2025 01:21:15.945,17 Jun 2025 01:32:11.039,655.094
832,17 Jun 2025 12:52:01.277,17 Jun 2025 13:03:02.218,660.940
833,17 Jun 2025 14:26:04.860,17 Jun 2025 14:36:08.667,603.807
834,17 Jun 2025 23:30:02.112,17 Jun 2025 23:39:06.378,544.266
835,18 Jun 2025 01:02:15.114,18 Jun 2025 01:13:39.055,683.941
836,18 Jun 2025 12:33:36.696,18 Jun 2025 12:43:49.300,612.603
837,18 Jun 2025 14:07:05.875,18 Jun 2025 14:17:58.389,652.514
838,18 Jun 2025 23:12:23.645,18 Jun 2025 23:19:47.189,443.543
839,19 Jun 2025 00:43:26.797,19 Jun 2025 00:55:00.063,693.267
840,19 Jun 2025 02:20:25.610,19 Jun 2025 02:26:40.577,374.967
841,19 Jun 2025 12:15:24.487,19 Jun 2025 12:24:18.324,533.837
842,19 Jun 2025 13:48:13.712,19 Jun 2025 13:59:35.399,681.687
843,19 Jun 2025 15:24:45.221,19 Jun 2025 15:28:43.742,238.521
844,19 Jun 2025 22:55:20.077,19 Jun 2025 22:59:59.890,279.813
845,20 Jun 2025 00:24:50.151,20 Jun 2025 00:36:14.938,684.787
846,20 Jun 2025 02:00:19.638,20 Jun 2025 02:08:56.417,516.780
847,20 Jun 2025 11:57:34.444,20 Jun 2025 12:04:19.252,404.809
848,20 Jun 2025 13:29:27.602,20 Jun 2025 13:41:00.671,693.068
849,20 Jun 2025 15:04:48.478,20 Jun 2025 15:11:50.765,422.287
850,21 Jun 2025 00:06:25.170,21 Jun 2025 00:17:23.808,658.637
851,21 Jun 2025 01:40:44.986,21 Jun 2025 01:50:46.921,601.935
852,21 Jun 2025 11:41:10.585,21 Jun 2025 11:42:47.668,97.083
853,21 Jun 2025 13:10:47.554,21 Jun 2025 13:22:14.325,686.770
854,21 Jun 2025 14:45:26.268,21 Jun 2025 14:54:16.431,530.163
855,21 Jun 2025 23:48:12.662,21 Jun 2025 23:58:26.055,613.393
856,22 Jun 2025 01:21:29.428,22 Jun 2025 01:32:24.050,654.622
857,22 Jun 2025 12:52:14.304,22 Jun 2025 13:03:15.670,661.366
858,22 Jun 2025 14:26:18.284,22 Jun 2025 14:36:21.390,603.106
859,22 Jun 2025 23:30:14.671,22 Jun 2025 23:39:19.906,545.235
860,23 Jun 2025 01:02:28.438,23 Jun 2025 01:13:52.158,683.719
861,23 Jun 2025 12:33:49.607,23 Jun 2025 12:44:02.935,613.328
862,23 Jun 2025 14:07:19.210,23 Jun 2025 14:18:11.267,652.058
863,23 Jun 2025 23:12:35.926,23 Jun 2025 23:20:00.920,444.994
864,24 Jun 2025 00:43:39.979,24 Jun 2025 00:55:13.243,693.264
865,24 Jun 2025 02:20:40.088,24 Jun 2025 02:26:52.798,372.710
866,24 Jun 2025 12:15:37.216,24 Jun 2025 12:24:32.210,534.994
867,24 Jun 2025 13:48:26.974,24 Jun 2025 13:59:48.424,681.450
868,24 Jun 2025 15:24:59.784,24 Jun 2025 15:28:55.090,235.306
869,24 Jun 2025 22:55:31.705,24 Jun 2025 23:00:14.192,282.487
870,25 Jun 2025 00:25:03.200,25 Jun 2025 00:36:28.188,684.988
871,25 Jun 2025 02:00:33.584,25 Jun 2025 02:09:09.099,515.515
872,25 Jun 2025 11:57:46.801,25 Jun 2025 12:04:33.588,406.787
873,25 Jun 2025 13:29:40.796,25 Jun 2025 13:41:13.833,693.037
874,25 Jun 2025 15:05:02.256,25 Jun 2025 15:12:02.982,420.726
875,26 Jun 2025 00:06:38.079,26 Jun 2025 00:17:37.133,659.054
876,26 Jun 2025 01:40:58.661,26 Jun 2025 01:50:59.806,601.145
877,26 Jun 2025 11:41:19.034,26 Jun 2025 11:43:05.986,106.951
878,26 Jun 2025 13:11:00.674,26 Jun 2025 13:22:27.624,686.950
879,26 Jun 2025 14:45:39.822,26 Jun 2025 14:54:28.954,529.132
880,26 Jun 2025 23:48:25.416,26 Jun 2025 23:58:39.466,614.050
881,27 Jun 2025 01:21:42.912,27 Jun 2025 01:32:37.058,654.147
882,27 Jun 2025 12:52:27.341,27 Jun 2025 13:03:29.122,661.782
883,27 Jun 2025 14:26:31.710,27 Jun 2025 14:36:34.113,602.402
884,27 Jun 2025 23:30:27.235,27 Jun 2025 23:39:33.433,546.198
885,28 Jun 2025 01:02:41.765,28 Jun 2025 01:14:05.261,683.495
886,28 Jun 2025 12:34:02.524,28 Jun 2025 12:44:16.568,614.045
887,28 Jun 2025 14:07:32.546,28 Jun 2025 14:18:24.150,651.604
888,28 Jun 2025 23:12:48.211,28 Jun 2025 23:20:14.645,446.433
889,29 Jun 2025 00:43:53.165,29 Jun 2025 00:55:26.422,693.257
890,29 Jun 2025 02:20:54.577,29 Jun 2025 02:27:05.012,370.435
891,29 Jun 2025 12:15:49.952,29 Jun 2025 12:24:46.092,536.141
892,29 Jun 2025 13:48:40.237,29 Jun 2025 14:00:01.447,681.210
893,29 Jun 2025 15:25:14.374,29 Jun 2025 15:29:06.409,232.035
894,29 Jun 2025 22:55:43.350,29 Jun 2025 23:00:28.476,285.126
895,30 Jun 2025 00:25:16.250,30 Jun 2025 00:36:41.437,685.187
896,30 Jun 2025 02:00:47.533,30 Jun 2025 02:09:21.778,514.245
897,30 Jun 2025 11:57:59.159,30 Jun 2025 12:04:47.915,408.756
898,30 Jun 2025 13:29:53.989,30 Jun 2025 13:41:26.991,693.002
899,30 Jun 2025 15:05:16.038,30 Jun 2025 15:12:15.192,419.154
900,1 Jul 2025 00:06:50.989,1 Jul 2025 00:17:50.455,659.467
901,1 Jul 2025 01:41:12.338,1 Jul 2025 01:51:12.689,600.351
902,1 Jul 2025 11:41:27.908,1 Jul 2025 11:43:23.876,115.968
903,1 Jul 2025 13:11:13.793,1 Jul 2025 13:22:40.920,687.127
904,1 Jul 2025 14:45:53.374,1 Jul 2025 14:54:41.472,528.097
905,1 Jul 2025 23:48:38.170,1 Jul 2025 23:58:52.875,614.704
906,2 Jul 2025 01:21:56.396,2 Jul 2025 01:32:50.067,653.670
907,2 Jul 2025 12:52:40.370,2 Jul 2025 13:03:42.568,662.198
908,2 Jul 2025 14:26:45.135,2 Jul 2025 14:36:46.831,601.696
909,2 Jul 2025 23:30:39.798,2 Jul 2025 23:39:46.956,547.158
910,3 Jul 2025 01:02:55.092,3 Jul 2025 01:14:18.361,683.269
911,3 Jul 2025 12:34:15.442,3 Jul 2025 12:44:30.197,614.756
912,3 Jul 2025 14:07:45.882,3 Jul 2025 14:18:37.030,651.148
913,3 Jul 2025 23:13:00.499,3 Jul 2025 23:20:28.367,447.868
914,4 Jul 2025 00:44:06.351,4 Jul 2025 00:55:39.598,693.248
915,4 Jul 2025 02:21:09.074,4 Jul 2025 02:27:17.212,368.138
916,4 Jul 2025 12:16:02.690,4 Jul 2025 12:24:59.969,537.279
917,4 Jul 2025 13:48:53.499,4 Jul 2025 14:00:14.467,680.968
918,4 Jul 2025 15:25:28.983,4 Jul 2025 15:29:17.703,228.720
919,4 Jul 2025 22:55:55.006,4 Jul 2025 23:00:42.747,287.741
920,5 Jul 2025 00:25:29.298,5 Jul 2025 00:36:54.680,685.383
921,5 Jul 2025 02:01:01.485,5 Jul 2025 02:09:34.451,512.966
922,5 Jul 2025 11:58:11.531,5 Jul 2025 12:05:02.231,410.701
923,5 Jul 2025 13:30:07.181,5 Jul 2025 13:41:40.147,692.965
924,5 Jul 2025 15:05:29.823,5 Jul 2025 15:12:27.398,417.574
925,6 Jul 2025 00:07:03.899,6 Jul 2025 00:18:03.776,659.877
926,6 Jul 2025 01:41:26.016,6 Jul 2025 01:51:25.568,599.552
927,6 Jul 2025 11:41:37.128,6 Jul 2025 11:43:41.422,124.294
928,6 Jul 2025 13:11:26.913,6 Jul 2025 13:22:54.214,687.302
929,6 Jul 2025 14:46:06.926,6 Jul 2025 14:54:53.987,527.061
930,6 Jul 2025 23:48:50.924,6 Jul 2025 23:59:06.279,615.355
931,7 Jul 2025 01:22:09.882,7 Jul 2025 01:33:03.073,653.191
932,7 Jul 2025 12:52:53.405,7 Jul 2025 13:03:56.016,662.610
933,7 Jul 2025 14:26:58.560,7 Jul 2025 14:36:59.548,600.987
934,7 Jul 2025 23:30:52.365,7 Jul 2025 23:40:00.478,548.113
935,8 Jul 2025 01:03:08.421,8 Jul 2025 01:14:31.460,683.039
936,8 Jul 2025 12:34:28.358,8 Jul 2025 12:44:43.820,615.462
937,8 Jul 2025 14:07:59.219,8 Jul 2025 14:18:49.906,650.687
938,8 Jul 2025 23:13:12.796,8 Jul 2025 23:20:42.090,449.295
939,9 Jul 2025 00:44:19.539,9 Jul 2025 00:55:52.774,693.236
940,9 Jul 2025 02:21:23.584,9 Jul 2025 02:27:29.402,365.818
941,9 Jul 2025 12:16:15.432,9 Jul 2025 12:25:13.843,538.411
942,9 Jul 2025 13:49:06.762,9 Jul 2025 14:00:27.486,680.724
943,9 Jul 2025 15:25:43.620,9 Jul 2025 15:29:28.972,225.352
944,9 Jul 2025 22:56:06.677,9 Jul 2025 23:00:57.007,290.330
945,10 Jul 2025 00:25:42.350,10 Jul 2025 00:37:07.928,685.578
946,10 Jul 2025 02:01:15.443,10 Jul 2025 02:09:47.121,511.678
947,10 Jul 2025 11:58:23.909,10 Jul 2025 12:05:16.541,412.633
948,10 Jul 2025 13:30:20.376,10 Jul 2025 13:41:53.301,692.925
949,10 Jul 2025 15:05:43.612,10 Jul 2025 15:12:39.600,415.987
950,11 Jul 2025 00:07:16.808,11 Jul 2025 00:18:17.096,660.288
951,11 Jul 2025 01:41:39.698,11 Jul 2025 01:51:38.442,598.744
952,11 Jul 2025 11:41:46.614,11 Jul 2025 11:43:58.700,132.086
953,11 Jul 2025 13:11:40.034,11 Jul 2025 13:23:07.507,687.473
954,11 Jul 2025 14:46:20.481,11 Jul 2025 14:55:06.501,526.020
955,11 Jul 2025 23:49:03.683,11 Jul 2025 23:59:19.685,616.002
956,12 Jul 2025 01:22:23.371,12 Jul 2025 01:33:16.079,652.708
957,12 Jul 2025 12:53:06.441,12 Jul 2025 13:04:09.461,663.020
958,12 Jul 2025 14:27:11.983,12 Jul 2025 14:37:12.263,600.280
959,12 Jul 2025 23:31:04.932,12 Jul 2025 23:40:13.999,549.067
960,13 Jul 2025 01:03:21.752,13 Jul 2025 01:14:44.559,682.807
961,13 Jul 2025 12:34:41.278,13 Jul 2025 12:44:57.448,616.169
962,13 Jul 2025 14:08:12.557,13 Jul 2025 14:19:02.780,650.223
963,13 Jul 2025 23:13:25.088,13 Jul 2025 23:20:55.805,450.718
964,14 Jul 2025 00:44:32.728,14 Jul 2025 00:56:05.950,693.221
965,14 Jul 2025 02:21:38.104,14 Jul 2025 02:27:41.582,363.478
966,14 Jul 2025 12:16:28.177,14 Jul 2025 12:25:27.711,539.535
967,14 Jul 2025 13:49:20.029,14 Jul 2025 14:00:40.499,680.470
968,14 Jul 2025 15:25:58.288,14 Jul 2025 15:29:40.210,221.922
969,14 Jul 2025 22:56:18.359,14 Jul 2025 23:01:11.249,292.890
970,15 Jul 2025 00:25:55.403,15 Jul 2025 00:37:21.173,685.770
971,15 Jul 2025 02:01:29.403,15 Jul 2025 02:09:59.789,510.386
972,15 Jul 2025 11:58:36.290,15 Jul 2025 12:05:30.843,414.553
973,15 Jul 2025 13:30:33.570,15 Jul 2025 13:42:06.454,692.883
974,15 Jul 2025 15:05:57.405,15 Jul 2025 15:12:51.794,414.390
975,16 Jul 2025 00:07:29.721,16 Jul 2025 00:18:30.413,660.692
976,16 Jul 2025 01:41:53.381,16 Jul 2025 01:51:51.318,597.937
977,16 Jul 2025 11:41:56.327,16 Jul 2025 11:44:15.754,139.427
978,16 Jul 2025 13:11:53.151,16 Jul 2025 13:23:20.794,687.643
