3UCubedIntegratedSim/Reports & Plots/Comms/SSU/Sat6 Comms.csv

"Access","Start Time (UTCG)","Stop Time (UTCG)","Duration (sec)"
1,2 Jan 2025 00:02:42.246,2 Jan 2025 00:08:46.185,363.939
2,2 Jan 2025 01:32:58.298,2 Jan 2025 01:44:28.955,690.657
3,2 Jan 2025 03:09:03.119,2 Jan 2025 03:16:47.453,464.334
4,2 Jan 2025 13:05:19.661,2 Jan 2025 13:13:09.633,469.972
5,2 Jan 2025 14:37:40.592,2 Jan 2025 14:49:10.817,690.225
6,2 Jan 2025 16:13:26.031,2 Jan 2025 16:19:22.879,356.848
7,2 Jan 2025 23:46:48.794,2 Jan 2025 23:47:52.728,63.934
8,3 Jan 2025 01:14:28.156,3 Jan 2025 01:25:40.486,672.330
9,3 Jan 2025 02:49:17.203,3 Jan 2025 02:58:46.639,569.437
10,3 Jan 2025 12:47:55.709,3 Jan 2025 12:52:40.969,285.260
11,3 Jan 2025 14:18:57.840,3 Jan 2025 14:30:29.595,691.755
12,3 Jan 2025 15:53:53.499,3 Jan 2025 16:02:01.818,488.319
13,4 Jan 2025 00:56:10.020,4 Jan 2025 01:06:45.773,635.753
14,4 Jan 2025 02:29:54.073,4 Jan 2025 02:40:28.863,634.790
15,4 Jan 2025 14:00:21.467,4 Jan 2025 14:11:36.481,675.014
16,4 Jan 2025 15:34:40.281,4 Jan 2025 15:44:14.801,574.520
17,5 Jan 2025 00:38:05.300,5 Jan 2025 00:47:43.633,578.333
18,5 Jan 2025 02:10:47.045,5 Jan 2025 02:22:00.589,673.544
19,5 Jan 2025 13:41:52.718,5 Jan 2025 13:52:30.227,637.508
20,5 Jan 2025 15:15:37.681,5 Jan 2025 15:26:10.880,633.199
21,6 Jan 2025 00:20:17.218,6 Jan 2025 00:28:31.134,493.916
22,6 Jan 2025 01:51:53.258,6 Jan 2025 02:03:24.591,691.333
23,6 Jan 2025 03:29:50.167,6 Jan 2025 03:34:20.016,269.850
24,6 Jan 2025 13:23:34.255,6 Jan 2025 13:33:08.088,573.833
25,6 Jan 2025 14:56:42.600,6 Jan 2025 15:07:53.423,670.823
26,7 Jan 2025 00:02:54.262,7 Jan 2025 00:09:00.126,365.864
27,7 Jan 2025 01:33:11.402,7 Jan 2025 01:44:42.170,690.768
28,7 Jan 2025 03:09:17.236,7 Jan 2025 03:16:59.988,462.752
29,7 Jan 2025 13:05:32.216,7 Jan 2025 13:13:23.722,471.506
30,7 Jan 2025 14:37:53.811,7 Jan 2025 14:49:23.914,690.104
31,7 Jan 2025 16:13:40.001,7 Jan 2025 16:19:34.860,354.859
32,7 Jan 2025 23:46:55.971,7 Jan 2025 23:48:11.424,75.453
33,8 Jan 2025 01:14:41.123,8 Jan 2025 01:25:53.773,672.650
34,8 Jan 2025 02:49:30.976,8 Jan 2025 02:58:59.449,568.472
35,8 Jan 2025 12:48:07.470,8 Jan 2025 12:52:55.930,288.460
36,8 Jan 2025 14:19:10.988,8 Jan 2025 14:30:42.828,691.840
37,8 Jan 2025 15:54:07.127,8 Jan 2025 16:02:14.222,487.095
38,9 Jan 2025 00:56:22.841,9 Jan 2025 01:06:59.137,636.296
39,9 Jan 2025 02:30:07.629,9 Jan 2025 02:40:41.820,634.191
40,9 Jan 2025 14:00:34.538,9 Jan 2025 14:11:49.859,675.321
41,9 Jan 2025 15:34:53.752,9 Jan 2025 15:44:27.438,573.685
42,10 Jan 2025 00:38:17.950,10 Jan 2025 00:47:57.096,579.146
43,10 Jan 2025 02:11:00.437,10 Jan 2025 02:22:13.651,673.214
44,10 Jan 2025 13:42:05.686,10 Jan 2025 13:52:43.772,638.086
45,10 Jan 2025 15:15:51.051,10 Jan 2025 15:26:23.690,632.639
46,11 Jan 2025 00:20:29.646,11 Jan 2025 00:28:44.748,495.102
47,11 Jan 2025 01:52:06.502,11 Jan 2025 02:03:37.730,691.229
48,11 Jan 2025 03:30:05.265,11 Jan 2025 03:34:31.644,266.380
49,11 Jan 2025 13:23:47.074,11 Jan 2025 13:33:21.846,574.771
50,11 Jan 2025 14:56:55.890,11 Jan 2025 15:08:06.381,670.491
51,12 Jan 2025 00:03:06.287,12 Jan 2025 00:09:14.056,367.770
52,12 Jan 2025 01:33:24.508,12 Jan 2025 01:44:55.385,690.877
53,12 Jan 2025 03:09:31.356,12 Jan 2025 03:17:12.524,461.168
54,12 Jan 2025 13:05:44.778,12 Jan 2025 13:13:37.808,473.029
55,12 Jan 2025 14:38:07.030,12 Jan 2025 14:49:37.009,689.979
56,12 Jan 2025 16:13:53.979,12 Jan 2025 16:19:46.832,352.853
57,12 Jan 2025 23:47:03.934,12 Jan 2025 23:48:29.328,85.394
58,13 Jan 2025 01:14:54.092,13 Jan 2025 01:26:07.057,672.965
59,13 Jan 2025 02:49:44.752,13 Jan 2025 02:59:12.256,567.504
60,13 Jan 2025 12:48:19.251,13 Jan 2025 12:53:10.874,291.623
61,13 Jan 2025 14:19:24.136,13 Jan 2025 14:30:56.059,691.923
62,13 Jan 2025 15:54:20.757,13 Jan 2025 16:02:26.621,485.863
63,14 Jan 2025 00:56:35.663,14 Jan 2025 01:07:12.495,636.833
64,14 Jan 2025 02:30:21.185,14 Jan 2025 02:40:54.777,633.592
65,14 Jan 2025 14:00:47.605,14 Jan 2025 14:12:03.234,675.629
66,14 Jan 2025 15:35:07.224,14 Jan 2025 15:44:40.071,572.847
67,15 Jan 2025 00:38:30.601,15 Jan 2025 00:48:10.556,579.955
68,15 Jan 2025 02:11:13.827,15 Jan 2025 02:22:26.711,672.885
69,15 Jan 2025 13:42:18.652,15 Jan 2025 13:52:57.314,638.662
70,15 Jan 2025 15:16:04.420,15 Jan 2025 15:26:36.497,632.077
71,16 Jan 2025 00:20:42.070,16 Jan 2025 00:28:58.358,496.288
72,16 Jan 2025 01:52:19.744,16 Jan 2025 02:03:50.872,691.127
73,16 Jan 2025 03:30:20.391,16 Jan 2025 03:34:43.246,262.854
74,16 Jan 2025 13:23:59.896,16 Jan 2025 13:33:35.599,575.703
75,16 Jan 2025 14:57:09.181,16 Jan 2025 15:08:19.335,670.155
76,17 Jan 2025 00:03:18.317,17 Jan 2025 00:09:27.982,369.666
77,17 Jan 2025 01:33:37.614,17 Jan 2025 01:45:08.597,690.983
78,17 Jan 2025 03:09:45.481,17 Jan 2025 03:17:25.049,459.568
79,17 Jan 2025 13:05:57.347,17 Jan 2025 13:13:51.886,474.539
80,17 Jan 2025 14:38:20.250,17 Jan 2025 14:49:50.102,689.852
81,17 Jan 2025 16:14:07.962,17 Jan 2025 16:19:58.797,350.834
82,17 Jan 2025 23:47:12.418,17 Jan 2025 23:48:46.719,94.301
83,18 Jan 2025 01:15:07.062,18 Jan 2025 01:26:20.340,673.278
84,18 Jan 2025 02:49:58.531,18 Jan 2025 02:59:25.059,566.529
85,18 Jan 2025 12:48:31.054,18 Jan 2025 12:53:25.790,294.736
86,18 Jan 2025 14:19:37.285,18 Jan 2025 14:31:09.288,692.003
87,18 Jan 2025 15:54:34.386,18 Jan 2025 16:02:39.017,484.631
88,19 Jan 2025 00:56:48.487,19 Jan 2025 01:07:25.857,637.370
89,19 Jan 2025 02:30:34.747,19 Jan 2025 02:41:07.733,632.986
90,19 Jan 2025 14:01:00.674,19 Jan 2025 14:12:16.609,675.935
91,19 Jan 2025 15:35:20.697,19 Jan 2025 15:44:52.703,572.006
92,20 Jan 2025 00:38:43.255,20 Jan 2025 00:48:24.016,580.761
93,20 Jan 2025 02:11:27.218,20 Jan 2025 02:22:39.771,672.553
94,20 Jan 2025 13:42:31.622,20 Jan 2025 13:53:10.857,639.235
95,20 Jan 2025 15:16:17.787,20 Jan 2025 15:26:49.304,631.516
96,21 Jan 2025 00:20:54.499,21 Jan 2025 00:29:11.968,497.469
97,21 Jan 2025 01:52:32.991,21 Jan 2025 02:04:04.013,691.022
98,21 Jan 2025 03:30:35.549,21 Jan 2025 03:34:54.819,259.270
99,21 Jan 2025 13:24:12.722,21 Jan 2025 13:33:49.352,576.630
100,21 Jan 2025 14:57:22.474,21 Jan 2025 15:08:32.292,669.818
101,22 Jan 2025 00:03:30.356,22 Jan 2025 00:09:41.899,371.544
102,22 Jan 2025 01:33:50.727,22 Jan 2025 01:45:21.807,691.079
103,22 Jan 2025 03:09:59.609,22 Jan 2025 03:17:37.575,457.966
104,22 Jan 2025 13:06:09.917,22 Jan 2025 13:14:05.963,476.047
105,22 Jan 2025 14:38:33.472,22 Jan 2025 14:50:03.195,689.723
106,22 Jan 2025 16:14:21.955,22 Jan 2025 16:20:10.756,348.801
107,22 Jan 2025 23:47:21.298,22 Jan 2025 23:49:03.718,102.420
108,23 Jan 2025 01:15:20.035,23 Jan 2025 01:26:33.624,673.589
109,23 Jan 2025 02:50:12.314,23 Jan 2025 02:59:37.863,565.549
110,23 Jan 2025 12:48:42.877,23 Jan 2025 12:53:40.689,297.812
111,23 Jan 2025 14:19:50.436,23 Jan 2025 14:31:22.517,692.081
112,23 Jan 2025 15:54:48.024,23 Jan 2025 16:02:51.411,483.387
113,24 Jan 2025 00:57:01.314,24 Jan 2025 01:07:39.218,637.904
114,24 Jan 2025 02:30:48.311,24 Jan 2025 02:41:20.689,632.378
115,24 Jan 2025 14:01:13.746,24 Jan 2025 14:12:29.982,676.236
116,24 Jan 2025 15:35:34.174,24 Jan 2025 15:45:05.333,571.159
117,25 Jan 2025 00:38:55.913,25 Jan 2025 00:48:37.475,581.562
118,25 Jan 2025 02:11:40.612,25 Jan 2025 02:22:52.831,672.219
119,25 Jan 2025 13:42:44.593,25 Jan 2025 13:53:24.395,639.802
120,25 Jan 2025 15:16:31.161,25 Jan 2025 15:27:02.109,630.948
121,26 Jan 2025 00:21:06.932,26 Jan 2025 00:29:25.575,498.643
122,26 Jan 2025 01:52:46.239,26 Jan 2025 02:04:17.155,690.916
123,26 Jan 2025 03:30:50.736,26 Jan 2025 03:35:06.366,255.631
124,26 Jan 2025 13:24:25.548,26 Jan 2025 13:34:03.101,577.553
125,26 Jan 2025 14:57:35.767,26 Jan 2025 15:08:45.246,669.478
126,27 Jan 2025 00:03:42.402,27 Jan 2025 00:09:55.812,373.410
127,27 Jan 2025 01:34:03.838,27 Jan 2025 01:45:35.019,691.181
128,27 Jan 2025 03:10:13.748,27 Jan 2025 03:17:50.098,456.350
129,27 Jan 2025 13:06:22.491,27 Jan 2025 13:14:20.035,477.544
130,27 Jan 2025 14:38:46.694,27 Jan 2025 14:50:16.285,689.591
131,27 Jan 2025 16:14:35.956,27 Jan 2025 16:20:22.701,346.745
132,27 Jan 2025 23:47:30.486,27 Jan 2025 23:49:20.403,109.917
133,28 Jan 2025 01:15:33.009,28 Jan 2025 01:26:46.906,673.897
134,28 Jan 2025 02:50:26.099,28 Jan 2025 02:59:50.663,564.564
135,28 Jan 2025 12:48:54.716,28 Jan 2025 12:53:55.566,300.849
136,28 Jan 2025 14:20:03.587,28 Jan 2025 14:31:35.744,692.157
137,28 Jan 2025 15:55:01.663,28 Jan 2025 16:03:03.799,482.137
138,29 Jan 2025 00:57:14.141,29 Jan 2025 01:07:52.576,638.435
139,29 Jan 2025 02:31:01.876,29 Jan 2025 02:41:33.643,631.766
140,29 Jan 2025 14:01:26.817,29 Jan 2025 14:12:43.352,676.535
141,29 Jan 2025 15:35:47.651,29 Jan 2025 15:45:17.960,570.309
142,30 Jan 2025 00:39:08.575,30 Jan 2025 00:48:50.928,582.353
143,30 Jan 2025 02:11:54.007,30 Jan 2025 02:23:05.888,671.882
144,30 Jan 2025 13:42:57.565,30 Jan 2025 13:53:37.930,640.365
145,30 Jan 2025 15:16:44.534,30 Jan 2025 15:27:14.910,630.376
146,31 Jan 2025 00:21:19.366,31 Jan 2025 00:29:39.178,499.812
147,31 Jan 2025 01:52:59.487,31 Jan 2025 02:04:30.294,690.807
148,31 Jan 2025 03:31:05.953,31 Jan 2025 03:35:17.880,251.927
149,31 Jan 2025 13:24:38.376,31 Jan 2025 13:34:16.845,578.469
150,31 Jan 2025 14:57:49.061,31 Jan 2025 15:08:58.196,669.136
151,1 Feb 2025 00:03:54.454,1 Feb 2025 00:10:09.722,375.268
152,1 Feb 2025 01:34:16.950,1 Feb 2025 01:45:48.230,691.280
153,1 Feb 2025 03:10:27.892,1 Feb 2025 03:18:02.611,454.720
154,1 Feb 2025 13:06:35.070,1 Feb 2025 13:14:34.099,479.029
155,1 Feb 2025 14:38:59.917,1 Feb 2025 14:50:29.374,689.457
156,1 Feb 2025 16:14:49.962,1 Feb 2025 16:20:34.642,344.681
157,1 Feb 2025 23:47:39.913,1 Feb 2025 23:49:36.857,116.944
158,2 Feb 2025 01:15:45.984,2 Feb 2025 01:27:00.187,674.202
159,2 Feb 2025 02:50:39.888,2 Feb 2025 03:00:03.461,563.573
160,2 Feb 2025 12:49:06.577,2 Feb 2025 12:54:10.422,303.845
161,2 Feb 2025 14:20:16.740,2 Feb 2025 14:31:48.969,692.229
162,2 Feb 2025 15:55:15.304,2 Feb 2025 16:03:16.186,480.882
163,3 Feb 2025 00:57:26.971,3 Feb 2025 01:08:05.935,638.964
164,3 Feb 2025 02:31:15.444,3 Feb 2025 02:41:46.595,631.151
165,3 Feb 2025 14:01:39.890,3 Feb 2025 14:12:56.722,676.831
166,3 Feb 2025 15:36:01.134,3 Feb 2025 15:45:30.585,569.451
167,4 Feb 2025 00:39:21.232,4 Feb 2025 00:49:04.385,583.153
168,4 Feb 2025 02:12:07.405,4 Feb 2025 02:23:18.946,671.541
169,4 Feb 2025 13:43:10.539,4 Feb 2025 13:53:51.465,640.926
170,4 Feb 2025 15:16:57.910,4 Feb 2025 15:27:27.712,629.802
171,5 Feb 2025 00:21:31.805,5 Feb 2025 00:29:52.782,500.976
172,5 Feb 2025 01:53:12.738,5 Feb 2025 02:04:43.434,690.695
173,5 Feb 2025 03:31:21.206,5 Feb 2025 03:35:29.362,248.157
174,5 Feb 2025 13:24:51.208,5 Feb 2025 13:34:30.585,579.377
175,5 Feb 2025 14:58:02.357,5 Feb 2025 15:09:11.148,668.791
176,6 Feb 2025 00:04:06.510,6 Feb 2025 00:10:23.624,377.114
177,6 Feb 2025 01:34:30.065,6 Feb 2025 01:46:01.443,691.378
178,6 Feb 2025 03:10:42.037,6 Feb 2025 03:18:15.122,453.085
179,6 Feb 2025 13:06:47.653,6 Feb 2025 13:14:48.159,480.506
180,6 Feb 2025 14:39:13.142,6 Feb 2025 14:50:42.462,689.320
181,6 Feb 2025 16:15:03.979,6 Feb 2025 16:20:46.575,342.596
182,6 Feb 2025 23:47:49.551,6 Feb 2025 23:49:53.095,123.545
183,7 Feb 2025 01:15:58.963,7 Feb 2025 01:27:13.468,674.505
184,7 Feb 2025 02:50:53.684,7 Feb 2025 03:00:16.259,562.574
185,7 Feb 2025 12:49:18.454,7 Feb 2025 12:54:25.262,306.808
186,7 Feb 2025 14:20:29.890,7 Feb 2025 14:32:02.198,692.308
187,7 Feb 2025 15:55:28.951,7 Feb 2025 16:03:28.567,479.615
188,8 Feb 2025 00:57:39.804,8 Feb 2025 01:08:19.294,639.489
189,8 Feb 2025 02:31:29.014,8 Feb 2025 02:41:59.547,630.533
190,8 Feb 2025 14:01:52.965,8 Feb 2025 14:13:10.090,677.125
191,8 Feb 2025 15:36:14.611,8 Feb 2025 15:45:43.208,568.597
192,9 Feb 2025 00:39:33.897,9 Feb 2025 00:49:17.837,583.940
193,9 Feb 2025 02:12:20.804,9 Feb 2025 02:23:32.003,671.199
194,9 Feb 2025 13:43:23.513,9 Feb 2025 13:54:04.997,641.484
195,9 Feb 2025 15:17:11.287,9 Feb 2025 15:27:40.511,629.224
196,10 Feb 2025 00:21:44.248,10 Feb 2025 00:30:06.381,502.133
197,10 Feb 2025 01:53:25.991,10 Feb 2025 02:04:56.572,690.581
198,10 Feb 2025 03:31:36.490,10 Feb 2025 03:35:40.814,244.324
199,10 Feb 2025 13:25:04.041,10 Feb 2025 13:34:44.327,580.287
200,10 Feb 2025 14:58:15.653,10 Feb 2025 15:09:24.095,668.442
201,11 Feb 2025 00:04:18.577,11 Feb 2025 00:10:37.521,378.945
202,11 Feb 2025 01:34:43.179,11 Feb 2025 01:46:14.655,691.477
203,11 Feb 2025 03:10:56.195,11 Feb 2025 03:18:27.623,451.428
204,11 Feb 2025 13:07:00.239,11 Feb 2025 13:15:02.212,481.973
205,11 Feb 2025 14:39:26.367,11 Feb 2025 14:50:55.548,689.181
206,11 Feb 2025 16:15:18.002,11 Feb 2025 16:20:58.496,340.494
207,11 Feb 2025 23:47:59.360,11 Feb 2025 23:50:09.168,129.808
208,12 Feb 2025 01:16:11.942,12 Feb 2025 01:27:26.748,674.806
209,12 Feb 2025 02:51:07.475,12 Feb 2025 03:00:29.052,561.577
210,12 Feb 2025 12:49:30.349,12 Feb 2025 12:54:40.083,309.734
211,12 Feb 2025 14:20:43.044,12 Feb 2025 14:32:15.420,692.376
212,12 Feb 2025 15:55:42.598,12 Feb 2025 16:03:40.945,478.346
213,13 Feb 2025 00:57:52.638,13 Feb 2025 01:08:32.648,640.009
214,13 Feb 2025 02:31:42.586,13 Feb 2025 02:42:12.500,629.915
215,13 Feb 2025 14:02:06.039,13 Feb 2025 14:13:23.451,677.412
216,13 Feb 2025 15:36:28.094,13 Feb 2025 15:45:55.828,567.734
217,14 Feb 2025 00:39:46.564,14 Feb 2025 00:49:31.290,584.727
218,14 Feb 2025 02:12:34.205,14 Feb 2025 02:23:45.058,670.853
219,14 Feb 2025 13:43:36.489,14 Feb 2025 13:54:18.526,642.037
220,14 Feb 2025 15:17:24.664,14 Feb 2025 15:27:53.309,628.645
221,15 Feb 2025 00:21:56.693,15 Feb 2025 00:30:19.979,503.286
222,15 Feb 2025 01:53:39.245,15 Feb 2025 02:05:09.709,690.464
223,15 Feb 2025 03:31:51.813,15 Feb 2025 03:35:52.227,240.414
224,15 Feb 2025 13:25:16.876,15 Feb 2025 13:34:58.066,581.189
225,15 Feb 2025 14:58:28.950,15 Feb 2025 15:09:37.040,668.090
226,16 Feb 2025 00:04:30.649,16 Feb 2025 00:10:51.416,380.767
227,16 Feb 2025 01:34:56.296,16 Feb 2025 01:46:27.865,691.569
228,16 Feb 2025 03:11:10.355,16 Feb 2025 03:18:40.122,449.767
229,16 Feb 2025 13:07:12.831,16 Feb 2025 13:15:16.262,483.431
230,16 Feb 2025 14:39:39.594,16 Feb 2025 14:51:08.633,689.039
231,16 Feb 2025 16:15:32.034,16 Feb 2025 16:21:10.411,338.377
232,16 Feb 2025 23:48:09.315,16 Feb 2025 23:50:25.095,135.780
233,17 Feb 2025 01:16:24.928,17 Feb 2025 01:27:40.028,675.100
234,17 Feb 2025 02:51:21.275,17 Feb 2025 03:00:41.845,560.570
235,17 Feb 2025 12:49:42.262,17 Feb 2025 12:54:54.886,312.624
236,17 Feb 2025 14:20:56.200,17 Feb 2025 14:32:28.641,692.441
237,17 Feb 2025 15:55:56.249,17 Feb 2025 16:03:53.321,477.072
238,18 Feb 2025 00:58:05.474,18 Feb 2025 01:08:46.006,640.531
239,18 Feb 2025 02:31:56.161,18 Feb 2025 02:42:25.450,629.288
240,18 Feb 2025 14:02:19.113,18 Feb 2025 14:13:36.821,677.709
241,18 Feb 2025 15:36:41.578,18 Feb 2025 15:46:08.444,566.867
242,19 Feb 2025 00:39:59.234,19 Feb 2025 00:49:44.744,585.510
243,19 Feb 2025 02:12:47.610,19 Feb 2025 02:23:58.114,670.504
244,19 Feb 2025 13:43:49.464,19 Feb 2025 13:54:32.053,642.589
245,19 Feb 2025 15:17:38.049,19 Feb 2025 15:28:06.105,628.056
246,20 Feb 2025 00:22:09.143,20 Feb 2025 00:30:33.576,504.433
247,20 Feb 2025 01:53:52.503,20 Feb 2025 02:05:22.848,690.345
248,20 Feb 2025 03:32:07.175,20 Feb 2025 03:36:03.605,236.430
249,20 Feb 2025 13:25:29.715,20 Feb 2025 13:35:11.802,582.088
250,20 Feb 2025 14:58:42.250,20 Feb 2025 15:09:49.988,667.738
251,21 Feb 2025 00:04:42.730,21 Feb 2025 00:11:05.303,382.573
252,21 Feb 2025 01:35:09.416,21 Feb 2025 01:46:41.075,691.659
253,21 Feb 2025 03:11:24.526,21 Feb 2025 03:18:52.619,448.093
254,21 Feb 2025 13:07:25.428,21 Feb 2025 13:15:30.310,484.881
255,21 Feb 2025 14:39:52.823,21 Feb 2025 14:51:21.718,688.895
256,21 Feb 2025 16:15:46.079,21 Feb 2025 16:21:22.316,336.237
257,21 Feb 2025 23:48:19.402,21 Feb 2025 23:50:40.889,141.486
258,22 Feb 2025 01:16:37.909,22 Feb 2025 01:27:53.307,675.398
259,22 Feb 2025 02:51:35.079,22 Feb 2025 03:00:54.636,559.557
260,22 Feb 2025 12:49:54.193,22 Feb 2025 12:55:09.674,315.481
261,22 Feb 2025 14:21:09.358,22 Feb 2025 14:32:41.862,692.504
262,22 Feb 2025 15:56:09.903,22 Feb 2025 16:04:05.693,475.789
263,23 Feb 2025 00:58:18.314,23 Feb 2025 01:08:59.362,641.048
264,23 Feb 2025 02:32:09.735,23 Feb 2025 02:42:38.398,628.663
265,23 Feb 2025 14:02:32.191,23 Feb 2025 14:13:50.185,677.995
266,23 Feb 2025 15:36:55.065,23 Feb 2025 15:46:21.061,565.996
267,24 Feb 2025 00:40:11.905,24 Feb 2025 00:49:58.196,586.291
268,24 Feb 2025 02:13:01.016,24 Feb 2025 02:24:11.168,670.153
269,24 Feb 2025 13:44:02.443,24 Feb 2025 13:54:45.580,643.137
270,24 Feb 2025 15:17:51.430,24 Feb 2025 15:28:18.899,627.470
271,25 Feb 2025 00:22:21.597,25 Feb 2025 00:30:47.170,505.573
272,25 Feb 2025 01:54:05.761,25 Feb 2025 02:05:35.984,690.224
273,25 Feb 2025 03:32:22.574,25 Feb 2025 03:36:14.946,232.372
274,25 Feb 2025 13:25:42.554,25 Feb 2025 13:35:25.530,582.976
275,25 Feb 2025 14:58:55.550,25 Feb 2025 15:10:02.932,667.383
276,26 Feb 2025 00:04:54.817,26 Feb 2025 00:11:19.183,384.366
277,26 Feb 2025 01:35:22.537,26 Feb 2025 01:46:54.283,691.746
278,26 Feb 2025 03:11:38.698,26 Feb 2025 03:19:05.110,446.412
279,26 Feb 2025 13:07:38.026,26 Feb 2025 13:15:44.351,486.325
280,26 Feb 2025 14:40:06.048,26 Feb 2025 14:51:34.799,688.751
281,26 Feb 2025 16:16:00.129,26 Feb 2025 16:21:34.213,334.084
282,26 Feb 2025 23:48:29.606,26 Feb 2025 23:50:56.563,146.956
283,27 Feb 2025 01:16:50.897,27 Feb 2025 01:28:06.585,675.688
284,27 Feb 2025 02:51:48.885,27 Feb 2025 03:01:07.424,558.539
285,27 Feb 2025 12:50:06.140,27 Feb 2025 12:55:24.443,318.303
286,27 Feb 2025 14:21:22.515,27 Feb 2025 14:32:55.079,692.565
287,27 Feb 2025 15:56:23.559,27 Feb 2025 16:04:18.060,474.501
288,28 Feb 2025 00:58:31.156,28 Feb 2025 01:09:12.715,641.559
289,28 Feb 2025 02:32:23.314,28 Feb 2025 02:42:51.344,628.030
290,28 Feb 2025 14:02:45.269,28 Feb 2025 14:14:03.546,678.277
291,28 Feb 2025 15:37:08.552,28 Feb 2025 15:46:33.673,565.121
292,1 Mar 2025 00:40:24.578,1 Mar 2025 00:50:11.646,587.068
293,1 Mar 2025 02:13:14.423,1 Mar 2025 02:24:24.221,669.798
294,1 Mar 2025 13:44:15.423,1 Mar 2025 13:54:59.102,643.679
295,1 Mar 2025 15:18:04.811,1 Mar 2025 15:28:31.692,626.881
296,2 Mar 2025 00:22:34.049,2 Mar 2025 00:31:00.762,506.713
297,2 Mar 2025 01:54:19.021,2 Mar 2025 02:05:49.120,690.099
298,2 Mar 2025 03:32:38.017,2 Mar 2025 03:36:26.243,228.226
299,2 Mar 2025 13:25:55.396,2 Mar 2025 13:35:39.264,583.868
300,2 Mar 2025 14:59:08.851,2 Mar 2025 15:10:15.874,667.024
301,3 Mar 2025 00:05:06.909,3 Mar 2025 00:11:33.060,386.151
302,3 Mar 2025 01:35:35.660,3 Mar 2025 01:47:07.491,691.831
303,3 Mar 2025 03:11:52.879,3 Mar 2025 03:19:17.595,444.716
304,3 Mar 2025 13:07:50.628,3 Mar 2025 13:15:58.389,487.761
305,3 Mar 2025 14:40:19.278,3 Mar 2025 14:51:47.881,688.602
306,3 Mar 2025 16:16:14.184,3 Mar 2025 16:21:46.100,331.916
307,3 Mar 2025 23:48:39.911,3 Mar 2025 23:51:12.150,152.239
308,4 Mar 2025 01:17:03.885,4 Mar 2025 01:28:19.863,675.978
309,4 Mar 2025 02:52:02.696,4 Mar 2025 03:01:20.210,557.513
310,4 Mar 2025 12:50:18.100,4 Mar 2025 12:55:39.197,321.097
311,4 Mar 2025 14:21:35.674,4 Mar 2025 14:33:08.297,692.622
312,4 Mar 2025 15:56:37.220,4 Mar 2025 16:04:30.427,473.207
313,5 Mar 2025 00:58:43.999,5 Mar 2025 01:09:26.072,642.073
314,5 Mar 2025 02:32:36.897,5 Mar 2025 02:43:04.290,627.393
315,5 Mar 2025 14:02:58.350,5 Mar 2025 14:14:16.907,678.557
316,5 Mar 2025 15:37:22.042,5 Mar 2025 15:46:46.286,564.244
317,6 Mar 2025 00:40:37.254,6 Mar 2025 00:50:25.095,587.842
318,6 Mar 2025 02:13:27.830,6 Mar 2025 02:24:37.274,669.444
319,6 Mar 2025 13:44:28.407,6 Mar 2025 13:55:12.627,644.220
320,6 Mar 2025 15:18:18.195,6 Mar 2025 15:28:44.484,626.289
321,7 Mar 2025 00:22:46.511,7 Mar 2025 00:31:14.351,507.839
322,7 Mar 2025 01:54:32.281,7 Mar 2025 02:06:02.258,689.977
323,7 Mar 2025 03:32:53.505,7 Mar 2025 03:36:37.501,223.995
324,7 Mar 2025 13:26:08.241,7 Mar 2025 13:35:52.993,584.752
325,7 Mar 2025 14:59:22.154,7 Mar 2025 15:10:28.818,666.664
326,8 Mar 2025 00:05:19.010,8 Mar 2025 00:11:46.931,387.921
327,8 Mar 2025 01:35:48.786,8 Mar 2025 01:47:20.699,691.913
328,8 Mar 2025 03:12:07.066,8 Mar 2025 03:19:30.077,443.010
329,8 Mar 2025 13:08:03.236,8 Mar 2025 13:16:12.423,489.187
330,8 Mar 2025 14:40:32.510,8 Mar 2025 14:52:00.961,688.451
331,8 Mar 2025 16:16:28.254,8 Mar 2025 16:21:57.977,329.723
332,8 Mar 2025 23:48:50.312,8 Mar 2025 23:51:27.635,157.323
333,9 Mar 2025 01:17:16.874,9 Mar 2025 01:28:33.141,676.266
334,9 Mar 2025 02:52:16.511,9 Mar 2025 03:01:32.994,556.484
335,9 Mar 2025 12:50:30.078,9 Mar 2025 12:55:53.937,323.859
336,9 Mar 2025 14:21:48.835,9 Mar 2025 14:33:21.509,692.674
337,9 Mar 2025 15:56:50.888,9 Mar 2025 16:04:42.791,471.904
338,10 Mar 2025 00:58:56.843,10 Mar 2025 01:09:39.427,642.584
339,10 Mar 2025 02:32:50.482,10 Mar 2025 02:43:17.234,626.752
340,10 Mar 2025 14:03:11.432,10 Mar 2025 14:14:30.266,678.834
341,10 Mar 2025 15:37:35.534,10 Mar 2025 15:46:58.896,563.362
342,11 Mar 2025 00:40:49.932,11 Mar 2025 00:50:38.544,588.612
343,11 Mar 2025 02:13:41.242,11 Mar 2025 02:24:50.326,669.084
344,11 Mar 2025 13:44:41.391,11 Mar 2025 13:55:26.148,644.757
345,11 Mar 2025 15:18:31.580,11 Mar 2025 15:28:57.273,625.693
346,12 Mar 2025 00:22:58.974,12 Mar 2025 00:31:27.938,508.965
347,12 Mar 2025 01:54:45.544,12 Mar 2025 02:06:15.393,689.848
348,12 Mar 2025 03:33:09.039,12 Mar 2025 03:36:48.711,219.672
349,12 Mar 2025 13:26:21.087,12 Mar 2025 13:36:06.717,585.630
350,12 Mar 2025 14:59:35.461,12 Mar 2025 15:10:41.760,666.299
351,13 Mar 2025 00:05:31.115,13 Mar 2025 00:12:00.796,389.681
352,13 Mar 2025 01:36:01.913,13 Mar 2025 01:47:33.906,691.993
353,13 Mar 2025 03:12:21.259,13 Mar 2025 03:19:42.551,441.293
354,13 Mar 2025 13:08:15.848,13 Mar 2025 13:16:26.451,490.603
355,13 Mar 2025 14:40:45.741,13 Mar 2025 14:52:14.039,688.298
356,13 Mar 2025 16:16:42.329,13 Mar 2025 16:22:09.844,327.515
357,13 Mar 2025 23:49:00.793,13 Mar 2025 23:51:43.041,162.247
358,14 Mar 2025 01:17:29.864,14 Mar 2025 01:28:46.413,676.548
359,14 Mar 2025 02:52:30.325,14 Mar 2025 03:01:45.775,555.450
360,14 Mar 2025 12:50:42.070,14 Mar 2025 12:56:08.662,326.591
361,14 Mar 2025 14:22:01.996,14 Mar 2025 14:33:34.723,692.727
362,14 Mar 2025 15:57:04.553,14 Mar 2025 16:04:55.150,470.597
363,15 Mar 2025 00:59:09.690,15 Mar 2025 01:09:52.780,643.089
364,15 Mar 2025 02:33:04.070,15 Mar 2025 02:43:30.177,626.107
365,15 Mar 2025 14:03:24.515,15 Mar 2025 14:14:43.623,679.109
366,15 Mar 2025 15:37:49.027,15 Mar 2025 15:47:11.504,562.477
367,16 Mar 2025 00:41:02.613,16 Mar 2025 00:50:51.992,589.379
368,16 Mar 2025 02:13:54.656,16 Mar 2025 02:25:03.376,668.720
369,16 Mar 2025 13:44:54.379,16 Mar 2025 13:55:39.668,645.289
370,16 Mar 2025 15:18:44.965,16 Mar 2025 15:29:10.061,625.095
371,17 Mar 2025 00:23:11.439,17 Mar 2025 00:31:41.526,510.087
372,17 Mar 2025 01:54:58.811,17 Mar 2025 02:06:28.525,689.715
373,17 Mar 2025 03:33:24.625,17 Mar 2025 03:36:59.870,215.244
374,17 Mar 2025 13:26:33.941,17 Mar 2025 13:36:20.437,586.496
375,17 Mar 2025 14:59:48.762,17 Mar 2025 15:10:54.699,665.937
376,18 Mar 2025 00:05:43.227,18 Mar 2025 00:12:14.659,391.433
377,18 Mar 2025 01:36:15.042,18 Mar 2025 01:47:47.113,692.070
378,18 Mar 2025 03:12:35.460,18 Mar 2025 03:19:55.021,439.561
379,18 Mar 2025 13:08:28.466,18 Mar 2025 13:16:40.476,492.010
380,18 Mar 2025 14:40:58.975,18 Mar 2025 14:52:27.116,688.142
381,18 Mar 2025 16:16:56.414,18 Mar 2025 16:22:21.704,325.290
382,18 Mar 2025 23:49:11.350,18 Mar 2025 23:51:58.374,167.024
383,19 Mar 2025 01:17:42.858,19 Mar 2025 01:28:59.690,676.832
384,19 Mar 2025 02:52:44.147,19 Mar 2025 03:01:58.554,554.407
385,19 Mar 2025 12:50:54.078,19 Mar 2025 12:56:23.369,329.291
386,19 Mar 2025 14:22:15.162,19 Mar 2025 14:33:47.937,692.775
387,19 Mar 2025 15:57:18.223,19 Mar 2025 16:05:07.507,469.284
388,20 Mar 2025 00:59:22.541,20 Mar 2025 01:10:06.133,643.592
389,20 Mar 2025 02:33:17.661,20 Mar 2025 02:43:43.119,625.458
390,20 Mar 2025 14:03:37.600,20 Mar 2025 14:14:56.980,679.380
391,20 Mar 2025 15:38:02.523,20 Mar 2025 15:47:24.111,561.588
392,21 Mar 2025 00:41:15.297,21 Mar 2025 00:51:05.441,590.143
393,21 Mar 2025 02:14:08.073,21 Mar 2025 02:25:16.427,668.354
394,21 Mar 2025 13:45:07.365,21 Mar 2025 13:55:53.186,645.820
395,21 Mar 2025 15:18:58.350,21 Mar 2025 15:29:22.843,624.494
396,22 Mar 2025 00:23:23.909,22 Mar 2025 00:31:55.112,511.203
397,22 Mar 2025 01:55:12.080,22 Mar 2025 02:06:41.661,689.581
398,22 Mar 2025 03:33:40.268,22 Mar 2025 03:37:10.980,210.712
399,22 Mar 2025 13:26:46.794,22 Mar 2025 13:36:34.157,587.362
400,22 Mar 2025 15:00:02.069,22 Mar 2025 15:11:07.637,665.569
401,23 Mar 2025 00:05:55.345,23 Mar 2025 00:12:28.517,393.171
402,23 Mar 2025 01:36:28.174,23 Mar 2025 01:48:00.319,692.145
403,23 Mar 2025 03:12:49.663,23 Mar 2025 03:20:07.487,437.824
404,23 Mar 2025 13:08:41.087,23 Mar 2025 13:16:54.497,493.410
405,23 Mar 2025 14:41:12.209,23 Mar 2025 14:52:40.193,687.983
406,23 Mar 2025 16:17:10.509,23 Mar 2025 16:22:33.553,323.044
407,23 Mar 2025 23:49:21.981,23 Mar 2025 23:52:13.639,171.659
408,24 Mar 2025 01:17:55.853,24 Mar 2025 01:29:12.966,677.113
409,24 Mar 2025 02:52:57.969,24 Mar 2025 03:02:11.332,553.363
410,24 Mar 2025 12:51:06.098,24 Mar 2025 12:56:38.066,331.967
411,24 Mar 2025 14:22:28.326,24 Mar 2025 14:34:01.149,692.823
412,24 Mar 2025 15:57:31.894,24 Mar 2025 16:05:19.858,467.964
413,25 Mar 2025 00:59:35.391,25 Mar 2025 01:10:19.484,644.093
414,25 Mar 2025 02:33:31.258,25 Mar 2025 02:43:56.060,624.802
415,25 Mar 2025 14:03:50.685,25 Mar 2025 14:15:10.334,679.649
416,25 Mar 2025 15:38:16.020,25 Mar 2025 15:47:36.714,560.694
417,26 Mar 2025 00:41:27.983,26 Mar 2025 00:51:18.886,590.903
418,26 Mar 2025 02:14:21.491,26 Mar 2025 02:25:29.476,667.985
419,26 Mar 2025 13:45:20.354,26 Mar 2025 13:56:06.702,646.348
420,26 Mar 2025 15:19:11.738,26 Mar 2025 15:29:35.628,623.890
421,27 Mar 2025 00:23:36.380,27 Mar 2025 00:32:08.694,512.315
422,27 Mar 2025 01:55:25.349,27 Mar 2025 02:06:54.794,689.445
423,27 Mar 2025 03:33:55.960,27 Mar 2025 03:37:22.034,206.075
424,27 Mar 2025 13:26:59.645,27 Mar 2025 13:36:47.875,588.229
425,27 Mar 2025 15:00:15.375,27 Mar 2025 15:11:20.572,665.198
426,28 Mar 2025 00:06:07.469,28 Mar 2025 00:12:42.368,394.899
427,28 Mar 2025 01:36:41.306,28 Mar 2025 01:48:13.524,692.218
428,28 Mar 2025 03:13:03.876,28 Mar 2025 03:20:19.945,436.069
429,28 Mar 2025 13:08:53.713,28 Mar 2025 13:17:08.514,494.801
430,28 Mar 2025 14:41:25.443,28 Mar 2025 14:52:53.270,687.827
431,28 Mar 2025 16:17:24.609,28 Mar 2025 16:22:45.394,320.785
432,28 Mar 2025 23:49:32.674,28 Mar 2025 23:52:28.839,176.165
433,29 Mar 2025 01:18:08.849,29 Mar 2025 01:29:26.240,677.392
434,29 Mar 2025 02:53:11.796,29 Mar 2025 03:02:24.106,552.310
435,29 Mar 2025 12:51:18.134,29 Mar 2025 12:56:52.743,334.609
436,29 Mar 2025 14:22:41.492,29 Mar 2025 14:34:14.358,692.867
437,29 Mar 2025 15:57:45.565,29 Mar 2025 16:05:32.206,466.642
438,30 Mar 2025 00:59:48.243,30 Mar 2025 01:10:32.835,644.591
439,30 Mar 2025 02:33:44.849,30 Mar 2025 02:44:08.998,624.148
440,30 Mar 2025 14:04:03.772,30 Mar 2025 14:15:23.687,679.915
441,30 Mar 2025 15:38:29.518,30 Mar 2025 15:47:49.315,559.797
442,31 Mar 2025 00:41:40.670,31 Mar 2025 00:51:32.331,591.661
443,31 Mar 2025 02:14:34.912,31 Mar 2025 02:25:42.524,667.612
444,31 Mar 2025 13:45:33.347,31 Mar 2025 13:56:20.218,646.871
445,31 Mar 2025 15:19:25.128,31 Mar 2025 15:29:48.412,623.285
446,1 Apr 2025 00:23:48.854,1 Apr 2025 00:32:22.277,513.423
447,1 Apr 2025 01:55:38.622,1 Apr 2025 02:07:07.927,689.306
448,1 Apr 2025 03:34:11.717,1 Apr 2025 03:37:33.027,201.310
449,1 Apr 2025 13:27:12.503,1 Apr 2025 13:37:01.591,589.089
450,1 Apr 2025 15:00:28.683,1 Apr 2025 15:11:33.508,664.824
451,2 Apr 2025 00:06:19.600,2 Apr 2025 00:12:56.218,396.619
452,2 Apr 2025 01:36:54.441,2 Apr 2025 01:48:26.729,692.288
453,2 Apr 2025 03:13:18.098,2 Apr 2025 03:20:32.398,434.300
454,2 Apr 2025 13:09:06.345,2 Apr 2025 13:17:22.527,496.182
455,2 Apr 2025 14:41:38.681,2 Apr 2025 14:53:06.340,687.659
456,2 Apr 2025 16:17:38.722,2 Apr 2025 16:22:57.224,318.502
457,2 Apr 2025 23:49:43.426,2 Apr 2025 23:52:43.984,180.557
458,3 Apr 2025 01:18:21.849,3 Apr 2025 01:29:39.521,677.672
459,3 Apr 2025 02:53:25.625,3 Apr 2025 03:02:36.876,551.251
460,3 Apr 2025 12:51:30.183,3 Apr 2025 12:57:07.409,337.225
461,3 Apr 2025 14:22:54.659,3 Apr 2025 14:34:27.568,692.910
462,3 Apr 2025 15:57:59.244,3 Apr 2025 16:05:44.552,465.308
463,4 Apr 2025 01:00:01.099,4 Apr 2025 01:10:46.186,645.087
464,4 Apr 2025 02:33:58.450,4 Apr 2025 02:44:21.937,623.486
465,4 Apr 2025 14:04:16.861,4 Apr 2025 14:15:37.039,680.178
466,4 Apr 2025 15:38:43.019,4 Apr 2025 15:48:01.915,558.895
467,5 Apr 2025 00:41:53.361,5 Apr 2025 00:51:45.773,592.412
468,5 Apr 2025 02:14:48.336,5 Apr 2025 02:25:55.573,667.237
469,5 Apr 2025 13:45:46.342,5 Apr 2025 13:56:33.732,647.390
470,5 Apr 2025 15:19:38.520,5 Apr 2025 15:30:01.197,622.677
471,6 Apr 2025 00:24:01.337,6 Apr 2025 00:32:35.857,514.521
472,6 Apr 2025 01:55:51.896,6 Apr 2025 02:07:21.059,689.162
473,6 Apr 2025 03:34:27.537,6 Apr 2025 03:37:43.959,196.422
474,6 Apr 2025 13:27:25.361,6 Apr 2025 13:37:15.305,589.944
475,6 Apr 2025 15:00:41.993,6 Apr 2025 15:11:46.436,664.444
476,7 Apr 2025 00:06:31.739,7 Apr 2025 00:13:10.057,398.318
477,7 Apr 2025 01:37:07.578,7 Apr 2025 01:48:39.933,692.356
478,7 Apr 2025 03:13:32.326,7 Apr 2025 03:20:44.847,432.521
479,7 Apr 2025 13:09:18.974,7 Apr 2025 13:17:36.534,497.560
480,7 Apr 2025 14:41:51.922,7 Apr 2025 14:53:19.416,687.494
481,7 Apr 2025 16:17:52.845,7 Apr 2025 16:23:09.042,316.197
482,7 Apr 2025 23:49:54.236,7 Apr 2025 23:52:59.069,184.833
483,8 Apr 2025 01:18:34.846,8 Apr 2025 01:29:52.794,677.949
484,8 Apr 2025 02:53:39.459,8 Apr 2025 03:02:49.645,550.185
485,8 Apr 2025 12:51:42.245,8 Apr 2025 12:57:22.059,339.814
486,8 Apr 2025 14:23:07.825,8 Apr 2025 14:34:40.775,692.950
487,8 Apr 2025 15:58:12.925,8 Apr 2025 16:05:56.893,463.968
488,9 Apr 2025 01:00:13.955,9 Apr 2025 01:10:59.535,645.580
489,9 Apr 2025 02:34:12.051,9 Apr 2025 02:44:34.872,622.822
490,9 Apr 2025 14:04:29.950,9 Apr 2025 14:15:50.388,680.439
491,9 Apr 2025 15:38:56.522,9 Apr 2025 15:48:14.511,557.989
492,10 Apr 2025 00:42:06.052,10 Apr 2025 00:51:59.217,593.165
493,10 Apr 2025 02:15:01.760,10 Apr 2025 02:26:08.618,666.858
494,10 Apr 2025 13:45:59.331,10 Apr 2025 13:56:47.236,647.905
495,10 Apr 2025 15:19:51.916,10 Apr 2025 15:30:13.975,622.059
496,11 Apr 2025 00:24:13.816,11 Apr 2025 00:32:49.435,515.619
497,11 Apr 2025 01:56:05.171,11 Apr 2025 02:07:34.190,689.019
498,11 Apr 2025 03:34:43.432,11 Apr 2025 03:37:54.819,191.388
499,11 Apr 2025 13:27:38.222,11 Apr 2025 13:37:29.015,590.793
500,11 Apr 2025 15:00:55.302,11 Apr 2025 15:11:59.367,664.065
501,12 Apr 2025 00:06:43.880,12 Apr 2025 00:13:23.897,400.017
502,12 Apr 2025 01:37:20.715,12 Apr 2025 01:48:53.133,692.418
503,12 Apr 2025 03:13:46.560,12 Apr 2025 03:20:57.287,430.727
504,12 Apr 2025 13:09:31.612,12 Apr 2025 13:17:50.536,498.923
505,12 Apr 2025 14:42:05.161,12 Apr 2025 14:53:32.486,687.325
506,12 Apr 2025 16:18:06.974,12 Apr 2025 16:23:20.850,313.876
507,12 Apr 2025 23:50:05.092,12 Apr 2025 23:53:14.108,189.016
508,13 Apr 2025 01:18:47.847,13 Apr 2025 01:30:06.068,678.220
509,13 Apr 2025 02:53:53.301,13 Apr 2025 03:03:02.411,549.111
510,13 Apr 2025 12:51:54.322,13 Apr 2025 12:57:36.695,342.373
511,13 Apr 2025 14:23:20.993,13 Apr 2025 14:34:53.982,692.989
512,13 Apr 2025 15:58:26.608,13 Apr 2025 16:06:09.231,462.624
513,14 Apr 2025 01:00:26.813,14 Apr 2025 01:11:12.881,646.067
514,14 Apr 2025 02:34:25.656,14 Apr 2025 02:44:47.806,622.151
515,14 Apr 2025 14:04:43.041,14 Apr 2025 14:16:03.737,680.696
516,14 Apr 2025 15:39:10.028,14 Apr 2025 15:48:27.107,557.079
517,15 Apr 2025 00:42:18.742,15 Apr 2025 00:52:12.660,593.917
518,15 Apr 2025 02:15:15.187,15 Apr 2025 02:26:21.664,666.476
519,15 Apr 2025 13:46:12.327,15 Apr 2025 13:57:00.747,648.420
520,15 Apr 2025 15:20:05.305,15 Apr 2025 15:30:26.753,621.448
521,16 Apr 2025 00:24:26.299,16 Apr 2025 00:33:03.014,516.714
522,16 Apr 2025 01:56:18.450,16 Apr 2025 02:07:47.322,688.871
523,16 Apr 2025 03:34:59.398,16 Apr 2025 03:38:05.601,186.204
524,16 Apr 2025 13:27:51.086,16 Apr 2025 13:37:42.724,591.637
525,16 Apr 2025 15:01:08.614,16 Apr 2025 15:12:12.298,663.685
526,17 Apr 2025 00:06:56.028,17 Apr 2025 00:13:37.734,401.706
527,17 Apr 2025 01:37:33.860,17 Apr 2025 01:49:06.337,692.476
528,17 Apr 2025 03:14:00.804,17 Apr 2025 03:21:09.723,428.919
529,17 Apr 2025 13:09:44.255,17 Apr 2025 13:18:04.535,500.280
530,17 Apr 2025 14:42:18.401,17 Apr 2025 14:53:45.556,687.155
531,17 Apr 2025 16:18:21.117,17 Apr 2025 16:23:32.649,311.532
532,17 Apr 2025 23:50:15.999,17 Apr 2025 23:53:29.100,193.102
533,18 Apr 2025 01:19:00.852,18 Apr 2025 01:30:19.341,678.490
534,18 Apr 2025 02:54:07.140,18 Apr 2025 03:03:15.177,548.037
535,18 Apr 2025 12:52:06.411,18 Apr 2025 12:57:51.319,344.908
536,18 Apr 2025 14:23:34.163,18 Apr 2025 14:35:07.188,693.025
537,18 Apr 2025 15:58:40.295,18 Apr 2025 16:06:21.562,461.267
538,19 Apr 2025 01:00:39.674,19 Apr 2025 01:11:26.230,646.555
539,19 Apr 2025 02:34:39.261,19 Apr 2025 02:45:00.740,621.479
540,19 Apr 2025 14:04:56.134,19 Apr 2025 14:16:17.084,680.951
541,19 Apr 2025 15:39:23.530,19 Apr 2025 15:48:39.703,556.173
542,20 Apr 2025 00:42:31.440,20 Apr 2025 00:52:26.101,594.661
543,20 Apr 2025 02:15:28.617,20 Apr 2025 02:26:34.706,666.088
544,20 Apr 2025 13:46:25.329,20 Apr 2025 13:57:14.256,648.927
545,20 Apr 2025 15:20:18.701,20 Apr 2025 15:30:39.530,620.829
546,21 Apr 2025 00:24:38.786,21 Apr 2025 00:33:16.590,517.803
547,21 Apr 2025 01:56:31.730,21 Apr 2025 02:08:00.452,688.721
548,21 Apr 2025 03:35:15.447,21 Apr 2025 03:38:16.310,180.863
549,21 Apr 2025 13:28:03.951,21 Apr 2025 13:37:56.424,592.473
550,21 Apr 2025 15:01:21.926,21 Apr 2025 15:12:25.227,663.301
551,22 Apr 2025 00:07:08.179,22 Apr 2025 00:13:51.564,403.386
552,22 Apr 2025 01:37:47.000,22 Apr 2025 01:49:19.539,692.539
553,22 Apr 2025 03:14:15.053,22 Apr 2025 03:21:22.152,427.099
554,22 Apr 2025 13:09:56.899,22 Apr 2025 13:18:18.529,501.630
555,22 Apr 2025 14:42:31.642,22 Apr 2025 14:53:58.623,686.981
556,22 Apr 2025 16:18:35.271,22 Apr 2025 16:23:44.433,309.162
557,22 Apr 2025 23:50:26.953,22 Apr 2025 23:53:44.050,197.098
558,23 Apr 2025 01:19:13.857,23 Apr 2025 01:30:32.613,678.756
559,23 Apr 2025 02:54:20.986,23 Apr 2025 03:03:27.940,546.954
560,23 Apr 2025 12:52:18.512,23 Apr 2025 12:58:05.930,347.418
561,23 Apr 2025 14:23:47.332,23 Apr 2025 14:35:20.391,693.059
562,23 Apr 2025 15:58:53.985,23 Apr 2025 16:06:33.897,459.912
563,24 Apr 2025 01:00:52.536,24 Apr 2025 01:11:39.576,647.040
564,24 Apr 2025 02:34:52.869,24 Apr 2025 02:45:13.672,620.802
565,24 Apr 2025 14:05:09.228,24 Apr 2025 14:16:30.425,681.197
566,24 Apr 2025 15:39:37.037,24 Apr 2025 15:48:52.293,555.256
567,25 Apr 2025 00:42:44.138,25 Apr 2025 00:52:39.540,595.402
568,25 Apr 2025 02:15:42.048,25 Apr 2025 02:26:47.748,665.701
569,25 Apr 2025 13:46:38.324,25 Apr 2025 13:57:27.761,649.437
570,25 Apr 2025 15:20:32.096,25 Apr 2025 15:30:52.304,620.208
571,26 Apr 2025 00:24:51.276,26 Apr 2025 00:33:30.163,518.888
572,26 Apr 2025 01:56:45.013,26 Apr 2025 02:08:13.577,688.564
573,26 Apr 2025 03:35:31.589,26 Apr 2025 03:38:26.924,175.336
574,26 Apr 2025 13:28:16.818,26 Apr 2025 13:38:10.128,593.309
575,26 Apr 2025 15:01:35.238,26 Apr 2025 15:12:38.154,662.915
576,27 Apr 2025 00:07:20.337,27 Apr 2025 00:14:05.392,405.055
577,27 Apr 2025 01:38:00.144,27 Apr 2025 01:49:32.740,692.595
578,27 Apr 2025 03:14:29.312,27 Apr 2025 03:21:34.575,425.263
579,27 Apr 2025 13:10:09.548,27 Apr 2025 13:18:32.518,502.970
580,27 Apr 2025 14:42:44.882,27 Apr 2025 14:54:11.689,686.806
581,27 Apr 2025 16:18:49.432,27 Apr 2025 16:23:56.209,306.778
582,27 Apr 2025 23:50:37.946,27 Apr 2025 23:53:58.959,201.014
583,28 Apr 2025 01:19:26.864,28 Apr 2025 01:30:45.884,679.021
584,28 Apr 2025 02:54:34.835,28 Apr 2025 03:03:40.699,545.863
585,28 Apr 2025 12:52:30.627,28 Apr 2025 12:58:20.527,349.900
586,28 Apr 2025 14:24:00.504,28 Apr 2025 14:35:33.596,693.093
587,28 Apr 2025 15:59:07.677,28 Apr 2025 16:06:46.224,458.548
588,29 Apr 2025 01:01:05.396,29 Apr 2025 01:11:52.924,647.527
589,29 Apr 2025 02:35:06.482,29 Apr 2025 02:45:26.602,620.120
590,29 Apr 2025 14:05:22.324,29 Apr 2025 14:16:43.769,681.445
591,29 Apr 2025 15:39:50.547,29 Apr 2025 15:49:04.882,554.335
592,30 Apr 2025 00:42:56.839,30 Apr 2025 00:52:52.980,596.141
593,30 Apr 2025 02:15:55.482,30 Apr 2025 02:27:00.791,665.310
594,30 Apr 2025 13:46:51.328,30 Apr 2025 13:57:41.265,649.937
595,30 Apr 2025 15:20:45.494,30 Apr 2025 15:31:05.078,619.584
596,1 May 2025 00:25:03.769,1 May 2025 00:33:43.738,519.968
597,1 May 2025 01:56:58.297,1 May 2025 02:08:26.708,688.411
598,1 May 2025 03:35:47.826,1 May 2025 03:38:37.442,169.616
599,1 May 2025 13:28:29.684,1 May 2025 13:38:23.831,594.147
600,1 May 2025 15:01:48.554,1 May 2025 15:12:51.080,662.527
601,2 May 2025 00:07:32.502,2 May 2025 00:14:19.218,406.716
602,2 May 2025 01:38:13.290,2 May 2025 01:49:45.945,692.654
603,2 May 2025 03:14:43.580,2 May 2025 03:21:46.996,423.416
604,2 May 2025 13:10:22.201,2 May 2025 13:18:46.505,504.303
605,2 May 2025 14:42:58.126,2 May 2025 14:54:24.754,686.628
606,2 May 2025 16:19:03.606,2 May 2025 16:24:07.979,304.372
607,2 May 2025 23:50:48.982,2 May 2025 23:54:13.828,204.846
608,3 May 2025 01:19:39.874,3 May 2025 01:30:59.156,679.282
609,3 May 2025 02:54:48.690,3 May 2025 03:03:53.457,544.767
610,3 May 2025 12:52:42.753,3 May 2025 12:58:35.113,352.360
611,3 May 2025 14:24:13.677,3 May 2025 14:35:46.798,693.121
612,3 May 2025 15:59:21.373,3 May 2025 16:06:58.548,457.175
613,4 May 2025 01:01:18.263,4 May 2025 01:12:06.270,648.007
614,4 May 2025 02:35:20.096,4 May 2025 02:45:39.531,619.435
615,4 May 2025 14:05:35.419,4 May 2025 14:16:57.111,681.692
616,4 May 2025 15:40:04.060,4 May 2025 15:49:17.468,553.408
617,5 May 2025 00:43:09.542,5 May 2025 00:53:06.417,596.875
618,5 May 2025 02:16:08.917,5 May 2025 02:27:13.833,664.916
619,5 May 2025 13:47:04.329,5 May 2025 13:57:54.765,650.437
620,5 May 2025 15:20:58.894,5 May 2025 15:31:17.848,618.954
621,6 May 2025 00:25:16.266,6 May 2025 00:33:57.308,521.043
622,6 May 2025 01:57:11.583,6 May 2025 02:08:39.835,688.251
623,6 May 2025 03:36:04.172,6 May 2025 03:38:47.855,163.683
624,6 May 2025 13:28:42.555,6 May 2025 13:38:37.528,594.973
625,6 May 2025 15:02:01.868,6 May 2025 15:13:04.004,662.136
626,7 May 2025 00:07:44.671,7 May 2025 00:14:33.039,408.368
627,7 May 2025 01:38:26.437,7 May 2025 01:49:59.146,692.709
628,7 May 2025 03:14:57.850,7 May 2025 03:21:59.406,421.556
629,7 May 2025 13:10:34.857,7 May 2025 13:19:00.485,505.628
630,7 May 2025 14:43:11.368,7 May 2025 14:54:37.816,686.448
631,7 May 2025 16:19:17.789,7 May 2025 16:24:19.730,301.941
632,7 May 2025 23:51:00.057,7 May 2025 23:54:28.658,208.601
633,8 May 2025 01:19:52.884,8 May 2025 01:31:12.425,679.542
634,8 May 2025 02:55:02.546,8 May 2025 03:04:06.210,543.664
635,8 May 2025 12:52:54.890,8 May 2025 12:58:49.681,354.791
636,8 May 2025 14:24:26.845,8 May 2025 14:35:59.995,693.150
637,8 May 2025 15:59:35.070,8 May 2025 16:07:10.867,455.796
638,9 May 2025 01:01:31.130,9 May 2025 01:12:19.615,648.485
639,9 May 2025 02:35:33.711,9 May 2025 02:45:52.457,618.746
640,9 May 2025 14:05:48.517,9 May 2025 14:17:10.451,681.934
641,9 May 2025 15:40:17.571,9 May 2025 15:49:30.051,552.480
642,10 May 2025 00:43:22.247,10 May 2025 00:53:19.851,597.604
643,10 May 2025 02:16:22.358,10 May 2025 02:27:26.875,664.516
644,10 May 2025 13:47:17.330,10 May 2025 13:58:08.263,650.933
645,10 May 2025 15:21:12.290,10 May 2025 15:31:30.617,618.327
646,11 May 2025 00:25:28.764,11 May 2025 00:34:10.878,522.114
647,11 May 2025 01:57:24.869,11 May 2025 02:08:52.960,688.090
648,11 May 2025 03:36:20.639,11 May 2025 03:38:58.144,157.505
649,11 May 2025 13:28:55.429,11 May 2025 13:38:51.221,595.792
650,11 May 2025 15:02:15.183,11 May 2025 15:13:16.926,661.743
651,12 May 2025 00:07:56.844,12 May 2025 00:14:46.855,410.011
652,12 May 2025 01:38:39.583,12 May 2025 01:50:12.345,692.762
653,12 May 2025 03:15:12.130,12 May 2025 03:22:11.807,419.678
654,12 May 2025 13:10:47.518,12 May 2025 13:19:14.460,506.943
655,12 May 2025 14:43:24.612,12 May 2025 14:54:50.878,686.266
656,12 May 2025 16:19:31.982,12 May 2025 16:24:31.472,299.490
657,12 May 2025 23:51:11.163,12 May 2025 23:54:43.458,212.295
658,13 May 2025 01:20:05.896,13 May 2025 01:31:25.695,679.799
659,13 May 2025 02:55:16.408,13 May 2025 03:04:18.961,542.553
660,13 May 2025 12:53:07.041,13 May 2025 12:59:04.241,357.199
661,13 May 2025 14:24:40.019,13 May 2025 14:36:13.193,693.173
662,13 May 2025 15:59:48.772,13 May 2025 16:07:23.183,454.411
663,14 May 2025 01:01:43.999,14 May 2025 01:12:32.958,648.959
664,14 May 2025 02:35:47.330,14 May 2025 02:46:05.381,618.052
665,14 May 2025 14:06:01.615,14 May 2025 14:17:23.789,682.174
666,14 May 2025 15:40:31.082,14 May 2025 15:49:42.633,551.551
667,15 May 2025 00:43:34.954,15 May 2025 00:53:33.285,598.331
668,15 May 2025 02:16:35.798,15 May 2025 02:27:39.913,664.116
669,15 May 2025 13:47:30.336,15 May 2025 13:58:21.760,651.424
670,15 May 2025 15:21:25.692,15 May 2025 15:31:43.385,617.692
671,16 May 2025 00:25:41.267,16 May 2025 00:34:24.446,523.180
672,16 May 2025 01:57:38.158,16 May 2025 02:09:06.085,687.927
673,16 May 2025 03:36:37.244,16 May 2025 03:39:08.299,151.054
674,16 May 2025 13:29:08.306,16 May 2025 13:39:04.914,596.608
675,16 May 2025 15:02:28.501,16 May 2025 15:13:29.848,661.347
676,17 May 2025 00:08:09.023,17 May 2025 00:15:00.667,411.644
677,17 May 2025 01:38:52.733,17 May 2025 01:50:25.544,692.810
678,17 May 2025 03:15:26.417,17 May 2025 03:22:24.204,417.787
679,17 May 2025 13:11:00.187,17 May 2025 13:19:28.433,508.246
680,17 May 2025 14:43:37.857,17 May 2025 14:55:03.938,686.081
681,17 May 2025 16:19:46.188,17 May 2025 16:24:43.201,297.013
682,17 May 2025 23:51:22.306,17 May 2025 23:54:58.222,215.916
683,18 May 2025 01:20:18.910,18 May 2025 01:31:38.960,680.049
684,18 May 2025 02:55:30.273,18 May 2025 03:04:31.708,541.436
685,18 May 2025 12:53:19.202,18 May 2025 12:59:18.791,359.589
686,18 May 2025 14:24:53.195,18 May 2025 14:36:26.389,693.194
687,18 May 2025 16:00:02.479,18 May 2025 16:07:35.490,453.011
688,19 May 2025 01:01:56.870,19 May 2025 01:12:46.302,649.432
689,19 May 2025 02:36:00.950,19 May 2025 02:46:18.305,617.354
690,19 May 2025 14:06:14.713,19 May 2025 14:17:37.126,682.413
691,19 May 2025 15:40:44.595,19 May 2025 15:49:55.211,550.616
692,20 May 2025 00:43:47.663,20 May 2025 00:53:46.720,599.056
693,20 May 2025 02:16:49.239,20 May 2025 02:27:52.947,663.708
694,20 May 2025 13:47:43.343,20 May 2025 13:58:35.252,651.909
695,20 May 2025 15:21:39.095,20 May 2025 15:31:56.150,617.055
696,21 May 2025 00:25:53.772,21 May 2025 00:34:38.011,524.239
697,21 May 2025 01:57:51.448,21 May 2025 02:09:19.209,687.761
698,21 May 2025 03:36:54.002,21 May 2025 03:39:18.305,144.302
699,21 May 2025 13:29:21.182,21 May 2025 13:39:18.602,597.420
700,21 May 2025 15:02:41.820,21 May 2025 15:13:42.766,660.946
701,22 May 2025 00:08:21.206,22 May 2025 00:15:14.473,413.266
702,22 May 2025 01:39:05.884,22 May 2025 01:50:38.741,692.857
703,22 May 2025 03:15:40.710,22 May 2025 03:22:36.593,415.883
704,22 May 2025 13:11:12.854,22 May 2025 13:19:42.400,509.546
705,22 May 2025 14:43:51.102,22 May 2025 14:55:16.996,685.894
706,22 May 2025 16:20:00.405,22 May 2025 16:24:54.916,294.511
707,22 May 2025 23:51:33.481,22 May 2025 23:55:12.953,219.472
708,23 May 2025 01:20:31.926,23 May 2025 01:31:52.227,680.301
709,23 May 2025 02:55:44.137,23 May 2025 03:04:44.453,540.316
710,23 May 2025 12:53:31.374,23 May 2025 12:59:33.325,361.952
711,23 May 2025 14:25:06.369,23 May 2025 14:36:39.581,693.212
712,23 May 2025 16:00:16.185,23 May 2025 16:07:47.798,451.613
713,24 May 2025 01:02:09.742,24 May 2025 01:12:59.645,649.903
714,24 May 2025 02:36:14.568,24 May 2025 02:46:31.225,616.657
715,24 May 2025 14:06:27.812,24 May 2025 14:17:50.460,682.648
716,24 May 2025 15:40:58.110,24 May 2025 15:50:07.787,549.677
717,25 May 2025 00:44:00.374,25 May 2025 00:54:00.153,599.780
718,25 May 2025 02:17:02.681,25 May 2025 02:28:05.983,663.302
719,25 May 2025 13:47:56.350,25 May 2025 13:58:48.743,652.394
720,25 May 2025 15:21:52.495,25 May 2025 15:32:08.913,616.417
721,26 May 2025 00:26:06.279,26 May 2025 00:34:51.574,525.295
722,26 May 2025 01:58:04.739,26 May 2025 02:09:32.331,687.592
723,26 May 2025 03:37:10.937,26 May 2025 03:39:28.132,137.196
724,26 May 2025 13:29:34.063,26 May 2025 13:39:32.288,598.225
725,26 May 2025 15:02:55.139,26 May 2025 15:13:55.684,660.545
726,27 May 2025 00:08:33.394,27 May 2025 00:15:28.277,414.883
727,27 May 2025 01:39:19.037,27 May 2025 01:50:51.937,692.901
728,27 May 2025 03:15:55.009,27 May 2025 03:22:48.974,413.965
729,27 May 2025 13:11:25.526,27 May 2025 13:19:56.363,510.837
730,27 May 2025 14:44:04.349,27 May 2025 14:55:30.049,685.701
731,27 May 2025 16:20:14.632,27 May 2025 16:25:06.620,291.988
732,27 May 2025 23:51:44.685,27 May 2025 23:55:27.659,222.974
733,28 May 2025 01:20:44.947,28 May 2025 01:32:05.494,680.547
734,28 May 2025 02:55:58.010,28 May 2025 03:04:57.196,539.186
735,28 May 2025 12:53:43.558,28 May 2025 12:59:47.854,364.296
736,28 May 2025 14:25:19.547,28 May 2025 14:36:52.771,693.224
737,28 May 2025 16:00:29.894,28 May 2025 16:08:00.104,450.210
738,29 May 2025 01:02:22.617,29 May 2025 01:13:12.986,650.369
739,29 May 2025 02:36:28.195,29 May 2025 02:46:44.143,615.948
740,29 May 2025 14:06:40.914,29 May 2025 14:18:03.795,682.881
741,29 May 2025 15:41:11.629,29 May 2025 15:50:20.362,548.733
742,30 May 2025 00:44:13.087,30 May 2025 00:54:13.587,600.500
743,30 May 2025 02:17:16.127,30 May 2025 02:28:19.021,662.894
744,30 May 2025 13:48:09.359,30 May 2025 13:59:02.235,652.876
745,30 May 2025 15:22:05.900,30 May 2025 15:32:21.675,615.775
746,31 May 2025 00:26:18.790,31 May 2025 00:35:05.136,526.346
747,31 May 2025 01:58:18.033,31 May 2025 02:09:45.453,687.421
748,31 May 2025 03:37:28.076,31 May 2025 03:39:37.755,129.680
749,31 May 2025 13:29:46.945,31 May 2025 13:39:45.967,599.023
750,31 May 2025 15:03:08.459,31 May 2025 15:14:08.602,660.143
751,1 Jun 2025 00:08:45.588,1 Jun 2025 00:15:42.076,416.488
752,1 Jun 2025 01:39:32.191,1 Jun 2025 01:51:05.134,692.942
753,1 Jun 2025 03:16:09.319,1 Jun 2025 03:23:01.349,412.030
754,1 Jun 2025 13:11:38.201,1 Jun 2025 13:20:10.323,512.122
755,1 Jun 2025 14:44:17.593,1 Jun 2025 14:55:43.105,685.512
756,1 Jun 2025 16:20:28.878,1 Jun 2025 16:25:18.309,289.432
757,1 Jun 2025 23:51:55.922,1 Jun 2025 23:55:42.332,226.410
758,2 Jun 2025 01:20:57.966,2 Jun 2025 01:32:18.760,680.794
759,2 Jun 2025 02:56:11.880,2 Jun 2025 03:05:09.936,538.056
760,2 Jun 2025 12:53:55.751,2 Jun 2025 13:00:02.368,366.617
761,2 Jun 2025 14:25:32.725,2 Jun 2025 14:37:05.961,693.237
762,2 Jun 2025 16:00:43.602,2 Jun 2025 16:08:12.403,448.802
763,3 Jun 2025 01:02:35.493,3 Jun 2025 01:13:26.327,650.834
764,3 Jun 2025 02:36:41.822,3 Jun 2025 02:46:57.060,615.238
765,3 Jun 2025 14:06:54.014,3 Jun 2025 14:18:17.129,683.115
766,3 Jun 2025 15:41:25.143,3 Jun 2025 15:50:32.932,547.790
767,4 Jun 2025 00:44:25.802,4 Jun 2025 00:54:27.018,601.216
768,4 Jun 2025 02:17:29.573,4 Jun 2025 02:28:32.054,662.482
769,4 Jun 2025 13:48:22.367,4 Jun 2025 13:59:15.722,653.355
770,4 Jun 2025 15:22:19.304,4 Jun 2025 15:32:34.433,615.130
771,5 Jun 2025 00:26:31.300,5 Jun 2025 00:35:18.695,527.395
772,5 Jun 2025 01:58:31.327,5 Jun 2025 02:09:58.573,687.247
773,5 Jun 2025 03:37:45.454,5 Jun 2025 03:39:47.134,121.680
774,5 Jun 2025 13:29:59.828,5 Jun 2025 13:39:59.650,599.821
775,5 Jun 2025 15:03:21.773,5 Jun 2025 15:14:21.516,659.742
776,6 Jun 2025 00:08:57.786,6 Jun 2025 00:15:55.871,418.085
777,6 Jun 2025 01:39:45.346,6 Jun 2025 01:51:18.327,692.981
778,6 Jun 2025 03:16:23.635,6 Jun 2025 03:23:13.715,410.080
779,6 Jun 2025 13:11:50.878,6 Jun 2025 13:20:24.276,513.398
780,6 Jun 2025 14:44:30.839,6 Jun 2025 14:55:56.157,685.318
781,6 Jun 2025 16:20:43.125,6 Jun 2025 16:25:29.985,286.860
782,6 Jun 2025 23:52:07.184,6 Jun 2025 23:55:56.979,229.795
783,7 Jun 2025 01:21:10.984,7 Jun 2025 01:32:32.024,681.040
784,7 Jun 2025 02:56:25.756,7 Jun 2025 03:05:22.671,536.914
785,7 Jun 2025 12:54:07.955,7 Jun 2025 13:00:16.868,368.914
786,7 Jun 2025 14:25:45.902,7 Jun 2025 14:37:19.149,693.247
787,7 Jun 2025 16:00:57.315,7 Jun 2025 16:08:24.699,447.384
788,8 Jun 2025 01:02:48.369,8 Jun 2025 01:13:39.668,651.298
789,8 Jun 2025 02:36:55.451,8 Jun 2025 02:47:09.974,614.523
790,8 Jun 2025 14:07:07.112,8 Jun 2025 14:18:30.457,683.345
791,8 Jun 2025 15:41:38.665,8 Jun 2025 15:50:45.498,546.833
792,9 Jun 2025 00:44:38.518,9 Jun 2025 00:54:40.446,601.928
793,9 Jun 2025 02:17:43.016,9 Jun 2025 02:28:45.085,662.069
794,9 Jun 2025 13:48:35.373,9 Jun 2025 13:59:29.209,653.835
795,9 Jun 2025 15:22:32.703,9 Jun 2025 15:32:47.188,614.485
796,10 Jun 2025 00:26:43.815,10 Jun 2025 00:35:32.253,528.438
797,10 Jun 2025 01:58:44.622,10 Jun 2025 02:10:11.692,687.070
798,10 Jun 2025 03:38:03.134,10 Jun 2025 03:39:56.216,113.083
799,10 Jun 2025 13:30:12.715,10 Jun 2025 13:40:13.328,600.612
800,10 Jun 2025 15:03:35.093,10 Jun 2025 15:14:34.427,659.335
801,11 Jun 2025 00:09:09.988,11 Jun 2025 00:16:09.663,419.675
802,11 Jun 2025 01:39:58.503,11 Jun 2025 01:51:31.521,693.018
803,11 Jun 2025 03:16:37.961,11 Jun 2025 03:23:26.074,408.113
804,11 Jun 2025 13:12:03.560,11 Jun 2025 13:20:38.226,514.666
805,11 Jun 2025 14:44:44.087,11 Jun 2025 14:56:09.208,685.121
806,11 Jun 2025 16:20:57.393,11 Jun 2025 16:25:41.649,284.256
807,11 Jun 2025 23:52:18.473,11 Jun 2025 23:56:11.601,233.129
808,12 Jun 2025 01:21:24.006,12 Jun 2025 01:32:45.293,681.287
809,12 Jun 2025 02:56:39.643,12 Jun 2025 03:05:35.403,535.760
810,12 Jun 2025 12:54:20.170,12 Jun 2025 13:00:31.359,371.189
811,12 Jun 2025 14:25:59.083,12 Jun 2025 14:37:32.336,693.253
812,12 Jun 2025 16:01:11.032,12 Jun 2025 16:08:36.992,445.960
813,13 Jun 2025 01:03:01.249,13 Jun 2025 01:13:53.008,651.759
814,13 Jun 2025 02:37:09.084,13 Jun 2025 02:47:22.888,613.805
815,13 Jun 2025 14:07:20.215,13 Jun 2025 14:18:43.785,683.569
816,13 Jun 2025 15:41:52.182,13 Jun 2025 15:50:58.064,545.883
817,14 Jun 2025 00:44:51.236,14 Jun 2025 00:54:53.876,602.640
818,14 Jun 2025 02:17:56.467,14 Jun 2025 02:28:58.116,661.649
819,14 Jun 2025 13:48:48.386,14 Jun 2025 13:59:42.694,654.308
820,14 Jun 2025 15:22:46.108,14 Jun 2025 15:32:59.941,613.833
821,15 Jun 2025 00:26:56.330,15 Jun 2025 00:35:45.809,529.479
822,15 Jun 2025 01:58:57.921,15 Jun 2025 02:10:24.811,686.890
823,15 Jun 2025 03:38:21.178,15 Jun 2025 03:40:04.935,103.757
824,15 Jun 2025 13:30:25.600,15 Jun 2025 13:40:27.004,601.404
825,15 Jun 2025 15:03:48.415,15 Jun 2025 15:14:47.333,658.918
826,16 Jun 2025 00:09:22.196,16 Jun 2025 00:16:23.450,421.254
827,16 Jun 2025 01:40:11.662,16 Jun 2025 01:51:44.714,693.052
828,16 Jun 2025 03:16:52.294,16 Jun 2025 03:23:38.426,406.132
829,16 Jun 2025 13:12:16.244,16 Jun 2025 13:20:52.172,515.928
830,16 Jun 2025 14:44:57.336,16 Jun 2025 14:56:22.258,684.922
831,16 Jun 2025 16:21:11.672,16 Jun 2025 16:25:53.296,281.624
832,16 Jun 2025 23:52:29.790,16 Jun 2025 23:56:26.196,236.405
833,17 Jun 2025 01:21:37.028,17 Jun 2025 01:32:58.555,681.527
834,17 Jun 2025 02:56:53.527,17 Jun 2025 03:05:48.128,534.601
835,17 Jun 2025 12:54:32.393,17 Jun 2025 13:00:45.839,373.446
836,17 Jun 2025 14:26:12.262,17 Jun 2025 14:37:45.521,693.259
837,17 Jun 2025 16:01:24.752,17 Jun 2025 16:08:49.279,444.526
838,18 Jun 2025 01:03:14.129,18 Jun 2025 01:14:06.341,652.212
839,18 Jun 2025 02:37:22.718,18 Jun 2025 02:47:35.800,613.083
840,18 Jun 2025 14:07:33.319,18 Jun 2025 14:18:57.110,683.791
841,18 Jun 2025 15:42:05.703,18 Jun 2025 15:51:10.627,544.924
842,19 Jun 2025 00:45:03.956,19 Jun 2025 00:55:07.303,603.347
843,19 Jun 2025 02:18:09.918,19 Jun 2025 02:29:11.144,661.227
844,19 Jun 2025 13:49:01.397,19 Jun 2025 13:59:56.170,654.773
845,19 Jun 2025 15:22:59.513,19 Jun 2025 15:33:12.694,613.180
846,20 Jun 2025 00:27:08.847,20 Jun 2025 00:35:59.362,530.515
847,20 Jun 2025 01:59:11.219,20 Jun 2025 02:10:37.927,686.708
848,20 Jun 2025 03:38:39.699,20 Jun 2025 03:40:13.174,93.475
849,20 Jun 2025 13:30:38.487,20 Jun 2025 13:40:40.674,602.187
850,20 Jun 2025 15:04:01.738,20 Jun 2025 15:15:00.241,658.503
851,21 Jun 2025 00:09:34.402,21 Jun 2025 00:16:37.232,422.829
852,21 Jun 2025 01:40:24.821,21 Jun 2025 01:51:57.904,693.083
853,21 Jun 2025 03:17:06.634,21 Jun 2025 03:23:50.769,404.135
854,21 Jun 2025 13:12:28.931,21 Jun 2025 13:21:06.112,517.181
855,21 Jun 2025 14:45:10.584,21 Jun 2025 14:56:35.305,684.721
856,21 Jun 2025 16:21:25.961,21 Jun 2025 16:26:04.929,278.967
857,21 Jun 2025 23:52:41.130,21 Jun 2025 23:56:40.767,239.637
858,22 Jun 2025 01:21:50.049,22 Jun 2025 01:33:11.816,681.767
859,22 Jun 2025 02:57:07.414,22 Jun 2025 03:06:00.853,533.439
860,22 Jun 2025 12:54:44.627,22 Jun 2025 13:01:00.306,375.679
861,22 Jun 2025 14:26:25.442,22 Jun 2025 14:37:58.703,693.261
862,22 Jun 2025 16:01:38.473,22 Jun 2025 16:09:01.561,443.088
863,23 Jun 2025 01:03:27.010,23 Jun 2025 01:14:19.680,652.670
864,23 Jun 2025 02:37:36.354,23 Jun 2025 02:47:48.709,612.355
865,23 Jun 2025 14:07:46.423,23 Jun 2025 14:19:10.429,684.006
866,23 Jun 2025 15:42:19.226,23 Jun 2025 15:51:23.188,543.962
867,24 Jun 2025 00:45:16.678,24 Jun 2025 00:55:20.730,604.052
868,24 Jun 2025 02:18:23.371,24 Jun 2025 02:29:24.171,660.800
869,24 Jun 2025 13:49:14.412,24 Jun 2025 14:00:09.654,655.242
870,24 Jun 2025 15:23:12.919,24 Jun 2025 15:33:25.445,612.526
871,25 Jun 2025 00:27:21.369,25 Jun 2025 00:36:12.912,531.542
872,25 Jun 2025 01:59:24.519,25 Jun 2025 02:10:51.042,686.523
873,25 Jun 2025 03:38:58.882,25 Jun 2025 03:40:20.754,81.873
874,25 Jun 2025 13:30:51.379,25 Jun 2025 13:40:54.339,602.961
875,25 Jun 2025 15:04:15.060,25 Jun 2025 15:15:13.148,658.088
876,26 Jun 2025 00:09:46.619,26 Jun 2025 00:16:51.012,424.393
877,26 Jun 2025 01:40:37.983,26 Jun 2025 01:52:11.095,693.112
878,26 Jun 2025 03:17:20.985,26 Jun 2025 03:24:03.105,402.120
879,26 Jun 2025 13:12:41.624,26 Jun 2025 13:21:20.049,518.425
880,26 Jun 2025 14:45:23.834,26 Jun 2025 14:56:48.351,684.518
881,26 Jun 2025 16:21:40.266,26 Jun 2025 16:26:16.548,276.282
882,26 Jun 2025 23:52:52.494,26 Jun 2025 23:56:55.317,242.823
883,27 Jun 2025 01:22:03.074,27 Jun 2025 01:33:25.077,682.003
884,27 Jun 2025 02:57:21.302,27 Jun 2025 03:06:13.576,532.274
885,27 Jun 2025 12:54:56.874,27 Jun 2025 13:01:14.765,377.891
886,27 Jun 2025 14:26:38.622,27 Jun 2025 14:38:11.885,693.263
887,27 Jun 2025 16:01:52.200,27 Jun 2025 16:09:13.841,441.641
888,28 Jun 2025 01:03:39.894,28 Jun 2025 01:14:33.016,653.122
889,28 Jun 2025 02:37:49.993,28 Jun 2025 02:48:01.617,611.624
890,28 Jun 2025 14:07:59.529,28 Jun 2025 14:19:23.750,684.222
891,28 Jun 2025 15:42:32.751,28 Jun 2025 15:51:35.749,542.997
892,29 Jun 2025 00:45:29.407,29 Jun 2025 00:55:34.155,604.748
893,29 Jun 2025 02:18:36.826,29 Jun 2025 02:29:37.197,660.371
894,29 Jun 2025 13:49:27.427,29 Jun 2025 14:00:23.131,655.704
895,29 Jun 2025 15:23:26.327,29 Jun 2025 15:33:38.194,611.867
896,30 Jun 2025 00:27:33.895,30 Jun 2025 00:36:26.461,532.567
897,30 Jun 2025 01:59:37.821,30 Jun 2025 02:11:04.157,686.335
898,30 Jun 2025 03:39:19.050,30 Jun 2025 03:40:27.350,68.301
899,30 Jun 2025 13:31:04.271,30 Jun 2025 13:41:08.009,603.739
900,30 Jun 2025 15:04:28.378,30 Jun 2025 15:15:26.055,657.677
901,1 Jul 2025 00:09:58.840,1 Jul 2025 00:17:04.781,425.941
902,1 Jul 2025 01:40:51.145,1 Jul 2025 01:52:24.283,693.138
903,1 Jul 2025 03:17:35.341,1 Jul 2025 03:24:15.434,400.092
904,1 Jul 2025 13:12:54.314,1 Jul 2025 13:21:33.981,519.667
905,1 Jul 2025 14:45:37.083,1 Jul 2025 14:57:01.395,684.312
906,1 Jul 2025 16:21:54.585,1 Jul 2025 16:26:28.149,273.564
907,1 Jul 2025 23:53:03.883,1 Jul 2025 23:57:09.840,245.957
908,2 Jul 2025 01:22:16.100,2 Jul 2025 01:33:38.336,682.236
909,2 Jul 2025 02:57:35.197,2 Jul 2025 03:06:26.296,531.099
910,2 Jul 2025 12:55:09.120,2 Jul 2025 13:01:29.212,380.092
911,2 Jul 2025 14:26:51.802,2 Jul 2025 14:38:25.065,693.263
912,2 Jul 2025 16:02:05.928,2 Jul 2025 16:09:26.114,440.187
913,3 Jul 2025 01:03:52.778,3 Jul 2025 01:14:46.348,653.570
914,3 Jul 2025 02:38:03.634,3 Jul 2025 02:48:14.523,610.890
915,3 Jul 2025 14:08:12.633,3 Jul 2025 14:19:37.069,684.435
916,3 Jul 2025 15:42:46.277,3 Jul 2025 15:51:48.301,542.024
917,4 Jul 2025 00:45:42.127,4 Jul 2025 00:55:47.572,605.445
918,4 Jul 2025 02:18:50.281,4 Jul 2025 02:29:50.220,659.939
919,4 Jul 2025 13:49:40.441,4 Jul 2025 14:00:36.604,656.163
920,4 Jul 2025 15:23:39.734,4 Jul 2025 15:33:50.940,611.206
921,5 Jul 2025 00:27:46.421,5 Jul 2025 00:36:40.006,533.584
922,5 Jul 2025 01:59:51.121,5 Jul 2025 02:11:17.269,686.148
923,5 Jul 2025 03:39:40.978,5 Jul 2025 03:40:32.180,51.202
924,5 Jul 2025 13:31:17.165,5 Jul 2025 13:41:21.666,604.502
925,5 Jul 2025 15:04:41.700,5 Jul 2025 15:15:38.956,657.256
926,6 Jul 2025 00:10:11.065,6 Jul 2025 00:17:18.551,427.487
927,6 Jul 2025 01:41:04.308,6 Jul 2025 01:52:37.470,693.162
928,6 Jul 2025 03:17:49.706,6 Jul 2025 03:24:27.752,398.046
929,6 Jul 2025 13:13:07.012,6 Jul 2025 13:21:47.905,520.893
930,6 Jul 2025 14:45:50.335,6 Jul 2025 14:57:14.436,684.100
931,6 Jul 2025 16:22:08.911,6 Jul 2025 16:26:39.735,270.823
932,6 Jul 2025 23:53:15.291,6 Jul 2025 23:57:24.345,249.054
933,7 Jul 2025 01:22:29.127,7 Jul 2025 01:33:51.589,682.463
934,7 Jul 2025 02:57:49.095,7 Jul 2025 03:06:39.011,529.916
935,7 Jul 2025 12:55:21.385,7 Jul 2025 13:01:43.648,382.263
936,7 Jul 2025 14:27:04.982,7 Jul 2025 14:38:38.241,693.259
937,7 Jul 2025 16:02:19.657,7 Jul 2025 16:09:38.384,438.727
938,8 Jul 2025 01:04:05.664,8 Jul 2025 01:14:59.680,654.016
939,8 Jul 2025 02:38:17.278,8 Jul 2025 02:48:27.426,610.148
940,8 Jul 2025 14:08:25.739,8 Jul 2025 14:19:50.385,684.646
941,8 Jul 2025 15:42:59.804,8 Jul 2025 15:52:00.850,541.047
942,9 Jul 2025 00:45:54.854,9 Jul 2025 00:56:00.998,606.143
943,9 Jul 2025 02:19:03.739,9 Jul 2025 02:30:03.242,659.503
944,9 Jul 2025 13:49:53.458,9 Jul 2025 14:00:50.075,656.617
945,9 Jul 2025 15:23:53.143,9 Jul 2025 15:34:03.687,610.544
946,10 Jul 2025 00:27:58.951,10 Jul 2025 00:36:53.556,534.605
947,10 Jul 2025 02:00:04.424,10 Jul 2025 02:11:30.376,685.952
948,10 Jul 2025 03:40:08.001,10 Jul 2025 03:40:31.918,23.918
949,10 Jul 2025 13:31:30.062,10 Jul 2025 13:41:35.330,605.268
950,10 Jul 2025 15:04:55.023,10 Jul 2025 15:15:51.856,656.834
951,11 Jul 2025 00:10:23.294,11 Jul 2025 00:17:32.319,429.025
952,11 Jul 2025 01:41:17.473,11 Jul 2025 01:52:50.657,693.184
953,11 Jul 2025 03:18:04.080,11 Jul 2025 03:24:40.063,395.983
954,11 Jul 2025 13:13:19.714,11 Jul 2025 13:22:01.828,522.115
955,11 Jul 2025 14:46:03.588,11 Jul 2025 14:57:27.476,683.889
956,11 Jul 2025 16:22:23.259,11 Jul 2025 16:26:51.304,268.045
957,11 Jul 2025 23:53:26.722,11 Jul 2025 23:57:38.828,252.106
958,12 Jul 2025 01:22:42.156,12 Jul 2025 01:34:04.847,682.691
959,12 Jul 2025 02:58:02.998,12 Jul 2025 03:06:51.722,528.723
960,12 Jul 2025 12:55:33.655,12 Jul 2025 13:01:58.075,384.420
961,12 Jul 2025 14:27:18.164,12 Jul 2025 14:38:51.418,693.254
962,12 Jul 2025 16:02:33.392,12 Jul 2025 16:09:50.650,437.259
963,13 Jul 2025 01:04:18.552,13 Jul 2025 01:15:13.012,654.460
964,13 Jul 2025 02:38:30.926,13 Jul 2025 02:48:40.327,609.401
965,13 Jul 2025 14:08:38.847,13 Jul 2025 14:20:03.700,684.854
966,13 Jul 2025 15:43:13.333,13 Jul 2025 15:52:13.400,540.067
967,14 Jul 2025 00:46:07.585,14 Jul 2025 00:56:14.417,606.832
968,14 Jul 2025 02:19:17.199,14 Jul 2025 02:30:16.264,659.065
969,14 Jul 2025 13:50:06.475,14 Jul 2025 14:01:03.545,657.070
970,14 Jul 2025 15:24:06.554,14 Jul 2025 15:34:16.429,609.875
971,15 Jul 2025 00:28:11.482,15 Jul 2025 00:37:07.094,535.613
972,15 Jul 2025 02:00:17.730,15 Jul 2025 02:11:43.487,685.757
973,15 Jul 2025 13:31:42.957,15 Jul 2025 13:41:48.988,606.031
974,15 Jul 2025 15:05:08.346,15 Jul 2025 15:16:04.754,656.408
975,16 Jul 2025 00:10:35.529,16 Jul 2025 00:17:46.080,430.552
976,16 Jul 2025 01:41:30.639,16 Jul 2025 01:53:03.839,693.200
977,16 Jul 2025 03:18:18.461,16 Jul 2025 03:24:52.363,393.902
978,16 Jul 2025 13:13:32.417,16 Jul 2025 13:22:15.747,523.331
