3UCubedIntegratedSim/Reports & Plots/Comms/SSU/Sat7 Comms.csv

"Access","Start Time (UTCG)","Stop Time (UTCG)","Duration (sec)"
1,1 Jan 2025 16:31:20.822,1 Jan 2025 16:41:07.274,586.452
2,2 Jan 2025 01:34:58.121,2 Jan 2025 01:44:23.963,565.842
3,2 Jan 2025 03:07:28.864,2 Jan 2025 03:18:46.900,678.036
4,2 Jan 2025 14:38:40.733,2 Jan 2025 14:49:09.264,628.531
5,2 Jan 2025 16:12:19.681,2 Jan 2025 16:23:00.831,641.150
6,3 Jan 2025 01:17:13.528,3 Jan 2025 01:25:09.091,475.563
7,3 Jan 2025 02:48:37.213,3 Jan 2025 03:00:09.719,692.506
8,3 Jan 2025 04:26:09.110,3 Jan 2025 04:31:25.102,315.992
9,3 Jan 2025 14:20:24.523,3 Jan 2025 14:29:43.877,559.354
10,3 Jan 2025 15:53:25.750,3 Jan 2025 16:04:41.208,675.457
11,3 Jan 2025 17:30:37.667,3 Jan 2025 17:33:00.284,142.617
12,4 Jan 2025 00:59:56.991,4 Jan 2025 01:05:32.855,335.864
13,4 Jan 2025 02:29:57.374,4 Jan 2025 02:41:26.246,688.872
14,4 Jan 2025 04:05:48.605,4 Jan 2025 04:13:53.750,485.144
15,4 Jan 2025 14:02:26.595,4 Jan 2025 14:09:54.361,447.766
16,4 Jan 2025 15:34:38.001,4 Jan 2025 15:46:09.669,691.668
17,4 Jan 2025 17:10:13.628,4 Jan 2025 17:16:36.564,382.935
18,5 Jan 2025 02:11:29.133,5 Jan 2025 02:22:36.807,667.674
19,5 Jan 2025 03:46:07.173,5 Jan 2025 03:55:49.420,582.247
20,5 Jan 2025 13:45:15.838,5 Jan 2025 13:49:11.472,235.634
21,5 Jan 2025 15:15:56.239,5 Jan 2025 15:27:26.563,690.323
22,5 Jan 2025 16:50:45.418,5 Jan 2025 16:59:10.074,504.656
23,6 Jan 2025 01:53:13.042,6 Jan 2025 02:03:40.999,627.957
24,6 Jan 2025 03:26:46.957,6 Jan 2025 03:37:29.643,642.686
25,6 Jan 2025 14:57:20.995,6 Jan 2025 15:08:31.428,670.434
26,6 Jan 2025 16:31:34.273,6 Jan 2025 16:41:19.945,585.673
27,7 Jan 2025 01:35:10.737,7 Jan 2025 01:44:37.442,566.706
28,7 Jan 2025 03:07:42.225,7 Jan 2025 03:18:59.977,677.752
29,7 Jan 2025 14:38:53.680,7 Jan 2025 14:49:22.841,629.162
30,7 Jan 2025 16:12:33.036,7 Jan 2025 16:23:13.668,640.633
31,8 Jan 2025 01:17:25.901,8 Jan 2025 01:25:22.747,476.846
32,8 Jan 2025 02:48:50.428,8 Jan 2025 03:00:22.880,692.452
33,8 Jan 2025 04:26:23.891,8 Jan 2025 04:31:37.033,313.142
34,8 Jan 2025 14:20:37.311,8 Jan 2025 14:29:57.678,560.367
35,8 Jan 2025 15:53:39.029,8 Jan 2025 16:04:54.191,675.162
36,8 Jan 2025 17:30:53.446,8 Jan 2025 17:33:10.389,136.943
37,9 Jan 2025 01:00:08.897,9 Jan 2025 01:05:46.894,337.997
38,9 Jan 2025 02:30:10.457,9 Jan 2025 02:41:39.473,689.016
39,9 Jan 2025 04:06:02.649,9 Jan 2025 04:14:06.347,483.698
40,9 Jan 2025 14:02:39.086,9 Jan 2025 14:10:08.529,449.443
41,9 Jan 2025 15:34:51.209,9 Jan 2025 15:46:22.788,691.579
42,9 Jan 2025 17:10:27.516,9 Jan 2025 17:16:48.642,381.126
43,10 Jan 2025 02:11:42.078,10 Jan 2025 02:22:50.105,668.026
44,10 Jan 2025 03:46:20.906,10 Jan 2025 03:56:02.260,581.353
45,10 Jan 2025 13:45:27.202,10 Jan 2025 13:49:26.844,239.642
46,10 Jan 2025 15:16:09.375,10 Jan 2025 15:27:39.816,690.441
47,10 Jan 2025 16:50:59.015,10 Jan 2025 16:59:22.527,503.512
48,11 Jan 2025 01:53:25.838,11 Jan 2025 02:03:54.377,628.539
49,11 Jan 2025 03:27:00.484,11 Jan 2025 03:37:42.622,642.138
50,11 Jan 2025 14:57:34.044,11 Jan 2025 15:08:44.832,670.788
51,11 Jan 2025 16:31:47.725,11 Jan 2025 16:41:32.613,584.887
52,12 Jan 2025 01:35:23.356,12 Jan 2025 01:44:50.924,567.569
53,12 Jan 2025 03:07:55.589,12 Jan 2025 03:19:13.054,677.465
54,12 Jan 2025 14:39:06.626,12 Jan 2025 14:49:36.414,629.788
55,12 Jan 2025 16:12:46.387,12 Jan 2025 16:23:26.500,640.113
56,13 Jan 2025 01:17:38.279,13 Jan 2025 01:25:36.392,478.113
57,13 Jan 2025 02:49:03.648,13 Jan 2025 03:00:36.035,692.387
58,13 Jan 2025 04:26:38.687,13 Jan 2025 04:31:48.954,310.267
59,13 Jan 2025 14:20:50.099,13 Jan 2025 14:30:11.478,561.379
60,13 Jan 2025 15:53:52.307,13 Jan 2025 16:05:07.171,674.864
61,13 Jan 2025 17:31:09.353,13 Jan 2025 17:33:20.361,131.008
62,14 Jan 2025 01:00:20.811,14 Jan 2025 01:06:00.920,340.109
63,14 Jan 2025 02:30:23.540,14 Jan 2025 02:41:52.701,689.161
64,14 Jan 2025 04:06:16.696,14 Jan 2025 04:14:18.941,482.245
65,14 Jan 2025 14:02:51.581,14 Jan 2025 14:10:22.693,451.112
66,14 Jan 2025 15:35:04.417,14 Jan 2025 15:46:35.906,691.489
67,14 Jan 2025 17:10:41.409,14 Jan 2025 17:17:00.713,379.304
68,15 Jan 2025 02:11:55.024,15 Jan 2025 02:23:03.400,668.376
69,15 Jan 2025 03:46:34.641,15 Jan 2025 03:56:15.096,580.455
70,15 Jan 2025 13:45:38.603,15 Jan 2025 13:49:42.172,243.569
71,15 Jan 2025 15:16:22.511,15 Jan 2025 15:27:53.069,690.558
72,15 Jan 2025 16:51:12.612,15 Jan 2025 16:59:34.970,502.358
73,16 Jan 2025 01:53:38.638,16 Jan 2025 02:04:07.752,629.114
74,16 Jan 2025 03:27:14.015,16 Jan 2025 03:37:55.598,641.583
75,16 Jan 2025 14:57:47.100,16 Jan 2025 15:08:58.232,671.132
76,16 Jan 2025 16:32:01.178,16 Jan 2025 16:41:45.273,584.094
77,17 Jan 2025 01:35:35.975,17 Jan 2025 01:45:04.405,568.429
78,17 Jan 2025 03:08:08.953,17 Jan 2025 03:19:26.128,677.175
79,17 Jan 2025 14:39:19.573,17 Jan 2025 14:49:49.990,630.417
80,17 Jan 2025 16:12:59.743,17 Jan 2025 16:23:39.333,639.590
81,18 Jan 2025 01:17:50.658,18 Jan 2025 01:25:50.037,479.380
82,18 Jan 2025 02:49:16.869,18 Jan 2025 03:00:49.189,692.320
83,18 Jan 2025 04:26:53.502,18 Jan 2025 04:32:00.854,307.353
84,18 Jan 2025 14:21:02.890,18 Jan 2025 14:30:25.274,562.384
85,18 Jan 2025 15:54:05.586,18 Jan 2025 16:05:20.150,674.563
86,18 Jan 2025 17:31:25.400,18 Jan 2025 17:33:30.193,124.793
87,19 Jan 2025 01:00:32.734,19 Jan 2025 01:06:14.942,342.208
88,19 Jan 2025 02:30:36.625,19 Jan 2025 02:42:05.927,689.302
89,19 Jan 2025 04:06:30.749,19 Jan 2025 04:14:31.530,480.781
90,19 Jan 2025 14:03:04.083,19 Jan 2025 14:10:36.850,452.767
91,19 Jan 2025 15:35:17.627,19 Jan 2025 15:46:49.022,691.395
92,19 Jan 2025 17:10:55.307,19 Jan 2025 17:17:12.779,377.472
93,20 Jan 2025 02:12:07.972,20 Jan 2025 02:23:16.696,668.724
94,20 Jan 2025 03:46:48.381,20 Jan 2025 03:56:27.930,579.549
95,20 Jan 2025 13:45:50.042,20 Jan 2025 13:49:57.466,247.424
96,20 Jan 2025 15:16:35.649,20 Jan 2025 15:28:06.322,690.673
97,20 Jan 2025 16:51:26.213,20 Jan 2025 16:59:47.412,501.199
98,21 Jan 2025 01:53:51.434,21 Jan 2025 02:04:21.128,629.695
99,21 Jan 2025 03:27:27.548,21 Jan 2025 03:38:08.574,641.027
100,21 Jan 2025 14:58:00.157,21 Jan 2025 15:09:11.632,671.476
101,21 Jan 2025 16:32:14.634,21 Jan 2025 16:41:57.937,583.303
102,22 Jan 2025 01:35:48.594,22 Jan 2025 01:45:17.885,569.291
103,22 Jan 2025 03:08:22.321,22 Jan 2025 03:19:39.204,676.883
104,22 Jan 2025 14:39:32.524,22 Jan 2025 14:50:03.561,631.038
105,22 Jan 2025 16:13:13.102,22 Jan 2025 16:23:52.166,639.064
106,23 Jan 2025 01:18:03.039,23 Jan 2025 01:26:03.681,480.642
107,23 Jan 2025 02:49:30.093,23 Jan 2025 03:01:02.343,692.251
108,23 Jan 2025 04:27:08.336,23 Jan 2025 04:32:12.740,304.404
109,23 Jan 2025 14:21:15.685,23 Jan 2025 14:30:39.069,563.384
110,23 Jan 2025 15:54:18.868,23 Jan 2025 16:05:33.128,674.260
111,23 Jan 2025 17:31:41.622,23 Jan 2025 17:33:39.853,118.231
112,24 Jan 2025 01:00:44.667,24 Jan 2025 01:06:28.956,344.289
113,24 Jan 2025 02:30:49.714,24 Jan 2025 02:42:19.150,689.436
114,24 Jan 2025 04:06:44.808,24 Jan 2025 04:14:44.117,479.308
115,24 Jan 2025 14:03:16.589,24 Jan 2025 14:10:51.004,454.414
116,24 Jan 2025 15:35:30.838,24 Jan 2025 15:47:02.136,691.297
117,24 Jan 2025 17:11:09.215,24 Jan 2025 17:17:24.837,375.623
118,25 Jan 2025 02:12:20.923,25 Jan 2025 02:23:29.992,669.069
119,25 Jan 2025 03:47:02.126,25 Jan 2025 03:56:40.764,578.638
120,25 Jan 2025 13:46:01.513,25 Jan 2025 13:50:12.728,251.216
121,25 Jan 2025 15:16:48.788,25 Jan 2025 15:28:19.574,690.786
122,25 Jan 2025 16:51:39.818,25 Jan 2025 16:59:59.851,500.033
123,26 Jan 2025 01:54:04.236,26 Jan 2025 02:04:34.500,630.264
124,26 Jan 2025 03:27:41.080,26 Jan 2025 03:38:21.550,640.470
125,26 Jan 2025 14:58:13.212,26 Jan 2025 15:09:25.031,671.819
126,26 Jan 2025 16:32:28.091,26 Jan 2025 16:42:10.599,582.508
127,27 Jan 2025 01:36:01.220,27 Jan 2025 01:45:31.363,570.144
128,27 Jan 2025 03:08:35.690,27 Jan 2025 03:19:52.278,676.588
129,27 Jan 2025 14:39:45.470,27 Jan 2025 14:50:17.130,631.660
130,27 Jan 2025 16:13:26.462,27 Jan 2025 16:24:04.996,638.534
131,28 Jan 2025 01:18:15.426,28 Jan 2025 01:26:17.321,481.895
132,28 Jan 2025 02:49:43.317,28 Jan 2025 03:01:15.496,692.179
133,28 Jan 2025 04:27:23.192,28 Jan 2025 04:32:24.609,301.417
134,28 Jan 2025 14:21:28.485,28 Jan 2025 14:30:52.860,564.375
135,28 Jan 2025 15:54:32.150,28 Jan 2025 16:05:46.104,673.954
136,28 Jan 2025 17:31:58.042,28 Jan 2025 17:33:49.306,111.264
137,29 Jan 2025 01:00:56.609,29 Jan 2025 01:06:42.960,346.351
138,29 Jan 2025 02:31:02.802,29 Jan 2025 02:42:32.375,689.573
139,29 Jan 2025 04:06:58.870,29 Jan 2025 04:14:56.699,477.828
140,29 Jan 2025 14:03:29.100,29 Jan 2025 14:11:05.144,456.044
141,29 Jan 2025 15:35:44.049,29 Jan 2025 15:47:15.249,691.200
142,29 Jan 2025 17:11:23.126,29 Jan 2025 17:17:36.888,373.762
143,30 Jan 2025 02:12:33.874,30 Jan 2025 02:23:43.285,669.411
144,30 Jan 2025 03:47:15.867,30 Jan 2025 03:56:53.595,577.728
145,30 Jan 2025 13:46:13.015,30 Jan 2025 13:50:27.956,254.940
146,30 Jan 2025 15:17:01.927,30 Jan 2025 15:28:32.823,690.896
147,30 Jan 2025 16:51:53.423,30 Jan 2025 17:00:12.285,498.862
148,31 Jan 2025 01:54:17.039,31 Jan 2025 02:04:47.873,630.834
149,31 Jan 2025 03:27:54.615,31 Jan 2025 03:38:34.522,639.908
150,31 Jan 2025 14:58:26.270,31 Jan 2025 15:09:38.426,672.156
151,31 Jan 2025 16:32:41.549,31 Jan 2025 16:42:23.259,581.711
152,1 Feb 2025 01:36:13.847,1 Feb 2025 01:45:44.840,570.993
153,1 Feb 2025 03:08:49.060,1 Feb 2025 03:20:05.350,676.290
154,1 Feb 2025 14:39:58.422,1 Feb 2025 14:50:30.695,632.273
155,1 Feb 2025 16:13:39.825,1 Feb 2025 16:24:17.823,637.998
156,2 Feb 2025 01:18:27.816,2 Feb 2025 01:26:30.960,483.144
157,2 Feb 2025 02:49:56.544,2 Feb 2025 03:01:28.648,692.104
158,2 Feb 2025 04:27:38.063,2 Feb 2025 04:32:36.457,298.394
159,2 Feb 2025 14:21:41.279,2 Feb 2025 14:31:06.647,565.368
160,2 Feb 2025 15:54:45.437,2 Feb 2025 16:05:59.078,673.642
161,2 Feb 2025 17:32:14.697,2 Feb 2025 17:33:58.535,103.838
162,3 Feb 2025 01:01:08.557,3 Feb 2025 01:06:56.959,348.402
163,3 Feb 2025 02:31:15.893,3 Feb 2025 02:42:45.599,689.706
164,3 Feb 2025 04:07:12.940,3 Feb 2025 04:15:09.276,476.336
165,3 Feb 2025 14:03:41.617,3 Feb 2025 14:11:19.284,457.667
166,3 Feb 2025 15:35:57.260,3 Feb 2025 15:47:28.359,691.100
167,3 Feb 2025 17:11:37.043,3 Feb 2025 17:17:48.934,371.891
168,4 Feb 2025 02:12:46.828,4 Feb 2025 02:23:56.579,669.752
169,4 Feb 2025 03:47:29.614,4 Feb 2025 03:57:06.424,576.810
170,4 Feb 2025 13:46:24.551,4 Feb 2025 13:50:43.155,258.604
171,4 Feb 2025 15:17:15.068,4 Feb 2025 15:28:46.072,691.004
172,4 Feb 2025 16:52:07.032,4 Feb 2025 17:00:24.718,497.686
173,5 Feb 2025 01:54:29.845,5 Feb 2025 02:05:01.247,631.402
174,5 Feb 2025 03:28:08.154,5 Feb 2025 03:38:47.495,639.342
175,5 Feb 2025 14:58:39.330,5 Feb 2025 15:09:51.822,672.492
176,5 Feb 2025 16:32:55.010,5 Feb 2025 16:42:35.917,580.908
177,6 Feb 2025 01:36:26.478,6 Feb 2025 01:45:58.315,571.837
178,6 Feb 2025 03:09:02.431,6 Feb 2025 03:20:18.423,675.993
179,6 Feb 2025 14:40:11.377,6 Feb 2025 14:50:44.261,632.883
180,6 Feb 2025 16:13:53.187,6 Feb 2025 16:24:30.651,637.464
181,7 Feb 2025 01:18:40.210,7 Feb 2025 01:26:44.596,484.386
182,7 Feb 2025 02:50:09.774,7 Feb 2025 03:01:41.801,692.027
183,7 Feb 2025 04:27:52.957,7 Feb 2025 04:32:48.289,295.332
184,7 Feb 2025 14:21:54.082,7 Feb 2025 14:31:20.433,566.351
185,7 Feb 2025 15:54:58.722,7 Feb 2025 16:06:12.052,673.331
186,7 Feb 2025 17:32:31.652,7 Feb 2025 17:34:07.460,95.808
187,8 Feb 2025 01:01:20.517,8 Feb 2025 01:07:10.950,350.433
188,8 Feb 2025 02:31:28.987,8 Feb 2025 02:42:58.822,689.836
189,8 Feb 2025 04:07:27.016,8 Feb 2025 04:15:21.852,474.836
190,8 Feb 2025 14:03:54.138,8 Feb 2025 14:11:33.420,459.282
191,8 Feb 2025 15:36:10.474,8 Feb 2025 15:47:41.472,690.998
192,8 Feb 2025 17:11:50.966,8 Feb 2025 17:18:00.972,370.006
193,9 Feb 2025 02:12:59.784,9 Feb 2025 02:24:09.872,670.089
194,9 Feb 2025 03:47:43.366,9 Feb 2025 03:57:19.252,575.886
195,9 Feb 2025 13:46:36.114,9 Feb 2025 13:50:58.325,262.210
196,9 Feb 2025 15:17:28.210,9 Feb 2025 15:28:59.319,691.109
197,9 Feb 2025 16:52:20.645,9 Feb 2025 17:00:37.147,496.502
198,10 Feb 2025 01:54:42.654,10 Feb 2025 02:05:14.618,631.964
199,10 Feb 2025 03:28:21.695,10 Feb 2025 03:39:00.468,638.773
200,10 Feb 2025 14:58:52.389,10 Feb 2025 15:10:05.215,672.825
201,10 Feb 2025 16:33:08.472,10 Feb 2025 16:42:48.572,580.100
202,11 Feb 2025 01:36:39.111,11 Feb 2025 01:46:11.789,572.678
203,11 Feb 2025 03:09:15.805,11 Feb 2025 03:20:31.494,675.690
204,11 Feb 2025 14:40:24.333,11 Feb 2025 14:50:57.823,633.490
205,11 Feb 2025 16:14:06.550,11 Feb 2025 16:24:43.480,636.929
206,12 Feb 2025 01:18:52.608,12 Feb 2025 01:26:58.229,485.621
207,12 Feb 2025 02:50:23.004,12 Feb 2025 03:01:54.951,691.948
208,12 Feb 2025 04:28:07.868,12 Feb 2025 04:33:00.101,292.232
209,12 Feb 2025 14:22:06.887,12 Feb 2025 14:31:34.210,567.323
210,12 Feb 2025 15:55:12.006,12 Feb 2025 16:06:25.023,673.017
211,12 Feb 2025 17:32:48.972,12 Feb 2025 17:34:16.007,87.035
212,13 Feb 2025 01:01:32.483,13 Feb 2025 01:07:24.933,352.450
213,13 Feb 2025 02:31:42.080,13 Feb 2025 02:43:12.043,689.963
214,13 Feb 2025 04:07:41.096,13 Feb 2025 04:15:34.421,473.325
215,13 Feb 2025 14:04:06.663,13 Feb 2025 14:11:47.549,460.885
216,13 Feb 2025 15:36:23.687,13 Feb 2025 15:47:54.580,690.892
217,13 Feb 2025 17:12:04.896,13 Feb 2025 17:18:13.003,368.107
218,14 Feb 2025 02:13:12.737,14 Feb 2025 02:24:23.164,670.427
219,14 Feb 2025 03:47:57.120,14 Feb 2025 03:57:32.077,574.957
220,14 Feb 2025 13:46:47.712,14 Feb 2025 13:51:13.461,265.749
221,14 Feb 2025 15:17:41.349,14 Feb 2025 15:29:12.568,691.219
222,14 Feb 2025 16:52:34.259,14 Feb 2025 17:00:49.570,495.311
223,15 Feb 2025 01:54:55.463,15 Feb 2025 02:05:27.989,632.527
224,15 Feb 2025 03:28:35.237,15 Feb 2025 03:39:13.440,638.203
225,15 Feb 2025 14:59:05.446,15 Feb 2025 15:10:18.601,673.155
226,15 Feb 2025 16:33:21.935,15 Feb 2025 16:43:01.221,579.286
227,16 Feb 2025 01:36:51.746,16 Feb 2025 01:46:25.263,573.517
228,16 Feb 2025 03:09:29.182,16 Feb 2025 03:20:44.567,675.385
229,16 Feb 2025 14:40:37.295,16 Feb 2025 14:51:11.380,634.086
230,16 Feb 2025 16:14:19.915,16 Feb 2025 16:24:56.303,636.388
231,17 Feb 2025 01:19:05.009,17 Feb 2025 01:27:11.861,486.852
232,17 Feb 2025 02:50:36.236,17 Feb 2025 03:02:08.102,691.865
233,17 Feb 2025 04:28:22.803,17 Feb 2025 04:33:11.890,289.087
234,17 Feb 2025 14:22:19.694,17 Feb 2025 14:31:47.989,568.295
235,17 Feb 2025 15:55:25.289,17 Feb 2025 16:06:37.990,672.701
236,17 Feb 2025 17:33:06.795,17 Feb 2025 17:34:24.065,77.269
237,18 Feb 2025 01:01:44.457,18 Feb 2025 01:07:38.912,354.455
238,18 Feb 2025 02:31:55.177,18 Feb 2025 02:43:25.265,690.088
239,18 Feb 2025 04:07:55.180,18 Feb 2025 04:15:46.987,471.807
240,18 Feb 2025 14:04:19.196,18 Feb 2025 14:12:01.674,462.478
241,18 Feb 2025 15:36:36.904,18 Feb 2025 15:48:07.689,690.786
242,18 Feb 2025 17:12:18.832,18 Feb 2025 17:18:25.028,366.197
243,19 Feb 2025 02:13:25.697,19 Feb 2025 02:24:36.457,670.760
244,19 Feb 2025 03:48:10.880,19 Feb 2025 03:57:44.901,574.021
245,19 Feb 2025 13:46:59.334,19 Feb 2025 13:51:28.571,269.237
246,19 Feb 2025 15:17:54.494,19 Feb 2025 15:29:25.813,691.319
247,19 Feb 2025 16:52:47.877,19 Feb 2025 17:01:01.994,494.118
248,20 Feb 2025 01:55:08.277,20 Feb 2025 02:05:41.361,633.085
249,20 Feb 2025 03:28:48.783,20 Feb 2025 03:39:26.410,637.627
250,20 Feb 2025 14:59:18.510,20 Feb 2025 15:10:31.995,673.485
251,20 Feb 2025 16:33:35.401,20 Feb 2025 16:43:13.873,578.472
252,21 Feb 2025 01:37:04.385,21 Feb 2025 01:46:38.737,574.352
253,21 Feb 2025 03:09:42.562,21 Feb 2025 03:20:57.639,675.077
254,21 Feb 2025 14:40:50.251,21 Feb 2025 14:51:24.940,634.689
255,21 Feb 2025 16:14:33.282,21 Feb 2025 16:25:09.126,635.844
256,22 Feb 2025 01:19:17.415,22 Feb 2025 01:27:25.491,488.076
257,22 Feb 2025 02:50:49.473,22 Feb 2025 03:02:21.249,691.776
258,22 Feb 2025 04:28:37.757,22 Feb 2025 04:33:23.659,285.902
259,22 Feb 2025 14:22:32.504,22 Feb 2025 14:32:01.767,569.263
260,22 Feb 2025 15:55:38.577,22 Feb 2025 16:06:50.962,672.385
261,22 Feb 2025 17:33:25.350,22 Feb 2025 17:34:31.382,66.031
262,23 Feb 2025 01:01:56.441,23 Feb 2025 01:07:52.883,356.442
263,23 Feb 2025 02:32:08.276,23 Feb 2025 02:43:38.487,690.211
264,23 Feb 2025 04:08:09.273,23 Feb 2025 04:15:59.550,470.277
265,23 Feb 2025 14:04:31.733,23 Feb 2025 14:12:15.796,464.063
266,23 Feb 2025 15:36:50.120,23 Feb 2025 15:48:20.798,690.678
267,23 Feb 2025 17:12:32.776,23 Feb 2025 17:18:37.041,364.265
268,24 Feb 2025 02:13:38.659,24 Feb 2025 02:24:49.748,671.089
269,24 Feb 2025 03:48:24.642,24 Feb 2025 03:57:57.723,573.082
270,24 Feb 2025 13:47:10.979,24 Feb 2025 13:51:43.654,272.675
271,24 Feb 2025 15:18:07.639,24 Feb 2025 15:29:39.056,691.417
272,24 Feb 2025 16:53:01.497,24 Feb 2025 17:01:14.414,492.917
273,25 Feb 2025 01:55:21.089,25 Feb 2025 02:05:54.729,633.640
274,25 Feb 2025 03:29:02.331,25 Feb 2025 03:39:39.378,637.047
275,25 Feb 2025 14:59:31.574,25 Feb 2025 15:10:45.385,673.812
276,25 Feb 2025 16:33:48.868,25 Feb 2025 16:43:26.522,577.654
277,26 Feb 2025 01:37:17.025,26 Feb 2025 01:46:52.208,575.182
278,26 Feb 2025 03:09:55.942,26 Feb 2025 03:21:10.708,674.766
279,26 Feb 2025 14:41:03.212,26 Feb 2025 14:51:38.496,635.284
280,26 Feb 2025 16:14:46.649,26 Feb 2025 16:25:21.946,635.297
281,27 Feb 2025 01:19:29.823,27 Feb 2025 01:27:39.117,489.294
282,27 Feb 2025 02:51:02.711,27 Feb 2025 03:02:34.397,691.686
283,27 Feb 2025 04:28:52.735,27 Feb 2025 04:33:35.408,282.673
284,27 Feb 2025 14:22:45.310,27 Feb 2025 14:32:15.540,570.230
285,27 Feb 2025 15:55:51.865,27 Feb 2025 16:07:03.927,672.062
286,27 Feb 2025 17:33:45.090,27 Feb 2025 17:34:37.517,52.428
287,28 Feb 2025 01:02:08.431,28 Feb 2025 01:08:06.847,358.416
288,28 Feb 2025 02:32:21.376,28 Feb 2025 02:43:51.706,690.331
289,28 Feb 2025 04:08:23.366,28 Feb 2025 04:16:12.108,468.742
290,28 Feb 2025 14:04:44.276,28 Feb 2025 14:12:29.909,465.633
291,28 Feb 2025 15:37:03.337,28 Feb 2025 15:48:33.902,690.564
292,28 Feb 2025 17:12:46.724,28 Feb 2025 17:18:49.051,362.327
293,1 Mar 2025 02:13:51.621,1 Mar 2025 02:25:03.038,671.417
294,1 Mar 2025 03:48:38.404,1 Mar 2025 03:58:10.542,572.138
295,1 Mar 2025 13:47:22.652,1 Mar 2025 13:51:58.710,276.058
296,1 Mar 2025 15:18:20.785,1 Mar 2025 15:29:52.297,691.512
297,1 Mar 2025 16:53:15.118,1 Mar 2025 17:01:26.830,491.713
298,2 Mar 2025 01:55:33.905,2 Mar 2025 02:06:08.098,634.193
299,2 Mar 2025 03:29:15.880,2 Mar 2025 03:39:52.344,636.464
300,2 Mar 2025 14:59:44.639,2 Mar 2025 15:10:58.772,674.133
301,2 Mar 2025 16:34:02.335,2 Mar 2025 16:43:39.168,576.833
302,3 Mar 2025 01:37:29.668,3 Mar 2025 01:47:05.678,576.010
303,3 Mar 2025 03:10:09.325,3 Mar 2025 03:21:23.777,674.451
304,3 Mar 2025 14:41:16.178,3 Mar 2025 14:51:52.052,635.874
305,3 Mar 2025 16:15:00.017,3 Mar 2025 16:25:34.765,634.749
306,4 Mar 2025 01:19:42.239,4 Mar 2025 01:27:52.742,490.503
307,4 Mar 2025 02:51:15.950,4 Mar 2025 03:02:47.546,691.596
308,4 Mar 2025 04:29:07.741,4 Mar 2025 04:33:47.134,279.393
309,4 Mar 2025 14:22:58.124,4 Mar 2025 14:32:29.312,571.187
310,4 Mar 2025 15:56:05.155,4 Mar 2025 16:07:16.895,671.740
311,4 Mar 2025 17:34:07.383,4 Mar 2025 17:34:41.103,33.720
312,5 Mar 2025 01:02:20.430,5 Mar 2025 01:08:20.803,360.373
313,5 Mar 2025 02:32:34.482,5 Mar 2025 02:44:04.923,690.441
314,5 Mar 2025 04:08:37.466,5 Mar 2025 04:16:24.663,467.197
315,5 Mar 2025 14:04:56.824,5 Mar 2025 14:12:44.014,467.190
316,5 Mar 2025 15:37:16.557,5 Mar 2025 15:48:47.006,690.449
317,5 Mar 2025 17:13:00.681,5 Mar 2025 17:19:01.055,360.374
318,6 Mar 2025 00:46:40.405,6 Mar 2025 00:47:14.075,33.670
319,6 Mar 2025 02:14:04.587,6 Mar 2025 02:25:16.326,671.739
320,6 Mar 2025 03:48:52.169,6 Mar 2025 03:58:23.357,571.188
321,6 Mar 2025 13:47:34.350,6 Mar 2025 13:52:13.743,279.393
322,6 Mar 2025 15:18:33.934,6 Mar 2025 15:30:05.538,691.604
323,6 Mar 2025 16:53:28.744,6 Mar 2025 17:01:39.250,490.506
324,7 Mar 2025 01:55:46.724,7 Mar 2025 02:06:21.472,634.747
325,7 Mar 2025 03:29:29.430,7 Mar 2025 03:40:05.311,635.881
326,7 Mar 2025 14:59:57.707,7 Mar 2025 15:11:12.159,674.452
327,7 Mar 2025 16:34:15.807,7 Mar 2025 16:43:51.814,576.007
328,8 Mar 2025 01:37:42.316,8 Mar 2025 01:47:19.147,576.831
329,8 Mar 2025 03:10:22.716,8 Mar 2025 03:21:36.846,674.130
330,8 Mar 2025 14:41:29.139,8 Mar 2025 14:52:05.605,636.466
331,8 Mar 2025 16:15:13.387,8 Mar 2025 16:25:47.583,634.197
332,9 Mar 2025 01:19:54.655,9 Mar 2025 01:28:06.365,491.710
333,9 Mar 2025 02:51:29.191,9 Mar 2025 03:03:00.695,691.504
334,9 Mar 2025 04:29:22.769,9 Mar 2025 04:33:58.838,276.069
335,9 Mar 2025 14:23:10.940,9 Mar 2025 14:32:43.079,572.138
336,9 Mar 2025 15:56:18.446,9 Mar 2025 16:07:29.861,671.414
337,10 Mar 2025 01:02:32.437,10 Mar 2025 01:08:34.754,362.317
338,10 Mar 2025 02:32:47.586,10 Mar 2025 02:44:18.142,690.556
339,10 Mar 2025 04:08:51.573,10 Mar 2025 04:16:37.214,465.640
340,10 Mar 2025 14:05:09.374,10 Mar 2025 14:12:58.118,468.743
341,10 Mar 2025 15:37:29.781,10 Mar 2025 15:49:00.104,690.323
342,10 Mar 2025 17:13:14.641,10 Mar 2025 17:19:13.052,358.411
343,11 Mar 2025 00:46:44.011,11 Mar 2025 00:47:36.350,52.340
344,11 Mar 2025 02:14:17.554,11 Mar 2025 02:25:29.614,672.061
345,11 Mar 2025 03:49:05.939,11 Mar 2025 03:58:36.174,570.234
346,11 Mar 2025 13:47:46.069,11 Mar 2025 13:52:28.750,282.681
347,11 Mar 2025 15:18:47.082,11 Mar 2025 15:30:18.777,691.694
348,11 Mar 2025 16:53:42.371,11 Mar 2025 17:01:51.660,489.289
349,12 Mar 2025 01:55:59.544,12 Mar 2025 02:06:34.839,635.295
350,12 Mar 2025 03:29:42.984,12 Mar 2025 03:40:18.275,635.291
351,12 Mar 2025 15:00:10.774,12 Mar 2025 15:11:25.542,674.768
352,12 Mar 2025 16:34:29.278,12 Mar 2025 16:44:04.456,575.178
353,13 Mar 2025 01:37:54.964,13 Mar 2025 01:47:32.611,577.647
354,13 Mar 2025 03:10:36.103,13 Mar 2025 03:21:49.912,673.809
355,13 Mar 2025 14:41:42.104,13 Mar 2025 14:52:19.155,637.051
356,13 Mar 2025 16:15:26.757,13 Mar 2025 16:26:00.398,633.641
357,14 Mar 2025 01:20:07.073,14 Mar 2025 01:28:19.985,492.912
358,14 Mar 2025 02:51:42.433,14 Mar 2025 03:03:13.842,691.409
359,14 Mar 2025 04:29:37.823,14 Mar 2025 04:34:10.516,272.693
360,14 Mar 2025 14:23:23.758,14 Mar 2025 14:32:56.844,573.086
361,14 Mar 2025 15:56:31.737,14 Mar 2025 16:07:42.822,671.085
362,15 Mar 2025 01:02:44.446,15 Mar 2025 01:08:48.701,364.254
363,15 Mar 2025 02:33:00.691,15 Mar 2025 02:44:31.360,690.669
364,15 Mar 2025 04:09:05.688,15 Mar 2025 04:16:49.759,464.071
365,15 Mar 2025 14:05:21.927,15 Mar 2025 14:13:12.215,470.289
366,15 Mar 2025 15:37:43.001,15 Mar 2025 15:49:13.205,690.204
367,15 Mar 2025 17:13:28.609,15 Mar 2025 17:19:25.041,356.432
368,16 Mar 2025 00:46:50.155,16 Mar 2025 00:47:56.081,65.926
369,16 Mar 2025 02:14:30.522,16 Mar 2025 02:25:42.906,672.384
370,16 Mar 2025 03:49:19.713,16 Mar 2025 03:58:48.987,569.274
371,16 Mar 2025 13:47:57.814,16 Mar 2025 13:52:43.731,285.917
372,16 Mar 2025 15:19:00.232,16 Mar 2025 15:30:32.014,691.782
373,16 Mar 2025 16:53:56.000,16 Mar 2025 17:02:04.068,488.068
374,17 Mar 2025 01:56:12.365,17 Mar 2025 02:06:48.206,635.840
375,17 Mar 2025 03:29:56.541,17 Mar 2025 03:40:31.238,634.697
376,17 Mar 2025 15:00:23.844,17 Mar 2025 15:11:38.925,675.081
377,17 Mar 2025 16:34:42.751,17 Mar 2025 16:44:17.098,574.347
378,18 Mar 2025 01:38:07.616,18 Mar 2025 01:47:46.079,578.463
379,18 Mar 2025 03:10:49.493,18 Mar 2025 03:22:02.978,673.485
380,18 Mar 2025 14:41:55.078,18 Mar 2025 14:52:32.705,637.627
381,18 Mar 2025 16:15:40.129,18 Mar 2025 16:26:13.213,633.084
382,19 Mar 2025 01:20:19.494,19 Mar 2025 01:28:33.605,494.110
383,19 Mar 2025 02:51:55.677,19 Mar 2025 03:03:26.989,691.312
384,19 Mar 2025 04:29:52.905,19 Mar 2025 04:34:22.168,269.263
385,19 Mar 2025 14:23:36.581,19 Mar 2025 14:33:10.609,574.028
386,19 Mar 2025 15:56:45.031,19 Mar 2025 16:07:55.786,670.755
387,20 Mar 2025 01:02:56.467,20 Mar 2025 01:09:02.643,366.176
388,20 Mar 2025 02:33:13.799,20 Mar 2025 02:44:44.580,690.781
389,20 Mar 2025 04:09:19.809,20 Mar 2025 04:17:02.294,462.485
390,20 Mar 2025 14:05:34.488,20 Mar 2025 14:13:26.308,471.820
391,20 Mar 2025 15:37:56.226,20 Mar 2025 15:49:26.305,690.079
392,20 Mar 2025 17:13:42.585,20 Mar 2025 17:19:37.022,354.437
393,21 Mar 2025 00:46:57.485,21 Mar 2025 00:48:14.626,77.140
394,21 Mar 2025 02:14:43.493,21 Mar 2025 02:25:56.197,672.703
395,21 Mar 2025 03:49:33.491,21 Mar 2025 03:59:01.800,568.309
396,21 Mar 2025 13:48:09.581,21 Mar 2025 13:52:58.693,289.112
397,21 Mar 2025 15:19:13.384,21 Mar 2025 15:30:45.251,691.867
398,21 Mar 2025 16:54:09.633,21 Mar 2025 17:02:16.474,486.840
399,22 Mar 2025 01:56:25.190,22 Mar 2025 02:07:01.573,636.383
400,22 Mar 2025 03:30:10.102,22 Mar 2025 03:40:44.201,634.098
401,22 Mar 2025 15:00:36.916,22 Mar 2025 15:11:52.306,675.391
402,22 Mar 2025 16:34:56.227,22 Mar 2025 16:44:29.737,573.510
403,23 Mar 2025 01:38:20.269,23 Mar 2025 01:47:59.543,579.274
404,23 Mar 2025 03:11:02.885,23 Mar 2025 03:22:16.044,673.159
405,23 Mar 2025 14:42:08.044,23 Mar 2025 14:52:46.253,638.209
406,23 Mar 2025 16:15:53.503,23 Mar 2025 16:26:26.026,632.523
407,24 Mar 2025 01:20:31.921,24 Mar 2025 01:28:47.222,495.301
408,24 Mar 2025 02:52:08.923,24 Mar 2025 03:03:40.136,691.213
409,24 Mar 2025 04:30:08.014,24 Mar 2025 04:34:33.797,265.783
410,24 Mar 2025 14:23:49.404,24 Mar 2025 14:33:24.370,574.966
411,24 Mar 2025 15:56:58.325,24 Mar 2025 16:08:08.748,670.423
412,25 Mar 2025 01:03:08.496,25 Mar 2025 01:09:16.578,368.082
413,25 Mar 2025 02:33:26.909,25 Mar 2025 02:44:57.797,690.888
414,25 Mar 2025 04:09:33.935,25 Mar 2025 04:17:14.831,460.896
415,25 Mar 2025 14:05:47.055,25 Mar 2025 14:13:40.397,473.343
416,25 Mar 2025 15:38:09.449,25 Mar 2025 15:49:39.403,689.954
417,25 Mar 2025 17:13:56.570,25 Mar 2025 17:19:48.995,352.425
418,26 Mar 2025 00:47:05.542,26 Mar 2025 00:48:32.448,86.905
419,26 Mar 2025 02:14:56.466,26 Mar 2025 02:26:09.481,673.015
420,26 Mar 2025 03:49:47.271,26 Mar 2025 03:59:14.610,567.339
421,26 Mar 2025 13:48:21.367,26 Mar 2025 13:53:13.632,292.265
422,26 Mar 2025 15:19:26.537,26 Mar 2025 15:30:58.481,691.944
423,26 Mar 2025 16:54:23.269,26 Mar 2025 17:02:28.875,485.606
424,27 Mar 2025 01:56:38.016,27 Mar 2025 02:07:14.938,636.922
425,27 Mar 2025 03:30:23.664,27 Mar 2025 03:40:57.161,633.497
426,27 Mar 2025 15:00:49.989,27 Mar 2025 15:12:05.685,675.696
427,27 Mar 2025 16:35:09.703,27 Mar 2025 16:44:42.373,572.670
428,28 Mar 2025 01:38:32.924,28 Mar 2025 01:48:13.006,580.082
429,28 Mar 2025 03:11:16.278,28 Mar 2025 03:22:29.107,672.830
430,28 Mar 2025 14:42:21.017,28 Mar 2025 14:52:59.796,638.779
431,28 Mar 2025 16:16:06.877,28 Mar 2025 16:26:38.836,631.960
432,29 Mar 2025 01:20:44.349,29 Mar 2025 01:29:00.836,496.486
433,29 Mar 2025 02:52:22.170,29 Mar 2025 03:03:53.281,691.111
434,29 Mar 2025 04:30:23.150,29 Mar 2025 04:34:45.395,262.245
435,29 Mar 2025 14:24:02.230,29 Mar 2025 14:33:38.127,575.897
436,29 Mar 2025 15:57:11.620,29 Mar 2025 16:08:21.708,670.088
437,30 Mar 2025 01:03:20.530,30 Mar 2025 01:09:30.506,369.977
438,30 Mar 2025 02:33:40.018,30 Mar 2025 02:45:11.014,690.997
439,30 Mar 2025 04:09:48.065,30 Mar 2025 04:17:27.360,459.295
440,30 Mar 2025 14:05:59.627,30 Mar 2025 14:13:54.479,474.852
441,30 Mar 2025 15:38:22.673,30 Mar 2025 15:49:52.500,689.827
442,30 Mar 2025 17:14:10.559,30 Mar 2025 17:20:00.960,350.402
443,31 Mar 2025 00:47:14.099,31 Mar 2025 00:48:49.774,95.674
444,31 Mar 2025 02:15:09.440,31 Mar 2025 02:26:22.772,673.332
445,31 Mar 2025 03:50:01.055,31 Mar 2025 03:59:27.417,566.362
446,31 Mar 2025 13:48:33.177,31 Mar 2025 13:53:28.549,295.372
447,31 Mar 2025 15:19:39.690,31 Mar 2025 15:31:11.714,692.024
448,31 Mar 2025 16:54:36.907,31 Mar 2025 17:02:41.274,484.367
449,1 Apr 2025 01:56:50.843,1 Apr 2025 02:07:28.303,637.460
450,1 Apr 2025 03:30:37.229,1 Apr 2025 03:41:10.120,632.891
451,1 Apr 2025 15:01:03.061,1 Apr 2025 15:12:19.063,676.002
452,1 Apr 2025 16:35:23.181,1 Apr 2025 16:44:55.009,571.828
453,2 Apr 2025 01:38:45.583,2 Apr 2025 01:48:26.471,580.888
454,2 Apr 2025 03:11:29.674,2 Apr 2025 03:22:42.171,672.497
455,2 Apr 2025 14:42:33.991,2 Apr 2025 14:53:13.341,639.350
456,2 Apr 2025 16:16:20.253,2 Apr 2025 16:26:51.647,631.394
457,3 Apr 2025 01:20:56.784,3 Apr 2025 01:29:14.448,497.663
458,3 Apr 2025 02:52:35.417,3 Apr 2025 03:04:06.430,691.013
459,3 Apr 2025 04:30:38.319,3 Apr 2025 04:34:56.965,258.645
460,3 Apr 2025 14:24:15.060,3 Apr 2025 14:33:51.883,576.823
461,3 Apr 2025 15:57:24.917,3 Apr 2025 16:08:34.667,669.750
462,4 Apr 2025 01:03:32.572,4 Apr 2025 01:09:44.433,371.861
463,4 Apr 2025 02:33:53.131,4 Apr 2025 02:45:24.235,691.103
464,4 Apr 2025 04:10:02.200,4 Apr 2025 04:17:39.887,457.687
465,4 Apr 2025 14:06:12.201,4 Apr 2025 14:14:08.560,476.359
466,4 Apr 2025 15:38:35.900,4 Apr 2025 15:50:05.596,689.697
467,4 Apr 2025 17:14:24.558,4 Apr 2025 17:20:12.921,348.363
468,5 Apr 2025 00:47:23.032,5 Apr 2025 00:49:06.720,103.688
469,5 Apr 2025 02:15:22.417,5 Apr 2025 02:26:36.059,673.643
470,5 Apr 2025 03:50:14.844,5 Apr 2025 03:59:40.223,565.380
471,5 Apr 2025 13:48:45.006,5 Apr 2025 13:53:43.448,298.442
472,5 Apr 2025 15:19:52.848,5 Apr 2025 15:31:24.947,692.098
473,5 Apr 2025 16:54:50.549,5 Apr 2025 17:02:53.670,483.121
474,6 Apr 2025 01:57:03.674,6 Apr 2025 02:07:41.668,637.994
475,6 Apr 2025 03:30:50.802,6 Apr 2025 03:41:23.079,632.277
476,6 Apr 2025 15:01:16.139,6 Apr 2025 15:12:32.440,676.301
477,6 Apr 2025 16:35:36.662,6 Apr 2025 16:45:07.641,570.980
478,7 Apr 2025 01:38:58.242,7 Apr 2025 01:48:39.934,581.692
479,7 Apr 2025 03:11:43.072,7 Apr 2025 03:22:55.234,672.162
480,7 Apr 2025 14:42:46.966,7 Apr 2025 14:53:26.883,639.917
481,7 Apr 2025 16:16:33.630,7 Apr 2025 16:27:04.454,630.824
482,8 Apr 2025 01:21:09.218,8 Apr 2025 01:29:28.058,498.840
483,8 Apr 2025 02:52:48.668,8 Apr 2025 03:04:19.575,690.907
484,8 Apr 2025 04:30:53.517,8 Apr 2025 04:35:08.507,254.990
485,8 Apr 2025 14:24:27.890,8 Apr 2025 14:34:05.631,577.741
486,8 Apr 2025 15:57:38.214,8 Apr 2025 16:08:47.621,669.407
487,9 Apr 2025 01:03:44.621,9 Apr 2025 01:09:58.353,373.732
488,9 Apr 2025 02:34:06.245,9 Apr 2025 02:45:37.446,691.201
489,9 Apr 2025 04:10:16.345,9 Apr 2025 04:17:52.408,456.063
490,9 Apr 2025 14:06:24.780,9 Apr 2025 14:14:22.634,477.853
491,9 Apr 2025 15:38:49.125,9 Apr 2025 15:50:18.689,689.564
492,9 Apr 2025 17:14:38.562,9 Apr 2025 17:20:24.868,346.307
493,10 Apr 2025 00:47:32.257,10 Apr 2025 00:49:23.377,111.120
494,10 Apr 2025 02:15:35.394,10 Apr 2025 02:26:49.345,673.950
495,10 Apr 2025 03:50:28.633,10 Apr 2025 03:59:53.025,564.392
496,10 Apr 2025 13:48:56.855,10 Apr 2025 13:53:58.325,301.470
497,10 Apr 2025 15:20:06.003,10 Apr 2025 15:31:38.176,692.173
498,10 Apr 2025 16:55:04.192,10 Apr 2025 17:03:06.062,481.870
499,11 Apr 2025 01:57:16.501,11 Apr 2025 02:07:55.031,638.530
500,11 Apr 2025 03:31:04.366,11 Apr 2025 03:41:36.032,631.666
501,11 Apr 2025 15:01:29.214,11 Apr 2025 15:12:45.813,676.599
502,11 Apr 2025 16:35:50.142,11 Apr 2025 16:45:20.271,570.130
503,12 Apr 2025 01:39:10.904,12 Apr 2025 01:48:53.396,582.492
504,12 Apr 2025 03:11:56.471,12 Apr 2025 03:23:08.294,671.823
505,12 Apr 2025 14:42:59.941,12 Apr 2025 14:53:40.425,640.484
506,12 Apr 2025 16:16:47.002,12 Apr 2025 16:27:17.260,630.257
507,13 Apr 2025 01:21:21.657,13 Apr 2025 01:29:41.667,500.010
508,13 Apr 2025 02:53:01.921,13 Apr 2025 03:04:32.717,690.797
509,13 Apr 2025 04:31:08.748,13 Apr 2025 04:35:20.014,251.266
510,13 Apr 2025 14:24:40.724,13 Apr 2025 14:34:19.381,578.657
511,13 Apr 2025 15:57:51.511,13 Apr 2025 16:09:00.574,669.063
512,14 Apr 2025 01:03:56.676,14 Apr 2025 01:10:12.267,375.592
513,14 Apr 2025 02:34:19.361,14 Apr 2025 02:45:50.666,691.305
514,14 Apr 2025 04:10:30.494,14 Apr 2025 04:18:04.922,454.428
515,14 Apr 2025 14:06:37.366,14 Apr 2025 14:14:36.697,479.332
516,14 Apr 2025 15:39:02.352,14 Apr 2025 15:50:31.782,689.430
517,14 Apr 2025 17:14:52.572,14 Apr 2025 17:20:36.812,344.240
518,15 Apr 2025 00:47:41.715,15 Apr 2025 00:49:39.804,118.089
519,15 Apr 2025 02:15:48.374,15 Apr 2025 02:27:02.630,674.256
520,15 Apr 2025 03:50:42.427,15 Apr 2025 04:00:05.825,563.398
521,15 Apr 2025 13:49:08.725,15 Apr 2025 13:54:13.185,304.460
522,15 Apr 2025 15:20:19.160,15 Apr 2025 15:31:51.405,692.245
523,15 Apr 2025 16:55:17.837,15 Apr 2025 17:03:18.451,480.615
524,16 Apr 2025 01:57:29.335,16 Apr 2025 02:08:08.394,639.059
525,16 Apr 2025 03:31:17.940,16 Apr 2025 03:41:48.987,631.047
526,16 Apr 2025 15:01:42.292,16 Apr 2025 15:12:59.187,676.895
527,16 Apr 2025 16:36:03.624,16 Apr 2025 16:45:32.901,569.277
528,17 Apr 2025 01:39:23.569,17 Apr 2025 01:49:06.856,583.286
529,17 Apr 2025 03:12:09.870,17 Apr 2025 03:23:21.355,671.485
530,17 Apr 2025 14:43:12.920,17 Apr 2025 14:53:53.963,641.043
531,17 Apr 2025 16:17:00.382,17 Apr 2025 16:27:30.065,629.683
532,18 Apr 2025 01:21:34.099,18 Apr 2025 01:29:55.275,501.176
533,18 Apr 2025 02:53:15.177,18 Apr 2025 03:04:45.861,690.684
534,18 Apr 2025 04:31:24.015,18 Apr 2025 04:35:31.492,247.478
535,18 Apr 2025 14:24:53.561,18 Apr 2025 14:34:33.129,579.568
536,18 Apr 2025 15:58:04.811,18 Apr 2025 16:09:13.530,668.719
537,19 Apr 2025 01:04:08.738,19 Apr 2025 01:10:26.176,377.439
538,19 Apr 2025 02:34:32.480,19 Apr 2025 02:46:03.881,691.401
539,19 Apr 2025 04:10:44.650,19 Apr 2025 04:18:17.433,452.783
540,19 Apr 2025 14:06:49.955,19 Apr 2025 14:14:50.763,480.808
541,19 Apr 2025 15:39:15.581,19 Apr 2025 15:50:44.874,689.292
542,19 Apr 2025 17:15:06.592,19 Apr 2025 17:20:48.747,342.156
543,20 Apr 2025 00:47:51.371,20 Apr 2025 00:49:56.034,124.663
544,20 Apr 2025 02:16:01.359,20 Apr 2025 02:27:15.915,674.556
545,20 Apr 2025 03:50:56.226,20 Apr 2025 04:00:18.625,562.399
546,20 Apr 2025 13:49:20.612,20 Apr 2025 13:54:28.025,307.413
547,20 Apr 2025 15:20:32.318,20 Apr 2025 15:32:04.633,692.314
548,20 Apr 2025 16:55:31.486,20 Apr 2025 17:03:30.837,479.352
549,21 Apr 2025 01:57:42.171,21 Apr 2025 02:08:21.756,639.586
550,21 Apr 2025 03:31:31.517,21 Apr 2025 03:42:01.942,630.425
551,21 Apr 2025 15:01:55.371,21 Apr 2025 15:13:12.558,677.187
552,21 Apr 2025 16:36:17.108,21 Apr 2025 16:45:45.527,568.419
553,22 Apr 2025 01:39:36.237,22 Apr 2025 01:49:20.316,584.080
554,22 Apr 2025 03:12:23.274,22 Apr 2025 03:23:34.415,671.141
555,22 Apr 2025 14:43:25.900,22 Apr 2025 14:54:07.498,641.598
556,22 Apr 2025 16:17:13.762,22 Apr 2025 16:27:42.867,629.105
557,23 Apr 2025 01:21:46.543,23 Apr 2025 01:30:08.879,502.336
558,23 Apr 2025 02:53:28.433,23 Apr 2025 03:04:59.002,690.569
559,23 Apr 2025 04:31:39.317,23 Apr 2025 04:35:42.931,243.614
560,23 Apr 2025 14:25:06.398,23 Apr 2025 14:34:46.872,580.474
561,23 Apr 2025 15:58:18.111,23 Apr 2025 16:09:26.480,668.369
562,24 Apr 2025 01:04:20.806,24 Apr 2025 01:10:40.078,379.271
563,24 Apr 2025 02:34:45.599,24 Apr 2025 02:46:17.094,691.495
564,24 Apr 2025 04:10:58.812,24 Apr 2025 04:18:29.938,451.126
565,24 Apr 2025 14:07:02.546,24 Apr 2025 14:15:04.820,482.273
566,24 Apr 2025 15:39:28.810,24 Apr 2025 15:50:57.962,689.153
567,24 Apr 2025 17:15:20.618,24 Apr 2025 17:21:00.672,340.054
568,25 Apr 2025 00:48:01.203,25 Apr 2025 00:50:12.091,130.889
569,25 Apr 2025 02:16:14.343,25 Apr 2025 02:27:29.198,674.856
570,25 Apr 2025 03:51:10.027,25 Apr 2025 04:00:31.420,561.393
571,25 Apr 2025 13:49:32.516,25 Apr 2025 13:54:42.846,310.330
572,25 Apr 2025 15:20:45.476,25 Apr 2025 15:32:17.857,692.382
573,25 Apr 2025 16:55:45.135,25 Apr 2025 17:03:43.219,478.084
574,26 Apr 2025 01:57:55.007,26 Apr 2025 02:08:35.116,640.109
575,26 Apr 2025 03:31:45.093,26 Apr 2025 03:42:14.893,629.800
576,26 Apr 2025 15:02:08.451,26 Apr 2025 15:13:25.926,677.475
577,26 Apr 2025 16:36:30.595,26 Apr 2025 16:45:58.150,567.555
578,27 Apr 2025 01:39:48.905,27 Apr 2025 01:49:33.773,584.869
579,27 Apr 2025 03:12:36.679,27 Apr 2025 03:23:47.472,670.793
580,27 Apr 2025 14:43:38.880,27 Apr 2025 14:54:21.030,642.150
581,27 Apr 2025 16:17:27.142,27 Apr 2025 16:27:55.667,628.526
582,28 Apr 2025 01:21:58.989,28 Apr 2025 01:30:22.483,503.493
583,28 Apr 2025 02:53:41.691,28 Apr 2025 03:05:12.142,690.451
584,28 Apr 2025 04:31:54.654,28 Apr 2025 04:35:54.336,239.682
585,28 Apr 2025 14:25:19.239,28 Apr 2025 14:35:00.609,581.370
586,28 Apr 2025 15:58:31.411,28 Apr 2025 16:09:39.431,668.020
587,29 Apr 2025 01:04:32.880,29 Apr 2025 01:10:53.977,381.097
588,29 Apr 2025 02:34:58.720,29 Apr 2025 02:46:30.307,691.587
589,29 Apr 2025 04:11:12.979,29 Apr 2025 04:18:42.437,449.457
590,29 Apr 2025 14:07:15.147,29 Apr 2025 14:15:18.871,483.724
591,29 Apr 2025 15:39:42.040,29 Apr 2025 15:51:11.051,689.011
592,29 Apr 2025 17:15:34.652,29 Apr 2025 17:21:12.590,337.939
593,30 Apr 2025 00:48:11.175,30 Apr 2025 00:50:28.011,136.836
594,30 Apr 2025 02:16:27.328,30 Apr 2025 02:27:42.482,675.154
595,30 Apr 2025 03:51:23.833,30 Apr 2025 04:00:44.213,560.380
596,30 Apr 2025 13:49:44.440,30 Apr 2025 13:54:57.649,313.208
597,30 Apr 2025 15:20:58.636,30 Apr 2025 15:32:31.082,692.446
598,30 Apr 2025 16:55:58.785,30 Apr 2025 17:03:55.599,476.814
599,1 May 2025 01:58:07.847,1 May 2025 02:08:48.478,640.631
600,1 May 2025 03:31:58.674,1 May 2025 03:42:27.844,629.170
601,1 May 2025 15:02:21.533,1 May 2025 15:13:39.295,677.762
602,1 May 2025 16:36:44.080,1 May 2025 16:46:10.773,566.693
603,2 May 2025 01:40:01.576,2 May 2025 01:49:47.233,585.656
604,2 May 2025 03:12:50.087,2 May 2025 03:24:00.530,670.443
605,2 May 2025 14:43:51.864,2 May 2025 14:54:34.562,642.699
606,2 May 2025 16:17:40.528,2 May 2025 16:28:08.467,627.939
607,3 May 2025 01:22:11.446,3 May 2025 01:30:36.085,504.639
608,3 May 2025 02:53:54.954,3 May 2025 03:05:25.283,690.329
609,3 May 2025 04:32:10.030,3 May 2025 04:36:05.706,235.676
610,3 May 2025 14:25:32.082,3 May 2025 14:35:14.350,582.268
611,3 May 2025 15:58:44.714,3 May 2025 16:09:52.383,667.669
612,4 May 2025 01:04:44.962,4 May 2025 01:11:07.869,382.907
613,4 May 2025 02:35:11.843,4 May 2025 02:46:43.520,691.676
614,4 May 2025 04:11:27.154,4 May 2025 04:18:54.932,447.778
615,4 May 2025 14:07:27.748,4 May 2025 14:15:32.920,485.172
616,4 May 2025 15:39:55.272,4 May 2025 15:51:24.138,688.866
617,4 May 2025 17:15:48.697,4 May 2025 17:21:24.500,335.803
618,5 May 2025 00:48:21.279,5 May 2025 00:50:43.798,142.519
619,5 May 2025 02:16:40.314,5 May 2025 02:27:55.764,675.450
620,5 May 2025 03:51:37.641,5 May 2025 04:00:57.004,559.363
621,5 May 2025 13:49:56.379,5 May 2025 13:55:12.434,316.056
622,5 May 2025 15:21:11.796,5 May 2025 15:32:44.304,692.508
623,5 May 2025 16:56:12.441,5 May 2025 17:04:07.974,475.533
624,6 May 2025 01:58:20.688,6 May 2025 02:09:01.834,641.146
625,6 May 2025 03:32:12.254,6 May 2025 03:42:40.793,628.539
626,6 May 2025 15:02:34.614,6 May 2025 15:13:52.660,678.047
627,6 May 2025 16:36:57.568,6 May 2025 16:46:23.392,565.824
628,7 May 2025 01:40:14.249,7 May 2025 01:50:00.689,586.440
629,7 May 2025 03:13:03.496,7 May 2025 03:24:13.585,670.089
630,7 May 2025 14:44:04.847,7 May 2025 14:54:48.091,643.244
631,7 May 2025 16:17:53.907,7 May 2025 16:28:21.264,627.357
632,8 May 2025 01:22:23.900,8 May 2025 01:30:49.684,505.784
633,8 May 2025 02:54:08.216,8 May 2025 03:05:38.421,690.206
634,8 May 2025 04:32:25.446,8 May 2025 04:36:17.033,231.587
635,8 May 2025 14:25:44.926,8 May 2025 14:35:28.084,583.158
636,8 May 2025 15:58:58.019,8 May 2025 16:10:05.330,667.311
637,9 May 2025 01:04:57.048,9 May 2025 01:11:21.756,384.707
638,9 May 2025 02:35:24.967,9 May 2025 02:46:56.730,691.763
639,9 May 2025 04:11:41.332,9 May 2025 04:19:07.420,446.087
640,9 May 2025 14:07:40.352,9 May 2025 14:15:46.962,486.610
641,9 May 2025 15:40:08.500,9 May 2025 15:51:37.222,688.722
642,9 May 2025 17:16:02.746,9 May 2025 17:21:36.399,333.654
643,10 May 2025 00:48:31.490,10 May 2025 00:50:59.475,147.984
644,10 May 2025 02:16:53.301,10 May 2025 02:28:09.045,675.744
645,10 May 2025 03:51:51.449,10 May 2025 04:01:09.791,558.342
646,10 May 2025 13:50:08.335,10 May 2025 13:55:27.200,318.865
647,10 May 2025 15:21:24.956,10 May 2025 15:32:57.524,692.568
648,10 May 2025 16:56:26.097,10 May 2025 17:04:20.346,474.249
649,11 May 2025 01:58:33.530,11 May 2025 02:09:15.192,641.662
650,11 May 2025 03:32:25.838,11 May 2025 03:42:53.739,627.901
651,11 May 2025 15:02:47.696,11 May 2025 15:14:06.020,678.324
652,11 May 2025 16:37:11.057,11 May 2025 16:46:36.009,564.952
653,12 May 2025 01:40:26.923,12 May 2025 01:50:14.144,587.220
654,12 May 2025 03:13:16.906,12 May 2025 03:24:26.639,669.733
655,12 May 2025 14:44:17.827,12 May 2025 14:55:01.614,643.787
656,12 May 2025 16:18:07.294,12 May 2025 16:28:34.058,626.764
657,13 May 2025 01:22:36.356,13 May 2025 01:31:03.282,506.926
658,13 May 2025 02:54:21.481,13 May 2025 03:05:51.558,690.077
659,13 May 2025 04:32:40.909,13 May 2025 04:36:28.314,227.406
660,13 May 2025 14:25:57.779,13 May 2025 14:35:41.812,584.034
661,13 May 2025 15:59:11.318,13 May 2025 16:10:18.275,666.957
662,14 May 2025 01:05:09.140,14 May 2025 01:11:35.639,386.499
663,14 May 2025 02:35:38.093,14 May 2025 02:47:09.940,691.847
664,14 May 2025 04:11:55.519,14 May 2025 04:19:19.901,444.382
665,14 May 2025 14:07:52.961,14 May 2025 14:16:01.000,488.039
666,14 May 2025 15:40:21.732,14 May 2025 15:51:50.305,688.573
667,14 May 2025 17:16:16.801,14 May 2025 17:21:48.291,331.490
668,15 May 2025 00:48:41.802,15 May 2025 00:51:15.055,153.253
669,15 May 2025 02:17:06.291,15 May 2025 02:28:22.322,676.031
670,15 May 2025 03:52:05.264,15 May 2025 04:01:22.575,557.311
671,15 May 2025 13:50:20.308,15 May 2025 13:55:41.950,321.642
672,15 May 2025 15:21:38.118,15 May 2025 15:33:10.745,692.627
673,15 May 2025 16:56:39.756,15 May 2025 17:04:32.716,472.960
674,16 May 2025 01:58:46.374,16 May 2025 02:09:28.550,642.176
675,16 May 2025 03:32:39.425,16 May 2025 03:43:06.684,627.259
676,16 May 2025 15:03:00.780,16 May 2025 15:14:19.382,678.602
677,16 May 2025 16:37:24.550,16 May 2025 16:46:48.624,564.074
678,17 May 2025 01:40:39.596,17 May 2025 01:50:27.598,588.002
679,17 May 2025 03:13:30.320,17 May 2025 03:24:39.693,669.373
680,17 May 2025 14:44:30.815,17 May 2025 14:55:15.137,644.323
681,17 May 2025 16:18:20.679,17 May 2025 16:28:46.852,626.174
682,18 May 2025 01:22:48.816,18 May 2025 01:31:16.878,508.062
683,18 May 2025 02:54:34.746,18 May 2025 03:06:04.692,689.946
684,18 May 2025 04:32:56.415,18 May 2025 04:36:39.554,223.138
685,18 May 2025 14:26:10.626,18 May 2025 14:35:55.539,584.913
686,18 May 2025 15:59:24.622,18 May 2025 16:10:31.219,666.597
687,19 May 2025 01:05:21.240,19 May 2025 01:11:49.516,388.277
688,19 May 2025 02:35:51.221,19 May 2025 02:47:23.150,691.929
689,19 May 2025 04:12:09.712,19 May 2025 04:19:32.379,442.667
690,19 May 2025 14:08:05.575,19 May 2025 14:16:15.033,489.459
691,19 May 2025 15:40:34.965,19 May 2025 15:52:03.387,688.422
692,19 May 2025 17:16:30.866,19 May 2025 17:22:00.171,329.305
693,20 May 2025 00:48:52.208,20 May 2025 00:51:30.538,158.330
694,20 May 2025 02:17:19.282,20 May 2025 02:28:35.602,676.320
695,20 May 2025 03:52:19.081,20 May 2025 04:01:35.358,556.276
696,20 May 2025 13:50:32.294,20 May 2025 13:55:56.684,324.390
697,20 May 2025 15:21:51.281,20 May 2025 15:33:23.962,692.681
698,20 May 2025 16:56:53.419,20 May 2025 17:04:45.081,471.662
699,21 May 2025 01:58:59.220,21 May 2025 02:09:41.906,642.686
700,21 May 2025 03:32:53.013,21 May 2025 03:43:19.628,626.615
701,21 May 2025 15:03:13.860,21 May 2025 15:14:32.747,678.886
702,21 May 2025 16:37:38.037,21 May 2025 16:47:01.233,563.196
703,22 May 2025 01:40:52.275,22 May 2025 01:50:41.045,588.770
704,22 May 2025 03:13:43.734,22 May 2025 03:24:52.744,669.011
705,22 May 2025 14:44:43.802,22 May 2025 14:55:28.659,644.858
706,22 May 2025 16:18:34.063,22 May 2025 16:28:59.643,625.580
707,23 May 2025 01:23:01.277,23 May 2025 01:31:30.470,509.193
708,23 May 2025 02:54:48.011,23 May 2025 03:06:17.827,689.816
709,23 May 2025 04:33:11.967,23 May 2025 04:36:50.746,218.779
710,23 May 2025 14:26:23.477,23 May 2025 14:36:09.265,585.788
711,23 May 2025 15:59:37.926,23 May 2025 16:10:44.160,666.234
712,24 May 2025 01:05:33.344,24 May 2025 01:12:03.387,390.044
713,24 May 2025 02:36:04.349,24 May 2025 02:47:36.357,692.009
714,24 May 2025 04:12:23.909,24 May 2025 04:19:44.849,440.940
715,24 May 2025 14:08:18.192,24 May 2025 14:16:29.060,490.868
716,24 May 2025 15:40:48.197,24 May 2025 15:52:16.465,688.268
717,24 May 2025 17:16:44.938,24 May 2025 17:22:12.043,327.105
718,25 May 2025 00:49:02.692,25 May 2025 00:51:45.949,163.257
719,25 May 2025 02:17:32.273,25 May 2025 02:28:48.880,676.607
720,25 May 2025 03:52:32.899,25 May 2025 04:01:48.136,555.237
721,25 May 2025 13:50:44.297,25 May 2025 13:56:11.400,327.104
722,25 May 2025 15:22:04.444,25 May 2025 15:33:37.178,692.734
723,25 May 2025 16:57:07.082,25 May 2025 17:04:57.442,470.360
724,26 May 2025 01:59:12.071,26 May 2025 02:09:55.259,643.188
725,26 May 2025 03:33:06.598,26 May 2025 03:43:32.570,625.972
726,26 May 2025 15:03:26.945,26 May 2025 15:14:46.104,679.159
727,26 May 2025 16:37:51.529,26 May 2025 16:47:13.843,562.314
728,27 May 2025 01:41:04.955,27 May 2025 01:50:54.498,589.543
729,27 May 2025 03:13:57.150,27 May 2025 03:25:05.791,668.642
730,27 May 2025 14:44:56.791,27 May 2025 14:55:42.179,645.388
731,27 May 2025 16:18:47.449,27 May 2025 16:29:12.433,624.984
732,28 May 2025 01:23:13.742,28 May 2025 01:31:44.063,510.321
733,28 May 2025 02:55:01.279,28 May 2025 03:06:30.961,689.682
734,28 May 2025 04:33:27.574,28 May 2025 04:37:01.884,214.310
735,28 May 2025 14:26:36.332,28 May 2025 14:36:22.989,586.657
736,28 May 2025 15:59:51.231,28 May 2025 16:10:57.096,665.865
737,29 May 2025 01:05:45.454,29 May 2025 01:12:17.257,391.803
738,29 May 2025 02:36:17.480,29 May 2025 02:47:49.565,692.086
739,29 May 2025 04:12:38.111,29 May 2025 04:19:57.314,439.203
740,29 May 2025 14:08:30.816,29 May 2025 14:16:43.084,492.268
741,29 May 2025 15:41:01.432,29 May 2025 15:52:29.544,688.112
742,29 May 2025 17:16:59.019,29 May 2025 17:22:23.907,324.889
743,30 May 2025 00:49:13.252,30 May 2025 00:52:01.283,168.032
744,30 May 2025 02:17:45.268,30 May 2025 02:29:02.159,676.891
745,30 May 2025 03:52:46.723,30 May 2025 04:02:00.913,554.190
746,30 May 2025 13:50:56.315,30 May 2025 13:56:26.101,329.786
747,30 May 2025 15:22:17.605,30 May 2025 15:33:50.395,692.790
748,30 May 2025 16:57:20.749,30 May 2025 17:05:09.797,469.049
749,31 May 2025 01:59:24.917,31 May 2025 02:10:08.615,643.699
750,31 May 2025 03:33:20.192,31 May 2025 03:43:45.512,625.320
751,31 May 2025 15:03:40.033,31 May 2025 15:14:59.461,679.429
752,31 May 2025 16:38:05.023,31 May 2025 16:47:26.451,561.428
753,1 Jun 2025 01:41:17.639,1 Jun 2025 01:51:07.949,590.311
754,1 Jun 2025 03:14:10.568,1 Jun 2025 03:25:18.842,668.273
755,1 Jun 2025 14:45:09.782,1 Jun 2025 14:55:55.698,645.917
756,1 Jun 2025 16:19:00.836,1 Jun 2025 16:29:25.221,624.385
757,2 Jun 2025 01:23:26.211,2 Jun 2025 01:31:57.651,511.440
758,2 Jun 2025 02:55:14.549,2 Jun 2025 03:06:44.095,689.547
759,2 Jun 2025 04:33:43.232,2 Jun 2025 04:37:12.973,209.741
760,2 Jun 2025 14:26:49.187,2 Jun 2025 14:36:36.710,587.522
761,2 Jun 2025 16:00:04.537,2 Jun 2025 16:11:10.034,665.497
762,3 Jun 2025 01:05:57.571,3 Jun 2025 01:12:31.118,393.547
763,3 Jun 2025 02:36:30.611,3 Jun 2025 02:48:02.771,692.160
764,3 Jun 2025 04:12:52.322,3 Jun 2025 04:20:09.773,437.452
765,3 Jun 2025 14:08:43.441,3 Jun 2025 14:16:57.102,493.661
766,3 Jun 2025 15:41:14.666,3 Jun 2025 15:52:42.620,687.954
767,3 Jun 2025 17:17:13.108,3 Jun 2025 17:22:35.759,322.651
768,4 Jun 2025 00:49:23.885,4 Jun 2025 00:52:16.546,172.661
769,4 Jun 2025 02:17:58.263,4 Jun 2025 02:29:15.435,677.172
770,4 Jun 2025 03:53:00.549,4 Jun 2025 04:02:13.687,553.138
771,4 Jun 2025 13:51:08.345,4 Jun 2025 13:56:40.787,332.443
772,4 Jun 2025 15:22:30.769,4 Jun 2025 15:34:03.606,692.837
773,4 Jun 2025 16:57:34.417,4 Jun 2025 17:05:22.150,467.733
774,5 Jun 2025 01:59:37.767,5 Jun 2025 02:10:21.968,644.202
775,5 Jun 2025 03:33:33.785,5 Jun 2025 03:43:58.449,624.664
776,5 Jun 2025 15:03:53.119,5 Jun 2025 15:15:12.815,679.696
777,5 Jun 2025 16:38:18.517,5 Jun 2025 16:47:39.053,560.536
778,6 Jun 2025 01:41:30.323,6 Jun 2025 01:51:21.396,591.073
779,6 Jun 2025 03:14:23.987,6 Jun 2025 03:25:31.889,667.902
780,6 Jun 2025 14:45:22.773,6 Jun 2025 14:56:09.211,646.438
781,6 Jun 2025 16:19:14.218,6 Jun 2025 16:29:38.005,623.787
782,7 Jun 2025 01:23:38.678,7 Jun 2025 01:32:11.237,512.559
783,7 Jun 2025 02:55:27.818,7 Jun 2025 03:06:57.226,689.408
784,7 Jun 2025 04:33:58.946,7 Jun 2025 04:37:24.002,205.056
785,7 Jun 2025 14:27:02.044,7 Jun 2025 14:36:50.425,588.381
786,7 Jun 2025 16:00:17.842,7 Jun 2025 16:11:22.970,665.128
787,8 Jun 2025 01:06:09.693,8 Jun 2025 01:12:44.975,395.281
788,8 Jun 2025 02:36:43.743,8 Jun 2025 02:48:15.975,692.232
789,8 Jun 2025 04:13:06.539,8 Jun 2025 04:20:22.225,435.686
790,8 Jun 2025 14:08:56.073,8 Jun 2025 14:17:11.116,495.043
791,8 Jun 2025 15:41:27.901,8 Jun 2025 15:52:55.698,687.797
792,8 Jun 2025 17:17:27.201,8 Jun 2025 17:22:47.605,320.403
793,9 Jun 2025 00:49:34.578,9 Jun 2025 00:52:31.748,177.170
794,9 Jun 2025 02:18:11.258,9 Jun 2025 02:29:28.714,677.456
795,9 Jun 2025 03:53:14.374,9 Jun 2025 04:02:26.453,552.079
796,9 Jun 2025 13:51:20.390,9 Jun 2025 13:56:55.457,335.067
797,9 Jun 2025 15:22:43.934,9 Jun 2025 15:34:16.815,692.882
798,9 Jun 2025 16:57:48.087,9 Jun 2025 17:05:34.500,466.413
799,10 Jun 2025 01:59:50.619,10 Jun 2025 02:10:35.321,644.702
800,10 Jun 2025 03:33:47.381,10 Jun 2025 03:44:11.385,624.004
801,10 Jun 2025 15:04:06.207,10 Jun 2025 15:15:26.166,679.960
802,10 Jun 2025 16:38:32.012,10 Jun 2025 16:47:51.655,559.643
803,11 Jun 2025 01:41:43.009,11 Jun 2025 01:51:34.842,591.834
804,11 Jun 2025 03:14:37.408,11 Jun 2025 03:25:44.932,667.524
805,11 Jun 2025 14:45:35.765,11 Jun 2025 14:56:22.725,646.960
806,11 Jun 2025 16:19:27.605,11 Jun 2025 16:29:50.789,623.183
807,12 Jun 2025 01:23:51.155,12 Jun 2025 01:32:24.823,513.668
808,12 Jun 2025 02:55:41.087,12 Jun 2025 03:07:10.357,689.270
809,12 Jun 2025 04:34:14.729,12 Jun 2025 04:37:34.967,200.238
810,12 Jun 2025 14:27:14.904,12 Jun 2025 14:37:04.139,589.235
811,12 Jun 2025 16:00:31.149,12 Jun 2025 16:11:35.905,664.756
812,13 Jun 2025 01:06:21.821,13 Jun 2025 01:12:58.823,397.002
813,13 Jun 2025 02:36:56.878,13 Jun 2025 02:48:29.180,692.302
814,13 Jun 2025 04:13:20.763,13 Jun 2025 04:20:34.671,433.907
815,13 Jun 2025 14:09:08.709,13 Jun 2025 14:17:25.125,496.416
816,13 Jun 2025 15:41:41.137,13 Jun 2025 15:53:08.767,687.630
817,13 Jun 2025 17:17:41.307,13 Jun 2025 17:22:59.438,318.131
818,14 Jun 2025 00:49:45.330,14 Jun 2025 00:52:46.893,181.563
819,14 Jun 2025 02:18:24.254,14 Jun 2025 02:29:41.989,677.735
820,14 Jun 2025 03:53:28.207,14 Jun 2025 04:02:39.219,551.012
821,14 Jun 2025 13:51:32.449,14 Jun 2025 13:57:10.115,337.666
822,14 Jun 2025 15:22:57.100,14 Jun 2025 15:34:30.024,692.924
823,14 Jun 2025 16:58:01.761,14 Jun 2025 17:05:46.847,465.086
824,15 Jun 2025 02:00:03.475,15 Jun 2025 02:10:48.673,645.198
825,15 Jun 2025 03:34:00.980,15 Jun 2025 03:44:24.320,623.339
826,15 Jun 2025 15:04:19.296,15 Jun 2025 15:15:39.517,680.221
827,15 Jun 2025 16:38:45.509,15 Jun 2025 16:48:04.256,558.746
828,16 Jun 2025 01:41:55.698,16 Jun 2025 01:51:48.287,592.590
829,16 Jun 2025 03:14:50.831,16 Jun 2025 03:25:57.978,667.147
830,16 Jun 2025 14:45:48.759,16 Jun 2025 14:56:36.237,647.478
831,16 Jun 2025 16:19:40.995,16 Jun 2025 16:30:03.565,622.570
832,17 Jun 2025 01:24:03.628,17 Jun 2025 01:32:38.405,514.777
833,17 Jun 2025 02:55:54.360,17 Jun 2025 03:07:23.489,689.129
834,17 Jun 2025 04:34:30.568,17 Jun 2025 04:37:45.871,195.303
835,17 Jun 2025 14:27:27.759,17 Jun 2025 14:37:17.845,590.086
836,17 Jun 2025 16:00:44.456,17 Jun 2025 16:11:48.837,664.381
837,18 Jun 2025 01:06:33.954,18 Jun 2025 01:13:12.670,398.716
838,18 Jun 2025 02:37:10.013,18 Jun 2025 02:48:42.379,692.366
839,18 Jun 2025 04:13:34.993,18 Jun 2025 04:20:47.112,432.119
840,18 Jun 2025 14:09:21.341,18 Jun 2025 14:17:39.128,497.787
841,18 Jun 2025 15:41:54.377,18 Jun 2025 15:53:21.841,687.464
842,18 Jun 2025 17:17:55.422,18 Jun 2025 17:23:11.258,315.837
843,19 Jun 2025 00:49:56.138,19 Jun 2025 00:53:01.978,185.840
844,19 Jun 2025 02:18:37.252,19 Jun 2025 02:29:55.262,678.009
845,19 Jun 2025 03:53:42.041,19 Jun 2025 04:02:51.984,549.943
846,19 Jun 2025 13:51:44.518,19 Jun 2025 13:57:24.757,340.239
847,19 Jun 2025 15:23:10.266,19 Jun 2025 15:34:43.229,692.964
848,19 Jun 2025 16:58:15.437,19 Jun 2025 17:05:59.190,463.754
849,20 Jun 2025 02:00:16.330,20 Jun 2025 02:11:02.022,645.692
850,20 Jun 2025 03:34:14.580,20 Jun 2025 03:44:37.251,622.672
851,20 Jun 2025 15:04:32.384,20 Jun 2025 15:15:52.864,680.479
852,20 Jun 2025 16:38:59.007,20 Jun 2025 16:48:16.852,557.845
853,21 Jun 2025 01:42:08.387,21 Jun 2025 01:52:01.729,593.342
854,21 Jun 2025 03:15:04.254,21 Jun 2025 03:26:11.020,666.766
855,21 Jun 2025 14:46:01.754,21 Jun 2025 14:56:49.745,647.991
856,21 Jun 2025 16:19:54.383,21 Jun 2025 16:30:16.343,621.961
857,22 Jun 2025 01:24:16.108,22 Jun 2025 01:32:51.983,515.875
858,22 Jun 2025 02:56:07.634,22 Jun 2025 03:07:36.614,688.980
859,22 Jun 2025 04:34:46.481,22 Jun 2025 04:37:56.700,190.220
860,22 Jun 2025 14:27:40.621,22 Jun 2025 14:37:31.555,590.934
861,22 Jun 2025 16:00:57.763,22 Jun 2025 16:12:01.767,664.004
862,23 Jun 2025 01:06:46.092,23 Jun 2025 01:13:26.512,400.420
863,23 Jun 2025 02:37:23.149,23 Jun 2025 02:48:55.580,692.431
864,23 Jun 2025 04:13:49.230,23 Jun 2025 04:20:59.544,430.315
865,23 Jun 2025 14:09:33.983,23 Jun 2025 14:17:53.125,499.142
866,23 Jun 2025 15:42:07.611,23 Jun 2025 15:53:34.909,687.298
867,23 Jun 2025 17:18:09.543,23 Jun 2025 17:23:23.070,313.527
868,24 Jun 2025 00:50:06.994,24 Jun 2025 00:53:17.018,190.023
869,24 Jun 2025 02:18:50.252,24 Jun 2025 02:30:08.533,678.281
870,24 Jun 2025 03:53:55.882,24 Jun 2025 04:03:04.745,548.863
871,24 Jun 2025 13:51:56.603,24 Jun 2025 13:57:39.385,342.781
872,24 Jun 2025 15:23:23.432,24 Jun 2025 15:34:56.433,693.001
873,24 Jun 2025 16:58:29.115,24 Jun 2025 17:06:11.529,462.414
874,25 Jun 2025 02:00:29.185,25 Jun 2025 02:11:15.370,646.185
875,25 Jun 2025 03:34:28.182,25 Jun 2025 03:44:50.181,621.999
876,25 Jun 2025 15:04:45.475,25 Jun 2025 15:16:06.210,680.735
877,25 Jun 2025 16:39:12.505,25 Jun 2025 16:48:29.447,556.942
878,26 Jun 2025 01:42:21.079,26 Jun 2025 01:52:15.169,594.090
879,26 Jun 2025 03:15:17.685,26 Jun 2025 03:26:24.066,666.381
880,26 Jun 2025 14:46:14.753,26 Jun 2025 14:57:03.251,648.499
881,26 Jun 2025 16:20:07.773,26 Jun 2025 16:30:29.125,621.352
882,27 Jun 2025 01:24:28.588,27 Jun 2025 01:33:05.562,516.975
883,27 Jun 2025 02:56:20.911,27 Jun 2025 03:07:49.746,688.835
884,27 Jun 2025 04:35:02.474,27 Jun 2025 04:38:07.456,184.982
885,27 Jun 2025 14:27:53.486,27 Jun 2025 14:37:45.259,591.774
886,27 Jun 2025 16:01:11.071,27 Jun 2025 16:12:14.696,663.625
887,28 Jun 2025 01:06:58.231,28 Jun 2025 01:13:40.350,402.119
888,28 Jun 2025 02:37:36.288,28 Jun 2025 02:49:08.781,692.493
889,28 Jun 2025 04:14:03.474,28 Jun 2025 04:21:11.972,428.497
890,28 Jun 2025 14:09:46.627,28 Jun 2025 14:18:07.119,500.492
891,28 Jun 2025 15:42:20.851,28 Jun 2025 15:53:47.977,687.126
892,28 Jun 2025 17:18:23.677,28 Jun 2025 17:23:34.870,311.193
893,29 Jun 2025 00:50:17.902,29 Jun 2025 00:53:32.008,194.106
894,29 Jun 2025 02:19:03.254,29 Jun 2025 02:30:21.805,678.551
895,29 Jun 2025 03:54:09.725,29 Jun 2025 04:03:17.505,547.779
896,29 Jun 2025 13:52:08.699,29 Jun 2025 13:57:54.004,345.305
897,29 Jun 2025 15:23:36.600,29 Jun 2025 15:35:09.632,693.032
898,29 Jun 2025 16:58:42.798,29 Jun 2025 17:06:23.863,461.065
899,30 Jun 2025 02:00:42.045,30 Jun 2025 02:11:28.717,646.673
900,30 Jun 2025 03:34:41.787,30 Jun 2025 03:45:03.110,621.323
901,30 Jun 2025 15:04:58.566,30 Jun 2025 15:16:19.554,680.988
902,30 Jun 2025 16:39:26.009,30 Jun 2025 16:48:42.039,556.030
903,1 Jul 2025 01:42:33.773,1 Jul 2025 01:52:28.612,594.838
904,1 Jul 2025 03:15:31.108,1 Jul 2025 03:26:37.102,665.994
905,1 Jul 2025 14:46:27.748,1 Jul 2025 14:57:16.754,649.006
906,1 Jul 2025 16:20:21.163,1 Jul 2025 16:30:41.899,620.736
907,2 Jul 2025 01:24:41.070,2 Jul 2025 01:33:19.138,518.067
908,2 Jul 2025 02:56:34.192,2 Jul 2025 03:08:02.872,688.680
909,2 Jul 2025 04:35:18.548,2 Jul 2025 04:38:18.131,179.583
910,2 Jul 2025 14:28:06.350,2 Jul 2025 14:37:58.959,592.609
911,2 Jul 2025 16:01:24.384,2 Jul 2025 16:12:27.622,663.238
912,3 Jul 2025 01:07:10.384,3 Jul 2025 01:13:54.181,403.797
913,3 Jul 2025 02:37:49.430,3 Jul 2025 02:49:21.980,692.549
914,3 Jul 2025 04:14:17.724,3 Jul 2025 04:21:24.392,426.668
915,3 Jul 2025 14:09:59.273,3 Jul 2025 14:18:21.107,501.834
916,3 Jul 2025 15:42:34.087,3 Jul 2025 15:54:01.040,686.953
917,3 Jul 2025 17:18:37.821,3 Jul 2025 17:23:46.656,308.835
918,4 Jul 2025 00:50:28.855,4 Jul 2025 00:53:46.950,198.096
919,4 Jul 2025 02:19:16.256,4 Jul 2025 02:30:35.074,678.817
920,4 Jul 2025 03:54:23.564,4 Jul 2025 04:03:30.260,546.696
921,4 Jul 2025 13:52:20.806,4 Jul 2025 13:58:08.602,347.796
922,4 Jul 2025 15:23:49.767,4 Jul 2025 15:35:22.831,693.064
923,4 Jul 2025 16:58:56.481,4 Jul 2025 17:06:36.193,459.712
924,5 Jul 2025 02:00:54.904,5 Jul 2025 02:11:42.062,647.158
925,5 Jul 2025 03:34:55.393,5 Jul 2025 03:45:16.035,620.642
926,5 Jul 2025 15:05:11.656,5 Jul 2025 15:16:32.894,681.238
927,5 Jul 2025 16:39:39.508,5 Jul 2025 16:48:54.627,555.119
928,6 Jul 2025 01:42:46.468,6 Jul 2025 01:52:42.046,595.578
929,6 Jul 2025 03:15:44.540,6 Jul 2025 03:26:50.143,665.603
930,6 Jul 2025 14:46:40.742,6 Jul 2025 14:57:30.251,649.510
931,6 Jul 2025 16:20:34.553,6 Jul 2025 16:30:54.669,620.116
932,7 Jul 2025 01:24:53.557,7 Jul 2025 01:33:32.711,519.154
933,7 Jul 2025 02:56:47.470,7 Jul 2025 03:08:15.996,688.526
934,7 Jul 2025 04:35:34.711,7 Jul 2025 04:38:28.709,173.998
935,7 Jul 2025 14:28:19.217,7 Jul 2025 14:38:12.656,593.439
936,7 Jul 2025 16:01:37.689,7 Jul 2025 16:12:40.546,662.857
937,8 Jul 2025 01:07:22.536,8 Jul 2025 01:14:08.008,405.472
938,8 Jul 2025 02:38:02.570,8 Jul 2025 02:49:35.181,692.611
939,8 Jul 2025 04:14:31.984,8 Jul 2025 04:21:36.809,424.826
940,8 Jul 2025 14:10:11.923,8 Jul 2025 14:18:35.090,503.167
941,8 Jul 2025 15:42:47.324,8 Jul 2025 15:54:14.102,686.778
942,8 Jul 2025 17:18:51.972,8 Jul 2025 17:23:58.433,306.461
943,9 Jul 2025 00:50:39.847,9 Jul 2025 00:54:01.854,202.007
944,9 Jul 2025 02:19:29.260,9 Jul 2025 02:30:48.342,679.082
945,9 Jul 2025 03:54:37.411,9 Jul 2025 04:03:43.012,545.601
946,9 Jul 2025 13:52:32.926,9 Jul 2025 13:58:23.192,350.266
947,9 Jul 2025 15:24:02.935,9 Jul 2025 15:35:36.029,693.094
948,9 Jul 2025 16:59:10.165,9 Jul 2025 17:06:48.519,458.355
949,10 Jul 2025 02:01:07.764,10 Jul 2025 02:11:55.406,647.642
950,10 Jul 2025 03:35:09.004,10 Jul 2025 03:45:28.959,619.956
951,10 Jul 2025 15:05:24.748,10 Jul 2025 15:16:46.233,681.486
952,10 Jul 2025 16:39:53.013,10 Jul 2025 16:49:07.213,554.201
953,11 Jul 2025 01:42:59.165,11 Jul 2025 01:52:55.483,596.318
954,11 Jul 2025 03:15:57.970,11 Jul 2025 03:27:03.182,665.211
955,11 Jul 2025 14:46:53.741,11 Jul 2025 14:57:43.751,650.011
956,11 Jul 2025 16:20:47.945,11 Jul 2025 16:31:07.440,619.495
957,12 Jul 2025 01:25:06.048,12 Jul 2025 01:33:46.283,520.235
958,12 Jul 2025 02:57:00.750,12 Jul 2025 03:08:29.119,688.369
959,12 Jul 2025 04:35:50.981,12 Jul 2025 04:38:39.195,168.214
960,12 Jul 2025 14:28:32.086,12 Jul 2025 14:38:26.346,594.260
961,12 Jul 2025 16:01:51.002,12 Jul 2025 16:12:53.470,662.468
962,13 Jul 2025 01:07:34.695,13 Jul 2025 01:14:21.833,407.138
963,13 Jul 2025 02:38:15.712,13 Jul 2025 02:49:48.378,692.666
964,13 Jul 2025 04:14:46.248,13 Jul 2025 04:21:49.217,422.970
965,13 Jul 2025 14:10:24.576,13 Jul 2025 14:18:49.069,504.493
966,13 Jul 2025 15:43:00.563,13 Jul 2025 15:54:27.164,686.601
967,13 Jul 2025 17:19:06.136,13 Jul 2025 17:24:10.203,304.067
968,14 Jul 2025 00:50:50.884,14 Jul 2025 00:54:16.717,205.833
969,14 Jul 2025 02:19:42.266,14 Jul 2025 02:31:01.609,679.343
970,14 Jul 2025 03:54:51.262,14 Jul 2025 04:03:55.762,544.501
971,14 Jul 2025 13:52:45.058,14 Jul 2025 13:58:37.768,352.710
972,14 Jul 2025 15:24:16.107,14 Jul 2025 15:35:49.226,693.119
973,14 Jul 2025 16:59:23.849,14 Jul 2025 17:07:00.841,456.993
974,15 Jul 2025 02:01:20.626,15 Jul 2025 02:12:08.748,648.122
975,15 Jul 2025 03:35:22.614,15 Jul 2025 03:45:41.882,619.268
976,15 Jul 2025 15:05:37.840,15 Jul 2025 15:16:59.571,681.731
977,15 Jul 2025 16:40:06.512,15 Jul 2025 16:49:19.800,553.288
978,16 Jul 2025 01:43:11.864,16 Jul 2025 01:53:08.917,597.053
