3UCubedIntegratedSim/Reports & Plots/Comms/SSU/Sat8 Comms.csv

"Access","Start Time (UTCG)","Stop Time (UTCG)","Duration (sec)"
1,1 Jan 2025 16:31:22.372,1 Jan 2025 16:42:55.081,692.708
2,1 Jan 2025 18:06:48.455,1 Jan 2025 18:13:36.855,408.400
3,2 Jan 2025 03:08:17.502,2 Jan 2025 03:19:19.651,662.149
4,2 Jan 2025 04:42:43.992,2 Jan 2025 04:52:38.938,594.946
5,2 Jan 2025 14:42:33.712,2 Jan 2025 14:45:17.300,163.588
6,2 Jan 2025 16:12:41.685,2 Jan 2025 16:24:09.933,688.247
7,2 Jan 2025 17:47:24.192,2 Jan 2025 17:56:05.253,521.061
8,3 Jan 2025 02:50:03.661,3 Jan 2025 03:00:22.628,618.967
9,3 Jan 2025 04:23:26.755,3 Jan 2025 04:34:17.177,650.422
10,3 Jan 2025 15:54:07.683,3 Jan 2025 16:05:12.594,664.911
11,3 Jan 2025 17:28:15.084,3 Jan 2025 17:38:11.968,596.884
12,4 Jan 2025 02:32:04.034,4 Jan 2025 02:41:17.472,553.439
13,4 Jan 2025 04:04:24.398,4 Jan 2025 04:15:46.089,681.691
14,4 Jan 2025 15:35:41.994,4 Jan 2025 15:46:01.418,619.424
15,4 Jan 2025 17:09:15.232,4 Jan 2025 17:20:03.250,648.018
16,5 Jan 2025 02:14:22.945,5 Jan 2025 02:22:00.162,457.217
17,5 Jan 2025 03:45:34.714,5 Jan 2025 03:57:07.836,693.122
18,5 Jan 2025 05:22:46.422,5 Jan 2025 05:28:38.718,352.296
19,5 Jan 2025 15:17:28.069,5 Jan 2025 15:26:32.818,544.749
20,5 Jan 2025 16:50:22.356,5 Jan 2025 17:01:41.633,679.278
21,5 Jan 2025 18:27:07.632,5 Jan 2025 18:30:32.570,204.938
22,6 Jan 2025 01:57:13.499,6 Jan 2025 02:02:17.944,304.445
23,6 Jan 2025 03:26:56.754,6 Jan 2025 03:38:23.386,686.632
24,6 Jan 2025 05:02:35.020,6 Jan 2025 05:10:59.282,504.262
25,6 Jan 2025 14:59:34.541,6 Jan 2025 15:06:37.927,423.386
26,6 Jan 2025 16:31:35.564,6 Jan 2025 16:43:08.219,692.655
27,6 Jan 2025 18:07:02.265,6 Jan 2025 18:13:49.025,406.760
28,7 Jan 2025 03:08:30.421,7 Jan 2025 03:19:32.961,662.540
29,7 Jan 2025 04:42:57.685,7 Jan 2025 04:52:51.805,594.121
30,7 Jan 2025 14:42:44.123,7 Jan 2025 14:45:33.645,169.522
31,7 Jan 2025 16:12:54.804,7 Jan 2025 16:24:23.210,688.405
32,7 Jan 2025 17:47:37.758,7 Jan 2025 17:56:17.745,519.987
33,8 Jan 2025 02:50:16.429,8 Jan 2025 03:00:36.023,619.594
34,8 Jan 2025 04:23:40.248,8 Jan 2025 04:34:30.172,649.924
35,8 Jan 2025 15:54:20.720,8 Jan 2025 16:05:26.025,665.305
36,8 Jan 2025 17:28:28.518,8 Jan 2025 17:38:24.668,596.150
37,9 Jan 2025 02:32:16.617,9 Jan 2025 02:41:30.978,554.360
38,9 Jan 2025 04:04:37.740,9 Jan 2025 04:15:59.177,681.436
39,9 Jan 2025 15:35:54.916,9 Jan 2025 15:46:15.027,620.112
40,9 Jan 2025 17:09:28.574,9 Jan 2025 17:20:16.110,647.536
41,10 Jan 2025 02:14:35.268,10 Jan 2025 02:22:13.853,458.585
42,10 Jan 2025 03:45:47.911,10 Jan 2025 03:57:21.005,693.094
43,10 Jan 2025 05:23:01.002,10 Jan 2025 05:28:50.842,349.841
44,10 Jan 2025 15:17:40.823,10 Jan 2025 15:26:46.668,545.845
45,10 Jan 2025 16:50:35.623,10 Jan 2025 17:01:54.639,679.016
46,10 Jan 2025 18:27:22.499,10 Jan 2025 18:30:43.603,201.104
47,11 Jan 2025 01:57:25.263,11 Jan 2025 02:02:32.110,306.847
48,11 Jan 2025 03:27:09.815,11 Jan 2025 03:38:36.624,686.809
49,11 Jan 2025 05:02:49.002,11 Jan 2025 05:11:11.933,502.931
50,11 Jan 2025 14:59:46.952,11 Jan 2025 15:06:52.187,425.235
51,11 Jan 2025 16:31:48.761,11 Jan 2025 16:43:21.361,692.599
52,11 Jan 2025 18:07:16.086,11 Jan 2025 18:14:01.184,405.099
53,12 Jan 2025 03:08:43.343,12 Jan 2025 03:19:46.271,662.928
54,12 Jan 2025 04:43:11.380,12 Jan 2025 04:53:04.672,593.293
55,12 Jan 2025 14:42:54.634,12 Jan 2025 14:45:49.882,175.248
56,12 Jan 2025 16:13:07.928,12 Jan 2025 16:24:36.489,688.561
57,12 Jan 2025 17:47:51.325,12 Jan 2025 17:56:30.230,518.905
58,13 Jan 2025 02:50:29.194,13 Jan 2025 03:00:49.416,620.222
59,13 Jan 2025 04:23:53.746,13 Jan 2025 04:34:43.169,649.423
60,13 Jan 2025 15:54:33.758,13 Jan 2025 16:05:39.450,665.693
61,13 Jan 2025 17:28:41.956,13 Jan 2025 17:38:37.369,595.412
62,14 Jan 2025 02:32:29.204,14 Jan 2025 02:41:44.480,555.277
63,14 Jan 2025 04:04:51.076,14 Jan 2025 04:16:12.267,681.191
64,14 Jan 2025 15:36:07.840,14 Jan 2025 15:46:28.634,620.794
65,14 Jan 2025 17:09:41.917,14 Jan 2025 17:20:28.970,647.053
66,15 Jan 2025 02:14:47.594,15 Jan 2025 02:22:27.538,459.945
67,15 Jan 2025 03:46:01.108,15 Jan 2025 03:57:34.171,693.063
68,15 Jan 2025 05:23:15.592,15 Jan 2025 05:29:02.955,347.363
69,15 Jan 2025 15:17:53.577,15 Jan 2025 15:27:00.512,546.935
70,15 Jan 2025 16:50:48.890,15 Jan 2025 17:02:07.641,678.752
71,15 Jan 2025 18:27:37.403,15 Jan 2025 18:30:54.593,197.191
72,16 Jan 2025 01:57:37.037,16 Jan 2025 02:02:46.264,309.227
73,16 Jan 2025 03:27:22.877,16 Jan 2025 03:38:49.861,686.984
74,16 Jan 2025 05:03:02.981,16 Jan 2025 05:11:24.578,501.597
75,16 Jan 2025 14:59:59.370,16 Jan 2025 15:07:06.439,427.069
76,16 Jan 2025 16:32:01.962,16 Jan 2025 16:43:34.499,692.537
77,16 Jan 2025 18:07:29.909,16 Jan 2025 18:14:13.338,403.429
78,17 Jan 2025 03:08:56.266,17 Jan 2025 03:19:59.579,663.313
79,17 Jan 2025 04:43:25.080,17 Jan 2025 04:53:17.537,592.457
80,17 Jan 2025 14:43:05.243,17 Jan 2025 14:46:06.015,180.772
81,17 Jan 2025 16:13:21.052,17 Jan 2025 16:24:49.766,688.715
82,17 Jan 2025 17:48:04.895,17 Jan 2025 17:56:42.716,517.821
83,18 Jan 2025 02:50:41.964,18 Jan 2025 03:01:02.808,620.843
84,18 Jan 2025 04:24:07.245,18 Jan 2025 04:34:56.161,648.916
85,18 Jan 2025 15:54:46.797,18 Jan 2025 16:05:52.877,666.081
86,18 Jan 2025 17:28:55.393,18 Jan 2025 17:38:50.064,594.671
87,19 Jan 2025 02:32:41.792,19 Jan 2025 02:41:57.982,556.190
88,19 Jan 2025 04:05:04.420,19 Jan 2025 04:16:25.356,680.936
89,19 Jan 2025 15:36:20.771,19 Jan 2025 15:46:42.238,621.467
90,19 Jan 2025 17:09:55.260,19 Jan 2025 17:20:41.829,646.569
91,20 Jan 2025 02:14:59.922,20 Jan 2025 02:22:41.223,461.300
92,20 Jan 2025 03:46:14.307,20 Jan 2025 03:57:47.338,693.031
93,20 Jan 2025 05:23:30.197,20 Jan 2025 05:29:15.054,344.856
94,20 Jan 2025 15:18:06.334,20 Jan 2025 15:27:14.354,548.020
95,20 Jan 2025 16:51:02.158,20 Jan 2025 17:02:20.644,678.485
96,20 Jan 2025 18:27:52.347,20 Jan 2025 18:31:05.544,193.197
97,21 Jan 2025 01:57:48.822,21 Jan 2025 02:03:00.410,311.588
98,21 Jan 2025 03:27:35.941,21 Jan 2025 03:39:03.098,687.157
99,21 Jan 2025 05:03:16.972,21 Jan 2025 05:11:37.226,500.254
100,21 Jan 2025 15:00:11.795,21 Jan 2025 15:07:20.685,428.890
101,21 Jan 2025 16:32:15.160,21 Jan 2025 16:43:47.638,692.478
102,21 Jan 2025 18:07:43.737,21 Jan 2025 18:14:25.487,401.750
103,22 Jan 2025 03:09:09.193,22 Jan 2025 03:20:12.884,663.692
104,22 Jan 2025 04:43:38.778,22 Jan 2025 04:53:30.403,591.625
105,22 Jan 2025 14:43:15.942,22 Jan 2025 14:46:22.065,186.123
106,22 Jan 2025 16:13:34.178,22 Jan 2025 16:25:03.044,688.866
107,22 Jan 2025 17:48:18.465,22 Jan 2025 17:56:55.201,516.736
108,23 Jan 2025 02:50:54.738,23 Jan 2025 03:01:16.199,621.461
109,23 Jan 2025 04:24:20.749,23 Jan 2025 04:35:09.157,648.408
110,23 Jan 2025 15:54:59.838,23 Jan 2025 16:06:06.304,666.466
111,23 Jan 2025 17:29:08.832,23 Jan 2025 17:39:02.758,593.925
112,24 Jan 2025 02:32:54.381,24 Jan 2025 02:42:11.483,557.102
113,24 Jan 2025 04:05:17.764,24 Jan 2025 04:16:38.446,680.682
114,24 Jan 2025 15:36:33.698,24 Jan 2025 15:46:55.842,622.144
115,24 Jan 2025 17:10:08.607,24 Jan 2025 17:20:54.688,646.081
116,25 Jan 2025 02:15:12.255,25 Jan 2025 02:22:54.902,462.647
117,25 Jan 2025 03:46:27.509,25 Jan 2025 03:58:00.504,692.995
118,25 Jan 2025 05:23:44.816,25 Jan 2025 05:29:27.144,342.328
119,25 Jan 2025 15:18:19.095,25 Jan 2025 15:27:28.193,549.098
120,25 Jan 2025 16:51:15.429,25 Jan 2025 17:02:33.645,678.216
121,25 Jan 2025 18:28:07.340,25 Jan 2025 18:31:16.446,189.106
122,26 Jan 2025 01:58:00.621,26 Jan 2025 02:03:14.546,313.925
123,26 Jan 2025 03:27:49.007,26 Jan 2025 03:39:16.334,687.327
124,26 Jan 2025 05:03:30.966,26 Jan 2025 05:11:49.867,498.900
125,26 Jan 2025 15:00:24.221,26 Jan 2025 15:07:34.921,430.700
126,26 Jan 2025 16:32:28.362,26 Jan 2025 16:44:00.775,692.413
127,26 Jan 2025 18:07:57.573,26 Jan 2025 18:14:37.630,400.058
128,27 Jan 2025 03:09:22.122,27 Jan 2025 03:20:26.192,664.069
129,27 Jan 2025 04:43:52.482,27 Jan 2025 04:53:43.265,590.783
130,27 Jan 2025 14:43:26.719,27 Jan 2025 14:46:38.034,191.315
131,27 Jan 2025 16:13:47.305,27 Jan 2025 16:25:16.318,689.014
132,27 Jan 2025 17:48:32.041,27 Jan 2025 17:57:07.682,515.641
133,28 Jan 2025 02:51:07.514,28 Jan 2025 03:01:29.588,622.075
134,28 Jan 2025 04:24:34.254,28 Jan 2025 04:35:22.150,647.897
135,28 Jan 2025 15:55:12.879,28 Jan 2025 16:06:19.729,666.850
136,28 Jan 2025 17:29:22.272,28 Jan 2025 17:39:15.449,593.177
137,29 Jan 2025 02:33:06.975,29 Jan 2025 02:42:24.982,558.007
138,29 Jan 2025 04:05:31.107,29 Jan 2025 04:16:51.534,680.426
139,29 Jan 2025 15:36:46.629,29 Jan 2025 15:47:09.441,622.812
140,29 Jan 2025 17:10:21.955,29 Jan 2025 17:21:07.544,645.589
141,30 Jan 2025 02:15:24.588,30 Jan 2025 02:23:08.579,463.991
142,30 Jan 2025 03:46:40.712,30 Jan 2025 03:58:13.669,692.957
143,30 Jan 2025 05:23:59.446,30 Jan 2025 05:29:39.221,339.775
144,30 Jan 2025 15:18:31.857,30 Jan 2025 15:27:42.028,550.171
145,30 Jan 2025 16:51:28.699,30 Jan 2025 17:02:46.643,677.945
146,30 Jan 2025 18:28:22.380,30 Jan 2025 18:31:27.299,184.919
147,31 Jan 2025 01:58:12.429,31 Jan 2025 02:03:28.669,316.240
148,31 Jan 2025 03:28:02.074,31 Jan 2025 03:39:29.569,687.495
149,31 Jan 2025 05:03:44.964,31 Jan 2025 05:12:02.502,497.539
150,31 Jan 2025 15:00:36.657,31 Jan 2025 15:07:49.152,432.496
151,31 Jan 2025 16:32:41.561,31 Jan 2025 16:44:13.909,692.348
152,31 Jan 2025 18:08:11.411,31 Jan 2025 18:14:49.767,398.357
153,1 Feb 2025 03:09:35.051,1 Feb 2025 03:20:39.500,664.449
154,1 Feb 2025 04:44:06.187,1 Feb 2025 04:53:56.123,589.936
155,1 Feb 2025 14:43:37.574,1 Feb 2025 14:46:53.925,196.351
156,1 Feb 2025 16:14:00.432,1 Feb 2025 16:25:29.589,689.158
157,1 Feb 2025 17:48:45.617,1 Feb 2025 17:57:20.159,514.542
158,2 Feb 2025 02:51:20.290,2 Feb 2025 03:01:42.976,622.686
159,2 Feb 2025 04:24:47.760,2 Feb 2025 04:35:35.142,647.382
160,2 Feb 2025 15:55:25.922,2 Feb 2025 16:06:33.149,667.227
161,2 Feb 2025 17:29:35.712,2 Feb 2025 17:39:28.133,592.421
162,3 Feb 2025 02:33:19.569,3 Feb 2025 02:42:38.479,558.911
163,3 Feb 2025 04:05:44.456,3 Feb 2025 04:17:04.621,680.165
164,3 Feb 2025 15:36:59.564,3 Feb 2025 15:47:23.039,623.476
165,3 Feb 2025 17:10:35.302,3 Feb 2025 17:21:20.397,645.095
166,4 Feb 2025 02:15:36.929,4 Feb 2025 02:23:22.254,465.325
167,4 Feb 2025 03:46:53.917,4 Feb 2025 03:58:26.834,692.917
168,4 Feb 2025 05:24:14.092,4 Feb 2025 05:29:51.284,337.192
169,4 Feb 2025 15:18:44.624,4 Feb 2025 15:27:55.860,551.237
170,4 Feb 2025 16:51:41.971,4 Feb 2025 17:02:59.642,677.671
171,4 Feb 2025 18:28:37.469,4 Feb 2025 18:31:38.102,180.633
172,5 Feb 2025 01:58:24.249,5 Feb 2025 02:03:42.790,318.541
173,5 Feb 2025 03:28:15.144,5 Feb 2025 03:39:42.805,687.662
174,5 Feb 2025 05:03:58.968,5 Feb 2025 05:12:15.135,496.168
175,5 Feb 2025 15:00:49.100,5 Feb 2025 15:08:03.379,434.279
176,5 Feb 2025 16:32:54.764,5 Feb 2025 16:44:27.044,692.280
177,5 Feb 2025 18:08:25.255,5 Feb 2025 18:15:01.900,396.645
178,6 Feb 2025 03:09:47.984,6 Feb 2025 03:20:52.808,664.824
179,6 Feb 2025 04:44:19.898,6 Feb 2025 04:54:08.982,589.084
180,6 Feb 2025 14:43:48.495,6 Feb 2025 14:47:09.749,201.254
181,6 Feb 2025 16:14:13.561,6 Feb 2025 16:25:42.865,689.304
182,6 Feb 2025 17:48:59.197,6 Feb 2025 17:57:32.635,513.438
183,7 Feb 2025 02:51:33.071,7 Feb 2025 03:01:56.365,623.294
184,7 Feb 2025 04:25:01.271,7 Feb 2025 04:35:48.135,646.864
185,7 Feb 2025 15:55:38.968,7 Feb 2025 16:06:46.572,667.605
186,7 Feb 2025 17:29:49.155,7 Feb 2025 17:39:40.826,591.670
187,8 Feb 2025 02:33:32.169,8 Feb 2025 02:42:51.976,559.808
188,8 Feb 2025 04:05:57.805,8 Feb 2025 04:17:17.708,679.903
189,8 Feb 2025 15:37:12.498,8 Feb 2025 15:47:36.637,624.139
190,8 Feb 2025 17:10:48.652,8 Feb 2025 17:21:33.250,644.599
191,9 Feb 2025 02:15:49.277,9 Feb 2025 02:23:35.929,466.652
192,9 Feb 2025 03:47:07.124,9 Feb 2025 03:58:39.995,692.870
193,9 Feb 2025 05:24:28.756,9 Feb 2025 05:30:03.342,334.586
194,9 Feb 2025 15:18:57.389,9 Feb 2025 15:28:09.690,552.302
195,9 Feb 2025 16:51:55.244,9 Feb 2025 17:03:12.638,677.394
196,9 Feb 2025 18:28:52.619,9 Feb 2025 18:31:48.843,176.224
197,10 Feb 2025 01:58:36.081,10 Feb 2025 02:03:56.895,320.814
198,10 Feb 2025 03:28:28.216,10 Feb 2025 03:39:56.041,687.825
199,10 Feb 2025 05:04:12.975,10 Feb 2025 05:12:27.766,494.791
200,10 Feb 2025 15:01:01.548,10 Feb 2025 15:08:17.600,436.052
201,10 Feb 2025 16:33:07.967,10 Feb 2025 16:44:40.176,692.210
202,10 Feb 2025 18:08:39.105,10 Feb 2025 18:15:14.026,394.921
203,11 Feb 2025 03:10:00.917,11 Feb 2025 03:21:06.114,665.196
204,11 Feb 2025 04:44:33.610,11 Feb 2025 04:54:21.838,588.228
205,11 Feb 2025 14:43:59.478,11 Feb 2025 14:47:25.508,206.030
206,11 Feb 2025 16:14:26.691,11 Feb 2025 16:25:56.132,689.441
207,11 Feb 2025 17:49:12.784,11 Feb 2025 17:57:45.107,512.324
208,12 Feb 2025 02:51:45.853,12 Feb 2025 03:02:09.751,623.899
209,12 Feb 2025 04:25:14.783,12 Feb 2025 04:36:01.127,646.344
210,12 Feb 2025 15:55:52.012,12 Feb 2025 16:06:59.990,667.978
211,12 Feb 2025 17:30:02.594,12 Feb 2025 17:39:53.506,590.911
212,13 Feb 2025 02:33:44.770,13 Feb 2025 02:43:05.471,560.701
213,13 Feb 2025 04:06:11.156,13 Feb 2025 04:17:30.794,679.638
214,13 Feb 2025 15:37:25.434,13 Feb 2025 15:47:50.230,624.796
215,13 Feb 2025 17:11:02.002,13 Feb 2025 17:21:46.100,644.098
216,14 Feb 2025 02:16:01.627,14 Feb 2025 02:23:49.601,467.973
217,14 Feb 2025 03:47:20.334,14 Feb 2025 03:58:53.157,692.823
218,14 Feb 2025 05:24:43.428,14 Feb 2025 05:30:15.380,331.951
219,14 Feb 2025 15:19:10.159,14 Feb 2025 15:28:23.516,553.357
220,14 Feb 2025 16:52:08.518,14 Feb 2025 17:03:25.633,677.115
221,14 Feb 2025 18:29:07.824,14 Feb 2025 18:31:59.528,171.705
222,15 Feb 2025 01:58:47.921,15 Feb 2025 02:04:10.992,323.071
223,15 Feb 2025 03:28:41.288,15 Feb 2025 03:40:09.273,687.985
224,15 Feb 2025 05:04:26.987,15 Feb 2025 05:12:40.391,493.404
225,15 Feb 2025 15:01:14.003,15 Feb 2025 15:08:31.813,437.810
226,15 Feb 2025 16:33:21.170,15 Feb 2025 16:44:53.307,692.137
227,15 Feb 2025 18:08:52.958,15 Feb 2025 18:15:26.147,393.188
228,16 Feb 2025 03:10:13.852,16 Feb 2025 03:21:19.418,665.567
229,16 Feb 2025 04:44:47.325,16 Feb 2025 04:54:34.691,587.367
230,16 Feb 2025 14:44:10.525,16 Feb 2025 14:47:41.205,210.680
231,16 Feb 2025 16:14:39.823,16 Feb 2025 16:26:09.405,689.582
232,16 Feb 2025 17:49:26.367,16 Feb 2025 17:57:57.577,511.210
233,17 Feb 2025 02:51:58.637,17 Feb 2025 03:02:23.138,624.500
234,17 Feb 2025 04:25:28.298,17 Feb 2025 04:36:14.116,645.817
235,17 Feb 2025 15:56:05.061,17 Feb 2025 16:07:13.410,668.349
236,17 Feb 2025 17:30:16.040,17 Feb 2025 17:40:06.190,590.150
237,18 Feb 2025 02:33:57.372,18 Feb 2025 02:43:18.965,561.594
238,18 Feb 2025 04:06:24.508,18 Feb 2025 04:17:43.883,679.375
239,18 Feb 2025 15:37:38.372,18 Feb 2025 15:48:03.822,625.451
240,18 Feb 2025 17:11:15.354,18 Feb 2025 17:21:58.950,643.596
241,19 Feb 2025 02:16:13.979,19 Feb 2025 02:24:03.271,469.291
242,19 Feb 2025 03:47:33.547,19 Feb 2025 03:59:06.321,692.774
243,19 Feb 2025 05:24:58.118,19 Feb 2025 05:30:27.404,329.286
244,19 Feb 2025 15:19:22.934,19 Feb 2025 15:28:37.340,554.405
245,19 Feb 2025 16:52:21.793,19 Feb 2025 17:03:38.631,676.838
246,19 Feb 2025 18:29:23.089,19 Feb 2025 18:32:10.155,167.066
247,20 Feb 2025 01:58:59.773,20 Feb 2025 02:04:25.082,325.309
248,20 Feb 2025 03:28:54.364,20 Feb 2025 03:40:22.507,688.143
249,20 Feb 2025 05:04:41.006,20 Feb 2025 05:12:53.014,492.008
250,20 Feb 2025 15:01:26.464,20 Feb 2025 15:08:46.021,439.556
251,20 Feb 2025 16:33:34.375,20 Feb 2025 16:45:06.438,692.062
252,20 Feb 2025 18:09:06.818,20 Feb 2025 18:15:38.263,391.444
253,21 Feb 2025 03:10:26.789,21 Feb 2025 03:21:32.723,665.934
254,21 Feb 2025 04:45:01.044,21 Feb 2025 04:54:47.545,586.500
255,21 Feb 2025 14:44:21.627,21 Feb 2025 14:47:56.848,215.222
256,21 Feb 2025 16:14:52.958,21 Feb 2025 16:26:22.674,689.715
257,21 Feb 2025 17:49:39.954,21 Feb 2025 17:58:10.045,510.091
258,22 Feb 2025 02:52:11.425,22 Feb 2025 03:02:36.524,625.099
259,22 Feb 2025 04:25:41.817,22 Feb 2025 04:36:27.105,645.287
260,22 Feb 2025 15:56:18.112,22 Feb 2025 16:07:26.828,668.716
261,22 Feb 2025 17:30:29.488,22 Feb 2025 17:40:18.873,589.385
262,23 Feb 2025 02:34:09.980,23 Feb 2025 02:43:32.459,562.478
263,23 Feb 2025 04:06:37.864,23 Feb 2025 04:17:56.968,679.104
264,23 Feb 2025 15:37:51.312,23 Feb 2025 15:48:17.411,626.098
265,23 Feb 2025 17:11:28.708,23 Feb 2025 17:22:11.798,643.090
266,24 Feb 2025 02:16:26.337,24 Feb 2025 02:24:16.934,470.597
267,24 Feb 2025 03:47:46.757,24 Feb 2025 03:59:19.488,692.731
268,24 Feb 2025 05:25:12.821,24 Feb 2025 05:30:39.411,326.591
269,24 Feb 2025 15:19:35.711,24 Feb 2025 15:28:51.161,555.450
270,24 Feb 2025 16:52:35.067,24 Feb 2025 17:03:51.624,676.557
271,24 Feb 2025 18:29:38.431,24 Feb 2025 18:32:20.703,162.272
272,25 Feb 2025 01:59:11.639,25 Feb 2025 02:04:39.156,327.518
273,25 Feb 2025 03:29:07.441,25 Feb 2025 03:40:35.740,688.299
274,25 Feb 2025 05:04:55.028,25 Feb 2025 05:13:05.633,490.604
275,25 Feb 2025 15:01:38.930,25 Feb 2025 15:09:00.222,441.292
276,25 Feb 2025 16:33:47.581,25 Feb 2025 16:45:19.568,691.986
277,25 Feb 2025 18:09:20.684,25 Feb 2025 18:15:50.371,389.687
278,26 Feb 2025 03:10:39.724,26 Feb 2025 03:21:46.025,666.301
279,26 Feb 2025 04:45:14.766,26 Feb 2025 04:55:00.394,585.629
280,26 Feb 2025 14:44:32.779,26 Feb 2025 14:48:12.439,219.660
281,26 Feb 2025 16:15:06.092,26 Feb 2025 16:26:35.938,689.846
282,26 Feb 2025 17:49:53.544,26 Feb 2025 17:58:22.509,508.965
283,27 Feb 2025 02:52:24.214,27 Feb 2025 03:02:49.908,625.695
284,27 Feb 2025 04:25:55.334,27 Feb 2025 04:36:40.091,644.757
285,27 Feb 2025 15:56:31.161,27 Feb 2025 16:07:40.237,669.077
286,27 Feb 2025 17:30:42.936,27 Feb 2025 17:40:31.553,588.617
287,28 Feb 2025 02:34:22.587,28 Feb 2025 02:43:45.949,563.362
288,28 Feb 2025 04:06:51.222,28 Feb 2025 04:18:10.051,678.830
289,28 Feb 2025 15:38:04.253,28 Feb 2025 15:48:30.998,626.744
290,28 Feb 2025 17:11:42.060,28 Feb 2025 17:22:24.643,642.583
291,1 Mar 2025 02:16:38.692,1 Mar 2025 02:24:30.597,471.904
292,1 Mar 2025 03:47:59.971,1 Mar 2025 03:59:32.649,692.678
293,1 Mar 2025 05:25:27.540,1 Mar 2025 05:30:51.407,323.867
294,1 Mar 2025 15:19:48.490,1 Mar 2025 15:29:04.973,556.484
295,1 Mar 2025 16:52:48.343,1 Mar 2025 17:04:04.614,676.271
296,1 Mar 2025 18:29:53.845,1 Mar 2025 18:32:31.178,157.332
297,2 Mar 2025 01:59:23.509,2 Mar 2025 02:04:53.232,329.722
298,2 Mar 2025 03:29:20.519,2 Mar 2025 03:40:48.972,688.453
299,2 Mar 2025 05:05:09.056,2 Mar 2025 05:13:18.247,489.191
300,2 Mar 2025 15:01:51.403,2 Mar 2025 15:09:14.418,443.015
301,2 Mar 2025 16:34:00.788,2 Mar 2025 16:45:32.695,691.907
302,2 Mar 2025 18:09:34.553,2 Mar 2025 18:16:02.475,387.922
303,3 Mar 2025 03:10:52.669,3 Mar 2025 03:21:59.330,666.661
304,3 Mar 2025 04:45:28.490,3 Mar 2025 04:55:13.242,584.752
305,3 Mar 2025 14:44:43.983,3 Mar 2025 14:48:27.978,223.994
306,3 Mar 2025 16:15:19.228,3 Mar 2025 16:26:49.203,689.975
307,3 Mar 2025 17:50:07.134,3 Mar 2025 17:58:34.971,507.837
308,4 Mar 2025 02:52:37.006,4 Mar 2025 03:03:03.293,626.287
309,4 Mar 2025 04:26:08.856,4 Mar 2025 04:36:53.078,644.222
310,4 Mar 2025 15:56:44.215,4 Mar 2025 16:07:53.655,669.440
311,4 Mar 2025 17:30:56.386,4 Mar 2025 17:40:44.233,587.847
312,5 Mar 2025 02:34:35.200,5 Mar 2025 02:43:59.441,564.241
313,5 Mar 2025 04:07:04.581,5 Mar 2025 04:18:23.135,678.553
314,5 Mar 2025 15:38:17.198,5 Mar 2025 15:48:44.585,627.387
315,5 Mar 2025 17:11:55.416,5 Mar 2025 17:22:37.489,642.073
316,6 Mar 2025 02:16:51.057,6 Mar 2025 02:24:44.259,473.202
317,6 Mar 2025 03:48:13.188,6 Mar 2025 03:59:45.811,692.623
318,6 Mar 2025 05:25:42.278,6 Mar 2025 05:31:03.389,321.111
319,6 Mar 2025 15:20:01.273,6 Mar 2025 15:29:18.789,557.516
320,6 Mar 2025 16:53:01.622,6 Mar 2025 17:04:17.605,675.982
321,6 Mar 2025 18:30:09.345,6 Mar 2025 18:32:41.569,152.223
322,7 Mar 2025 01:59:35.391,7 Mar 2025 02:05:07.297,331.906
323,7 Mar 2025 03:29:33.600,7 Mar 2025 03:41:02.205,688.604
324,7 Mar 2025 05:05:23.090,7 Mar 2025 05:13:30.859,487.769
325,7 Mar 2025 15:02:03.882,7 Mar 2025 15:09:28.608,444.726
326,7 Mar 2025 16:34:13.998,7 Mar 2025 16:45:45.821,691.823
327,7 Mar 2025 18:09:48.430,7 Mar 2025 18:16:14.573,386.143
328,8 Mar 2025 03:11:05.610,8 Mar 2025 03:22:12.633,667.023
329,8 Mar 2025 04:45:42.219,8 Mar 2025 04:55:26.092,583.873
330,8 Mar 2025 14:44:55.233,8 Mar 2025 14:48:43.473,228.240
331,8 Mar 2025 16:15:32.364,8 Mar 2025 16:27:02.464,690.099
332,8 Mar 2025 17:50:20.729,8 Mar 2025 17:58:47.430,506.701
333,9 Mar 2025 02:52:49.798,9 Mar 2025 03:03:16.674,626.875
334,9 Mar 2025 04:26:22.382,9 Mar 2025 04:37:06.064,643.682
335,9 Mar 2025 15:56:57.266,9 Mar 2025 16:08:07.067,669.800
336,9 Mar 2025 17:31:09.839,9 Mar 2025 17:40:56.910,587.071
337,10 Mar 2025 02:34:47.813,10 Mar 2025 02:44:12.930,565.117
338,10 Mar 2025 04:07:17.943,10 Mar 2025 04:18:36.214,678.271
339,10 Mar 2025 15:38:30.143,10 Mar 2025 15:48:58.172,628.028
340,10 Mar 2025 17:12:08.768,10 Mar 2025 17:22:50.328,641.560
341,11 Mar 2025 02:17:03.425,11 Mar 2025 02:24:57.916,474.491
342,11 Mar 2025 03:48:26.406,11 Mar 2025 03:59:58.971,692.565
343,11 Mar 2025 05:25:57.033,11 Mar 2025 05:31:15.356,318.323
344,11 Mar 2025 15:20:14.058,11 Mar 2025 15:29:32.601,558.543
345,11 Mar 2025 16:53:14.901,11 Mar 2025 17:04:30.592,675.691
346,11 Mar 2025 18:30:24.939,11 Mar 2025 18:32:51.864,146.925
347,12 Mar 2025 01:59:47.282,12 Mar 2025 02:05:21.350,334.068
348,12 Mar 2025 03:29:46.682,12 Mar 2025 03:41:15.436,688.753
349,12 Mar 2025 05:05:37.127,12 Mar 2025 05:13:43.467,486.340
350,12 Mar 2025 15:02:16.365,12 Mar 2025 15:09:42.791,446.426
351,12 Mar 2025 16:34:27.206,12 Mar 2025 16:45:58.946,691.740
352,12 Mar 2025 18:10:02.313,12 Mar 2025 18:16:26.664,384.351
353,13 Mar 2025 03:11:18.556,13 Mar 2025 03:22:25.934,667.379
354,13 Mar 2025 04:45:55.949,13 Mar 2025 04:55:38.936,582.987
355,13 Mar 2025 14:45:06.526,13 Mar 2025 14:48:58.920,232.394
356,13 Mar 2025 16:15:45.501,13 Mar 2025 16:27:15.725,690.224
357,13 Mar 2025 17:50:34.323,13 Mar 2025 17:58:59.885,505.562
358,14 Mar 2025 02:53:02.593,14 Mar 2025 03:03:30.056,627.463
359,14 Mar 2025 04:26:35.907,14 Mar 2025 04:37:19.047,643.139
360,14 Mar 2025 15:57:10.321,14 Mar 2025 16:08:20.475,670.155
361,14 Mar 2025 17:31:23.291,14 Mar 2025 17:41:09.583,586.292
362,15 Mar 2025 02:35:00.429,15 Mar 2025 02:44:26.417,565.988
363,15 Mar 2025 04:07:31.305,15 Mar 2025 04:18:49.298,677.993
364,15 Mar 2025 15:38:43.090,15 Mar 2025 15:49:11.749,628.660
365,15 Mar 2025 17:12:22.124,15 Mar 2025 17:23:03.169,641.045
366,16 Mar 2025 02:17:15.800,16 Mar 2025 02:25:11.576,475.776
367,16 Mar 2025 03:48:39.628,16 Mar 2025 04:00:12.126,692.498
368,16 Mar 2025 05:26:11.801,16 Mar 2025 05:31:27.310,315.509
369,16 Mar 2025 15:20:26.846,16 Mar 2025 15:29:46.407,559.561
370,16 Mar 2025 16:53:28.181,16 Mar 2025 17:04:43.579,675.397
371,16 Mar 2025 18:30:40.630,16 Mar 2025 18:33:02.061,141.431
372,17 Mar 2025 01:59:59.180,17 Mar 2025 02:05:35.399,336.218
373,17 Mar 2025 03:29:59.766,17 Mar 2025 03:41:28.668,688.902
374,17 Mar 2025 05:05:51.170,17 Mar 2025 05:13:56.069,484.900
375,17 Mar 2025 15:02:28.855,17 Mar 2025 15:09:56.970,448.115
376,17 Mar 2025 16:34:40.417,17 Mar 2025 16:46:12.068,691.652
377,17 Mar 2025 18:10:16.199,17 Mar 2025 18:16:38.751,382.552
378,18 Mar 2025 03:11:31.502,18 Mar 2025 03:22:39.236,667.734
379,18 Mar 2025 04:46:09.683,18 Mar 2025 04:55:51.779,582.096
380,18 Mar 2025 14:45:17.864,18 Mar 2025 14:49:14.323,236.459
381,18 Mar 2025 16:15:58.639,18 Mar 2025 16:27:28.986,690.347
382,18 Mar 2025 17:50:47.921,18 Mar 2025 17:59:12.343,504.423
383,19 Mar 2025 02:53:15.389,19 Mar 2025 03:03:43.441,628.051
384,19 Mar 2025 04:26:49.432,19 Mar 2025 04:37:32.026,642.594
385,19 Mar 2025 15:57:23.372,19 Mar 2025 16:08:33.879,670.507
386,19 Mar 2025 17:31:36.745,19 Mar 2025 17:41:22.256,585.510
387,20 Mar 2025 02:35:13.049,20 Mar 2025 02:44:39.901,566.852
388,20 Mar 2025 04:07:44.671,20 Mar 2025 04:19:02.375,677.704
389,20 Mar 2025 15:38:56.039,20 Mar 2025 15:49:25.334,629.294
390,20 Mar 2025 17:12:35.483,20 Mar 2025 17:23:16.010,640.527
391,21 Mar 2025 02:17:28.175,21 Mar 2025 02:25:25.232,477.057
392,21 Mar 2025 03:48:52.851,21 Mar 2025 04:00:25.286,692.435
393,21 Mar 2025 05:26:26.590,21 Mar 2025 05:31:39.244,312.654
394,21 Mar 2025 15:20:39.637,21 Mar 2025 15:30:00.214,560.577
395,21 Mar 2025 16:53:41.463,21 Mar 2025 17:04:56.565,675.101
396,21 Mar 2025 18:30:56.436,21 Mar 2025 18:33:12.142,135.706
397,22 Mar 2025 02:00:11.089,22 Mar 2025 02:05:49.440,338.351
398,22 Mar 2025 03:30:12.853,22 Mar 2025 03:41:41.899,689.046
399,22 Mar 2025 05:06:05.219,22 Mar 2025 05:14:08.669,483.450
400,22 Mar 2025 15:02:41.351,22 Mar 2025 15:10:11.142,449.791
401,22 Mar 2025 16:34:53.629,22 Mar 2025 16:46:25.192,691.564
402,22 Mar 2025 18:10:30.092,22 Mar 2025 18:16:50.831,380.739
403,23 Mar 2025 03:11:44.450,23 Mar 2025 03:22:52.537,668.087
404,23 Mar 2025 04:46:23.421,23 Mar 2025 04:56:04.621,581.199
405,23 Mar 2025 14:45:29.239,23 Mar 2025 14:49:29.690,240.451
406,23 Mar 2025 16:16:11.779,23 Mar 2025 16:27:42.245,690.466
407,23 Mar 2025 17:51:01.522,23 Mar 2025 17:59:24.794,503.272
408,24 Mar 2025 02:53:28.188,24 Mar 2025 03:03:56.822,628.634
409,24 Mar 2025 04:27:02.963,24 Mar 2025 04:37:45.008,642.045
410,24 Mar 2025 15:57:36.431,24 Mar 2025 16:08:47.290,670.860
411,24 Mar 2025 17:31:50.202,24 Mar 2025 17:41:34.926,584.724
412,25 Mar 2025 02:35:25.671,25 Mar 2025 02:44:53.387,567.715
413,25 Mar 2025 04:07:58.038,25 Mar 2025 04:19:15.455,677.416
414,25 Mar 2025 15:39:08.985,25 Mar 2025 15:49:38.912,629.927
415,25 Mar 2025 17:12:48.843,25 Mar 2025 17:23:28.848,640.005
416,26 Mar 2025 02:17:40.553,26 Mar 2025 02:25:38.883,478.330
417,26 Mar 2025 03:49:06.076,26 Mar 2025 04:00:38.444,692.368
418,26 Mar 2025 05:26:41.394,26 Mar 2025 05:31:51.162,309.768
419,26 Mar 2025 15:20:52.430,26 Mar 2025 15:30:14.017,561.587
420,26 Mar 2025 16:53:54.746,26 Mar 2025 17:05:09.548,674.802
421,26 Mar 2025 18:31:12.377,26 Mar 2025 18:33:22.089,129.712
422,27 Mar 2025 02:00:23.007,27 Mar 2025 02:06:03.471,340.464
423,27 Mar 2025 03:30:25.940,27 Mar 2025 03:41:55.128,689.188
424,27 Mar 2025 05:06:19.274,27 Mar 2025 05:14:21.265,481.991
425,27 Mar 2025 15:02:53.851,27 Mar 2025 15:10:25.303,451.452
426,27 Mar 2025 16:35:06.838,27 Mar 2025 16:46:38.313,691.475
427,27 Mar 2025 18:10:43.989,27 Mar 2025 18:17:02.904,378.915
428,28 Mar 2025 03:11:57.399,28 Mar 2025 03:23:05.837,668.437
429,28 Mar 2025 04:46:37.161,28 Mar 2025 04:56:17.459,580.299
430,28 Mar 2025 14:45:40.655,28 Mar 2025 14:49:45.019,244.364
431,28 Mar 2025 16:16:24.918,28 Mar 2025 16:27:55.502,690.583
432,28 Mar 2025 17:51:15.124,28 Mar 2025 17:59:37.240,502.116
433,29 Mar 2025 02:53:40.988,29 Mar 2025 03:04:10.202,629.213
434,29 Mar 2025 04:27:16.495,29 Mar 2025 04:37:57.987,641.492
435,29 Mar 2025 15:57:49.489,29 Mar 2025 16:09:00.694,671.205
436,29 Mar 2025 17:32:03.658,29 Mar 2025 17:41:47.589,583.930
437,30 Mar 2025 02:35:38.294,30 Mar 2025 02:45:06.871,568.577
438,30 Mar 2025 04:08:11.407,30 Mar 2025 04:19:28.532,677.126
439,30 Mar 2025 15:39:21.937,30 Mar 2025 15:49:52.487,630.550
440,30 Mar 2025 17:13:02.202,30 Mar 2025 17:23:41.684,639.482
441,31 Mar 2025 02:17:52.933,31 Mar 2025 02:25:52.533,479.600
442,31 Mar 2025 03:49:19.301,31 Mar 2025 04:00:51.602,692.301
443,31 Mar 2025 05:26:56.218,31 Mar 2025 05:32:03.061,306.842
444,31 Mar 2025 15:21:05.226,31 Mar 2025 15:30:27.816,562.590
445,31 Mar 2025 16:54:08.029,31 Mar 2025 17:05:22.530,674.502
446,31 Mar 2025 18:31:28.458,31 Mar 2025 18:33:31.892,123.434
447,1 Apr 2025 02:00:34.933,1 Apr 2025 02:06:17.498,342.565
448,1 Apr 2025 03:30:39.029,1 Apr 2025 03:42:08.356,689.327
449,1 Apr 2025 05:06:33.330,1 Apr 2025 05:14:33.855,480.525
450,1 Apr 2025 15:03:06.359,1 Apr 2025 15:10:39.462,453.103
451,1 Apr 2025 16:35:20.052,1 Apr 2025 16:46:51.432,691.381
452,1 Apr 2025 18:10:57.887,1 Apr 2025 18:17:14.972,377.085
453,2 Apr 2025 03:12:10.351,2 Apr 2025 03:23:19.137,668.785
454,2 Apr 2025 04:46:50.908,2 Apr 2025 04:56:30.296,579.389
455,2 Apr 2025 14:45:52.103,2 Apr 2025 14:50:00.314,248.211
456,2 Apr 2025 16:16:38.057,2 Apr 2025 16:28:08.762,690.705
457,2 Apr 2025 17:51:28.729,2 Apr 2025 17:59:49.682,500.953
458,3 Apr 2025 02:53:53.787,3 Apr 2025 03:04:23.582,629.795
459,3 Apr 2025 04:27:30.031,3 Apr 2025 04:38:10.966,640.935
460,3 Apr 2025 15:58:02.549,3 Apr 2025 16:09:14.098,671.549
461,3 Apr 2025 17:32:17.118,3 Apr 2025 17:42:00.257,583.139
462,4 Apr 2025 02:35:50.916,4 Apr 2025 02:45:20.356,569.440
463,4 Apr 2025 04:08:24.779,4 Apr 2025 04:19:41.611,676.832
464,4 Apr 2025 15:39:34.892,4 Apr 2025 15:50:06.061,631.170
465,4 Apr 2025 17:13:15.568,4 Apr 2025 17:23:54.520,638.952
466,5 Apr 2025 02:18:05.319,5 Apr 2025 02:26:06.182,480.863
467,5 Apr 2025 03:49:32.529,5 Apr 2025 04:01:04.760,692.230
468,5 Apr 2025 05:27:11.063,5 Apr 2025 05:32:14.944,303.881
469,5 Apr 2025 15:21:18.028,5 Apr 2025 15:30:41.614,563.586
470,5 Apr 2025 16:54:21.314,5 Apr 2025 17:05:35.512,674.198
471,5 Apr 2025 18:31:44.718,5 Apr 2025 18:33:41.518,116.800
472,6 Apr 2025 02:00:46.868,6 Apr 2025 02:06:31.516,344.648
473,6 Apr 2025 03:30:52.121,6 Apr 2025 03:42:21.585,689.464
474,6 Apr 2025 05:06:47.396,6 Apr 2025 05:14:46.443,479.047
475,6 Apr 2025 15:03:18.870,6 Apr 2025 15:10:53.617,454.747
476,6 Apr 2025 16:35:33.266,6 Apr 2025 16:47:04.551,691.285
477,6 Apr 2025 18:11:11.796,6 Apr 2025 18:17:27.033,375.237
478,7 Apr 2025 03:12:23.305,7 Apr 2025 03:23:32.436,669.131
479,7 Apr 2025 04:47:04.656,7 Apr 2025 04:56:43.132,578.476
480,7 Apr 2025 14:46:03.585,7 Apr 2025 14:50:15.572,251.988
481,7 Apr 2025 16:16:51.199,7 Apr 2025 16:28:22.017,690.818
482,7 Apr 2025 17:51:42.337,7 Apr 2025 18:00:02.123,499.787
483,8 Apr 2025 02:54:06.591,8 Apr 2025 03:04:36.960,630.369
484,8 Apr 2025 04:27:43.569,8 Apr 2025 04:38:23.943,640.374
485,8 Apr 2025 15:58:15.611,8 Apr 2025 16:09:27.499,671.888
486,8 Apr 2025 17:32:30.578,8 Apr 2025 17:42:12.921,582.344
487,9 Apr 2025 02:36:03.544,9 Apr 2025 02:45:33.839,570.294
488,9 Apr 2025 04:08:38.152,9 Apr 2025 04:19:54.687,676.535
489,9 Apr 2025 15:39:47.846,9 Apr 2025 15:50:19.632,631.786
490,9 Apr 2025 17:13:28.932,9 Apr 2025 17:24:07.353,638.421
491,10 Apr 2025 02:18:17.707,10 Apr 2025 02:26:19.826,482.118
492,10 Apr 2025 03:49:45.757,10 Apr 2025 04:01:17.915,692.158
493,10 Apr 2025 05:27:25.924,10 Apr 2025 05:32:26.807,300.884
494,10 Apr 2025 15:21:30.825,10 Apr 2025 15:30:55.407,564.582
495,10 Apr 2025 16:54:34.599,10 Apr 2025 17:05:48.491,673.892
496,10 Apr 2025 18:32:01.182,10 Apr 2025 18:33:50.940,109.758
497,11 Apr 2025 02:00:58.810,11 Apr 2025 02:06:45.526,346.715
498,11 Apr 2025 03:31:05.213,11 Apr 2025 03:42:34.811,689.598
499,11 Apr 2025 05:07:01.467,11 Apr 2025 05:14:59.025,477.559
500,11 Apr 2025 15:03:31.388,11 Apr 2025 15:11:07.767,456.379
501,11 Apr 2025 16:35:46.479,11 Apr 2025 16:47:17.667,691.187
502,11 Apr 2025 18:11:25.712,11 Apr 2025 18:17:39.083,373.371
503,12 Apr 2025 03:12:36.259,12 Apr 2025 03:23:45.733,669.473
504,12 Apr 2025 04:47:18.400,12 Apr 2025 04:56:55.963,577.563
505,12 Apr 2025 14:46:15.101,12 Apr 2025 14:50:30.794,255.693
506,12 Apr 2025 16:17:04.342,12 Apr 2025 16:28:35.267,690.925
507,12 Apr 2025 17:51:55.944,12 Apr 2025 18:00:14.561,498.617
508,13 Apr 2025 02:54:19.397,13 Apr 2025 03:04:50.338,630.941
509,13 Apr 2025 04:27:57.108,13 Apr 2025 04:38:36.918,639.810
510,13 Apr 2025 15:58:28.672,13 Apr 2025 16:09:40.898,672.225
511,13 Apr 2025 17:32:44.038,13 Apr 2025 17:42:25.585,581.547
512,14 Apr 2025 02:36:16.174,14 Apr 2025 02:45:47.318,571.144
513,14 Apr 2025 04:08:51.523,14 Apr 2025 04:20:07.762,676.239
514,14 Apr 2025 15:40:00.804,14 Apr 2025 15:50:33.201,632.397
515,14 Apr 2025 17:13:42.293,14 Apr 2025 17:24:20.187,637.894
516,15 Apr 2025 02:18:30.099,15 Apr 2025 02:26:33.469,483.370
517,15 Apr 2025 03:49:58.987,15 Apr 2025 04:01:31.070,692.082
518,15 Apr 2025 05:27:40.807,15 Apr 2025 05:32:38.650,297.843
519,15 Apr 2025 15:21:43.630,15 Apr 2025 15:31:09.197,565.567
520,15 Apr 2025 16:54:47.889,15 Apr 2025 17:06:01.468,673.579
521,15 Apr 2025 18:32:17.883,15 Apr 2025 18:34:00.121,102.238
522,16 Apr 2025 02:01:10.759,16 Apr 2025 02:06:59.529,348.771
523,16 Apr 2025 03:31:18.309,16 Apr 2025 03:42:48.034,689.725
524,16 Apr 2025 05:07:15.541,16 Apr 2025 05:15:11.600,476.059
525,16 Apr 2025 15:03:43.913,16 Apr 2025 15:11:21.908,457.995
526,16 Apr 2025 16:35:59.696,16 Apr 2025 16:47:30.781,691.086
527,16 Apr 2025 18:11:39.630,16 Apr 2025 18:17:51.132,371.503
528,17 Apr 2025 03:12:49.216,17 Apr 2025 03:23:59.031,669.814
529,17 Apr 2025 04:47:32.154,17 Apr 2025 04:57:08.793,576.640
530,17 Apr 2025 14:46:26.651,17 Apr 2025 14:50:45.985,259.335
531,17 Apr 2025 16:17:17.487,17 Apr 2025 16:28:48.521,691.034
532,17 Apr 2025 17:52:09.555,17 Apr 2025 18:00:26.997,497.442
533,18 Apr 2025 02:54:32.205,18 Apr 2025 03:05:03.715,631.510
534,18 Apr 2025 04:28:10.650,18 Apr 2025 04:38:49.890,639.239
535,18 Apr 2025 15:58:41.736,18 Apr 2025 16:09:54.296,672.560
536,18 Apr 2025 17:32:57.501,18 Apr 2025 17:42:38.246,580.745
537,19 Apr 2025 02:36:28.807,19 Apr 2025 02:46:00.800,571.992
538,19 Apr 2025 04:09:04.900,19 Apr 2025 04:20:20.837,675.937
539,19 Apr 2025 15:40:13.767,19 Apr 2025 15:50:46.766,632.999
540,19 Apr 2025 17:13:55.659,19 Apr 2025 17:24:33.018,637.359
541,20 Apr 2025 02:18:42.496,20 Apr 2025 02:26:47.111,484.615
542,20 Apr 2025 03:50:12.220,20 Apr 2025 04:01:44.225,692.005
543,20 Apr 2025 05:27:55.710,20 Apr 2025 05:32:50.475,294.764
544,20 Apr 2025 15:21:56.437,20 Apr 2025 15:31:22.984,566.547
545,20 Apr 2025 16:55:01.176,20 Apr 2025 17:06:14.445,673.269
546,20 Apr 2025 18:32:34.894,20 Apr 2025 18:34:08.989,94.095
547,21 Apr 2025 02:01:22.718,21 Apr 2025 02:07:13.529,350.811
548,21 Apr 2025 03:31:31.405,21 Apr 2025 03:43:01.259,689.854
549,21 Apr 2025 05:07:29.622,21 Apr 2025 05:15:24.174,474.553
550,21 Apr 2025 15:03:56.442,21 Apr 2025 15:11:36.045,459.603
551,21 Apr 2025 16:36:12.913,21 Apr 2025 16:47:43.895,690.982
552,21 Apr 2025 18:11:53.555,21 Apr 2025 18:18:03.174,369.619
553,22 Apr 2025 03:13:02.172,22 Apr 2025 03:24:12.327,670.155
554,22 Apr 2025 04:47:45.910,22 Apr 2025 04:57:21.622,575.712
555,22 Apr 2025 14:46:38.227,22 Apr 2025 14:51:01.148,262.920
556,22 Apr 2025 16:17:30.632,22 Apr 2025 16:29:01.770,691.138
557,22 Apr 2025 17:52:23.168,22 Apr 2025 18:00:39.429,496.261
558,23 Apr 2025 02:54:45.015,23 Apr 2025 03:05:17.091,632.076
559,23 Apr 2025 04:28:24.197,23 Apr 2025 04:39:02.863,638.666
560,23 Apr 2025 15:58:54.800,23 Apr 2025 16:10:07.691,672.891
561,23 Apr 2025 17:33:10.964,23 Apr 2025 17:42:50.903,579.939
562,24 Apr 2025 02:36:41.442,24 Apr 2025 02:46:14.279,572.836
563,24 Apr 2025 04:09:18.278,24 Apr 2025 04:20:33.912,675.634
564,24 Apr 2025 15:40:26.723,24 Apr 2025 15:51:00.330,633.607
565,24 Apr 2025 17:14:09.024,24 Apr 2025 17:24:45.845,636.821
566,25 Apr 2025 02:18:54.896,25 Apr 2025 02:27:00.744,485.849
567,25 Apr 2025 03:50:25.450,25 Apr 2025 04:01:57.382,691.932
568,25 Apr 2025 05:28:10.633,25 Apr 2025 05:33:02.278,291.645
569,25 Apr 2025 15:22:09.248,25 Apr 2025 15:31:36.763,567.516
570,25 Apr 2025 16:55:14.460,25 Apr 2025 17:06:27.414,672.955
571,25 Apr 2025 18:32:52.291,25 Apr 2025 18:34:17.471,85.180
572,26 Apr 2025 02:01:34.685,26 Apr 2025 02:07:27.515,352.830
573,26 Apr 2025 03:31:44.501,26 Apr 2025 03:43:14.485,689.983
574,26 Apr 2025 05:07:43.706,26 Apr 2025 05:15:36.742,473.036
575,26 Apr 2025 15:04:08.974,26 Apr 2025 15:11:50.169,461.195
576,26 Apr 2025 16:36:26.129,26 Apr 2025 16:47:57.001,690.872
577,26 Apr 2025 18:12:07.479,26 Apr 2025 18:18:15.209,367.729
578,27 Apr 2025 03:13:15.131,27 Apr 2025 03:24:25.622,670.491
579,27 Apr 2025 04:47:59.669,27 Apr 2025 04:57:34.447,574.778
580,27 Apr 2025 14:46:49.834,27 Apr 2025 14:51:16.277,266.443
581,27 Apr 2025 16:17:43.778,27 Apr 2025 16:29:15.018,691.240
582,27 Apr 2025 17:52:36.782,27 Apr 2025 18:00:51.858,495.077
583,28 Apr 2025 02:54:57.826,28 Apr 2025 03:05:30.462,632.636
584,28 Apr 2025 04:28:37.744,28 Apr 2025 04:39:15.833,638.089
585,28 Apr 2025 15:59:07.860,28 Apr 2025 16:10:21.082,673.222
586,28 Apr 2025 17:33:24.428,28 Apr 2025 17:43:03.556,579.127
587,29 Apr 2025 02:36:54.079,29 Apr 2025 02:46:27.757,573.678
588,29 Apr 2025 04:09:31.658,29 Apr 2025 04:20:46.984,675.326
589,29 Apr 2025 15:40:39.686,29 Apr 2025 15:51:13.892,634.207
590,29 Apr 2025 17:14:22.390,29 Apr 2025 17:24:58.672,636.282
591,30 Apr 2025 02:19:07.300,30 Apr 2025 02:27:14.382,487.082
592,30 Apr 2025 03:50:38.685,30 Apr 2025 04:02:10.534,691.849
593,30 Apr 2025 05:28:25.580,30 Apr 2025 05:33:14.059,288.479
594,30 Apr 2025 15:22:22.060,30 Apr 2025 15:31:50.544,568.484
595,30 Apr 2025 16:55:27.748,30 Apr 2025 17:06:40.388,672.639
596,30 Apr 2025 18:33:10.216,30 Apr 2025 18:34:25.426,75.209
597,1 May 2025 02:01:46.659,1 May 2025 02:07:41.505,354.846
598,1 May 2025 03:31:57.601,1 May 2025 03:43:27.710,690.109
599,1 May 2025 05:07:57.797,1 May 2025 05:15:49.306,471.508
600,1 May 2025 15:04:21.513,1 May 2025 15:12:04.294,462.781
601,1 May 2025 16:36:39.352,1 May 2025 16:48:10.112,690.760
602,1 May 2025 18:12:21.415,1 May 2025 18:18:27.238,365.823
603,2 May 2025 03:13:28.093,2 May 2025 03:24:38.917,670.824
604,2 May 2025 04:48:13.432,2 May 2025 04:57:47.270,573.838
605,2 May 2025 14:47:01.470,2 May 2025 14:51:31.381,269.912
606,2 May 2025 16:17:56.926,2 May 2025 16:29:28.265,691.339
607,2 May 2025 17:52:50.399,2 May 2025 18:01:04.286,493.886
608,3 May 2025 02:55:10.641,3 May 2025 03:05:43.838,633.197
609,3 May 2025 04:28:51.294,3 May 2025 04:39:28.803,637.510
610,3 May 2025 15:59:20.927,3 May 2025 16:10:34.477,673.550
611,3 May 2025 17:33:37.895,3 May 2025 17:43:16.210,578.315
612,4 May 2025 02:37:06.719,4 May 2025 02:46:41.234,574.515
613,4 May 2025 04:09:45.040,4 May 2025 04:21:00.056,675.016
614,4 May 2025 15:40:52.651,4 May 2025 15:51:27.453,634.803
615,4 May 2025 17:14:35.757,4 May 2025 17:25:11.496,635.739
616,5 May 2025 02:19:19.703,5 May 2025 02:27:28.016,488.313
617,5 May 2025 03:50:51.923,5 May 2025 04:02:23.686,691.764
618,5 May 2025 05:28:40.548,5 May 2025 05:33:25.822,285.273
619,5 May 2025 15:22:34.873,5 May 2025 15:32:04.322,569.449
620,5 May 2025 16:55:41.038,5 May 2025 17:06:53.359,672.321
621,5 May 2025 18:33:28.930,5 May 2025 18:34:32.587,63.658
622,6 May 2025 02:01:58.642,6 May 2025 02:07:55.482,356.840
623,6 May 2025 03:32:10.701,6 May 2025 03:43:40.934,690.233
624,6 May 2025 05:08:11.890,6 May 2025 05:16:01.868,469.978
625,6 May 2025 15:04:34.052,6 May 2025 15:12:18.413,464.361
626,6 May 2025 16:36:52.572,6 May 2025 16:48:23.220,690.647
627,6 May 2025 18:12:35.357,6 May 2025 18:18:39.258,363.902
628,7 May 2025 03:13:41.056,7 May 2025 03:24:52.211,671.155
629,7 May 2025 04:48:27.195,7 May 2025 04:58:00.091,572.896
630,7 May 2025 14:47:13.129,7 May 2025 14:51:46.455,273.327
631,7 May 2025 16:18:10.074,7 May 2025 16:29:41.509,691.435
632,7 May 2025 17:53:04.018,7 May 2025 18:01:16.712,492.695
633,8 May 2025 02:55:23.457,8 May 2025 03:05:57.210,633.753
634,8 May 2025 04:29:04.844,8 May 2025 04:39:41.775,636.931
635,8 May 2025 15:59:33.994,8 May 2025 16:10:47.866,673.873
636,8 May 2025 17:33:51.361,8 May 2025 17:43:28.860,577.499
637,9 May 2025 02:37:19.360,9 May 2025 02:46:54.708,575.349
638,9 May 2025 04:09:58.423,9 May 2025 04:21:13.126,674.703
639,9 May 2025 15:41:05.617,9 May 2025 15:51:41.010,635.393
640,9 May 2025 17:14:49.124,9 May 2025 17:25:24.318,635.194
641,10 May 2025 02:19:32.112,10 May 2025 02:27:41.646,489.534
642,10 May 2025 03:51:05.160,10 May 2025 04:02:36.836,691.676
643,10 May 2025 05:28:55.538,10 May 2025 05:33:37.559,282.021
644,10 May 2025 15:22:47.684,10 May 2025 15:32:18.095,570.411
645,10 May 2025 16:55:54.326,10 May 2025 17:07:06.328,672.001
646,10 May 2025 18:33:48.949,10 May 2025 18:34:38.443,49.493
647,11 May 2025 02:02:10.630,11 May 2025 02:08:09.452,358.822
648,11 May 2025 03:32:23.802,11 May 2025 03:43:54.154,690.352
649,11 May 2025 05:08:25.988,11 May 2025 05:16:14.421,468.433
650,11 May 2025 15:04:46.601,11 May 2025 15:12:32.525,465.924
651,11 May 2025 16:37:05.791,11 May 2025 16:48:36.325,690.534
652,11 May 2025 18:12:49.302,11 May 2025 18:18:51.272,361.970
653,12 May 2025 03:13:54.020,12 May 2025 03:25:05.499,671.480
654,12 May 2025 04:48:40.959,12 May 2025 04:58:12.904,571.945
655,12 May 2025 14:47:24.816,12 May 2025 14:52:01.501,276.686
656,12 May 2025 16:18:23.222,12 May 2025 16:29:54.747,691.524
657,12 May 2025 17:53:17.642,12 May 2025 18:01:29.132,491.490
658,13 May 2025 02:55:36.274,13 May 2025 03:06:10.582,634.308
659,13 May 2025 04:29:18.396,13 May 2025 04:39:54.740,636.344
660,13 May 2025 15:59:47.062,13 May 2025 16:11:01.254,674.192
661,13 May 2025 17:34:04.829,13 May 2025 17:43:41.510,576.681
662,14 May 2025 02:37:32.003,14 May 2025 02:47:08.182,576.179
663,14 May 2025 04:10:11.812,14 May 2025 04:21:26.194,674.382
664,14 May 2025 15:41:18.579,14 May 2025 15:51:54.565,635.986
665,14 May 2025 17:15:02.491,14 May 2025 17:25:37.139,634.647
666,15 May 2025 02:19:44.524,15 May 2025 02:27:55.276,490.752
667,15 May 2025 03:51:18.400,15 May 2025 04:02:49.985,691.585
668,15 May 2025 05:29:10.555,15 May 2025 05:33:49.272,278.718
669,15 May 2025 15:23:00.503,15 May 2025 15:32:31.866,571.363
670,15 May 2025 16:56:07.617,15 May 2025 17:07:19.296,671.679
671,15 May 2025 18:34:12.094,15 May 2025 18:34:41.180,29.086
672,16 May 2025 02:02:22.627,16 May 2025 02:08:23.417,360.791
673,16 May 2025 03:32:36.905,16 May 2025 03:44:07.377,690.472
674,16 May 2025 05:08:40.097,16 May 2025 05:16:26.970,466.873
675,16 May 2025 15:04:59.154,16 May 2025 15:12:46.633,467.479
676,16 May 2025 16:37:19.011,16 May 2025 16:48:49.430,690.418
677,16 May 2025 18:13:03.254,16 May 2025 18:19:03.279,360.026
678,17 May 2025 01:46:40.437,17 May 2025 01:47:18.840,38.403
679,17 May 2025 03:14:06.986,17 May 2025 03:25:18.793,671.807
680,17 May 2025 04:48:54.729,17 May 2025 04:58:25.720,570.991
681,17 May 2025 14:47:36.527,17 May 2025 14:52:16.525,279.998
682,17 May 2025 16:18:36.375,17 May 2025 16:30:07.988,691.613
683,17 May 2025 17:53:31.265,17 May 2025 18:01:41.549,490.284
684,18 May 2025 02:55:49.092,18 May 2025 03:06:23.951,634.859
685,18 May 2025 04:29:31.951,18 May 2025 04:40:07.705,635.754
686,18 May 2025 16:00:00.131,18 May 2025 16:11:14.640,674.509
687,18 May 2025 17:34:18.298,18 May 2025 17:43:54.157,575.859
688,19 May 2025 02:37:44.650,19 May 2025 02:47:21.654,577.004
689,19 May 2025 04:10:25.200,19 May 2025 04:21:39.262,674.062
690,19 May 2025 15:41:31.546,19 May 2025 15:52:08.118,636.572
691,19 May 2025 17:15:15.862,19 May 2025 17:25:49.957,634.096
692,20 May 2025 02:19:56.939,20 May 2025 02:28:08.903,491.963
693,20 May 2025 03:51:31.642,20 May 2025 04:03:03.134,691.492
694,20 May 2025 05:29:25.594,20 May 2025 05:34:00.964,275.369
695,20 May 2025 15:23:13.323,20 May 2025 15:32:45.632,572.309
696,20 May 2025 16:56:20.908,20 May 2025 17:07:32.263,671.355
697,21 May 2025 02:02:34.634,21 May 2025 02:08:37.374,362.740
698,21 May 2025 03:32:50.010,21 May 2025 03:44:20.597,690.587
699,21 May 2025 05:08:54.208,21 May 2025 05:16:39.515,465.306
700,21 May 2025 15:05:11.711,21 May 2025 15:13:00.733,469.022
701,21 May 2025 16:37:32.232,21 May 2025 16:49:02.532,690.300
702,21 May 2025 18:13:17.213,21 May 2025 18:19:15.278,358.064
703,22 May 2025 01:46:44.786,22 May 2025 01:47:40.371,55.584
704,22 May 2025 03:14:19.955,22 May 2025 03:25:32.086,672.131
705,22 May 2025 04:49:08.505,22 May 2025 04:58:38.532,570.027
706,22 May 2025 14:47:48.259,22 May 2025 14:52:31.523,283.264
707,22 May 2025 16:18:49.524,22 May 2025 16:30:21.226,691.703
708,22 May 2025 17:53:44.890,22 May 2025 18:01:53.961,489.071
709,23 May 2025 02:56:01.913,23 May 2025 03:06:37.324,635.411
710,23 May 2025 04:29:45.503,23 May 2025 04:40:20.667,635.165
711,23 May 2025 16:00:13.200,23 May 2025 16:11:28.023,674.823
712,23 May 2025 17:34:31.768,23 May 2025 17:44:06.800,575.033
713,24 May 2025 02:37:57.298,24 May 2025 02:47:35.121,577.823
714,24 May 2025 04:10:38.587,24 May 2025 04:21:52.327,673.740
715,24 May 2025 15:41:44.519,24 May 2025 15:52:21.668,637.149
716,24 May 2025 17:15:29.230,24 May 2025 17:26:02.773,633.543
717,25 May 2025 02:20:09.356,25 May 2025 02:28:22.526,493.170
718,25 May 2025 03:51:44.884,25 May 2025 04:03:16.280,691.396
719,25 May 2025 05:29:40.663,25 May 2025 05:34:12.628,271.965
720,25 May 2025 15:23:26.144,25 May 2025 15:32:59.396,573.252
721,25 May 2025 16:56:34.198,25 May 2025 17:07:45.226,671.028
722,26 May 2025 02:02:46.646,26 May 2025 02:08:51.325,364.680
723,26 May 2025 03:33:03.115,26 May 2025 03:44:33.815,690.700
724,26 May 2025 05:09:08.324,26 May 2025 05:16:52.053,463.728
725,26 May 2025 15:05:24.271,26 May 2025 15:13:14.827,470.556
726,26 May 2025 16:37:45.453,26 May 2025 16:49:15.633,690.180
727,26 May 2025 18:13:31.176,26 May 2025 18:19:27.270,356.094
728,27 May 2025 01:46:51.217,27 May 2025 01:47:59.818,68.601
729,27 May 2025 03:14:32.925,27 May 2025 03:25:45.375,672.450
730,27 May 2025 04:49:22.279,27 May 2025 04:58:51.342,569.063
731,27 May 2025 14:48:00.017,27 May 2025 14:52:46.496,286.479
732,27 May 2025 16:19:02.676,27 May 2025 16:30:34.463,691.787
733,27 May 2025 17:53:58.516,27 May 2025 18:02:06.371,487.856
734,28 May 2025 02:56:14.734,28 May 2025 03:06:50.693,635.958
735,28 May 2025 04:29:59.061,28 May 2025 04:40:33.628,634.567
736,28 May 2025 16:00:26.273,28 May 2025 16:11:41.405,675.132
737,28 May 2025 17:34:45.238,28 May 2025 17:44:19.442,574.204
738,29 May 2025 02:38:09.949,29 May 2025 02:47:48.588,578.639
739,29 May 2025 04:10:51.978,29 May 2025 04:22:05.391,673.413
740,29 May 2025 15:41:57.486,29 May 2025 15:52:35.217,637.731
741,29 May 2025 17:15:42.601,29 May 2025 17:26:15.588,632.987
742,30 May 2025 02:20:21.776,30 May 2025 02:28:36.149,494.373
743,30 May 2025 03:51:58.128,30 May 2025 04:03:29.426,691.298
744,30 May 2025 05:29:55.757,30 May 2025 05:34:24.266,268.510
745,30 May 2025 15:23:38.970,30 May 2025 15:33:13.159,574.189
746,30 May 2025 16:56:47.491,30 May 2025 17:07:58.188,670.697
747,31 May 2025 02:02:58.660,31 May 2025 02:09:05.272,366.611
748,31 May 2025 03:33:16.223,31 May 2025 03:44:47.034,690.811
749,31 May 2025 05:09:22.446,31 May 2025 05:17:04.587,462.141
750,31 May 2025 15:05:36.837,31 May 2025 15:13:28.920,472.082
751,31 May 2025 16:37:58.675,31 May 2025 16:49:28.732,690.057
752,31 May 2025 18:13:45.148,31 May 2025 18:19:39.255,354.108
753,1 Jun 2025 01:46:58.713,1 Jun 2025 01:48:18.203,79.490
754,1 Jun 2025 03:14:45.897,1 Jun 2025 03:25:58.665,672.768
755,1 Jun 2025 04:49:36.057,1 Jun 2025 04:59:04.155,568.098
756,1 Jun 2025 14:48:11.795,1 Jun 2025 14:53:01.452,289.657
757,1 Jun 2025 16:19:15.828,1 Jun 2025 16:30:47.699,691.871
758,1 Jun 2025 17:54:12.145,1 Jun 2025 18:02:18.778,486.633
759,2 Jun 2025 02:56:27.558,2 Jun 2025 03:07:04.060,636.502
760,2 Jun 2025 04:30:12.622,2 Jun 2025 04:40:46.587,633.965
761,2 Jun 2025 16:00:39.344,2 Jun 2025 16:11:54.785,675.441
762,2 Jun 2025 17:34:58.711,2 Jun 2025 17:44:32.082,573.371
763,3 Jun 2025 02:38:22.599,3 Jun 2025 02:48:02.055,579.455
764,3 Jun 2025 04:11:05.370,3 Jun 2025 04:22:18.455,673.085
765,3 Jun 2025 15:42:10.458,3 Jun 2025 15:52:48.760,638.302
766,3 Jun 2025 17:15:55.972,3 Jun 2025 17:26:28.401,632.428
767,4 Jun 2025 02:20:34.200,4 Jun 2025 02:28:49.767,495.568
768,4 Jun 2025 03:52:11.374,4 Jun 2025 04:03:42.571,691.197
769,4 Jun 2025 05:30:10.874,4 Jun 2025 05:34:35.879,265.005
770,4 Jun 2025 15:23:51.795,4 Jun 2025 15:33:26.917,575.122
771,4 Jun 2025 16:57:00.783,4 Jun 2025 17:08:11.148,670.365
772,5 Jun 2025 02:03:10.689,5 Jun 2025 02:09:19.208,368.520
773,5 Jun 2025 03:33:29.331,5 Jun 2025 03:45:00.250,690.918
774,5 Jun 2025 05:09:36.573,5 Jun 2025 05:17:17.116,460.543
775,5 Jun 2025 15:05:49.406,5 Jun 2025 15:13:43.004,473.598
776,5 Jun 2025 16:38:11.897,5 Jun 2025 16:49:41.829,689.932
777,5 Jun 2025 18:13:59.124,5 Jun 2025 18:19:51.231,352.106
778,6 Jun 2025 01:47:06.877,6 Jun 2025 01:48:35.916,89.039
779,6 Jun 2025 03:14:58.867,6 Jun 2025 03:26:11.951,673.084
780,6 Jun 2025 04:49:49.837,6 Jun 2025 04:59:16.959,567.122
781,6 Jun 2025 14:48:23.593,6 Jun 2025 14:53:16.382,292.789
782,6 Jun 2025 16:19:28.979,6 Jun 2025 16:31:00.931,691.953
783,6 Jun 2025 17:54:25.775,6 Jun 2025 18:02:31.180,485.405
784,7 Jun 2025 02:56:40.381,7 Jun 2025 03:07:17.425,637.043
785,7 Jun 2025 04:30:26.183,7 Jun 2025 04:40:59.544,633.361
786,7 Jun 2025 16:00:52.418,7 Jun 2025 16:12:08.162,675.744
787,7 Jun 2025 17:35:12.183,7 Jun 2025 17:44:44.718,572.535
788,8 Jun 2025 02:38:35.253,8 Jun 2025 02:48:15.519,580.267
789,8 Jun 2025 04:11:18.762,8 Jun 2025 04:22:31.515,672.753
790,8 Jun 2025 15:42:23.432,8 Jun 2025 15:53:02.303,638.871
791,8 Jun 2025 17:16:09.343,8 Jun 2025 17:26:41.210,631.868
792,9 Jun 2025 02:20:46.625,9 Jun 2025 02:29:03.383,496.759
793,9 Jun 2025 03:52:24.620,9 Jun 2025 04:03:55.713,691.094
794,9 Jun 2025 05:30:26.020,9 Jun 2025 05:34:47.461,261.441
795,9 Jun 2025 15:24:04.623,9 Jun 2025 15:33:40.671,576.048
796,9 Jun 2025 16:57:14.075,9 Jun 2025 17:08:24.106,670.031
797,10 Jun 2025 02:03:22.719,10 Jun 2025 02:09:33.141,370.422
798,10 Jun 2025 03:33:42.441,10 Jun 2025 03:45:13.465,691.024
799,10 Jun 2025 05:09:50.706,10 Jun 2025 05:17:29.638,458.932
800,10 Jun 2025 15:06:01.980,10 Jun 2025 15:13:57.080,475.100
801,10 Jun 2025 16:38:25.119,10 Jun 2025 16:49:54.923,689.804
802,10 Jun 2025 18:14:13.106,10 Jun 2025 18:20:03.200,350.094
803,11 Jun 2025 01:47:15.506,11 Jun 2025 01:48:53.164,97.658
804,11 Jun 2025 03:15:11.839,11 Jun 2025 03:26:25.237,673.397
805,11 Jun 2025 04:50:03.622,11 Jun 2025 04:59:29.760,566.139
806,11 Jun 2025 14:48:35.413,11 Jun 2025 14:53:31.290,295.877
807,11 Jun 2025 16:19:42.131,11 Jun 2025 16:31:14.162,692.031
808,11 Jun 2025 17:54:39.406,11 Jun 2025 18:02:43.579,484.173
809,12 Jun 2025 02:56:53.203,12 Jun 2025 03:07:30.789,637.586
810,12 Jun 2025 04:30:39.749,12 Jun 2025 04:41:12.496,632.747
811,12 Jun 2025 16:01:05.492,12 Jun 2025 16:12:21.537,676.045
812,12 Jun 2025 17:35:25.656,12 Jun 2025 17:44:57.352,571.696
813,13 Jun 2025 02:38:47.909,13 Jun 2025 02:48:28.984,581.075
814,13 Jun 2025 04:11:32.156,13 Jun 2025 04:22:44.575,672.419
815,13 Jun 2025 15:42:36.405,13 Jun 2025 15:53:15.844,639.440
816,13 Jun 2025 17:16:22.715,13 Jun 2025 17:26:54.019,631.304
817,14 Jun 2025 02:20:59.054,14 Jun 2025 02:29:16.998,497.944
818,14 Jun 2025 03:52:37.868,14 Jun 2025 04:04:08.856,690.988
819,14 Jun 2025 05:30:41.196,14 Jun 2025 05:34:59.014,257.819
820,14 Jun 2025 15:24:17.454,14 Jun 2025 15:33:54.422,576.969
821,14 Jun 2025 16:57:27.369,14 Jun 2025 17:08:37.064,669.695
822,15 Jun 2025 02:03:34.758,15 Jun 2025 02:09:47.067,372.310
823,15 Jun 2025 03:33:55.552,15 Jun 2025 03:45:26.679,691.127
824,15 Jun 2025 05:10:04.844,15 Jun 2025 05:17:42.157,457.313
825,15 Jun 2025 15:06:14.560,15 Jun 2025 15:14:11.151,476.590
826,15 Jun 2025 16:38:38.343,15 Jun 2025 16:50:08.017,689.674
827,15 Jun 2025 18:14:27.096,15 Jun 2025 18:20:15.160,348.063
828,16 Jun 2025 01:47:24.494,16 Jun 2025 01:49:10.055,105.561
829,16 Jun 2025 03:15:24.814,16 Jun 2025 03:26:38.522,673.708
830,16 Jun 2025 04:50:17.409,16 Jun 2025 04:59:42.561,565.151
831,16 Jun 2025 14:48:47.251,16 Jun 2025 14:53:46.178,298.926
832,16 Jun 2025 16:19:55.284,16 Jun 2025 16:31:27.391,692.108
833,16 Jun 2025 17:54:53.038,16 Jun 2025 18:02:55.974,482.936
834,17 Jun 2025 02:57:06.031,17 Jun 2025 03:07:44.153,638.122
835,17 Jun 2025 04:30:53.314,17 Jun 2025 04:41:25.450,632.136
836,17 Jun 2025 16:01:18.565,17 Jun 2025 16:12:34.911,676.345
837,17 Jun 2025 17:35:39.132,17 Jun 2025 17:45:09.984,570.852
838,18 Jun 2025 02:39:00.565,18 Jun 2025 02:48:42.446,581.881
839,18 Jun 2025 04:11:45.552,18 Jun 2025 04:22:57.634,672.082
840,18 Jun 2025 15:42:49.378,18 Jun 2025 15:53:29.381,640.003
841,18 Jun 2025 17:16:36.088,18 Jun 2025 17:27:06.824,630.736
842,19 Jun 2025 02:21:11.490,19 Jun 2025 02:29:30.613,499.123
843,19 Jun 2025 03:52:51.122,19 Jun 2025 04:04:21.992,690.871
844,19 Jun 2025 05:30:56.402,19 Jun 2025 05:35:10.539,254.138
845,19 Jun 2025 15:24:30.285,19 Jun 2025 15:34:08.170,577.885
846,19 Jun 2025 16:57:40.663,19 Jun 2025 17:08:50.017,669.355
847,20 Jun 2025 02:03:46.803,20 Jun 2025 02:10:00.985,374.183
848,20 Jun 2025 03:34:08.664,20 Jun 2025 03:45:39.892,691.228
849,20 Jun 2025 05:10:18.986,20 Jun 2025 05:17:54.670,455.684
850,20 Jun 2025 15:06:27.141,20 Jun 2025 15:14:25.218,478.077
851,20 Jun 2025 16:38:51.566,20 Jun 2025 16:50:21.108,689.542
852,20 Jun 2025 18:14:41.094,20 Jun 2025 18:20:27.110,346.016
853,21 Jun 2025 01:47:33.765,21 Jun 2025 01:49:26.664,112.899
854,21 Jun 2025 03:15:37.789,21 Jun 2025 03:26:51.805,674.017
855,21 Jun 2025 04:50:31.199,21 Jun 2025 04:59:55.357,564.158
856,21 Jun 2025 14:48:59.108,21 Jun 2025 14:54:01.043,301.935
857,21 Jun 2025 16:20:08.436,21 Jun 2025 16:31:40.618,692.181
858,21 Jun 2025 17:55:06.674,21 Jun 2025 18:03:08.365,481.692
859,22 Jun 2025 02:57:18.859,22 Jun 2025 03:07:57.513,638.654
860,22 Jun 2025 04:31:06.883,22 Jun 2025 04:41:38.401,631.518
861,22 Jun 2025 16:01:31.640,22 Jun 2025 16:12:48.280,676.641
862,22 Jun 2025 17:35:52.606,22 Jun 2025 17:45:22.612,570.006
863,23 Jun 2025 02:39:13.224,23 Jun 2025 02:48:55.906,582.683
864,23 Jun 2025 04:11:58.949,23 Jun 2025 04:23:10.690,671.741
865,23 Jun 2025 15:43:02.353,23 Jun 2025 15:53:42.920,640.567
866,23 Jun 2025 17:16:49.456,23 Jun 2025 17:27:19.628,630.172
867,24 Jun 2025 02:21:23.924,24 Jun 2025 02:29:44.221,500.298
868,24 Jun 2025 03:53:04.371,24 Jun 2025 04:04:35.131,690.760
869,24 Jun 2025 05:31:11.642,24 Jun 2025 05:35:22.029,250.387
870,24 Jun 2025 15:24:43.118,24 Jun 2025 15:34:21.910,578.791
871,24 Jun 2025 16:57:53.957,24 Jun 2025 17:09:02.968,669.012
872,25 Jun 2025 02:03:58.853,25 Jun 2025 02:10:14.899,376.047
873,25 Jun 2025 03:34:21.777,25 Jun 2025 03:45:53.103,691.326
874,25 Jun 2025 05:10:33.135,25 Jun 2025 05:18:07.177,454.041
875,25 Jun 2025 15:06:39.723,25 Jun 2025 15:14:39.279,479.556
876,25 Jun 2025 16:39:04.791,25 Jun 2025 16:50:34.197,689.407
877,25 Jun 2025 18:14:55.098,25 Jun 2025 18:20:39.054,343.956
878,26 Jun 2025 01:47:43.258,26 Jun 2025 01:49:43.055,119.797
879,26 Jun 2025 03:15:50.765,26 Jun 2025 03:27:05.088,674.323
880,26 Jun 2025 04:50:44.993,26 Jun 2025 05:00:08.151,563.158
881,26 Jun 2025 14:49:10.985,26 Jun 2025 14:54:15.889,304.904
882,26 Jun 2025 16:20:21.590,26 Jun 2025 16:31:53.845,692.254
883,26 Jun 2025 17:55:20.312,26 Jun 2025 18:03:20.754,480.442
884,27 Jun 2025 02:57:31.690,27 Jun 2025 03:08:10.875,639.185
885,27 Jun 2025 04:31:20.454,27 Jun 2025 04:41:51.351,630.897
886,27 Jun 2025 16:01:44.716,27 Jun 2025 16:13:01.650,676.934
887,27 Jun 2025 17:36:06.085,27 Jun 2025 17:45:35.239,569.154
888,28 Jun 2025 02:39:25.886,28 Jun 2025 02:49:09.364,583.479
889,28 Jun 2025 04:12:12.345,28 Jun 2025 04:23:23.746,671.401
890,28 Jun 2025 15:43:15.331,28 Jun 2025 15:53:56.454,641.123
891,28 Jun 2025 17:17:02.830,28 Jun 2025 17:27:32.430,629.599
892,29 Jun 2025 02:21:36.362,29 Jun 2025 02:29:57.828,501.466
893,29 Jun 2025 03:53:17.624,29 Jun 2025 04:04:48.270,690.646
894,29 Jun 2025 05:31:26.916,29 Jun 2025 05:35:33.487,246.572
895,29 Jun 2025 15:24:55.954,29 Jun 2025 15:34:35.653,579.698
896,29 Jun 2025 16:58:07.252,29 Jun 2025 17:09:15.919,668.667
897,30 Jun 2025 02:04:10.911,30 Jun 2025 02:10:28.807,377.896
898,30 Jun 2025 03:34:34.893,30 Jun 2025 03:46:06.315,691.422
899,30 Jun 2025 05:10:47.289,30 Jun 2025 05:18:19.680,452.390
900,30 Jun 2025 15:06:52.313,30 Jun 2025 15:14:53.336,481.024
901,30 Jun 2025 16:39:18.013,30 Jun 2025 16:50:47.285,689.272
902,30 Jun 2025 18:15:09.111,30 Jun 2025 18:20:50.988,341.877
903,1 Jul 2025 01:47:52.952,1 Jul 2025 01:49:59.242,126.290
904,1 Jul 2025 03:16:03.744,1 Jul 2025 03:27:18.365,674.622
905,1 Jul 2025 04:50:58.786,1 Jul 2025 05:00:20.943,562.157
906,1 Jul 2025 14:49:22.877,1 Jul 2025 14:54:30.717,307.840
907,1 Jul 2025 16:20:34.745,1 Jul 2025 16:32:07.068,692.323
908,1 Jul 2025 17:55:33.954,1 Jul 2025 18:03:33.138,479.184
909,2 Jul 2025 02:57:44.522,2 Jul 2025 03:08:24.230,639.708
910,2 Jul 2025 04:31:34.024,2 Jul 2025 04:42:04.299,630.275
911,2 Jul 2025 16:01:57.791,2 Jul 2025 16:13:15.016,677.225
912,2 Jul 2025 17:36:19.566,2 Jul 2025 17:45:47.862,568.296
913,3 Jul 2025 02:39:38.548,3 Jul 2025 02:49:22.821,584.273
914,3 Jul 2025 04:12:25.745,3 Jul 2025 04:23:36.800,671.056
915,3 Jul 2025 15:43:28.308,3 Jul 2025 15:54:09.983,641.675
916,3 Jul 2025 17:17:16.205,3 Jul 2025 17:27:45.229,629.024
917,4 Jul 2025 02:21:48.803,4 Jul 2025 02:30:11.430,502.627
918,4 Jul 2025 03:53:30.876,4 Jul 2025 04:05:01.407,690.530
919,4 Jul 2025 05:31:42.222,4 Jul 2025 05:35:44.912,242.690
920,4 Jul 2025 15:25:08.790,4 Jul 2025 15:34:49.390,580.600
921,4 Jul 2025 16:58:20.546,4 Jul 2025 17:09:28.865,668.318
922,5 Jul 2025 02:04:22.975,5 Jul 2025 02:10:42.706,379.731
923,5 Jul 2025 03:34:48.008,5 Jul 2025 03:46:19.523,691.515
924,5 Jul 2025 05:11:01.447,5 Jul 2025 05:18:32.176,450.729
925,5 Jul 2025 15:07:04.905,5 Jul 2025 15:15:07.386,482.482
926,5 Jul 2025 16:39:31.237,5 Jul 2025 16:51:00.369,689.133
927,5 Jul 2025 18:15:23.125,5 Jul 2025 18:21:02.912,339.787
928,6 Jul 2025 01:48:02.806,6 Jul 2025 01:50:15.266,132.460
929,6 Jul 2025 03:16:16.722,6 Jul 2025 03:27:31.644,674.922
930,6 Jul 2025 04:51:12.583,6 Jul 2025 05:00:33.731,561.148
931,6 Jul 2025 14:49:34.786,6 Jul 2025 14:54:45.522,310.737
932,6 Jul 2025 16:20:47.895,6 Jul 2025 16:32:20.291,692.396
933,6 Jul 2025 17:55:47.596,6 Jul 2025 18:03:45.515,477.919
934,7 Jul 2025 02:57:57.358,7 Jul 2025 03:08:37.585,640.228
935,7 Jul 2025 04:31:47.599,7 Jul 2025 04:42:17.247,629.648
936,7 Jul 2025 16:02:10.866,7 Jul 2025 16:13:28.380,677.513
937,7 Jul 2025 17:36:33.040,7 Jul 2025 17:46:00.482,567.442
938,8 Jul 2025 02:39:51.212,8 Jul 2025 02:49:36.275,585.063
939,8 Jul 2025 04:12:39.146,8 Jul 2025 04:23:49.852,670.707
940,8 Jul 2025 15:43:41.286,8 Jul 2025 15:54:23.510,642.224
941,8 Jul 2025 17:17:29.579,8 Jul 2025 17:27:58.025,628.446
942,9 Jul 2025 02:22:01.246,9 Jul 2025 02:30:25.030,503.784
943,9 Jul 2025 03:53:44.130,9 Jul 2025 04:05:14.542,690.412
944,9 Jul 2025 05:31:57.566,9 Jul 2025 05:35:56.297,238.731
945,9 Jul 2025 15:25:21.629,9 Jul 2025 15:35:03.125,581.496
946,9 Jul 2025 16:58:33.842,9 Jul 2025 17:09:41.811,667.970
947,10 Jul 2025 02:04:35.044,10 Jul 2025 02:10:56.597,381.553
948,10 Jul 2025 03:35:01.125,10 Jul 2025 03:46:32.727,691.602
949,10 Jul 2025 05:11:15.607,10 Jul 2025 05:18:44.671,449.063
950,10 Jul 2025 15:07:17.502,10 Jul 2025 15:15:21.432,483.930
951,10 Jul 2025 16:39:44.462,10 Jul 2025 16:51:13.453,688.991
952,10 Jul 2025 18:15:37.149,10 Jul 2025 18:21:14.829,337.679
953,11 Jul 2025 01:48:12.801,11 Jul 2025 01:50:31.152,138.352
954,11 Jul 2025 03:16:29.702,11 Jul 2025 03:27:44.923,675.221
955,11 Jul 2025 04:51:26.382,11 Jul 2025 05:00:46.517,560.135
956,11 Jul 2025 14:49:46.713,11 Jul 2025 14:55:00.313,313.600
957,11 Jul 2025 16:21:01.050,11 Jul 2025 16:32:33.511,692.460
958,11 Jul 2025 17:56:01.241,11 Jul 2025 18:03:57.892,476.650
959,12 Jul 2025 02:58:10.189,12 Jul 2025 03:08:50.943,640.754
960,12 Jul 2025 04:32:01.174,12 Jul 2025 04:42:30.191,629.017
961,12 Jul 2025 16:02:23.944,12 Jul 2025 16:13:41.738,677.795
962,12 Jul 2025 17:36:46.522,12 Jul 2025 17:46:13.101,566.579
963,13 Jul 2025 02:40:03.879,13 Jul 2025 02:49:49.730,585.851
964,13 Jul 2025 04:12:52.549,13 Jul 2025 04:24:02.904,670.355
965,13 Jul 2025 15:43:54.266,13 Jul 2025 15:54:37.036,642.771
966,13 Jul 2025 17:17:42.960,13 Jul 2025 17:28:10.821,627.861
967,14 Jul 2025 02:22:13.695,14 Jul 2025 02:30:38.624,504.929
968,14 Jul 2025 03:53:57.382,14 Jul 2025 04:05:27.681,690.299
969,14 Jul 2025 05:32:12.950,14 Jul 2025 05:36:07.642,234.692
970,14 Jul 2025 15:25:34.469,14 Jul 2025 15:35:16.856,582.387
971,14 Jul 2025 16:58:47.138,14 Jul 2025 17:09:54.756,667.618
972,15 Jul 2025 02:04:47.122,15 Jul 2025 02:11:10.487,383.365
973,15 Jul 2025 03:35:14.247,15 Jul 2025 03:46:45.936,691.689
974,15 Jul 2025 05:11:29.783,15 Jul 2025 05:18:57.158,447.375
975,15 Jul 2025 15:07:30.102,15 Jul 2025 15:15:35.473,485.371
976,15 Jul 2025 16:39:57.688,15 Jul 2025 16:51:26.535,688.847
977,15 Jul 2025 18:15:51.184,15 Jul 2025 18:21:26.735,335.550
978,16 Jul 2025 01:48:22.925,16 Jul 2025 01:50:46.909,143.984
