3UCubedIntegratedSim/Reports & Plots/Comms/SSU/Sat9 Comms.csv

"Access","Start Time (UTCG)","Stop Time (UTCG)","Duration (sec)"
1,1 Jan 2025 16:32:30.654,1 Jan 2025 16:42:39.476,608.822
2,1 Jan 2025 18:05:57.641,1 Jan 2025 18:16:52.446,654.805
3,2 Jan 2025 03:11:20.864,2 Jan 2025 03:18:36.904,436.040
4,2 Jan 2025 04:42:19.357,2 Jan 2025 04:53:52.602,693.245
5,2 Jan 2025 06:19:11.690,2 Jan 2025 06:25:37.864,386.174
6,2 Jan 2025 16:14:19.404,2 Jan 2025 16:23:07.196,527.793
7,2 Jan 2025 17:47:05.861,2 Jan 2025 17:58:28.729,682.868
8,2 Jan 2025 19:23:30.954,2 Jan 2025 19:27:45.394,254.441
9,3 Jan 2025 02:54:20.798,3 Jan 2025 02:58:46.519,265.720
10,3 Jan 2025 04:23:43.405,3 Jan 2025 04:35:07.123,683.719
11,3 Jan 2025 05:59:08.338,3 Jan 2025 06:07:51.453,523.115
12,3 Jan 2025 15:56:31.379,3 Jan 2025 16:03:05.737,394.358
13,3 Jan 2025 17:28:20.108,3 Jan 2025 17:39:53.300,693.192
14,3 Jan 2025 19:03:37.997,3 Jan 2025 19:10:48.212,430.214
15,4 Jan 2025 04:05:19.138,4 Jan 2025 04:16:15.620,656.481
16,4 Jan 2025 05:39:35.054,4 Jan 2025 05:49:40.947,605.894
17,4 Jan 2025 17:09:40.441,4 Jan 2025 17:21:06.239,685.798
18,4 Jan 2025 18:44:16.932,4 Jan 2025 18:53:12.331,535.399
19,5 Jan 2025 03:47:07.439,5 Jan 2025 03:57:17.432,609.993
20,5 Jan 2025 05:20:20.456,5 Jan 2025 05:31:17.445,656.989
21,5 Jan 2025 16:51:07.644,5 Jan 2025 17:02:06.804,659.160
22,5 Jan 2025 18:25:09.584,5 Jan 2025 18:35:16.267,606.682
23,6 Jan 2025 03:29:10.427,6 Jan 2025 03:38:10.670,540.243
24,6 Jan 2025 05:01:20.267,6 Jan 2025 05:12:45.084,684.817
25,6 Jan 2025 16:32:43.557,6 Jan 2025 16:42:53.121,609.564
26,6 Jan 2025 18:06:10.969,6 Jan 2025 18:17:05.334,654.365
27,7 Jan 2025 03:11:33.123,7 Jan 2025 03:18:50.646,437.523
28,7 Jan 2025 04:42:32.528,7 Jan 2025 04:54:05.787,693.259
29,7 Jan 2025 06:19:26.106,7 Jan 2025 06:25:50.138,384.033
30,7 Jan 2025 16:14:32.117,7 Jan 2025 16:23:21.098,528.980
31,7 Jan 2025 17:47:19.113,7 Jan 2025 17:58:41.759,682.646
32,7 Jan 2025 19:23:45.412,7 Jan 2025 19:27:56.847,251.435
33,8 Jan 2025 02:54:32.347,8 Jan 2025 02:59:00.886,268.539
34,8 Jan 2025 04:23:56.440,8 Jan 2025 04:35:20.374,683.934
35,8 Jan 2025 05:59:22.258,8 Jan 2025 06:08:04.154,521.896
36,8 Jan 2025 15:56:43.688,8 Jan 2025 16:03:20.114,396.426
37,8 Jan 2025 17:28:33.293,8 Jan 2025 17:40:06.466,693.173
38,8 Jan 2025 19:03:51.756,8 Jan 2025 19:11:00.447,428.690
39,9 Jan 2025 04:05:32.037,9 Jan 2025 04:16:28.943,656.907
40,9 Jan 2025 05:39:48.710,9 Jan 2025 05:49:53.841,605.131
41,9 Jan 2025 15:40:48.132,9 Jan 2025 15:41:19.910,31.778
42,9 Jan 2025 17:09:53.552,9 Jan 2025 17:21:19.547,685.995
43,9 Jan 2025 18:44:30.473,9 Jan 2025 18:53:24.863,534.390
44,10 Jan 2025 03:47:20.180,10 Jan 2025 03:57:30.842,610.662
45,10 Jan 2025 05:20:33.928,10 Jan 2025 05:31:30.458,656.530
46,10 Jan 2025 16:51:20.666,10 Jan 2025 17:02:20.263,659.597
47,10 Jan 2025 18:25:23.003,10 Jan 2025 18:35:28.995,605.993
48,11 Jan 2025 03:29:22.974,11 Jan 2025 03:38:24.200,541.226
49,11 Jan 2025 05:01:33.582,11 Jan 2025 05:12:58.190,684.608
50,11 Jan 2025 16:32:56.459,11 Jan 2025 16:43:06.764,610.305
51,11 Jan 2025 18:06:24.303,11 Jan 2025 18:17:18.221,653.917
52,12 Jan 2025 03:11:45.389,12 Jan 2025 03:19:04.381,438.992
53,12 Jan 2025 04:42:45.701,12 Jan 2025 04:54:18.968,693.266
54,12 Jan 2025 06:19:40.535,12 Jan 2025 06:26:02.403,381.868
55,12 Jan 2025 16:14:44.832,12 Jan 2025 16:23:34.997,530.165
56,12 Jan 2025 17:47:32.368,12 Jan 2025 17:58:54.786,682.418
57,12 Jan 2025 19:23:59.898,12 Jan 2025 19:28:08.276,248.378
58,13 Jan 2025 02:54:43.915,13 Jan 2025 02:59:15.233,271.318
59,13 Jan 2025 04:24:09.479,13 Jan 2025 04:35:33.624,684.145
60,13 Jan 2025 05:59:36.182,13 Jan 2025 06:08:16.849,520.667
61,13 Jan 2025 15:56:56.003,13 Jan 2025 16:03:34.483,398.481
62,13 Jan 2025 17:28:46.478,13 Jan 2025 17:40:19.630,693.152
63,13 Jan 2025 19:04:05.520,13 Jan 2025 19:11:12.676,427.155
64,14 Jan 2025 04:05:44.937,14 Jan 2025 04:16:42.265,657.328
65,14 Jan 2025 05:40:02.370,14 Jan 2025 05:50:06.733,604.363
66,14 Jan 2025 15:40:49.769,14 Jan 2025 15:41:45.026,55.258
67,14 Jan 2025 17:10:06.662,14 Jan 2025 17:21:32.849,686.186
68,14 Jan 2025 18:44:44.018,14 Jan 2025 18:53:37.390,533.373
69,15 Jan 2025 03:47:32.918,15 Jan 2025 03:57:44.249,611.331
70,15 Jan 2025 05:20:47.401,15 Jan 2025 05:31:43.472,656.071
71,15 Jan 2025 16:51:33.687,15 Jan 2025 17:02:33.718,660.031
72,15 Jan 2025 18:25:36.421,15 Jan 2025 18:35:41.721,605.300
73,16 Jan 2025 03:29:35.525,16 Jan 2025 03:38:37.727,542.202
74,16 Jan 2025 05:01:46.897,16 Jan 2025 05:13:11.294,684.396
75,16 Jan 2025 16:33:09.362,16 Jan 2025 16:43:20.404,611.041
76,16 Jan 2025 18:06:37.629,16 Jan 2025 18:17:31.105,653.476
77,17 Jan 2025 03:11:57.657,17 Jan 2025 03:19:18.111,440.454
78,17 Jan 2025 04:42:58.876,17 Jan 2025 04:54:32.146,693.270
79,17 Jan 2025 06:19:54.973,17 Jan 2025 06:26:14.656,379.683
80,17 Jan 2025 16:14:57.548,17 Jan 2025 16:23:48.889,531.341
81,17 Jan 2025 17:47:45.624,17 Jan 2025 17:59:07.812,682.188
82,17 Jan 2025 19:24:14.397,17 Jan 2025 19:28:19.684,245.288
83,18 Jan 2025 02:54:55.498,18 Jan 2025 02:59:29.565,274.067
84,18 Jan 2025 04:24:22.518,18 Jan 2025 04:35:46.868,684.350
85,18 Jan 2025 05:59:50.110,18 Jan 2025 06:08:29.541,519.431
86,18 Jan 2025 15:57:08.326,18 Jan 2025 16:03:48.838,400.512
87,18 Jan 2025 17:28:59.664,18 Jan 2025 17:40:32.791,693.127
88,18 Jan 2025 19:04:19.286,18 Jan 2025 19:11:24.900,425.614
89,19 Jan 2025 04:05:57.837,19 Jan 2025 04:16:55.587,657.749
90,19 Jan 2025 05:40:16.032,19 Jan 2025 05:50:19.622,603.590
91,19 Jan 2025 15:40:55.110,19 Jan 2025 15:42:06.448,71.338
92,19 Jan 2025 17:10:19.774,19 Jan 2025 17:21:46.149,686.375
93,19 Jan 2025 18:44:57.563,19 Jan 2025 18:53:49.916,532.353
94,20 Jan 2025 03:47:45.662,20 Jan 2025 03:57:57.653,611.991
95,20 Jan 2025 05:21:00.874,20 Jan 2025 05:31:56.484,655.610
96,20 Jan 2025 16:51:46.711,20 Jan 2025 17:02:47.168,660.458
97,20 Jan 2025 18:25:49.844,20 Jan 2025 18:35:54.445,604.601
98,21 Jan 2025 03:29:48.079,21 Jan 2025 03:38:51.254,543.175
99,21 Jan 2025 05:02:00.219,21 Jan 2025 05:13:24.397,684.178
100,21 Jan 2025 16:33:22.269,21 Jan 2025 16:43:34.042,611.773
101,21 Jan 2025 18:06:50.962,21 Jan 2025 18:17:43.988,653.026
102,22 Jan 2025 03:12:09.930,22 Jan 2025 03:19:31.841,441.911
103,22 Jan 2025 04:43:12.054,22 Jan 2025 04:54:45.325,693.271
104,22 Jan 2025 06:20:09.423,22 Jan 2025 06:26:26.901,377.478
105,22 Jan 2025 16:15:10.265,22 Jan 2025 16:24:02.781,532.516
106,22 Jan 2025 17:47:58.882,22 Jan 2025 17:59:20.837,681.955
107,22 Jan 2025 19:24:28.918,22 Jan 2025 19:28:31.072,242.154
108,23 Jan 2025 02:55:07.098,23 Jan 2025 02:59:43.884,276.785
109,23 Jan 2025 04:24:35.561,23 Jan 2025 04:36:00.117,684.556
110,23 Jan 2025 06:00:04.038,23 Jan 2025 06:08:42.232,518.193
111,23 Jan 2025 15:57:20.660,23 Jan 2025 16:04:03.190,402.530
112,23 Jan 2025 17:29:12.852,23 Jan 2025 17:40:45.952,693.100
113,23 Jan 2025 19:04:33.058,23 Jan 2025 19:11:37.122,424.064
114,24 Jan 2025 04:06:10.742,24 Jan 2025 04:17:08.909,658.167
115,24 Jan 2025 05:40:29.698,24 Jan 2025 05:50:32.511,602.814
116,24 Jan 2025 15:41:01.966,24 Jan 2025 15:42:26.356,84.390
117,24 Jan 2025 17:10:32.884,24 Jan 2025 17:21:59.446,686.562
118,24 Jan 2025 18:45:11.109,24 Jan 2025 18:54:02.439,531.331
119,25 Jan 2025 03:47:58.410,25 Jan 2025 03:58:11.058,612.649
120,25 Jan 2025 05:21:14.350,25 Jan 2025 05:32:09.497,655.147
121,25 Jan 2025 16:51:59.737,25 Jan 2025 17:03:00.622,660.885
122,25 Jan 2025 18:26:03.267,25 Jan 2025 18:36:07.171,603.904
123,26 Jan 2025 03:30:00.634,26 Jan 2025 03:39:04.778,544.144
124,26 Jan 2025 05:02:13.538,26 Jan 2025 05:13:37.501,683.963
125,26 Jan 2025 16:33:35.176,26 Jan 2025 16:43:47.679,612.502
126,26 Jan 2025 18:07:04.296,26 Jan 2025 18:17:56.870,652.574
127,27 Jan 2025 03:12:22.207,27 Jan 2025 03:19:45.566,443.359
128,27 Jan 2025 04:43:25.234,27 Jan 2025 04:54:58.504,693.269
129,27 Jan 2025 06:20:23.882,27 Jan 2025 06:26:39.139,375.257
130,27 Jan 2025 16:15:22.990,27 Jan 2025 16:24:16.671,533.681
131,27 Jan 2025 17:48:12.141,27 Jan 2025 17:59:33.861,681.720
132,27 Jan 2025 19:24:43.464,27 Jan 2025 19:28:42.434,238.970
133,28 Jan 2025 02:55:18.716,28 Jan 2025 02:59:58.185,279.470
134,28 Jan 2025 04:24:48.605,28 Jan 2025 04:36:13.365,684.760
135,28 Jan 2025 06:00:17.975,28 Jan 2025 06:08:54.920,516.945
136,28 Jan 2025 15:57:33.000,28 Jan 2025 16:04:17.535,404.535
137,28 Jan 2025 17:29:26.041,28 Jan 2025 17:40:59.113,693.072
138,28 Jan 2025 19:04:46.834,28 Jan 2025 19:11:49.337,422.503
139,29 Jan 2025 04:06:23.646,29 Jan 2025 04:17:22.227,658.581
140,29 Jan 2025 05:40:43.361,29 Jan 2025 05:50:45.399,602.038
141,29 Jan 2025 15:41:09.714,29 Jan 2025 15:42:45.365,95.651
142,29 Jan 2025 17:10:45.998,29 Jan 2025 17:22:12.744,686.745
143,29 Jan 2025 18:45:24.659,29 Jan 2025 18:54:14.959,530.301
144,30 Jan 2025 03:48:11.158,30 Jan 2025 03:58:24.464,613.306
145,30 Jan 2025 05:21:27.823,30 Jan 2025 05:32:22.508,654.685
146,30 Jan 2025 16:52:12.762,30 Jan 2025 17:03:14.072,661.310
147,30 Jan 2025 18:26:16.688,30 Jan 2025 18:36:19.891,603.203
148,31 Jan 2025 03:30:13.191,31 Jan 2025 03:39:18.295,545.104
149,31 Jan 2025 05:02:26.857,31 Jan 2025 05:13:50.606,683.749
150,31 Jan 2025 16:33:48.085,31 Jan 2025 16:44:01.311,613.226
151,31 Jan 2025 18:07:17.630,31 Jan 2025 18:18:09.750,652.120
152,1 Feb 2025 03:12:34.484,1 Feb 2025 03:19:59.287,444.803
153,1 Feb 2025 04:43:38.415,1 Feb 2025 04:55:11.680,693.266
154,1 Feb 2025 06:20:38.351,1 Feb 2025 06:26:51.365,373.015
155,1 Feb 2025 16:15:35.718,1 Feb 2025 16:24:30.552,534.834
156,1 Feb 2025 17:48:25.403,1 Feb 2025 17:59:46.878,681.475
157,1 Feb 2025 19:24:58.031,1 Feb 2025 19:28:53.775,235.744
158,2 Feb 2025 02:55:30.347,2 Feb 2025 03:00:12.474,282.127
159,2 Feb 2025 04:25:01.651,2 Feb 2025 04:36:26.612,684.961
160,2 Feb 2025 06:00:31.915,2 Feb 2025 06:09:07.600,515.684
161,2 Feb 2025 15:57:45.347,2 Feb 2025 16:04:31.870,406.523
162,2 Feb 2025 17:29:39.230,2 Feb 2025 17:41:12.272,693.042
163,2 Feb 2025 19:05:00.613,2 Feb 2025 19:12:01.548,420.935
164,3 Feb 2025 04:06:36.552,3 Feb 2025 04:17:35.547,658.995
165,3 Feb 2025 05:40:57.031,3 Feb 2025 05:50:58.283,601.253
166,3 Feb 2025 15:41:18.073,3 Feb 2025 15:43:03.763,105.690
167,3 Feb 2025 17:10:59.114,3 Feb 2025 17:22:26.040,686.926
168,3 Feb 2025 18:45:38.210,3 Feb 2025 18:54:27.478,529.268
169,4 Feb 2025 03:48:23.909,4 Feb 2025 03:58:37.870,613.961
170,4 Feb 2025 05:21:41.303,4 Feb 2025 05:32:35.518,654.215
171,4 Feb 2025 16:52:25.791,4 Feb 2025 17:03:27.521,661.731
172,4 Feb 2025 18:26:30.113,4 Feb 2025 18:36:32.610,602.496
173,5 Feb 2025 03:30:25.754,5 Feb 2025 03:39:31.819,546.065
174,5 Feb 2025 05:02:40.181,5 Feb 2025 05:14:03.704,683.523
175,5 Feb 2025 16:34:00.997,5 Feb 2025 16:44:14.944,613.947
176,5 Feb 2025 18:07:30.965,5 Feb 2025 18:18:22.629,651.664
177,6 Feb 2025 03:12:46.772,6 Feb 2025 03:20:13.007,446.236
178,6 Feb 2025 04:43:51.599,6 Feb 2025 04:55:24.858,693.259
179,6 Feb 2025 06:20:52.833,6 Feb 2025 06:27:03.584,370.751
180,6 Feb 2025 16:15:48.447,6 Feb 2025 16:24:44.435,535.988
181,6 Feb 2025 17:48:38.666,6 Feb 2025 17:59:59.900,681.234
182,6 Feb 2025 19:25:12.626,6 Feb 2025 19:29:05.090,232.464
183,7 Feb 2025 02:55:41.995,7 Feb 2025 03:00:26.753,284.759
184,7 Feb 2025 04:25:14.700,7 Feb 2025 04:36:39.859,685.159
185,7 Feb 2025 06:00:45.864,7 Feb 2025 06:09:20.285,514.421
186,7 Feb 2025 15:57:57.697,7 Feb 2025 16:04:46.199,408.502
187,7 Feb 2025 17:29:52.422,7 Feb 2025 17:41:25.427,693.005
188,7 Feb 2025 19:05:14.398,7 Feb 2025 19:12:13.755,419.357
189,8 Feb 2025 04:06:49.461,8 Feb 2025 04:17:48.867,659.405
190,8 Feb 2025 05:41:10.705,8 Feb 2025 05:51:11.168,600.463
191,8 Feb 2025 15:41:26.878,8 Feb 2025 15:43:21.724,114.846
192,8 Feb 2025 17:11:12.231,8 Feb 2025 17:22:39.336,687.105
193,8 Feb 2025 18:45:51.763,8 Feb 2025 18:54:39.994,528.231
194,9 Feb 2025 03:48:36.664,9 Feb 2025 03:58:51.276,614.612
195,9 Feb 2025 05:21:54.786,9 Feb 2025 05:32:48.528,653.742
196,9 Feb 2025 16:52:38.821,9 Feb 2025 17:03:40.970,662.149
197,9 Feb 2025 18:26:43.541,9 Feb 2025 18:36:45.327,601.786
198,10 Feb 2025 03:30:38.319,10 Feb 2025 03:39:45.340,547.021
199,10 Feb 2025 05:02:53.507,10 Feb 2025 05:14:16.805,683.298
200,10 Feb 2025 16:34:13.909,10 Feb 2025 16:44:28.573,614.664
201,10 Feb 2025 18:07:44.302,10 Feb 2025 18:18:35.506,651.204
202,11 Feb 2025 03:12:59.065,11 Feb 2025 03:20:26.718,447.653
203,11 Feb 2025 04:44:04.784,11 Feb 2025 04:55:38.034,693.250
204,11 Feb 2025 06:21:07.323,11 Feb 2025 06:27:15.793,368.470
205,11 Feb 2025 16:16:01.179,11 Feb 2025 16:24:58.314,537.134
206,11 Feb 2025 17:48:51.928,11 Feb 2025 18:00:12.919,680.991
207,11 Feb 2025 19:25:27.251,11 Feb 2025 19:29:16.375,229.125
208,12 Feb 2025 02:55:53.657,12 Feb 2025 03:00:41.013,287.357
209,12 Feb 2025 04:25:27.749,12 Feb 2025 04:36:53.105,685.356
210,12 Feb 2025 06:00:59.813,12 Feb 2025 06:09:32.964,513.151
211,12 Feb 2025 15:58:10.060,12 Feb 2025 16:05:00.519,410.460
212,12 Feb 2025 17:30:05.614,12 Feb 2025 17:41:38.584,692.970
213,12 Feb 2025 19:05:28.188,12 Feb 2025 19:12:25.955,417.767
214,13 Feb 2025 04:07:02.371,13 Feb 2025 04:18:02.186,659.815
215,13 Feb 2025 05:41:24.380,13 Feb 2025 05:51:24.050,599.670
216,13 Feb 2025 15:41:36.032,13 Feb 2025 15:43:39.325,123.293
217,13 Feb 2025 17:11:25.349,13 Feb 2025 17:22:52.630,687.281
218,13 Feb 2025 18:46:05.317,13 Feb 2025 18:54:52.506,527.189
219,14 Feb 2025 03:48:49.419,14 Feb 2025 03:59:04.678,615.260
220,14 Feb 2025 05:22:08.269,14 Feb 2025 05:33:01.536,653.266
221,14 Feb 2025 16:52:51.852,14 Feb 2025 17:03:54.415,662.563
222,14 Feb 2025 18:26:56.967,14 Feb 2025 18:36:58.041,601.074
223,15 Feb 2025 03:30:50.886,15 Feb 2025 03:39:58.857,547.971
224,15 Feb 2025 05:03:06.834,15 Feb 2025 05:14:29.904,683.070
225,15 Feb 2025 16:34:26.819,15 Feb 2025 16:44:42.200,615.381
226,15 Feb 2025 18:07:57.639,15 Feb 2025 18:18:48.377,650.738
227,16 Feb 2025 03:13:11.355,16 Feb 2025 03:20:40.436,449.081
228,16 Feb 2025 04:44:17.972,16 Feb 2025 04:55:51.209,693.238
229,16 Feb 2025 06:21:21.826,16 Feb 2025 06:27:27.987,366.161
230,16 Feb 2025 16:16:13.911,16 Feb 2025 16:25:12.189,538.279
231,16 Feb 2025 17:49:05.190,16 Feb 2025 18:00:25.936,680.746
232,16 Feb 2025 19:25:41.896,16 Feb 2025 19:29:27.636,225.740
233,17 Feb 2025 02:56:05.331,17 Feb 2025 03:00:55.264,289.932
234,17 Feb 2025 04:25:40.800,17 Feb 2025 04:37:06.350,685.550
235,17 Feb 2025 06:01:13.763,17 Feb 2025 06:09:45.634,511.871
236,17 Feb 2025 15:58:22.431,17 Feb 2025 16:05:14.832,412.400
237,17 Feb 2025 17:30:18.807,17 Feb 2025 17:41:51.738,692.931
238,17 Feb 2025 19:05:41.981,17 Feb 2025 19:12:38.153,416.172
239,18 Feb 2025 04:07:15.283,18 Feb 2025 04:18:15.505,660.223
240,18 Feb 2025 05:41:38.060,18 Feb 2025 05:51:36.930,598.870
241,18 Feb 2025 15:41:45.469,18 Feb 2025 15:43:56.650,131.181
242,18 Feb 2025 17:11:38.468,18 Feb 2025 17:23:05.922,687.454
243,18 Feb 2025 18:46:18.874,18 Feb 2025 18:55:05.017,526.142
244,19 Feb 2025 03:49:02.176,19 Feb 2025 03:59:18.076,615.900
245,19 Feb 2025 05:22:21.756,19 Feb 2025 05:33:14.543,652.787
246,19 Feb 2025 16:53:04.887,19 Feb 2025 17:04:07.860,662.973
247,19 Feb 2025 18:27:10.396,19 Feb 2025 18:37:10.755,600.359
248,20 Feb 2025 03:31:03.455,20 Feb 2025 03:40:12.374,548.920
249,20 Feb 2025 05:03:20.169,20 Feb 2025 05:14:43.003,682.835
250,20 Feb 2025 16:34:39.737,20 Feb 2025 16:44:55.822,616.085
251,20 Feb 2025 18:08:10.974,20 Feb 2025 18:19:01.253,650.279
252,21 Feb 2025 03:13:23.656,21 Feb 2025 03:20:54.148,450.492
253,21 Feb 2025 04:44:31.161,21 Feb 2025 04:56:04.385,693.224
254,21 Feb 2025 06:21:36.341,21 Feb 2025 06:27:40.176,363.835
255,21 Feb 2025 16:16:26.650,21 Feb 2025 16:25:26.062,539.411
256,21 Feb 2025 17:49:18.455,21 Feb 2025 18:00:38.954,680.499
257,21 Feb 2025 19:25:56.571,21 Feb 2025 19:29:38.868,222.297
258,22 Feb 2025 02:56:17.021,22 Feb 2025 03:01:09.503,292.482
259,22 Feb 2025 04:25:53.854,22 Feb 2025 04:37:19.596,685.742
260,22 Feb 2025 06:01:27.723,22 Feb 2025 06:09:58.306,510.583
261,22 Feb 2025 15:58:34.808,22 Feb 2025 16:05:29.138,414.330
262,22 Feb 2025 17:30:32.002,22 Feb 2025 17:42:04.891,692.889
263,22 Feb 2025 19:05:55.779,22 Feb 2025 19:12:50.346,414.566
264,23 Feb 2025 04:07:28.197,23 Feb 2025 04:18:28.824,660.626
265,23 Feb 2025 05:41:51.743,23 Feb 2025 05:51:49.810,598.067
266,23 Feb 2025 15:41:55.136,23 Feb 2025 15:44:13.741,138.606
267,23 Feb 2025 17:11:51.589,23 Feb 2025 17:23:19.214,687.625
268,23 Feb 2025 18:46:32.435,23 Feb 2025 18:55:17.521,525.086
269,24 Feb 2025 03:49:14.937,24 Feb 2025 03:59:31.483,616.546
270,24 Feb 2025 05:22:35.245,24 Feb 2025 05:33:27.551,652.306
271,24 Feb 2025 16:53:17.920,24 Feb 2025 17:04:21.301,663.381
272,24 Feb 2025 18:27:23.827,24 Feb 2025 18:37:23.466,599.639
273,25 Feb 2025 03:31:16.028,25 Feb 2025 03:40:25.890,549.861
274,25 Feb 2025 05:03:33.499,25 Feb 2025 05:14:56.102,682.603
275,25 Feb 2025 16:34:52.655,25 Feb 2025 16:45:09.446,616.791
276,25 Feb 2025 18:08:24.314,25 Feb 2025 18:19:14.126,649.812
277,26 Feb 2025 03:13:35.960,26 Feb 2025 03:21:07.854,451.894
278,26 Feb 2025 04:44:44.351,26 Feb 2025 04:56:17.560,693.208
279,26 Feb 2025 06:21:50.865,26 Feb 2025 06:27:52.357,361.491
280,26 Feb 2025 16:16:39.391,26 Feb 2025 16:25:39.929,540.538
281,26 Feb 2025 17:49:31.720,26 Feb 2025 18:00:51.968,680.249
282,26 Feb 2025 19:26:11.277,26 Feb 2025 19:29:50.068,218.791
283,27 Feb 2025 02:56:28.725,27 Feb 2025 03:01:23.727,295.002
284,27 Feb 2025 04:26:06.909,27 Feb 2025 04:37:32.840,685.931
285,27 Feb 2025 06:01:41.685,27 Feb 2025 06:10:10.974,509.289
286,27 Feb 2025 15:58:47.189,27 Feb 2025 16:05:43.435,416.246
287,27 Feb 2025 17:30:45.194,27 Feb 2025 17:42:18.041,692.848
288,27 Feb 2025 19:06:09.581,27 Feb 2025 19:13:02.532,412.951
289,28 Feb 2025 04:07:41.113,28 Feb 2025 04:18:42.139,661.027
290,28 Feb 2025 05:42:05.427,28 Feb 2025 05:52:02.687,597.260
291,28 Feb 2025 15:42:04.999,28 Feb 2025 15:44:30.632,145.633
292,28 Feb 2025 17:12:04.710,28 Feb 2025 17:23:32.503,687.793
293,28 Feb 2025 18:46:45.996,28 Feb 2025 18:55:30.026,524.030
294,1 Mar 2025 03:49:27.698,1 Mar 2025 03:59:44.882,617.184
295,1 Mar 2025 05:22:48.736,1 Mar 2025 05:33:40.556,651.820
296,1 Mar 2025 16:53:30.954,1 Mar 2025 17:04:34.742,663.788
297,1 Mar 2025 18:27:37.257,1 Mar 2025 18:37:36.175,598.917
298,2 Mar 2025 03:31:28.603,2 Mar 2025 03:40:39.403,550.800
299,2 Mar 2025 05:03:46.833,2 Mar 2025 05:15:09.199,682.366
300,2 Mar 2025 16:35:05.575,2 Mar 2025 16:45:23.068,617.492
301,2 Mar 2025 18:08:37.654,2 Mar 2025 18:19:26.994,649.340
302,3 Mar 2025 03:13:48.267,3 Mar 2025 03:21:21.559,453.292
303,3 Mar 2025 04:44:57.543,3 Mar 2025 04:56:30.733,693.190
304,3 Mar 2025 06:22:05.402,3 Mar 2025 06:28:04.522,359.120
305,3 Mar 2025 16:16:52.136,3 Mar 2025 16:25:53.793,541.657
306,3 Mar 2025 17:49:44.985,3 Mar 2025 18:01:04.986,680.001
307,3 Mar 2025 19:26:26.005,3 Mar 2025 19:30:01.239,215.234
308,4 Mar 2025 02:56:40.440,4 Mar 2025 03:01:37.946,297.505
309,4 Mar 2025 04:26:19.966,4 Mar 2025 04:37:46.084,686.118
310,4 Mar 2025 06:01:55.652,4 Mar 2025 06:10:23.638,507.986
311,4 Mar 2025 15:58:59.580,4 Mar 2025 16:05:57.730,418.150
312,4 Mar 2025 17:30:58.389,4 Mar 2025 17:42:31.191,692.802
313,4 Mar 2025 19:06:23.385,4 Mar 2025 19:13:14.719,411.334
314,5 Mar 2025 04:07:54.031,5 Mar 2025 04:18:55.456,661.425
315,5 Mar 2025 05:42:19.115,5 Mar 2025 05:52:15.562,596.447
316,5 Mar 2025 15:42:15.038,5 Mar 2025 15:44:47.353,152.315
317,5 Mar 2025 17:12:17.833,5 Mar 2025 17:23:45.793,687.960
318,5 Mar 2025 18:46:59.557,5 Mar 2025 18:55:42.528,522.972
319,6 Mar 2025 03:49:40.464,6 Mar 2025 03:59:58.282,617.819
320,6 Mar 2025 05:23:02.230,6 Mar 2025 05:33:53.560,651.330
321,6 Mar 2025 16:53:43.989,6 Mar 2025 17:04:48.182,664.193
322,6 Mar 2025 18:27:50.691,6 Mar 2025 18:37:48.881,598.190
323,7 Mar 2025 03:31:41.182,7 Mar 2025 03:40:52.917,551.735
324,7 Mar 2025 05:04:00.170,7 Mar 2025 05:15:22.297,682.127
325,7 Mar 2025 16:35:18.499,7 Mar 2025 16:45:36.688,618.189
326,7 Mar 2025 18:08:50.997,7 Mar 2025 18:19:39.868,648.871
327,8 Mar 2025 03:14:00.575,8 Mar 2025 03:21:35.258,454.683
328,8 Mar 2025 04:45:10.739,8 Mar 2025 04:56:43.907,693.169
329,8 Mar 2025 06:22:19.953,8 Mar 2025 06:28:16.681,356.728
330,8 Mar 2025 16:17:04.884,8 Mar 2025 16:26:07.655,542.771
331,8 Mar 2025 17:49:58.254,8 Mar 2025 18:01:18.000,679.746
332,8 Mar 2025 19:26:40.773,8 Mar 2025 19:30:12.376,211.603
333,9 Mar 2025 02:56:52.170,9 Mar 2025 03:01:52.148,299.978
334,9 Mar 2025 04:26:33.029,9 Mar 2025 04:37:59.332,686.302
335,9 Mar 2025 06:02:09.625,9 Mar 2025 06:10:36.305,506.680
336,9 Mar 2025 15:59:11.977,9 Mar 2025 16:06:12.014,420.037
337,9 Mar 2025 17:31:11.587,9 Mar 2025 17:42:44.340,692.753
338,9 Mar 2025 19:06:37.196,9 Mar 2025 19:13:26.896,409.700
339,10 Mar 2025 04:08:06.947,10 Mar 2025 04:19:08.771,661.824
340,10 Mar 2025 05:42:32.806,10 Mar 2025 05:52:28.432,595.626
341,10 Mar 2025 15:42:25.221,10 Mar 2025 15:45:03.927,158.707
342,10 Mar 2025 17:12:30.957,10 Mar 2025 17:23:59.080,688.123
343,10 Mar 2025 18:47:13.123,10 Mar 2025 18:55:55.028,521.905
344,11 Mar 2025 03:49:53.231,11 Mar 2025 04:00:11.681,618.450
345,11 Mar 2025 05:23:15.726,11 Mar 2025 05:34:06.563,650.837
346,11 Mar 2025 16:53:57.030,11 Mar 2025 17:05:01.620,664.590
347,11 Mar 2025 18:28:04.125,11 Mar 2025 18:38:01.589,597.464
348,12 Mar 2025 03:31:53.758,12 Mar 2025 03:41:06.428,552.670
349,12 Mar 2025 05:04:13.507,12 Mar 2025 05:15:35.392,681.886
350,12 Mar 2025 16:35:31.427,12 Mar 2025 16:45:50.304,618.877
351,12 Mar 2025 18:09:04.339,12 Mar 2025 18:19:52.736,648.397
352,13 Mar 2025 03:14:12.894,13 Mar 2025 03:21:48.956,456.062
353,13 Mar 2025 04:45:23.934,13 Mar 2025 04:56:57.075,693.141
354,13 Mar 2025 06:22:34.518,13 Mar 2025 06:28:28.829,354.311
355,13 Mar 2025 16:17:17.634,13 Mar 2025 16:26:21.512,543.878
356,13 Mar 2025 17:50:11.518,13 Mar 2025 18:01:31.010,679.492
357,13 Mar 2025 19:26:55.572,13 Mar 2025 19:30:23.477,207.905
358,14 Mar 2025 02:57:03.916,14 Mar 2025 03:02:06.338,302.422
359,14 Mar 2025 04:26:46.089,14 Mar 2025 04:38:12.570,686.481
360,14 Mar 2025 06:02:23.600,14 Mar 2025 06:10:48.963,505.363
361,14 Mar 2025 15:59:24.381,14 Mar 2025 16:06:26.289,421.909
362,14 Mar 2025 17:31:24.784,14 Mar 2025 17:42:57.483,692.699
363,14 Mar 2025 19:06:51.004,14 Mar 2025 19:13:39.068,408.063
364,15 Mar 2025 04:08:19.868,15 Mar 2025 04:19:22.085,662.217
365,15 Mar 2025 05:42:46.499,15 Mar 2025 05:52:41.303,594.804
366,15 Mar 2025 15:42:35.538,15 Mar 2025 15:45:20.365,164.827
367,15 Mar 2025 17:12:44.081,15 Mar 2025 17:24:12.363,688.282
368,15 Mar 2025 18:47:26.689,15 Mar 2025 18:56:07.525,520.836
369,16 Mar 2025 03:50:06.000,16 Mar 2025 04:00:25.078,619.079
370,16 Mar 2025 05:23:29.225,16 Mar 2025 05:34:19.564,650.338
371,16 Mar 2025 16:54:10.065,16 Mar 2025 17:05:15.053,664.988
372,16 Mar 2025 18:28:17.560,16 Mar 2025 18:38:14.292,596.733
373,17 Mar 2025 03:32:06.340,17 Mar 2025 03:41:19.938,553.598
374,17 Mar 2025 05:04:26.846,17 Mar 2025 05:15:48.487,681.641
375,17 Mar 2025 16:35:44.349,17 Mar 2025 16:46:03.917,619.569
376,17 Mar 2025 18:09:17.683,17 Mar 2025 18:20:05.602,647.920
377,18 Mar 2025 03:14:25.212,18 Mar 2025 03:22:02.655,457.443
378,18 Mar 2025 04:45:37.134,18 Mar 2025 04:57:10.246,693.113
379,18 Mar 2025 06:22:49.092,18 Mar 2025 06:28:40.961,351.869
380,18 Mar 2025 16:17:30.390,18 Mar 2025 16:26:35.363,544.974
381,18 Mar 2025 17:50:24.786,18 Mar 2025 18:01:44.019,679.233
382,18 Mar 2025 19:27:10.405,18 Mar 2025 19:30:34.546,204.141
383,19 Mar 2025 02:57:15.666,19 Mar 2025 03:02:20.520,304.854
384,19 Mar 2025 04:26:59.152,19 Mar 2025 04:38:25.812,686.660
385,19 Mar 2025 06:02:37.580,19 Mar 2025 06:11:01.614,504.034
386,19 Mar 2025 15:59:36.793,19 Mar 2025 16:06:40.558,423.765
387,19 Mar 2025 17:31:37.983,19 Mar 2025 17:43:10.628,692.645
388,19 Mar 2025 19:07:04.822,19 Mar 2025 19:13:51.236,406.414
389,20 Mar 2025 04:08:32.791,20 Mar 2025 04:19:35.399,662.608
390,20 Mar 2025 05:43:00.196,20 Mar 2025 05:52:54.173,593.977
391,20 Mar 2025 15:42:45.974,20 Mar 2025 15:45:36.685,170.711
392,20 Mar 2025 17:12:57.212,20 Mar 2025 17:24:25.648,688.436
393,20 Mar 2025 18:47:40.257,20 Mar 2025 18:56:20.023,519.765
394,21 Mar 2025 03:50:18.770,21 Mar 2025 04:00:38.476,619.706
395,21 Mar 2025 05:23:42.728,21 Mar 2025 05:34:32.564,649.836
396,21 Mar 2025 16:54:23.108,21 Mar 2025 17:05:28.488,665.380
397,21 Mar 2025 18:28:30.997,21 Mar 2025 18:38:26.995,595.998
398,22 Mar 2025 03:32:18.926,22 Mar 2025 03:41:33.448,554.522
399,22 Mar 2025 05:04:40.187,22 Mar 2025 05:16:01.581,681.394
400,22 Mar 2025 16:35:57.278,22 Mar 2025 16:46:17.530,620.252
401,22 Mar 2025 18:09:31.028,22 Mar 2025 18:20:18.468,647.440
402,23 Mar 2025 03:14:37.531,23 Mar 2025 03:22:16.349,458.818
403,23 Mar 2025 04:45:50.333,23 Mar 2025 04:57:23.418,693.085
404,23 Mar 2025 06:23:03.679,23 Mar 2025 06:28:53.084,349.405
405,23 Mar 2025 16:17:43.151,23 Mar 2025 16:26:49.213,546.063
406,23 Mar 2025 17:50:38.056,23 Mar 2025 18:01:57.028,678.971
407,23 Mar 2025 19:27:25.279,23 Mar 2025 19:30:45.574,200.296
408,24 Mar 2025 02:57:27.434,24 Mar 2025 03:02:34.691,307.257
409,24 Mar 2025 04:27:12.214,24 Mar 2025 04:38:39.054,686.840
410,24 Mar 2025 06:02:51.566,24 Mar 2025 06:11:14.265,502.698
411,24 Mar 2025 15:59:49.210,24 Mar 2025 16:06:54.820,425.610
412,24 Mar 2025 17:31:51.184,24 Mar 2025 17:43:23.772,692.588
413,24 Mar 2025 19:07:18.645,24 Mar 2025 19:14:03.398,404.753
414,25 Mar 2025 04:08:45.716,25 Mar 2025 04:19:48.712,662.996
415,25 Mar 2025 05:43:13.895,25 Mar 2025 05:53:07.041,593.146
416,25 Mar 2025 15:42:56.512,25 Mar 2025 15:45:52.903,176.391
417,25 Mar 2025 17:13:10.336,25 Mar 2025 17:24:38.933,688.597
418,25 Mar 2025 18:47:53.829,25 Mar 2025 18:56:32.513,518.684
419,26 Mar 2025 03:50:31.542,26 Mar 2025 04:00:51.872,620.330
420,26 Mar 2025 05:23:56.226,26 Mar 2025 05:34:45.563,649.337
421,26 Mar 2025 16:54:36.152,26 Mar 2025 17:05:41.919,665.767
422,26 Mar 2025 18:28:44.435,26 Mar 2025 18:38:39.694,595.260
423,27 Mar 2025 03:32:31.513,27 Mar 2025 03:41:46.950,555.436
424,27 Mar 2025 05:04:53.530,27 Mar 2025 05:16:14.674,681.144
425,27 Mar 2025 16:36:10.209,27 Mar 2025 16:46:31.139,620.931
426,27 Mar 2025 18:09:44.375,27 Mar 2025 18:20:31.331,646.956
427,28 Mar 2025 03:14:49.858,28 Mar 2025 03:22:30.041,460.184
428,28 Mar 2025 04:46:03.537,28 Mar 2025 04:57:36.588,693.051
429,28 Mar 2025 06:23:18.277,28 Mar 2025 06:29:05.195,346.918
430,28 Mar 2025 16:17:55.905,28 Mar 2025 16:27:03.061,547.156
431,28 Mar 2025 17:50:51.327,28 Mar 2025 18:02:10.033,678.707
432,28 Mar 2025 19:27:40.191,28 Mar 2025 19:30:56.561,196.370
433,29 Mar 2025 02:57:39.211,29 Mar 2025 03:02:48.849,309.639
434,29 Mar 2025 04:27:25.278,29 Mar 2025 04:38:52.294,687.015
435,29 Mar 2025 06:03:05.556,29 Mar 2025 06:11:26.912,501.356
436,29 Mar 2025 16:00:01.633,29 Mar 2025 16:07:09.073,427.440
437,29 Mar 2025 17:32:04.387,29 Mar 2025 17:43:36.914,692.527
438,29 Mar 2025 19:07:32.471,29 Mar 2025 19:14:15.554,403.083
439,30 Mar 2025 04:08:58.642,30 Mar 2025 04:20:02.024,663.382
440,30 Mar 2025 05:43:27.601,30 Mar 2025 05:53:19.908,592.307
441,30 Mar 2025 15:43:07.147,30 Mar 2025 15:46:09.020,181.873
442,30 Mar 2025 17:13:23.467,30 Mar 2025 17:24:52.213,688.745
443,30 Mar 2025 18:48:07.401,30 Mar 2025 18:56:45.002,517.601
444,31 Mar 2025 03:50:44.317,31 Mar 2025 04:01:05.267,620.950
445,31 Mar 2025 05:24:09.731,31 Mar 2025 05:34:58.560,648.828
446,31 Mar 2025 16:54:49.195,31 Mar 2025 17:05:55.351,666.156
447,31 Mar 2025 18:28:57.868,31 Mar 2025 18:38:52.392,594.524
448,1 Apr 2025 03:32:44.103,1 Apr 2025 03:42:00.457,556.353
449,1 Apr 2025 05:05:06.875,1 Apr 2025 05:16:27.766,680.892
450,1 Apr 2025 16:36:23.142,1 Apr 2025 16:46:44.746,621.604
451,1 Apr 2025 18:09:57.724,1 Apr 2025 18:20:44.193,646.469
452,2 Apr 2025 03:15:02.188,2 Apr 2025 03:22:43.733,461.545
453,2 Apr 2025 04:46:16.741,2 Apr 2025 04:57:49.757,693.017
454,2 Apr 2025 06:23:32.891,2 Apr 2025 06:29:17.292,344.401
455,2 Apr 2025 16:18:08.669,2 Apr 2025 16:27:16.907,548.237
456,2 Apr 2025 17:51:04.599,2 Apr 2025 18:02:23.039,678.440
457,2 Apr 2025 19:27:55.143,2 Apr 2025 19:31:07.511,192.368
458,3 Apr 2025 02:57:50.997,3 Apr 2025 03:03:03.002,312.004
459,3 Apr 2025 04:27:38.346,3 Apr 2025 04:39:05.534,687.188
460,3 Apr 2025 06:03:19.553,3 Apr 2025 06:11:39.559,500.006
461,3 Apr 2025 16:00:14.065,3 Apr 2025 16:07:23.321,429.256
462,3 Apr 2025 17:32:17.590,3 Apr 2025 17:43:50.056,692.465
463,3 Apr 2025 19:07:46.302,3 Apr 2025 19:14:27.707,401.405
464,4 Apr 2025 04:09:11.573,4 Apr 2025 04:20:15.334,663.761
465,4 Apr 2025 05:43:41.303,4 Apr 2025 05:53:32.775,591.472
466,4 Apr 2025 15:43:17.872,4 Apr 2025 15:46:25.052,187.181
467,4 Apr 2025 17:13:36.598,4 Apr 2025 17:25:05.492,688.895
468,4 Apr 2025 18:48:20.977,4 Apr 2025 18:56:57.490,516.513
469,5 Apr 2025 03:50:57.094,5 Apr 2025 04:01:18.662,621.568
470,5 Apr 2025 05:24:23.239,5 Apr 2025 05:35:11.557,648.318
471,5 Apr 2025 16:55:02.239,5 Apr 2025 17:06:08.782,666.543
472,5 Apr 2025 18:29:11.310,5 Apr 2025 18:39:05.089,593.779
473,6 Apr 2025 03:32:56.696,6 Apr 2025 03:42:13.962,557.266
474,6 Apr 2025 05:05:20.222,6 Apr 2025 05:16:40.859,680.636
475,6 Apr 2025 16:36:36.073,6 Apr 2025 16:46:58.352,622.279
476,6 Apr 2025 18:10:11.069,6 Apr 2025 18:20:57.050,645.981
477,7 Apr 2025 03:15:14.523,7 Apr 2025 03:22:57.420,462.897
478,7 Apr 2025 04:46:29.945,7 Apr 2025 04:58:02.926,692.981
479,7 Apr 2025 06:23:47.517,7 Apr 2025 06:29:29.379,341.862
480,7 Apr 2025 16:18:21.436,7 Apr 2025 16:27:30.750,549.314
481,7 Apr 2025 17:51:17.876,7 Apr 2025 18:02:36.038,678.162
482,7 Apr 2025 19:28:10.148,7 Apr 2025 19:31:18.410,188.262
483,8 Apr 2025 02:58:02.797,8 Apr 2025 03:03:17.142,314.345
484,8 Apr 2025 04:27:51.415,8 Apr 2025 04:39:18.773,687.358
485,8 Apr 2025 06:03:33.548,8 Apr 2025 06:11:52.199,498.651
486,8 Apr 2025 16:00:26.497,8 Apr 2025 16:07:37.557,431.060
487,8 Apr 2025 17:32:30.794,8 Apr 2025 17:44:03.195,692.401
488,8 Apr 2025 19:08:00.138,8 Apr 2025 19:14:39.852,399.715
489,9 Apr 2025 04:09:24.504,9 Apr 2025 04:20:28.644,664.140
490,9 Apr 2025 05:43:55.010,9 Apr 2025 05:53:45.637,590.627
491,9 Apr 2025 15:43:28.672,9 Apr 2025 15:46:41.003,192.331
492,9 Apr 2025 17:13:49.726,9 Apr 2025 17:25:18.769,689.043
493,9 Apr 2025 18:48:34.556,9 Apr 2025 18:57:09.975,515.418
494,10 Apr 2025 03:51:09.870,10 Apr 2025 04:01:32.055,622.185
495,10 Apr 2025 05:24:36.750,10 Apr 2025 05:35:24.551,647.802
496,10 Apr 2025 16:55:15.285,10 Apr 2025 17:06:22.207,666.922
497,10 Apr 2025 18:29:24.750,10 Apr 2025 18:39:17.782,593.032
498,11 Apr 2025 03:33:09.291,11 Apr 2025 03:42:27.465,558.174
499,11 Apr 2025 05:05:33.570,11 Apr 2025 05:16:53.948,680.378
500,11 Apr 2025 16:36:49.007,11 Apr 2025 16:47:11.953,622.946
501,11 Apr 2025 18:10:24.417,11 Apr 2025 18:21:09.906,645.490
502,12 Apr 2025 03:15:26.860,12 Apr 2025 03:23:11.101,464.240
503,12 Apr 2025 04:46:43.151,12 Apr 2025 04:58:16.093,692.942
504,12 Apr 2025 06:24:02.155,12 Apr 2025 06:29:41.450,339.295
505,12 Apr 2025 16:18:34.203,12 Apr 2025 16:27:44.586,550.383
506,12 Apr 2025 17:51:31.148,12 Apr 2025 18:02:49.039,677.891
507,12 Apr 2025 19:28:25.191,12 Apr 2025 19:31:29.262,184.071
508,13 Apr 2025 02:58:14.605,13 Apr 2025 03:03:31.276,316.671
509,13 Apr 2025 04:28:04.484,13 Apr 2025 04:39:32.010,687.526
510,13 Apr 2025 06:03:47.551,13 Apr 2025 06:12:04.833,497.282
511,13 Apr 2025 16:00:38.940,13 Apr 2025 16:07:51.789,432.849
512,13 Apr 2025 17:32:43.997,13 Apr 2025 17:44:16.332,692.335
513,13 Apr 2025 19:08:13.975,13 Apr 2025 19:14:51.993,398.018
514,14 Apr 2025 04:09:37.435,14 Apr 2025 04:20:41.955,664.520
515,14 Apr 2025 05:44:08.720,14 Apr 2025 05:53:58.496,589.776
516,14 Apr 2025 15:43:39.550,14 Apr 2025 15:46:56.877,197.327
517,14 Apr 2025 17:14:02.857,14 Apr 2025 17:25:32.043,689.186
518,14 Apr 2025 18:48:48.133,14 Apr 2025 18:57:22.455,514.322
519,15 Apr 2025 03:51:22.650,15 Apr 2025 04:01:45.447,622.797
520,15 Apr 2025 05:24:50.260,15 Apr 2025 05:35:37.544,647.284
521,15 Apr 2025 16:55:28.331,15 Apr 2025 17:06:35.632,667.301
522,15 Apr 2025 18:29:38.192,15 Apr 2025 18:39:30.474,592.282
523,16 Apr 2025 03:33:21.887,16 Apr 2025 03:42:40.968,559.080
524,16 Apr 2025 05:05:46.920,16 Apr 2025 05:17:07.037,680.117
525,16 Apr 2025 16:37:01.947,16 Apr 2025 16:47:25.553,623.606
526,16 Apr 2025 18:10:37.766,16 Apr 2025 18:21:22.764,644.998
527,17 Apr 2025 03:15:39.201,17 Apr 2025 03:23:24.780,465.578
528,17 Apr 2025 04:46:56.359,17 Apr 2025 04:58:29.260,692.901
529,17 Apr 2025 06:24:16.810,17 Apr 2025 06:29:53.508,336.699
530,17 Apr 2025 16:18:46.976,17 Apr 2025 16:27:58.420,551.444
531,17 Apr 2025 17:51:44.422,17 Apr 2025 18:03:02.039,677.617
532,17 Apr 2025 19:28:40.284,17 Apr 2025 19:31:40.064,179.780
533,18 Apr 2025 02:58:26.424,18 Apr 2025 03:03:45.398,318.974
534,18 Apr 2025 04:28:17.556,18 Apr 2025 04:39:45.249,687.693
535,18 Apr 2025 06:04:01.560,18 Apr 2025 06:12:17.464,495.904
536,18 Apr 2025 16:00:51.390,18 Apr 2025 16:08:06.015,434.625
537,18 Apr 2025 17:32:57.202,18 Apr 2025 17:44:29.468,692.267
538,18 Apr 2025 19:08:27.819,18 Apr 2025 19:15:04.129,396.310
539,19 Apr 2025 04:09:50.370,19 Apr 2025 04:20:55.266,664.896
540,19 Apr 2025 05:44:22.434,19 Apr 2025 05:54:11.353,588.920
541,19 Apr 2025 15:43:50.496,19 Apr 2025 15:47:12.685,202.189
542,19 Apr 2025 17:14:15.990,19 Apr 2025 17:25:45.317,689.327
543,19 Apr 2025 18:49:01.713,19 Apr 2025 18:57:34.934,513.220
544,20 Apr 2025 03:51:35.432,20 Apr 2025 04:01:58.836,623.404
545,20 Apr 2025 05:25:03.772,20 Apr 2025 05:35:50.536,646.764
546,20 Apr 2025 16:55:41.380,20 Apr 2025 17:06:49.056,667.676
547,20 Apr 2025 18:29:51.636,20 Apr 2025 18:39:43.164,591.529
548,21 Apr 2025 03:33:34.487,21 Apr 2025 03:42:54.469,559.982
549,21 Apr 2025 05:06:00.269,21 Apr 2025 05:17:20.129,679.860
550,21 Apr 2025 16:37:14.883,21 Apr 2025 16:47:39.151,624.268
551,21 Apr 2025 18:10:51.119,21 Apr 2025 18:21:35.620,644.501
552,22 Apr 2025 03:15:51.547,22 Apr 2025 03:23:38.458,466.911
553,22 Apr 2025 04:47:09.569,22 Apr 2025 04:58:42.426,692.857
554,22 Apr 2025 06:24:31.477,22 Apr 2025 06:30:05.554,334.077
555,22 Apr 2025 16:18:59.748,22 Apr 2025 16:28:12.250,552.503
556,22 Apr 2025 17:51:57.697,22 Apr 2025 18:03:15.038,677.340
557,22 Apr 2025 19:28:55.437,22 Apr 2025 19:31:50.807,175.370
558,23 Apr 2025 02:58:38.254,23 Apr 2025 03:03:59.512,321.257
559,23 Apr 2025 04:28:30.630,23 Apr 2025 04:39:58.486,687.857
560,23 Apr 2025 06:04:15.572,23 Apr 2025 06:12:30.092,494.520
561,23 Apr 2025 16:01:03.845,23 Apr 2025 16:08:20.235,436.390
562,23 Apr 2025 17:33:10.406,23 Apr 2025 17:44:42.602,692.196
563,23 Apr 2025 19:08:41.668,23 Apr 2025 19:15:16.258,394.590
564,24 Apr 2025 04:10:03.305,24 Apr 2025 04:21:08.574,665.269
565,24 Apr 2025 05:44:36.149,24 Apr 2025 05:54:24.209,588.060
566,24 Apr 2025 15:44:01.501,24 Apr 2025 15:47:28.431,206.930
567,24 Apr 2025 17:14:29.122,24 Apr 2025 17:25:58.588,689.467
568,24 Apr 2025 18:49:15.295,24 Apr 2025 18:57:47.408,512.113
569,25 Apr 2025 03:51:48.215,25 Apr 2025 04:02:12.226,624.010
570,25 Apr 2025 05:25:17.287,25 Apr 2025 05:36:03.526,646.239
571,25 Apr 2025 16:55:54.428,25 Apr 2025 17:07:02.475,668.048
572,25 Apr 2025 18:30:05.080,25 Apr 2025 18:39:55.851,590.771
573,26 Apr 2025 03:33:47.089,26 Apr 2025 03:43:07.968,560.879
574,26 Apr 2025 05:06:13.622,26 Apr 2025 05:17:33.215,679.593
575,26 Apr 2025 16:37:27.823,26 Apr 2025 16:47:52.746,624.922
576,26 Apr 2025 18:11:04.469,26 Apr 2025 18:21:48.473,644.004
577,27 Apr 2025 03:16:03.895,27 Apr 2025 03:23:52.133,468.238
578,27 Apr 2025 04:47:22.779,27 Apr 2025 04:58:55.590,692.811
579,27 Apr 2025 06:24:46.158,27 Apr 2025 06:30:17.585,331.427
580,27 Apr 2025 16:19:12.524,27 Apr 2025 16:28:26.076,553.552
581,27 Apr 2025 17:52:10.972,27 Apr 2025 18:03:28.034,677.062
582,27 Apr 2025 19:29:10.643,27 Apr 2025 19:32:01.492,170.849
583,28 Apr 2025 02:58:50.093,28 Apr 2025 03:04:13.615,323.522
584,28 Apr 2025 04:28:43.704,28 Apr 2025 04:40:11.721,688.017
585,28 Apr 2025 06:04:29.588,28 Apr 2025 06:12:42.715,493.126
586,28 Apr 2025 16:01:16.306,28 Apr 2025 16:08:34.446,438.140
587,28 Apr 2025 17:33:23.611,28 Apr 2025 17:44:55.734,692.123
588,28 Apr 2025 19:08:55.519,28 Apr 2025 19:15:28.383,392.864
589,29 Apr 2025 04:10:16.240,29 Apr 2025 04:21:21.881,665.640
590,29 Apr 2025 05:44:49.868,29 Apr 2025 05:54:37.061,587.193
591,29 Apr 2025 15:44:12.575,29 Apr 2025 15:47:44.113,211.538
592,29 Apr 2025 17:14:42.255,29 Apr 2025 17:26:11.855,689.600
593,29 Apr 2025 18:49:28.877,29 Apr 2025 18:57:59.881,511.004
594,30 Apr 2025 03:52:01.000,30 Apr 2025 04:02:25.615,624.615
595,30 Apr 2025 05:25:30.804,30 Apr 2025 05:36:16.514,645.710
596,30 Apr 2025 16:56:07.474,30 Apr 2025 17:07:15.890,668.416
597,30 Apr 2025 18:30:18.529,30 Apr 2025 18:40:08.535,590.006
598,1 May 2025 03:33:59.694,1 May 2025 03:43:21.469,561.775
599,1 May 2025 05:06:26.979,1 May 2025 05:17:46.300,679.321
600,1 May 2025 16:37:40.768,1 May 2025 16:48:06.339,625.571
601,1 May 2025 18:11:17.821,1 May 2025 18:22:01.325,643.504
602,2 May 2025 03:16:16.248,2 May 2025 03:24:05.812,469.564
603,2 May 2025 04:47:35.989,2 May 2025 04:59:08.759,692.770
604,2 May 2025 06:25:00.857,2 May 2025 06:30:29.597,328.740
605,2 May 2025 16:19:25.304,2 May 2025 16:28:39.900,554.596
606,2 May 2025 17:52:24.249,2 May 2025 18:03:41.029,676.781
607,2 May 2025 19:29:25.914,2 May 2025 19:32:12.114,166.199
608,3 May 2025 02:59:01.946,3 May 2025 03:04:27.706,325.760
609,3 May 2025 04:28:56.781,3 May 2025 04:40:24.955,688.174
610,3 May 2025 06:04:43.611,3 May 2025 06:12:55.334,491.723
611,3 May 2025 16:01:28.774,3 May 2025 16:08:48.653,439.879
612,3 May 2025 17:33:36.819,3 May 2025 17:45:08.867,692.048
613,3 May 2025 19:09:09.377,3 May 2025 19:15:40.502,391.125
614,4 May 2025 04:10:29.179,4 May 2025 04:21:35.188,666.009
615,4 May 2025 05:45:03.590,4 May 2025 05:54:49.912,586.323
616,4 May 2025 15:44:23.695,4 May 2025 15:47:59.742,216.047
617,4 May 2025 17:14:55.390,4 May 2025 17:26:25.124,689.734
618,4 May 2025 18:49:42.463,4 May 2025 18:58:12.350,509.887
619,5 May 2025 03:52:13.787,5 May 2025 04:02:39.006,625.219
620,5 May 2025 05:25:44.319,5 May 2025 05:36:29.499,645.181
621,5 May 2025 16:56:20.525,5 May 2025 17:07:29.308,668.783
622,5 May 2025 18:30:31.977,5 May 2025 18:40:21.219,589.243
623,6 May 2025 03:34:12.301,6 May 2025 03:43:34.965,562.663
624,6 May 2025 05:06:40.338,6 May 2025 05:17:59.385,679.047
625,6 May 2025 16:37:53.709,6 May 2025 16:48:19.929,626.220
626,6 May 2025 18:11:31.174,6 May 2025 18:22:14.173,642.999
627,7 May 2025 03:16:28.604,7 May 2025 03:24:19.481,470.876
628,7 May 2025 04:47:49.202,7 May 2025 04:59:21.921,692.719
629,7 May 2025 06:25:15.569,7 May 2025 06:30:41.601,326.032
630,7 May 2025 16:19:38.084,7 May 2025 16:28:53.719,555.635
631,7 May 2025 17:52:37.525,7 May 2025 18:03:54.022,676.497
632,7 May 2025 19:29:41.257,7 May 2025 19:32:22.659,161.402
633,8 May 2025 02:59:13.806,8 May 2025 03:04:41.794,327.989
634,8 May 2025 04:29:09.858,8 May 2025 04:40:38.188,688.329
635,8 May 2025 06:04:57.636,8 May 2025 06:13:07.949,490.312
636,8 May 2025 16:01:41.246,8 May 2025 16:09:02.851,441.605
637,8 May 2025 17:33:50.025,8 May 2025 17:45:21.996,691.971
638,8 May 2025 19:09:23.238,8 May 2025 19:15:52.613,389.375
639,9 May 2025 04:10:42.114,9 May 2025 04:21:48.491,666.376
640,9 May 2025 05:45:17.313,9 May 2025 05:55:02.759,585.447
641,9 May 2025 15:44:34.866,9 May 2025 15:48:15.315,220.449
642,9 May 2025 17:15:08.524,9 May 2025 17:26:38.390,689.865
643,9 May 2025 18:49:56.048,9 May 2025 18:58:24.815,508.767
644,10 May 2025 03:52:26.575,10 May 2025 04:02:52.388,625.813
645,10 May 2025 05:25:57.838,10 May 2025 05:36:42.484,644.646
646,10 May 2025 16:56:33.576,10 May 2025 17:07:42.719,669.143
647,10 May 2025 18:30:45.423,10 May 2025 18:40:33.900,588.477
648,11 May 2025 03:34:24.910,11 May 2025 03:43:48.458,563.548
649,11 May 2025 05:06:53.695,11 May 2025 05:18:12.467,678.772
650,11 May 2025 16:38:06.654,11 May 2025 16:48:33.516,626.862
651,11 May 2025 18:11:44.527,11 May 2025 18:22:27.019,642.492
652,12 May 2025 03:16:40.964,12 May 2025 03:24:33.147,472.183
653,12 May 2025 04:48:02.416,12 May 2025 04:59:35.082,692.665
654,12 May 2025 06:25:30.296,12 May 2025 06:30:53.586,323.290
655,12 May 2025 16:19:50.864,12 May 2025 16:29:07.534,556.671
656,12 May 2025 17:52:50.801,12 May 2025 18:04:07.013,676.211
657,12 May 2025 19:29:56.669,12 May 2025 19:32:33.133,156.464
658,13 May 2025 02:59:25.673,13 May 2025 03:04:55.871,330.198
659,13 May 2025 04:29:22.937,13 May 2025 04:40:51.420,688.484
660,13 May 2025 06:05:11.667,13 May 2025 06:13:20.558,488.892
661,13 May 2025 16:01:53.724,13 May 2025 16:09:17.044,443.319
662,13 May 2025 17:34:03.232,13 May 2025 17:45:35.124,691.892
663,13 May 2025 19:09:37.102,13 May 2025 19:16:04.720,387.617
664,14 May 2025 04:10:55.057,14 May 2025 04:22:01.791,666.734
665,14 May 2025 05:45:31.039,14 May 2025 05:55:15.604,584.566
666,14 May 2025 15:44:46.089,14 May 2025 15:48:30.835,224.746
667,14 May 2025 17:15:21.660,14 May 2025 17:26:51.654,689.994
668,14 May 2025 18:50:09.636,14 May 2025 18:58:37.278,507.642
669,15 May 2025 03:52:39.364,15 May 2025 04:03:05.778,626.414
670,15 May 2025 05:26:11.360,15 May 2025 05:36:55.467,644.107
671,15 May 2025 16:56:46.629,15 May 2025 17:07:56.133,669.504
672,15 May 2025 18:30:58.871,15 May 2025 18:40:46.579,587.708
673,16 May 2025 03:34:37.519,16 May 2025 03:44:01.951,564.432
674,16 May 2025 05:07:07.055,16 May 2025 05:18:25.548,678.493
675,16 May 2025 16:38:19.599,16 May 2025 16:48:47.098,627.499
676,16 May 2025 18:11:57.881,16 May 2025 18:22:39.865,641.984
677,17 May 2025 03:16:53.328,17 May 2025 03:24:46.808,473.480
678,17 May 2025 04:48:15.633,17 May 2025 04:59:48.242,692.609
679,17 May 2025 06:25:45.041,17 May 2025 06:31:05.557,320.516
680,17 May 2025 16:20:03.650,17 May 2025 16:29:21.347,557.697
681,17 May 2025 17:53:04.079,17 May 2025 18:04:20.006,675.926
682,17 May 2025 19:30:12.163,17 May 2025 19:32:43.525,151.362
683,18 May 2025 02:59:37.550,18 May 2025 03:05:09.940,332.389
684,18 May 2025 04:29:36.018,18 May 2025 04:41:04.654,688.636
685,18 May 2025 06:05:25.702,18 May 2025 06:13:33.165,487.462
686,18 May 2025 16:02:06.208,18 May 2025 16:09:31.229,445.021
687,18 May 2025 17:34:16.441,18 May 2025 17:45:48.248,691.808
688,18 May 2025 19:09:50.974,18 May 2025 19:16:16.820,385.846
689,19 May 2025 04:11:08.000,19 May 2025 04:22:15.099,667.099
690,19 May 2025 05:45:44.768,19 May 2025 05:55:28.449,583.681
691,19 May 2025 15:44:57.355,19 May 2025 15:48:46.317,228.962
692,19 May 2025 17:15:34.793,19 May 2025 17:27:04.917,690.124
693,19 May 2025 18:50:23.227,19 May 2025 18:58:49.739,506.512
694,20 May 2025 03:52:52.152,20 May 2025 04:03:19.163,627.010
695,20 May 2025 05:26:24.885,20 May 2025 05:37:08.450,643.565
696,20 May 2025 16:56:59.683,20 May 2025 17:08:09.542,669.859
697,20 May 2025 18:31:12.316,20 May 2025 18:40:59.255,586.940
698,21 May 2025 03:34:50.133,21 May 2025 03:44:15.442,565.309
699,21 May 2025 05:07:20.417,21 May 2025 05:18:38.629,678.212
700,21 May 2025 16:38:32.546,21 May 2025 16:49:00.681,628.135
701,21 May 2025 18:12:11.235,21 May 2025 18:22:52.707,641.472
702,22 May 2025 03:17:05.690,22 May 2025 03:25:00.469,474.779
703,22 May 2025 04:48:28.851,22 May 2025 05:00:01.402,692.551
704,22 May 2025 06:25:59.800,22 May 2025 06:31:17.514,317.714
705,22 May 2025 16:20:16.437,22 May 2025 16:29:35.152,558.715
706,22 May 2025 17:53:17.354,22 May 2025 18:04:32.994,675.640
707,22 May 2025 19:30:27.755,22 May 2025 19:32:53.818,146.062
708,23 May 2025 02:59:49.438,23 May 2025 03:05:23.997,334.559
709,23 May 2025 04:29:49.099,23 May 2025 04:41:17.886,688.787
710,23 May 2025 06:05:39.741,23 May 2025 06:13:45.767,486.026
711,23 May 2025 16:02:18.696,23 May 2025 16:09:45.408,446.712
712,23 May 2025 17:34:29.649,23 May 2025 17:46:01.373,691.724
713,23 May 2025 19:10:04.851,23 May 2025 19:16:28.913,384.062
714,24 May 2025 04:11:20.944,24 May 2025 04:22:28.400,667.457
715,24 May 2025 05:45:58.499,24 May 2025 05:55:41.290,582.791
716,24 May 2025 15:45:08.664,24 May 2025 15:49:01.750,233.086
717,24 May 2025 17:15:47.929,24 May 2025 17:27:18.177,690.248
718,24 May 2025 18:50:36.818,24 May 2025 18:59:02.195,505.377
719,25 May 2025 03:53:04.945,25 May 2025 04:03:32.545,627.600
720,25 May 2025 05:26:38.410,25 May 2025 05:37:21.430,643.020
721,25 May 2025 16:57:12.737,25 May 2025 17:08:22.951,670.215
722,25 May 2025 18:31:25.765,25 May 2025 18:41:11.928,586.164
723,26 May 2025 03:35:02.748,26 May 2025 03:44:28.931,566.183
724,26 May 2025 05:07:33.779,26 May 2025 05:18:51.707,677.928
725,26 May 2025 16:38:45.494,26 May 2025 16:49:14.260,628.765
726,26 May 2025 18:12:24.589,26 May 2025 18:23:05.548,640.958
727,27 May 2025 03:17:18.059,27 May 2025 03:25:14.128,476.069
728,27 May 2025 04:48:42.069,27 May 2025 05:00:14.559,692.490
729,27 May 2025 06:26:14.576,27 May 2025 06:31:29.451,314.875
730,27 May 2025 16:20:29.228,27 May 2025 16:29:48.957,559.730
731,27 May 2025 17:53:30.632,27 May 2025 18:04:45.979,675.348
732,27 May 2025 19:30:43.442,27 May 2025 19:33:04.013,140.570
733,28 May 2025 03:00:01.332,28 May 2025 03:05:38.049,336.717
734,28 May 2025 04:30:02.182,28 May 2025 04:41:31.115,688.933
735,28 May 2025 06:05:53.785,28 May 2025 06:13:58.364,484.578
736,28 May 2025 16:02:31.191,28 May 2025 16:09:59.582,448.391
737,28 May 2025 17:34:42.858,28 May 2025 17:46:14.494,691.636
738,28 May 2025 19:10:18.731,28 May 2025 19:16:41.002,382.271
739,29 May 2025 04:11:33.888,29 May 2025 04:22:41.701,667.813
740,29 May 2025 05:46:12.233,29 May 2025 05:55:54.128,581.895
741,29 May 2025 15:45:20.018,29 May 2025 15:49:17.140,237.122
742,29 May 2025 17:16:01.067,29 May 2025 17:27:31.438,690.371
743,29 May 2025 18:50:50.411,29 May 2025 18:59:14.649,504.238
744,30 May 2025 03:53:17.740,30 May 2025 04:03:45.927,628.187
745,30 May 2025 05:26:51.938,30 May 2025 05:37:34.409,642.470
746,30 May 2025 16:57:25.793,30 May 2025 17:08:36.359,670.566
747,30 May 2025 18:31:39.216,30 May 2025 18:41:24.601,585.385
748,31 May 2025 03:35:15.363,31 May 2025 03:44:42.419,567.056
749,31 May 2025 05:07:47.144,31 May 2025 05:19:04.785,677.641
750,31 May 2025 16:38:58.445,31 May 2025 16:49:27.838,629.393
751,31 May 2025 18:12:37.945,31 May 2025 18:23:18.387,640.442
752,1 Jun 2025 03:17:30.432,1 Jun 2025 03:25:27.785,477.353
753,1 Jun 2025 04:48:55.291,1 Jun 2025 05:00:27.717,692.426
754,1 Jun 2025 06:26:29.371,1 Jun 2025 06:31:41.374,312.003
755,1 Jun 2025 16:20:42.020,1 Jun 2025 16:30:02.758,560.738
756,1 Jun 2025 17:53:43.912,1 Jun 2025 18:04:58.964,675.052
757,1 Jun 2025 19:30:59.252,1 Jun 2025 19:33:14.087,134.835
758,2 Jun 2025 03:00:13.237,2 Jun 2025 03:05:52.087,338.850
759,2 Jun 2025 04:30:15.268,2 Jun 2025 04:41:44.339,689.071
760,2 Jun 2025 06:06:07.837,2 Jun 2025 06:14:10.954,483.118
761,2 Jun 2025 16:02:43.690,2 Jun 2025 16:10:13.745,450.055
762,2 Jun 2025 17:34:56.068,2 Jun 2025 17:46:27.616,691.547
763,2 Jun 2025 19:10:32.618,2 Jun 2025 19:16:53.083,380.465
764,3 Jun 2025 04:11:46.835,3 Jun 2025 04:22:55.001,668.166
765,3 Jun 2025 05:46:25.970,3 Jun 2025 05:56:06.965,580.995
766,3 Jun 2025 15:45:31.406,3 Jun 2025 15:49:32.493,241.087
767,3 Jun 2025 17:16:14.205,3 Jun 2025 17:27:44.696,690.491
768,3 Jun 2025 18:51:04.007,3 Jun 2025 18:59:27.099,503.092
769,4 Jun 2025 03:53:30.536,4 Jun 2025 04:03:59.307,628.771
770,4 Jun 2025 05:27:05.467,4 Jun 2025 05:37:47.386,641.919
771,4 Jun 2025 16:57:38.849,4 Jun 2025 17:08:49.763,670.915
772,4 Jun 2025 18:31:52.668,4 Jun 2025 18:41:37.270,584.602
773,5 Jun 2025 03:35:27.982,5 Jun 2025 03:44:55.899,567.917
774,5 Jun 2025 05:08:00.509,5 Jun 2025 05:19:17.861,677.352
775,5 Jun 2025 16:39:11.395,5 Jun 2025 16:49:41.414,630.019
776,5 Jun 2025 18:12:51.297,5 Jun 2025 18:23:31.223,639.926
777,6 Jun 2025 03:17:42.807,6 Jun 2025 03:25:41.437,478.630
778,6 Jun 2025 04:49:08.512,6 Jun 2025 05:00:40.871,692.360
779,6 Jun 2025 06:26:44.184,6 Jun 2025 06:31:53.280,309.096
780,6 Jun 2025 16:20:54.814,6 Jun 2025 16:30:16.557,561.743
781,6 Jun 2025 17:53:57.190,6 Jun 2025 18:05:11.945,674.754
782,6 Jun 2025 19:31:15.189,6 Jun 2025 19:33:24.029,128.840
783,7 Jun 2025 03:00:25.150,7 Jun 2025 03:06:06.120,340.969
784,7 Jun 2025 04:30:28.353,7 Jun 2025 04:41:57.565,689.212
785,7 Jun 2025 06:06:21.890,7 Jun 2025 06:14:23.542,481.652
786,7 Jun 2025 16:02:56.193,7 Jun 2025 16:10:27.903,451.710
787,7 Jun 2025 17:35:09.275,7 Jun 2025 17:46:40.734,691.459
788,7 Jun 2025 19:10:46.506,7 Jun 2025 19:17:05.156,378.650
789,8 Jun 2025 04:11:59.781,8 Jun 2025 04:23:08.298,668.517
790,8 Jun 2025 05:46:39.708,8 Jun 2025 05:56:19.798,580.090
791,8 Jun 2025 15:45:42.831,8 Jun 2025 15:49:47.804,244.973
792,8 Jun 2025 17:16:27.343,8 Jun 2025 17:27:57.950,690.607
793,8 Jun 2025 18:51:17.603,8 Jun 2025 18:59:39.545,501.942
794,9 Jun 2025 03:53:43.333,9 Jun 2025 04:04:12.685,629.352
795,9 Jun 2025 05:27:18.998,9 Jun 2025 05:38:00.358,641.360
796,9 Jun 2025 16:57:51.905,9 Jun 2025 17:09:03.164,671.259
797,9 Jun 2025 18:32:06.119,9 Jun 2025 18:41:49.936,583.816
798,10 Jun 2025 03:35:40.603,10 Jun 2025 03:45:09.382,568.780
799,10 Jun 2025 05:08:13.875,10 Jun 2025 05:19:30.935,677.060
800,10 Jun 2025 16:39:24.346,10 Jun 2025 16:49:54.985,630.639
801,10 Jun 2025 18:13:04.652,10 Jun 2025 18:23:44.054,639.401
802,11 Jun 2025 03:17:55.185,11 Jun 2025 03:25:55.087,479.902
803,11 Jun 2025 04:49:21.734,11 Jun 2025 05:00:54.025,692.291
804,11 Jun 2025 06:26:59.011,11 Jun 2025 06:32:05.166,306.155
805,11 Jun 2025 16:21:07.610,11 Jun 2025 16:30:30.352,562.742
806,11 Jun 2025 17:54:10.470,11 Jun 2025 18:05:24.924,674.454
807,11 Jun 2025 19:31:31.271,11 Jun 2025 19:33:33.824,122.552
808,12 Jun 2025 03:00:37.072,12 Jun 2025 03:06:20.150,343.078
809,12 Jun 2025 04:30:41.439,12 Jun 2025 04:42:10.792,689.353
810,12 Jun 2025 06:06:35.949,12 Jun 2025 06:14:36.127,480.179
811,12 Jun 2025 16:03:08.703,12 Jun 2025 16:10:42.056,453.354
812,12 Jun 2025 17:35:22.485,12 Jun 2025 17:46:53.849,691.364
813,12 Jun 2025 19:11:00.400,12 Jun 2025 19:17:17.225,376.825
814,13 Jun 2025 04:12:12.730,13 Jun 2025 04:23:21.595,668.865
815,13 Jun 2025 05:46:53.453,13 Jun 2025 05:56:32.629,579.176
816,13 Jun 2025 15:45:54.293,13 Jun 2025 15:50:03.080,248.787
817,13 Jun 2025 17:16:40.482,13 Jun 2025 17:28:11.203,690.721
818,13 Jun 2025 18:51:31.201,13 Jun 2025 18:59:51.988,500.787
819,14 Jun 2025 03:53:56.132,14 Jun 2025 04:04:26.063,629.930
820,14 Jun 2025 05:27:32.531,14 Jun 2025 05:38:13.332,640.801
821,14 Jun 2025 16:58:04.964,14 Jun 2025 17:09:16.563,671.600
822,14 Jun 2025 18:32:19.573,14 Jun 2025 18:42:02.600,583.027
823,15 Jun 2025 03:35:53.224,15 Jun 2025 03:45:22.870,569.645
824,15 Jun 2025 05:08:27.244,15 Jun 2025 05:19:44.008,676.764
825,15 Jun 2025 16:39:37.300,15 Jun 2025 16:50:08.555,631.256
826,15 Jun 2025 18:13:18.010,15 Jun 2025 18:23:56.886,638.877
827,16 Jun 2025 03:18:07.569,16 Jun 2025 03:26:08.736,481.167
828,16 Jun 2025 04:49:34.962,16 Jun 2025 05:01:07.175,692.213
829,16 Jun 2025 06:27:13.855,16 Jun 2025 06:32:17.035,303.181
830,16 Jun 2025 16:21:20.411,16 Jun 2025 16:30:44.145,563.734
831,16 Jun 2025 17:54:23.751,16 Jun 2025 18:05:37.903,674.151
832,16 Jun 2025 19:31:47.534,16 Jun 2025 19:33:43.438,115.904
833,17 Jun 2025 03:00:49.003,17 Jun 2025 03:06:34.165,345.162
834,17 Jun 2025 04:30:54.527,17 Jun 2025 04:42:24.016,689.489
835,17 Jun 2025 06:06:50.012,17 Jun 2025 06:14:48.708,478.696
836,17 Jun 2025 16:03:21.216,17 Jun 2025 16:10:56.204,454.988
837,17 Jun 2025 17:35:35.696,17 Jun 2025 17:47:06.965,691.269
838,17 Jun 2025 19:11:14.300,17 Jun 2025 19:17:29.285,374.985
839,18 Jun 2025 04:12:25.681,18 Jun 2025 04:23:34.891,669.210
840,18 Jun 2025 05:47:07.198,18 Jun 2025 05:56:45.458,578.260
841,18 Jun 2025 15:46:05.785,18 Jun 2025 15:50:18.324,252.539
842,18 Jun 2025 17:16:53.622,18 Jun 2025 17:28:24.454,690.832
843,18 Jun 2025 18:51:44.802,18 Jun 2025 19:00:04.428,499.626
844,19 Jun 2025 03:54:08.933,19 Jun 2025 04:04:39.438,630.505
845,19 Jun 2025 05:27:46.065,19 Jun 2025 05:38:26.304,640.239
846,19 Jun 2025 16:58:18.024,19 Jun 2025 17:09:29.960,671.936
847,19 Jun 2025 18:32:33.028,19 Jun 2025 18:42:15.261,582.234
848,20 Jun 2025 03:36:05.849,20 Jun 2025 03:45:36.349,570.500
849,20 Jun 2025 05:08:40.614,20 Jun 2025 05:19:57.080,676.467
850,20 Jun 2025 16:39:50.253,20 Jun 2025 16:50:22.122,631.869
851,20 Jun 2025 18:13:31.367,20 Jun 2025 18:24:09.716,638.349
852,21 Jun 2025 03:18:19.953,21 Jun 2025 03:26:22.378,482.425
853,21 Jun 2025 04:49:48.188,21 Jun 2025 05:01:20.326,692.138
854,21 Jun 2025 06:27:28.718,21 Jun 2025 06:32:28.887,300.168
855,21 Jun 2025 16:21:33.208,21 Jun 2025 16:30:57.932,564.724
856,21 Jun 2025 17:54:37.031,21 Jun 2025 18:05:50.877,673.846
857,21 Jun 2025 19:32:04.002,21 Jun 2025 19:33:52.841,108.839
858,22 Jun 2025 03:01:00.946,22 Jun 2025 03:06:48.176,347.230
859,22 Jun 2025 04:31:07.615,22 Jun 2025 04:42:37.240,689.625
860,22 Jun 2025 06:07:04.077,22 Jun 2025 06:15:01.282,477.205
861,22 Jun 2025 16:03:33.736,22 Jun 2025 16:11:10.347,456.612
862,22 Jun 2025 17:35:48.905,22 Jun 2025 17:47:20.076,691.171
863,22 Jun 2025 19:11:28.206,22 Jun 2025 19:17:41.334,373.129
864,23 Jun 2025 04:12:38.631,23 Jun 2025 04:23:48.184,669.553
865,23 Jun 2025 05:47:20.939,23 Jun 2025 05:56:58.284,577.344
866,23 Jun 2025 15:46:17.310,23 Jun 2025 15:50:33.531,256.221
867,23 Jun 2025 17:17:06.761,23 Jun 2025 17:28:37.701,690.940
868,23 Jun 2025 18:51:58.403,23 Jun 2025 19:00:16.864,498.461
869,24 Jun 2025 03:54:21.735,24 Jun 2025 04:04:52.812,631.077
870,24 Jun 2025 05:27:59.605,24 Jun 2025 05:38:39.273,639.668
871,24 Jun 2025 16:58:31.084,24 Jun 2025 17:09:43.354,672.270
872,24 Jun 2025 18:32:46.482,24 Jun 2025 18:42:27.920,581.438
873,25 Jun 2025 03:36:18.476,25 Jun 2025 03:45:49.827,571.351
874,25 Jun 2025 05:08:53.984,25 Jun 2025 05:20:10.150,676.166
875,25 Jun 2025 16:40:03.203,25 Jun 2025 16:50:35.685,632.482
876,25 Jun 2025 18:13:44.725,25 Jun 2025 18:24:22.544,637.819
877,26 Jun 2025 03:18:32.340,26 Jun 2025 03:26:36.019,483.679
878,26 Jun 2025 04:50:01.415,26 Jun 2025 05:01:33.476,692.061
879,26 Jun 2025 06:27:43.603,26 Jun 2025 06:32:40.721,297.118
880,26 Jun 2025 16:21:46.012,26 Jun 2025 16:31:11.717,565.705
881,26 Jun 2025 17:54:50.317,26 Jun 2025 18:06:03.851,673.534
882,26 Jun 2025 19:32:20.718,26 Jun 2025 19:34:02.001,101.283
883,27 Jun 2025 03:01:12.893,27 Jun 2025 03:07:02.179,349.286
884,27 Jun 2025 04:31:20.706,27 Jun 2025 04:42:50.464,689.759
885,27 Jun 2025 06:07:18.146,27 Jun 2025 06:15:13.852,475.707
886,27 Jun 2025 16:03:46.261,27 Jun 2025 16:11:24.482,458.221
887,27 Jun 2025 17:36:02.118,27 Jun 2025 17:47:33.187,691.069
888,27 Jun 2025 19:11:42.116,27 Jun 2025 19:17:53.382,371.266
889,28 Jun 2025 04:12:51.585,28 Jun 2025 04:24:01.478,669.894
890,28 Jun 2025 05:47:34.690,28 Jun 2025 05:57:11.108,576.418
891,28 Jun 2025 15:46:28.866,28 Jun 2025 15:50:48.709,259.843
892,28 Jun 2025 17:17:19.903,28 Jun 2025 17:28:50.948,691.046
893,28 Jun 2025 18:52:12.007,28 Jun 2025 19:00:29.297,497.290
894,29 Jun 2025 03:54:34.539,29 Jun 2025 04:05:06.183,631.644
895,29 Jun 2025 05:28:13.143,29 Jun 2025 05:38:52.242,639.099
896,29 Jun 2025 16:58:44.143,29 Jun 2025 17:09:56.747,672.604
897,29 Jun 2025 18:32:59.939,29 Jun 2025 18:42:40.572,580.633
898,30 Jun 2025 03:36:31.104,30 Jun 2025 03:46:03.299,572.195
899,30 Jun 2025 05:09:07.357,30 Jun 2025 05:20:23.220,675.862
900,30 Jun 2025 16:40:16.160,30 Jun 2025 16:50:49.247,633.088
901,30 Jun 2025 18:13:58.084,30 Jun 2025 18:24:35.370,637.286
902,1 Jul 2025 03:18:44.736,1 Jul 2025 03:26:49.657,484.920
903,1 Jul 2025 04:50:14.643,1 Jul 2025 05:01:46.626,691.983
904,1 Jul 2025 06:27:58.508,1 Jul 2025 06:32:52.534,294.026
905,1 Jul 2025 16:21:58.819,1 Jul 2025 16:31:25.493,566.675
906,1 Jul 2025 17:55:03.599,1 Jul 2025 18:06:16.823,673.224
907,1 Jul 2025 19:32:37.747,1 Jul 2025 19:34:10.842,93.095
908,2 Jul 2025 03:01:24.850,2 Jul 2025 03:07:16.172,351.322
909,2 Jul 2025 04:31:33.797,2 Jul 2025 04:43:03.685,689.888
910,2 Jul 2025 06:07:32.222,2 Jul 2025 06:15:26.419,474.197
911,2 Jul 2025 16:03:58.787,2 Jul 2025 16:11:38.605,459.818
912,2 Jul 2025 17:36:15.330,2 Jul 2025 17:47:46.291,690.961
913,2 Jul 2025 19:11:56.029,2 Jul 2025 19:18:05.423,369.394
914,3 Jul 2025 04:13:04.535,3 Jul 2025 04:24:14.769,670.234
915,3 Jul 2025 05:47:48.441,3 Jul 2025 05:57:23.930,575.488
916,3 Jul 2025 15:46:40.447,3 Jul 2025 15:51:03.857,263.410
917,3 Jul 2025 17:17:33.043,3 Jul 2025 17:29:04.192,691.149
918,3 Jul 2025 18:52:25.613,3 Jul 2025 19:00:41.726,496.112
919,4 Jul 2025 03:54:47.345,4 Jul 2025 04:05:19.554,632.209
920,4 Jul 2025 05:28:26.682,4 Jul 2025 05:39:05.208,638.526
921,4 Jul 2025 16:58:57.201,4 Jul 2025 17:10:10.137,672.935
922,4 Jul 2025 18:33:13.396,4 Jul 2025 18:42:53.225,579.829
923,5 Jul 2025 03:36:43.735,5 Jul 2025 03:46:16.773,573.037
924,5 Jul 2025 05:09:20.730,5 Jul 2025 05:20:36.287,675.556
925,5 Jul 2025 16:40:29.115,5 Jul 2025 16:51:02.805,633.690
926,5 Jul 2025 18:14:11.448,5 Jul 2025 18:24:48.192,636.744
927,6 Jul 2025 03:18:57.128,6 Jul 2025 03:27:03.289,486.162
928,6 Jul 2025 04:50:27.867,6 Jul 2025 05:01:59.777,691.910
929,6 Jul 2025 06:28:13.434,6 Jul 2025 06:33:04.326,290.891
930,6 Jul 2025 16:22:11.624,6 Jul 2025 16:31:39.270,567.646
931,6 Jul 2025 17:55:16.877,6 Jul 2025 18:06:29.788,672.911
932,6 Jul 2025 19:32:55.178,6 Jul 2025 19:34:19.284,84.106
933,7 Jul 2025 03:01:36.812,7 Jul 2025 03:07:30.156,353.344
934,7 Jul 2025 04:31:46.889,7 Jul 2025 04:43:16.904,690.015
935,7 Jul 2025 06:07:46.302,7 Jul 2025 06:15:38.980,472.678
936,7 Jul 2025 16:04:11.313,7 Jul 2025 16:11:52.726,461.413
937,7 Jul 2025 17:36:28.544,7 Jul 2025 17:47:59.396,690.852
938,7 Jul 2025 19:12:09.950,7 Jul 2025 19:18:17.455,367.505
939,8 Jul 2025 04:13:17.490,8 Jul 2025 04:24:28.059,670.569
940,8 Jul 2025 05:48:02.195,8 Jul 2025 05:57:36.748,574.553
941,8 Jul 2025 15:46:52.058,8 Jul 2025 15:51:18.973,266.914
942,8 Jul 2025 17:17:46.188,8 Jul 2025 17:29:17.434,691.246
943,8 Jul 2025 18:52:39.220,8 Jul 2025 19:00:54.151,494.931
944,9 Jul 2025 03:55:00.152,9 Jul 2025 04:05:32.923,632.771
945,9 Jul 2025 05:28:40.224,9 Jul 2025 05:39:18.173,637.949
946,9 Jul 2025 16:59:10.263,9 Jul 2025 17:10:23.524,673.261
947,9 Jul 2025 18:33:26.854,9 Jul 2025 18:43:05.877,579.023
948,10 Jul 2025 03:36:56.368,10 Jul 2025 03:46:30.245,573.877
949,10 Jul 2025 05:09:34.105,10 Jul 2025 05:20:49.353,675.247
950,10 Jul 2025 16:40:42.073,10 Jul 2025 16:51:16.361,634.288
951,10 Jul 2025 18:14:24.806,10 Jul 2025 18:25:01.018,636.212
952,11 Jul 2025 03:19:09.525,11 Jul 2025 03:27:16.921,487.396
953,11 Jul 2025 04:50:41.098,11 Jul 2025 05:02:12.924,691.826
954,11 Jul 2025 06:28:28.381,11 Jul 2025 06:33:16.096,287.716
955,11 Jul 2025 16:22:24.432,11 Jul 2025 16:31:53.044,568.611
956,11 Jul 2025 17:55:30.160,11 Jul 2025 18:06:42.756,672.596
957,11 Jul 2025 19:33:13.155,11 Jul 2025 19:34:27.171,74.015
958,12 Jul 2025 03:01:48.783,12 Jul 2025 03:07:44.135,355.352
959,12 Jul 2025 04:31:59.984,12 Jul 2025 04:43:30.122,690.139
960,12 Jul 2025 06:08:00.390,12 Jul 2025 06:15:51.536,471.146
961,12 Jul 2025 16:04:23.852,12 Jul 2025 16:12:06.843,462.991
962,12 Jul 2025 17:36:41.759,12 Jul 2025 17:48:12.501,690.742
963,12 Jul 2025 19:12:23.878,12 Jul 2025 19:18:29.480,365.603
964,13 Jul 2025 04:13:30.447,13 Jul 2025 04:24:41.349,670.902
965,13 Jul 2025 05:48:15.954,13 Jul 2025 05:57:49.565,573.612
966,13 Jul 2025 15:47:03.695,13 Jul 2025 15:51:34.062,270.367
967,13 Jul 2025 17:17:59.328,13 Jul 2025 17:29:30.674,691.347
968,13 Jul 2025 18:52:52.835,13 Jul 2025 19:01:06.578,493.743
969,14 Jul 2025 03:55:12.962,14 Jul 2025 04:05:46.293,633.331
970,14 Jul 2025 05:28:53.768,14 Jul 2025 05:39:31.137,637.369
971,14 Jul 2025 16:59:23.325,14 Jul 2025 17:10:36.911,673.585
972,14 Jul 2025 18:33:40.315,14 Jul 2025 18:43:18.530,578.216
973,15 Jul 2025 03:37:09.004,15 Jul 2025 03:46:43.717,574.713
974,15 Jul 2025 05:09:47.483,15 Jul 2025 05:21:02.419,674.936
975,15 Jul 2025 16:40:55.032,15 Jul 2025 16:51:29.913,634.880
976,15 Jul 2025 18:14:38.169,15 Jul 2025 18:25:13.838,635.669
977,16 Jul 2025 03:19:21.931,16 Jul 2025 03:27:30.550,488.619
978,16 Jul 2025 04:50:54.335,16 Jul 2025 05:02:26.066,691.732
