3UCubedIntegratedSim/Reports & Plots/Comms/Past Comms Data/SSU/CSV/Sat10.csv

"Access","Start Time (UTCG)","Stop Time (UTCG)","Duration (sec)"
1,1 Jan 2025 18:06:26.285,1 Jan 2025 18:17:48.892,682.607
2,1 Jan 2025 19:40:56.484,1 Jan 2025 19:50:06.375,549.890
3,2 Jan 2025 17:47:54.847,2 Jan 2025 17:58:47.137,652.290
4,2 Jan 2025 19:21:50.900,2 Jan 2025 19:32:07.461,616.561
5,3 Jan 2025 17:29:32.591,3 Jan 2025 17:39:30.640,598.048
6,3 Jan 2025 19:02:53.558,3 Jan 2025 19:13:54.196,660.638
7,4 Jan 2025 17:11:24.094,4 Jan 2025 17:19:54.656,510.562
8,4 Jan 2025 18:44:02.784,4 Jan 2025 18:55:28.532,685.748
9,4 Jan 2025 20:20:12.838,4 Jan 2025 20:25:05.407,292.570
10,5 Jan 2025 16:53:42.233,5 Jan 2025 16:59:46.028,363.795
11,5 Jan 2025 18:25:18.005,5 Jan 2025 18:36:51.224,693.219
12,5 Jan 2025 20:00:28.217,5 Jan 2025 20:07:58.753,450.536
13,6 Jan 2025 18:06:39.385,6 Jan 2025 18:18:02.217,682.832
14,6 Jan 2025 19:41:10.001,6 Jan 2025 19:50:18.948,548.947
15,7 Jan 2025 17:48:07.847,7 Jan 2025 17:59:00.627,652.780
16,7 Jan 2025 19:22:04.298,7 Jan 2025 19:32:20.219,615.920
17,8 Jan 2025 17:29:45.468,8 Jan 2025 17:39:44.321,598.853
18,8 Jan 2025 19:03:06.874,8 Jan 2025 19:14:07.109,660.235
19,9 Jan 2025 17:11:36.761,9 Jan 2025 17:20:08.610,511.849
20,9 Jan 2025 18:44:16.032,9 Jan 2025 18:55:41.587,685.555
21,9 Jan 2025 20:20:27.078,9 Jan 2025 20:25:17.089,290.011
22,10 Jan 2025 16:53:54.416,10 Jan 2025 17:00:00.543,366.127
23,10 Jan 2025 18:25:31.179,10 Jan 2025 18:37:04.412,693.233
24,10 Jan 2025 20:00:41.929,10 Jan 2025 20:08:11.049,449.119
25,11 Jan 2025 18:06:52.483,11 Jan 2025 18:18:15.547,683.064
26,11 Jan 2025 19:41:23.519,11 Jan 2025 19:50:31.516,547.997
27,12 Jan 2025 17:48:20.851,12 Jan 2025 17:59:14.113,653.262
28,12 Jan 2025 19:22:17.702,12 Jan 2025 19:32:32.975,615.273
29,13 Jan 2025 17:29:58.345,13 Jan 2025 17:39:57.999,599.655
30,13 Jan 2025 19:03:20.192,13 Jan 2025 19:14:20.019,659.828
31,14 Jan 2025 17:11:49.431,14 Jan 2025 17:20:22.563,513.132
32,14 Jan 2025 18:44:29.277,14 Jan 2025 18:55:54.636,685.359
33,14 Jan 2025 20:20:41.333,14 Jan 2025 20:25:28.759,287.426
34,15 Jan 2025 16:54:06.608,15 Jan 2025 17:00:15.047,368.439
35,15 Jan 2025 18:25:44.353,15 Jan 2025 18:37:17.598,693.244
36,15 Jan 2025 20:00:55.644,15 Jan 2025 20:08:23.339,447.695
37,16 Jan 2025 18:07:05.580,16 Jan 2025 18:18:28.873,683.293
38,16 Jan 2025 19:41:37.038,16 Jan 2025 19:50:44.080,547.042
39,17 Jan 2025 17:48:33.856,17 Jan 2025 17:59:27.596,653.740
40,17 Jan 2025 19:22:31.105,17 Jan 2025 19:32:45.728,614.623
41,18 Jan 2025 17:30:11.224,18 Jan 2025 17:40:11.674,600.451
42,18 Jan 2025 19:03:33.509,18 Jan 2025 19:14:32.928,659.419
43,19 Jan 2025 17:12:02.106,19 Jan 2025 17:20:36.512,514.406
44,19 Jan 2025 18:44:42.522,19 Jan 2025 18:56:07.684,685.162
45,19 Jan 2025 20:20:55.599,19 Jan 2025 20:25:40.417,284.818
46,20 Jan 2025 16:54:18.811,20 Jan 2025 17:00:29.539,370.728
47,20 Jan 2025 18:25:57.529,20 Jan 2025 18:37:30.782,693.253
48,20 Jan 2025 20:01:09.362,20 Jan 2025 20:08:35.627,446.265
49,21 Jan 2025 18:07:18.680,21 Jan 2025 18:18:42.199,683.519
50,21 Jan 2025 19:41:50.558,21 Jan 2025 19:50:56.643,546.085
51,22 Jan 2025 17:48:46.864,22 Jan 2025 17:59:41.079,654.214
52,22 Jan 2025 19:22:44.505,22 Jan 2025 19:32:58.481,613.976
53,23 Jan 2025 17:30:24.107,23 Jan 2025 17:40:25.349,601.242
54,23 Jan 2025 19:03:46.829,23 Jan 2025 19:14:45.836,659.007
55,24 Jan 2025 17:12:14.785,24 Jan 2025 17:20:50.458,515.673
56,24 Jan 2025 18:44:55.769,24 Jan 2025 18:56:20.731,684.962
57,24 Jan 2025 20:21:09.881,24 Jan 2025 20:25:52.061,282.181
58,25 Jan 2025 16:54:31.025,25 Jan 2025 17:00:44.022,372.997
59,25 Jan 2025 18:26:10.706,25 Jan 2025 18:37:43.966,693.260
60,25 Jan 2025 20:01:23.085,25 Jan 2025 20:08:47.911,444.826
61,26 Jan 2025 18:07:31.781,26 Jan 2025 18:18:55.524,683.743
62,26 Jan 2025 19:42:04.082,26 Jan 2025 19:51:09.204,545.122
63,27 Jan 2025 17:48:59.873,27 Jan 2025 17:59:54.559,654.686
64,27 Jan 2025 19:22:57.912,27 Jan 2025 19:33:11.232,613.320
65,28 Jan 2025 17:30:36.990,28 Jan 2025 17:40:39.020,602.030
66,28 Jan 2025 19:04:00.150,28 Jan 2025 19:14:58.742,658.593
67,29 Jan 2025 17:12:27.466,29 Jan 2025 17:21:04.400,516.934
68,29 Jan 2025 18:45:09.017,29 Jan 2025 18:56:33.779,684.762
69,29 Jan 2025 20:21:24.177,29 Jan 2025 20:26:03.688,279.511
70,30 Jan 2025 16:54:43.247,30 Jan 2025 17:00:58.495,375.247
71,30 Jan 2025 18:26:23.883,30 Jan 2025 18:37:57.148,693.264
72,30 Jan 2025 20:01:36.810,30 Jan 2025 20:09:00.189,443.379
73,31 Jan 2025 18:07:44.882,31 Jan 2025 18:19:08.848,683.966
74,31 Jan 2025 19:42:17.602,31 Jan 2025 19:51:21.761,544.160
75,1 Feb 2025 17:49:12.887,1 Feb 2025 18:00:08.034,655.147
76,1 Feb 2025 19:23:11.323,1 Feb 2025 19:33:23.980,612.658
77,2 Feb 2025 17:30:49.876,2 Feb 2025 17:40:52.688,602.813
78,2 Feb 2025 19:04:13.470,2 Feb 2025 19:15:11.646,658.176
79,3 Feb 2025 17:12:40.151,3 Feb 2025 17:21:18.337,518.187
80,3 Feb 2025 18:45:22.265,3 Feb 2025 18:56:46.823,684.558
81,3 Feb 2025 20:21:38.486,3 Feb 2025 20:26:15.302,276.816
82,4 Feb 2025 16:54:55.482,4 Feb 2025 17:01:12.956,377.475
83,4 Feb 2025 18:26:37.062,4 Feb 2025 18:38:10.328,693.266
84,4 Feb 2025 20:01:50.539,4 Feb 2025 20:09:12.465,441.926
85,5 Feb 2025 18:07:57.986,5 Feb 2025 18:19:22.170,684.184
86,5 Feb 2025 19:42:31.128,5 Feb 2025 19:51:34.318,543.190
87,6 Feb 2025 17:49:25.900,6 Feb 2025 18:00:21.512,655.612
88,6 Feb 2025 19:23:24.732,6 Feb 2025 19:33:36.728,611.996
89,7 Feb 2025 17:31:02.765,7 Feb 2025 17:41:06.356,603.592
90,7 Feb 2025 19:04:26.794,7 Feb 2025 19:15:24.551,657.757
91,8 Feb 2025 17:12:52.840,8 Feb 2025 17:21:32.273,519.433
92,8 Feb 2025 18:45:35.516,8 Feb 2025 18:56:59.867,684.350
93,8 Feb 2025 20:21:52.813,8 Feb 2025 20:26:26.900,274.087
94,9 Feb 2025 16:55:07.724,9 Feb 2025 17:01:27.410,379.686
95,9 Feb 2025 18:26:50.243,9 Feb 2025 18:38:23.508,693.265
96,9 Feb 2025 20:02:04.273,9 Feb 2025 20:09:24.737,440.464
97,10 Feb 2025 18:08:11.090,10 Feb 2025 18:19:35.489,684.399
98,10 Feb 2025 19:42:44.657,10 Feb 2025 19:51:46.871,542.214
99,11 Feb 2025 17:49:38.913,11 Feb 2025 18:00:34.987,656.074
100,11 Feb 2025 19:23:38.142,11 Feb 2025 19:33:49.473,611.331
101,12 Feb 2025 17:31:15.654,12 Feb 2025 17:41:20.020,604.366
102,12 Feb 2025 19:04:40.118,12 Feb 2025 19:15:37.456,657.338
103,13 Feb 2025 17:13:05.530,13 Feb 2025 17:21:46.203,520.672
104,13 Feb 2025 18:45:48.766,13 Feb 2025 18:57:12.907,684.141
105,13 Feb 2025 20:22:07.154,13 Feb 2025 20:26:38.481,271.327
106,14 Feb 2025 16:55:19.975,14 Feb 2025 17:01:41.852,381.877
107,14 Feb 2025 18:27:03.423,14 Feb 2025 18:38:36.685,693.262
108,14 Feb 2025 20:02:18.008,14 Feb 2025 20:09:37.003,438.995
109,15 Feb 2025 18:08:24.195,15 Feb 2025 18:19:48.806,684.612
110,15 Feb 2025 19:42:58.186,15 Feb 2025 19:51:59.421,541.235
111,16 Feb 2025 17:49:51.927,16 Feb 2025 18:00:48.460,656.532
112,16 Feb 2025 19:23:51.552,16 Feb 2025 19:34:02.217,610.664
113,17 Feb 2025 17:31:28.546,17 Feb 2025 17:41:33.681,605.136
114,17 Feb 2025 19:04:53.442,17 Feb 2025 19:15:50.355,656.914
115,18 Feb 2025 17:13:18.226,18 Feb 2025 17:22:00.132,521.906
116,18 Feb 2025 18:46:02.014,18 Feb 2025 18:57:25.949,683.935
117,18 Feb 2025 20:22:21.513,18 Feb 2025 20:26:50.047,268.534
118,19 Feb 2025 16:55:32.238,19 Feb 2025 17:01:56.285,384.048
119,19 Feb 2025 18:27:16.605,19 Feb 2025 18:38:49.862,693.257
120,19 Feb 2025 20:02:31.747,19 Feb 2025 20:09:49.267,437.520
121,20 Feb 2025 18:08:37.302,20 Feb 2025 18:20:02.123,684.821
122,20 Feb 2025 19:43:11.718,20 Feb 2025 19:52:11.971,540.252
123,21 Feb 2025 17:50:04.945,21 Feb 2025 18:01:01.929,656.985
124,21 Feb 2025 19:24:04.965,21 Feb 2025 19:34:14.959,609.994
125,22 Feb 2025 17:31:41.440,22 Feb 2025 17:41:47.342,605.902
126,22 Feb 2025 19:05:06.768,22 Feb 2025 19:16:03.255,656.486
127,23 Feb 2025 17:13:30.926,23 Feb 2025 17:22:14.056,523.130
128,23 Feb 2025 18:46:15.268,23 Feb 2025 18:57:38.988,683.721
129,23 Feb 2025 20:22:35.887,23 Feb 2025 20:27:01.595,265.708
130,24 Feb 2025 16:55:44.508,24 Feb 2025 17:02:10.710,386.202
131,24 Feb 2025 18:27:29.784,24 Feb 2025 18:39:03.038,693.254
132,24 Feb 2025 20:02:45.491,24 Feb 2025 20:10:01.526,436.035
133,25 Feb 2025 18:08:50.411,25 Feb 2025 18:20:15.434,685.023
134,25 Feb 2025 19:43:25.258,25 Feb 2025 19:52:24.515,539.257
135,26 Feb 2025 17:50:17.962,26 Feb 2025 18:01:15.404,657.442
136,26 Feb 2025 19:24:18.377,26 Feb 2025 19:34:27.699,609.322
137,27 Feb 2025 17:31:54.335,27 Feb 2025 17:42:00.999,606.664
138,27 Feb 2025 19:05:20.095,27 Feb 2025 19:16:16.151,656.056
139,28 Feb 2025 17:13:43.631,28 Feb 2025 17:22:27.976,524.346
140,28 Feb 2025 18:46:28.521,28 Feb 2025 18:57:52.029,683.508
141,28 Feb 2025 20:22:50.276,28 Feb 2025 20:27:13.123,262.847
142,1 Mar 2025 16:55:56.787,1 Mar 2025 17:02:25.124,388.337
143,1 Mar 2025 18:27:42.967,1 Mar 2025 18:39:16.210,693.244
144,1 Mar 2025 20:02:59.237,1 Mar 2025 20:10:13.780,434.543
145,2 Mar 2025 18:09:03.517,2 Mar 2025 18:20:28.746,685.230
146,2 Mar 2025 19:43:38.792,2 Mar 2025 19:52:37.058,538.265
147,3 Mar 2025 17:50:30.980,3 Mar 2025 18:01:28.871,657.890
148,3 Mar 2025 19:24:31.792,3 Mar 2025 19:34:40.437,608.645
149,4 Mar 2025 17:32:07.233,4 Mar 2025 17:42:14.653,607.420
150,4 Mar 2025 19:05:33.423,4 Mar 2025 19:16:29.047,655.624
151,5 Mar 2025 17:13:56.338,5 Mar 2025 17:22:41.887,525.550
152,5 Mar 2025 18:46:41.776,5 Mar 2025 18:58:05.066,683.290
153,5 Mar 2025 20:23:04.682,5 Mar 2025 20:27:24.637,259.955
154,6 Mar 2025 16:56:09.076,6 Mar 2025 17:02:39.530,390.454
155,6 Mar 2025 18:27:56.153,6 Mar 2025 18:39:29.383,693.231
156,6 Mar 2025 20:03:12.988,6 Mar 2025 20:10:26.032,433.044
157,7 Mar 2025 18:09:16.628,7 Mar 2025 18:20:42.059,685.431
158,7 Mar 2025 19:43:52.328,7 Mar 2025 19:52:49.600,537.272
159,8 Mar 2025 17:50:43.998,8 Mar 2025 18:01:42.338,658.340
160,8 Mar 2025 19:24:45.208,8 Mar 2025 19:34:53.174,607.966
161,9 Mar 2025 17:32:20.134,9 Mar 2025 17:42:28.307,608.173
162,9 Mar 2025 19:05:46.753,9 Mar 2025 19:16:41.942,655.189
163,10 Mar 2025 17:14:09.047,10 Mar 2025 17:22:55.800,526.754
164,10 Mar 2025 18:46:55.032,10 Mar 2025 18:58:18.101,683.069
165,10 Mar 2025 20:23:19.108,10 Mar 2025 20:27:36.130,257.022
166,11 Mar 2025 16:56:21.372,11 Mar 2025 17:02:53.927,392.554
167,11 Mar 2025 18:28:09.339,11 Mar 2025 18:39:42.554,693.215
168,11 Mar 2025 20:03:26.742,11 Mar 2025 20:10:38.278,431.535
169,12 Mar 2025 18:09:29.739,12 Mar 2025 18:20:55.369,685.630
170,12 Mar 2025 19:44:05.867,12 Mar 2025 19:53:02.138,536.270
171,13 Mar 2025 17:50:57.019,13 Mar 2025 18:01:55.798,658.779
172,13 Mar 2025 19:24:58.626,13 Mar 2025 19:35:05.908,607.282
173,14 Mar 2025 17:32:33.035,14 Mar 2025 17:42:41.956,608.921
174,14 Mar 2025 19:06:00.082,14 Mar 2025 19:16:54.833,654.751
175,15 Mar 2025 17:14:21.758,15 Mar 2025 17:23:09.708,527.950
176,15 Mar 2025 18:47:08.288,15 Mar 2025 18:58:31.134,682.846
177,15 Mar 2025 20:23:33.549,15 Mar 2025 20:27:47.603,254.054
178,16 Mar 2025 16:56:33.677,16 Mar 2025 17:03:08.312,394.635
179,16 Mar 2025 18:28:22.525,16 Mar 2025 18:39:55.722,693.198
180,16 Mar 2025 20:03:40.498,16 Mar 2025 20:10:50.519,430.021
181,17 Mar 2025 18:09:42.851,17 Mar 2025 18:21:08.677,685.826
182,17 Mar 2025 19:44:19.407,17 Mar 2025 19:53:14.674,535.267
183,18 Mar 2025 17:51:10.043,18 Mar 2025 18:02:09.260,659.217
184,18 Mar 2025 19:25:12.044,18 Mar 2025 19:35:18.640,606.596
185,19 Mar 2025 17:32:45.939,19 Mar 2025 17:42:55.603,609.664
186,19 Mar 2025 19:06:13.412,19 Mar 2025 19:17:07.724,654.312
187,20 Mar 2025 17:14:34.475,20 Mar 2025 17:23:23.612,529.137
188,20 Mar 2025 18:47:21.546,20 Mar 2025 18:58:44.166,682.620
189,20 Mar 2025 20:23:48.009,20 Mar 2025 20:27:59.055,251.046
190,21 Mar 2025 16:56:45.992,21 Mar 2025 17:03:22.691,396.699
191,21 Mar 2025 18:28:35.713,21 Mar 2025 18:40:08.890,693.177
192,21 Mar 2025 20:03:54.259,21 Mar 2025 20:11:02.757,428.499
193,22 Mar 2025 16:40:48.575,22 Mar 2025 16:41:24.351,35.776
194,22 Mar 2025 18:09:55.965,22 Mar 2025 18:21:21.985,686.020
195,22 Mar 2025 19:44:32.950,22 Mar 2025 19:53:27.208,534.258
196,23 Mar 2025 17:51:23.068,23 Mar 2025 18:02:22.721,659.653
197,23 Mar 2025 19:25:25.463,23 Mar 2025 19:35:31.372,605.909
198,24 Mar 2025 17:32:58.845,24 Mar 2025 17:43:09.249,610.404
199,24 Mar 2025 19:06:26.745,24 Mar 2025 19:17:20.614,653.869
200,25 Mar 2025 17:14:47.191,25 Mar 2025 17:23:37.512,530.322
201,25 Mar 2025 18:47:34.808,25 Mar 2025 18:58:57.193,682.384
202,25 Mar 2025 20:24:02.487,25 Mar 2025 20:28:10.492,248.004
203,26 Mar 2025 16:56:58.313,26 Mar 2025 17:03:37.061,398.748
204,26 Mar 2025 18:28:48.906,26 Mar 2025 18:40:22.056,693.150
205,26 Mar 2025 20:04:08.024,26 Mar 2025 20:11:14.990,426.966
206,27 Mar 2025 16:40:51.043,27 Mar 2025 16:41:48.655,57.611
207,27 Mar 2025 18:10:09.078,27 Mar 2025 18:21:35.291,686.213
208,27 Mar 2025 19:44:46.491,27 Mar 2025 19:53:39.739,533.248
209,28 Mar 2025 17:51:36.093,28 Mar 2025 18:02:36.178,660.085
210,28 Mar 2025 19:25:38.884,28 Mar 2025 19:35:44.100,605.216
211,29 Mar 2025 17:33:11.754,29 Mar 2025 17:43:22.891,611.137
212,29 Mar 2025 19:06:40.076,29 Mar 2025 19:17:33.500,653.424
213,30 Mar 2025 17:14:59.911,30 Mar 2025 17:23:51.408,531.497
214,30 Mar 2025 18:47:48.067,30 Mar 2025 18:59:10.221,682.154
215,30 Mar 2025 20:24:16.987,30 Mar 2025 20:28:21.904,244.917
216,31 Mar 2025 16:57:10.643,31 Mar 2025 17:03:51.420,400.777
217,31 Mar 2025 18:29:02.094,31 Mar 2025 18:40:35.220,693.125
218,31 Mar 2025 20:04:21.790,31 Mar 2025 20:11:27.218,425.428
219,1 Apr 2025 16:40:56.662,1 Apr 2025 16:42:09.800,73.138
220,1 Apr 2025 18:10:22.194,1 Apr 2025 18:21:48.592,686.398
221,1 Apr 2025 19:45:00.036,1 Apr 2025 19:53:52.268,532.232
222,2 Apr 2025 17:51:49.121,2 Apr 2025 18:02:49.635,660.514
223,2 Apr 2025 19:25:52.305,2 Apr 2025 19:35:56.827,604.522
224,3 Apr 2025 17:33:24.664,3 Apr 2025 17:43:36.531,611.867
225,3 Apr 2025 19:06:53.410,3 Apr 2025 19:17:46.387,652.976
226,4 Apr 2025 17:15:12.637,4 Apr 2025 17:24:05.302,532.665
227,4 Apr 2025 18:48:01.327,4 Apr 2025 18:59:23.249,681.921
228,4 Apr 2025 20:24:31.511,4 Apr 2025 20:28:33.296,241.785
229,5 Apr 2025 16:57:22.981,5 Apr 2025 17:04:05.773,402.792
230,5 Apr 2025 18:29:15.286,5 Apr 2025 18:40:48.384,693.098
231,5 Apr 2025 20:04:35.562,5 Apr 2025 20:11:39.443,423.881
232,6 Apr 2025 16:41:03.671,6 Apr 2025 16:42:29.562,85.892
233,6 Apr 2025 18:10:35.311,6 Apr 2025 18:22:01.895,686.585
234,6 Apr 2025 19:45:13.584,6 Apr 2025 19:54:04.794,531.211
235,7 Apr 2025 17:52:02.150,7 Apr 2025 18:03:03.090,660.940
236,7 Apr 2025 19:26:05.729,7 Apr 2025 19:36:09.552,603.823
237,8 Apr 2025 17:33:37.575,8 Apr 2025 17:43:50.169,612.594
238,8 Apr 2025 19:07:06.745,8 Apr 2025 19:17:59.270,652.526
239,9 Apr 2025 17:15:25.364,9 Apr 2025 17:24:19.191,533.828
240,9 Apr 2025 18:48:14.588,9 Apr 2025 18:59:36.274,681.686
241,9 Apr 2025 20:24:46.056,9 Apr 2025 20:28:44.662,238.605
242,10 Apr 2025 16:57:35.326,10 Apr 2025 17:04:20.116,404.791
243,10 Apr 2025 18:29:28.473,10 Apr 2025 18:41:01.544,693.071
244,10 Apr 2025 20:04:49.336,10 Apr 2025 20:11:51.661,422.325
245,11 Apr 2025 16:41:11.521,11 Apr 2025 16:42:48.475,96.954
246,11 Apr 2025 18:10:48.429,11 Apr 2025 18:22:15.195,686.766
247,11 Apr 2025 19:45:27.132,11 Apr 2025 19:54:17.316,530.185
248,12 Apr 2025 17:52:15.178,12 Apr 2025 18:03:16.541,661.362
249,12 Apr 2025 19:26:19.152,12 Apr 2025 19:36:22.274,603.122
250,13 Apr 2025 17:33:50.486,13 Apr 2025 17:44:03.803,613.316
251,13 Apr 2025 19:07:20.078,13 Apr 2025 19:18:12.152,652.073
252,14 Apr 2025 17:15:38.094,14 Apr 2025 17:24:33.075,534.981
253,14 Apr 2025 18:48:27.848,14 Apr 2025 18:59:49.297,681.449
254,14 Apr 2025 20:25:00.621,14 Apr 2025 20:28:56.006,235.385
255,15 Apr 2025 16:57:47.679,15 Apr 2025 17:04:34.450,406.771
256,15 Apr 2025 18:29:41.665,15 Apr 2025 18:41:14.703,693.038
257,15 Apr 2025 20:05:03.113,15 Apr 2025 20:12:03.876,420.763
258,16 Apr 2025 16:41:19.965,16 Apr 2025 16:43:06.800,106.835
259,16 Apr 2025 18:11:01.547,16 Apr 2025 18:22:28.493,686.946
260,16 Apr 2025 19:45:40.681,16 Apr 2025 19:54:29.837,529.156
261,17 Apr 2025 17:52:28.212,17 Apr 2025 18:03:29.990,661.778
262,17 Apr 2025 19:26:32.576,17 Apr 2025 19:36:34.995,602.419
263,18 Apr 2025 17:34:03.402,18 Apr 2025 17:44:17.435,614.033
264,18 Apr 2025 19:07:33.414,18 Apr 2025 19:18:25.032,651.618
265,19 Apr 2025 17:15:50.829,19 Apr 2025 17:24:46.957,536.128
266,19 Apr 2025 18:48:41.110,19 Apr 2025 19:00:02.319,681.209
267,19 Apr 2025 20:25:15.210,19 Apr 2025 20:29:07.325,232.115
268,20 Apr 2025 16:58:00.040,20 Apr 2025 17:04:48.777,408.737
269,20 Apr 2025 18:29:54.858,20 Apr 2025 18:41:27.861,693.003
270,20 Apr 2025 20:05:16.895,20 Apr 2025 20:12:16.090,419.196
271,21 Apr 2025 16:41:28.830,21 Apr 2025 16:43:24.697,115.867
272,21 Apr 2025 18:11:14.664,21 Apr 2025 18:22:41.788,687.125
273,21 Apr 2025 19:45:54.233,21 Apr 2025 19:54:42.355,528.122
274,22 Apr 2025 17:52:41.244,22 Apr 2025 18:03:43.439,662.194
275,22 Apr 2025 19:26:46.002,22 Apr 2025 19:36:47.713,601.712
276,23 Apr 2025 17:34:16.318,23 Apr 2025 17:44:31.065,614.747
277,23 Apr 2025 19:07:46.751,23 Apr 2025 19:18:37.911,651.160
278,24 Apr 2025 17:16:03.565,24 Apr 2025 17:25:00.835,537.270
279,24 Apr 2025 18:48:54.373,24 Apr 2025 19:00:15.340,680.967
280,24 Apr 2025 20:25:29.827,24 Apr 2025 20:29:18.616,228.788
281,25 Apr 2025 16:58:12.406,25 Apr 2025 17:05:03.095,410.689
282,25 Apr 2025 18:30:08.051,25 Apr 2025 18:41:41.016,692.965
283,25 Apr 2025 20:05:30.680,25 Apr 2025 20:12:28.294,417.614
284,26 Apr 2025 16:41:38.038,26 Apr 2025 16:43:42.253,124.215
285,26 Apr 2025 18:11:27.783,26 Apr 2025 18:22:55.083,687.301
286,26 Apr 2025 19:46:07.786,26 Apr 2025 19:54:54.869,527.083
287,27 Apr 2025 17:52:54.276,27 Apr 2025 18:03:56.884,662.608
288,27 Apr 2025 19:26:59.427,27 Apr 2025 19:37:00.429,601.002
289,28 Apr 2025 17:34:29.235,28 Apr 2025 17:44:44.691,615.456
290,28 Apr 2025 19:08:00.087,28 Apr 2025 19:18:50.787,650.700
291,29 Apr 2025 17:16:16.309,29 Apr 2025 17:25:14.708,538.399
292,29 Apr 2025 18:49:07.635,29 Apr 2025 19:00:28.358,680.723
293,29 Apr 2025 20:25:44.465,29 Apr 2025 20:29:29.883,225.417
294,30 Apr 2025 16:58:24.782,30 Apr 2025 17:05:17.405,412.622
295,30 Apr 2025 18:30:21.246,30 Apr 2025 18:41:54.170,692.924
296,30 Apr 2025 20:05:44.467,30 Apr 2025 20:12:40.494,416.027
297,1 May 2025 16:41:47.518,1 May 2025 16:43:59.532,132.014
298,1 May 2025 18:11:40.904,1 May 2025 18:23:08.377,687.474
299,1 May 2025 19:46:21.340,1 May 2025 19:55:07.382,526.042
300,2 May 2025 17:53:07.311,2 May 2025 18:04:10.329,663.018
301,2 May 2025 19:27:12.854,2 May 2025 19:37:13.144,600.290
302,3 May 2025 17:34:42.155,3 May 2025 17:44:58.316,616.161
303,3 May 2025 19:08:13.425,3 May 2025 19:19:03.662,650.237
304,4 May 2025 17:16:29.052,4 May 2025 17:25:28.579,539.527
305,4 May 2025 18:49:20.900,4 May 2025 19:00:41.375,680.476
306,4 May 2025 20:25:59.132,4 May 2025 20:29:41.119,221.987
307,5 May 2025 16:58:37.163,5 May 2025 17:05:31.707,414.544
308,5 May 2025 18:30:34.439,5 May 2025 18:42:07.323,692.884
309,5 May 2025 20:05:58.260,5 May 2025 20:12:52.689,414.428
310,6 May 2025 16:41:57.222,6 May 2025 16:44:16.588,139.366
311,6 May 2025 18:11:54.025,6 May 2025 18:23:21.669,687.644
312,6 May 2025 19:46:34.897,6 May 2025 19:55:19.890,524.994
313,7 May 2025 17:53:20.345,7 May 2025 18:04:23.771,663.425
314,7 May 2025 19:27:26.282,7 May 2025 19:37:25.855,599.573
315,8 May 2025 17:34:55.074,8 May 2025 17:45:11.937,616.863
316,8 May 2025 19:08:26.763,8 May 2025 19:19:16.534,649.771
317,9 May 2025 17:16:41.791,9 May 2025 17:25:42.440,540.649
318,9 May 2025 18:49:34.159,9 May 2025 19:00:54.393,680.234
319,9 May 2025 20:26:13.825,9 May 2025 20:29:52.321,218.496
320,10 May 2025 16:58:49.555,10 May 2025 17:05:46.000,416.445
321,10 May 2025 18:30:47.633,10 May 2025 18:42:20.473,692.840
322,10 May 2025 20:06:12.055,10 May 2025 20:13:04.877,412.822
323,11 May 2025 16:42:07.122,11 May 2025 16:44:33.445,146.323
324,11 May 2025 18:12:07.145,11 May 2025 18:23:34.957,687.812
325,11 May 2025 19:46:48.453,11 May 2025 19:55:32.396,523.943
326,12 May 2025 17:53:33.380,12 May 2025 18:04:37.209,663.829
327,12 May 2025 19:27:39.710,12 May 2025 19:37:38.564,598.854
328,13 May 2025 17:35:07.996,13 May 2025 17:45:25.555,617.559
329,13 May 2025 19:08:40.101,13 May 2025 19:19:29.404,649.303
330,14 May 2025 17:16:54.539,14 May 2025 17:25:56.301,541.763
331,14 May 2025 18:49:47.423,14 May 2025 19:01:07.406,679.983
332,14 May 2025 20:26:28.547,14 May 2025 20:30:03.498,214.951
333,15 May 2025 16:59:01.951,15 May 2025 17:06:00.285,418.335
334,15 May 2025 18:31:00.829,15 May 2025 18:42:33.621,692.792
335,15 May 2025 20:06:25.854,15 May 2025 20:13:17.062,411.208
336,16 May 2025 16:42:17.191,16 May 2025 16:44:50.135,152.944
337,16 May 2025 18:12:20.268,16 May 2025 18:23:48.244,687.976
338,16 May 2025 19:47:02.011,16 May 2025 19:55:44.899,522.888
339,17 May 2025 17:53:46.417,17 May 2025 18:04:50.647,664.230
340,17 May 2025 19:27:53.139,17 May 2025 19:37:51.272,598.133
341,18 May 2025 17:35:20.920,18 May 2025 17:45:39.171,618.252
342,18 May 2025 19:08:53.441,18 May 2025 19:19:42.273,648.833
343,19 May 2025 17:17:07.289,19 May 2025 17:26:10.159,542.871
344,19 May 2025 18:50:00.689,19 May 2025 19:01:20.417,679.729
345,19 May 2025 20:26:43.305,19 May 2025 20:30:14.640,211.335
346,20 May 2025 16:59:14.351,20 May 2025 17:06:14.564,420.213
347,20 May 2025 18:31:14.026,20 May 2025 18:42:46.768,692.742
348,20 May 2025 20:06:39.658,20 May 2025 20:13:29.241,409.583
349,21 May 2025 16:42:27.398,21 May 2025 16:45:06.683,159.285
350,21 May 2025 18:12:33.391,21 May 2025 18:24:01.525,688.134
351,21 May 2025 19:47:15.573,21 May 2025 19:55:57.399,521.826
352,22 May 2025 17:53:59.455,22 May 2025 18:05:04.080,664.626
353,22 May 2025 19:28:06.565,22 May 2025 19:38:03.976,597.411
354,23 May 2025 17:35:33.843,23 May 2025 17:45:52.784,618.941
355,23 May 2025 19:09:06.781,23 May 2025 19:19:55.139,648.359
356,24 May 2025 17:17:20.040,24 May 2025 17:26:24.013,543.973
357,24 May 2025 18:50:13.953,24 May 2025 19:01:33.426,679.472
358,24 May 2025 20:26:58.094,24 May 2025 20:30:25.747,207.653
359,25 May 2025 16:59:26.758,25 May 2025 17:06:28.833,422.075
360,25 May 2025 18:31:27.217,25 May 2025 18:42:59.912,692.695
361,25 May 2025 20:06:53.464,25 May 2025 20:13:41.413,407.949
362,26 May 2025 16:42:37.739,26 May 2025 16:45:23.095,165.356
363,26 May 2025 18:12:46.514,26 May 2025 18:24:14.810,688.297
364,26 May 2025 19:47:29.133,26 May 2025 19:56:09.895,520.762
365,27 May 2025 17:54:12.492,27 May 2025 18:05:17.513,665.020
366,27 May 2025 19:28:19.995,27 May 2025 19:38:16.679,596.683
367,28 May 2025 17:35:46.772,28 May 2025 17:46:06.394,619.623
368,28 May 2025 19:09:20.121,28 May 2025 19:20:08.004,647.883
369,29 May 2025 17:17:32.795,29 May 2025 17:26:37.862,545.067
370,29 May 2025 18:50:27.219,29 May 2025 19:01:46.433,679.214
371,29 May 2025 20:27:12.916,29 May 2025 20:30:36.823,203.908
372,30 May 2025 16:59:39.172,30 May 2025 17:06:43.091,423.919
373,30 May 2025 18:31:40.418,30 May 2025 18:43:13.059,692.641
374,30 May 2025 20:07:07.278,30 May 2025 20:13:53.577,406.300
375,31 May 2025 16:42:48.194,31 May 2025 16:45:39.394,171.200
376,31 May 2025 18:12:59.640,31 May 2025 18:24:28.092,688.452
377,31 May 2025 19:47:42.697,31 May 2025 19:56:22.390,519.693
378,1 Jun 2025 17:54:25.532,1 Jun 2025 18:05:30.945,665.413
379,1 Jun 2025 19:28:33.428,1 Jun 2025 19:38:29.379,595.951
380,2 Jun 2025 17:35:59.699,2 Jun 2025 17:46:20.003,620.304
381,2 Jun 2025 19:09:33.463,2 Jun 2025 19:20:20.867,647.404
382,3 Jun 2025 17:17:45.552,3 Jun 2025 17:26:51.709,546.158
383,3 Jun 2025 18:50:40.486,3 Jun 2025 19:01:59.439,678.952
384,3 Jun 2025 20:27:27.779,3 Jun 2025 20:30:47.855,200.075
385,4 Jun 2025 16:59:51.590,4 Jun 2025 17:06:57.347,425.757
386,4 Jun 2025 18:31:53.615,4 Jun 2025 18:43:26.200,692.585
387,4 Jun 2025 20:07:21.094,4 Jun 2025 20:14:05.739,404.645
388,5 Jun 2025 16:42:58.750,5 Jun 2025 16:45:55.590,176.840
389,5 Jun 2025 18:13:12.764,5 Jun 2025 18:24:41.370,688.606
390,5 Jun 2025 19:47:56.263,5 Jun 2025 19:56:34.880,518.618
391,6 Jun 2025 17:54:38.571,6 Jun 2025 18:05:44.373,665.802
392,6 Jun 2025 19:28:46.860,6 Jun 2025 19:38:42.076,595.216
393,7 Jun 2025 17:36:12.626,7 Jun 2025 17:46:33.607,620.981
394,7 Jun 2025 19:09:46.804,7 Jun 2025 19:20:33.726,646.922
395,8 Jun 2025 17:17:58.310,8 Jun 2025 17:27:05.551,547.241
396,8 Jun 2025 18:50:53.752,8 Jun 2025 19:02:12.441,678.688
397,8 Jun 2025 20:27:42.678,8 Jun 2025 20:30:58.846,196.167
398,9 Jun 2025 17:00:04.015,9 Jun 2025 17:07:11.595,427.580
399,9 Jun 2025 18:32:06.812,9 Jun 2025 18:43:39.338,692.526
400,9 Jun 2025 20:07:34.912,9 Jun 2025 20:14:17.895,402.983
401,10 Jun 2025 16:43:09.398,10 Jun 2025 16:46:11.688,182.290
402,10 Jun 2025 18:13:25.888,10 Jun 2025 18:24:54.645,688.757
403,10 Jun 2025 19:48:09.833,10 Jun 2025 19:56:47.369,517.537
404,11 Jun 2025 17:54:51.612,11 Jun 2025 18:05:57.797,666.185
405,11 Jun 2025 19:29:00.293,11 Jun 2025 19:38:54.771,594.478
406,12 Jun 2025 17:36:25.555,12 Jun 2025 17:46:47.209,621.654
407,12 Jun 2025 19:10:00.145,12 Jun 2025 19:20:46.584,646.439
408,13 Jun 2025 17:18:11.071,13 Jun 2025 17:27:19.389,548.317
409,13 Jun 2025 18:51:07.020,13 Jun 2025 19:02:25.442,678.422
410,13 Jun 2025 20:27:57.619,13 Jun 2025 20:31:09.795,192.176
411,14 Jun 2025 17:00:16.446,14 Jun 2025 17:07:25.836,429.390
412,14 Jun 2025 18:32:20.010,14 Jun 2025 18:43:52.475,692.465
413,14 Jun 2025 20:07:48.735,14 Jun 2025 20:14:30.046,401.311
414,15 Jun 2025 16:43:20.133,15 Jun 2025 16:46:27.702,187.569
415,15 Jun 2025 18:13:39.015,15 Jun 2025 18:25:07.920,688.905
416,15 Jun 2025 19:48:23.400,15 Jun 2025 19:56:59.854,516.454
417,16 Jun 2025 17:55:04.653,16 Jun 2025 18:06:11.222,666.569
418,16 Jun 2025 19:29:13.729,16 Jun 2025 19:39:07.465,593.736
419,17 Jun 2025 17:36:38.485,17 Jun 2025 17:47:00.810,622.324
420,17 Jun 2025 19:10:13.489,17 Jun 2025 19:20:59.441,645.952
421,18 Jun 2025 17:18:23.835,18 Jun 2025 17:27:33.224,549.390
422,18 Jun 2025 18:51:20.288,18 Jun 2025 19:02:38.442,678.154
423,18 Jun 2025 20:28:12.608,18 Jun 2025 20:31:20.695,188.087
424,19 Jun 2025 17:00:28.881,19 Jun 2025 17:07:40.068,431.187
425,19 Jun 2025 18:32:33.209,19 Jun 2025 18:44:05.610,692.401
426,19 Jun 2025 20:08:02.564,19 Jun 2025 20:14:42.190,399.626
427,20 Jun 2025 16:43:30.943,20 Jun 2025 16:46:43.637,192.694
428,20 Jun 2025 18:13:52.140,20 Jun 2025 18:25:21.192,689.051
429,20 Jun 2025 19:48:36.972,20 Jun 2025 19:57:12.334,515.362
430,21 Jun 2025 17:55:17.694,21 Jun 2025 18:06:24.643,666.949
431,21 Jun 2025 19:29:27.163,21 Jun 2025 19:39:20.154,592.991
432,22 Jun 2025 17:36:51.416,22 Jun 2025 17:47:14.406,622.990
433,22 Jun 2025 19:10:26.832,22 Jun 2025 19:21:12.294,645.462
434,23 Jun 2025 17:18:36.601,23 Jun 2025 17:27:47.054,550.453
435,23 Jun 2025 18:51:33.555,23 Jun 2025 19:02:51.438,677.883
436,23 Jun 2025 20:28:27.641,23 Jun 2025 20:31:31.548,183.908
437,24 Jun 2025 17:00:41.323,24 Jun 2025 17:07:54.294,432.971
438,24 Jun 2025 18:32:46.407,24 Jun 2025 18:44:18.742,692.335
439,24 Jun 2025 20:08:16.394,24 Jun 2025 20:14:54.328,397.934
440,25 Jun 2025 16:43:41.829,25 Jun 2025 16:46:59.496,197.666
441,25 Jun 2025 18:14:05.267,25 Jun 2025 18:25:34.462,689.195
442,25 Jun 2025 19:48:50.542,25 Jun 2025 19:57:24.811,514.269
443,26 Jun 2025 17:55:30.737,26 Jun 2025 18:06:38.063,667.326
444,26 Jun 2025 19:29:40.599,26 Jun 2025 19:39:32.843,592.243
445,27 Jun 2025 17:37:04.349,27 Jun 2025 17:47:28.000,623.651
446,27 Jun 2025 19:10:40.176,27 Jun 2025 19:21:25.146,644.970
447,28 Jun 2025 17:18:49.373,28 Jun 2025 17:28:00.882,551.510
448,28 Jun 2025 18:51:46.825,28 Jun 2025 19:03:04.434,677.609
449,28 Jun 2025 20:28:42.726,28 Jun 2025 20:31:42.350,179.623
450,29 Jun 2025 17:00:53.771,29 Jun 2025 17:08:08.513,434.742
451,29 Jun 2025 18:32:59.607,29 Jun 2025 18:44:31.874,692.267
452,29 Jun 2025 20:08:30.232,29 Jun 2025 20:15:06.461,396.230
453,30 Jun 2025 16:43:52.779,30 Jun 2025 16:47:15.290,202.512
454,30 Jun 2025 18:14:18.395,30 Jun 2025 18:25:47.731,689.336
455,30 Jun 2025 19:49:04.117,30 Jun 2025 19:57:37.286,513.169
456,1 Jul 2025 17:55:43.783,1 Jul 2025 18:06:51.481,667.698
457,1 Jul 2025 19:29:54.038,1 Jul 2025 19:39:45.528,591.491
458,2 Jul 2025 17:37:17.282,2 Jul 2025 17:47:41.592,624.310
459,2 Jul 2025 19:10:53.522,2 Jul 2025 19:21:37.996,644.475
460,3 Jul 2025 17:19:02.141,3 Jul 2025 17:28:14.707,552.566
461,3 Jul 2025 18:52:00.094,3 Jul 2025 19:03:17.427,677.333
462,3 Jul 2025 20:28:57.870,3 Jul 2025 20:31:53.090,175.220
463,4 Jul 2025 17:01:06.221,4 Jul 2025 17:08:22.726,436.504
464,4 Jul 2025 18:33:12.807,4 Jul 2025 18:44:45.003,692.196
465,4 Jul 2025 20:08:44.073,4 Jul 2025 20:15:18.591,394.518
466,5 Jul 2025 16:44:03.788,5 Jul 2025 16:47:31.020,207.232
467,5 Jul 2025 18:14:31.522,5 Jul 2025 18:26:00.996,689.474
468,5 Jul 2025 19:49:17.692,5 Jul 2025 19:57:49.756,512.064
469,6 Jul 2025 17:55:56.826,6 Jul 2025 18:07:04.895,668.069
470,6 Jul 2025 19:30:07.475,6 Jul 2025 19:39:58.209,590.734
471,7 Jul 2025 17:37:30.216,7 Jul 2025 17:47:55.180,624.964
472,7 Jul 2025 19:11:06.866,7 Jul 2025 19:21:50.843,643.977
473,8 Jul 2025 17:19:14.911,8 Jul 2025 17:28:28.526,553.615
474,8 Jul 2025 18:52:13.363,8 Jul 2025 19:03:30.418,677.055
475,8 Jul 2025 20:29:13.069,8 Jul 2025 20:32:03.772,170.703
476,9 Jul 2025 17:01:18.678,9 Jul 2025 17:08:36.931,438.253
477,9 Jul 2025 18:33:26.004,9 Jul 2025 18:44:58.125,692.121
478,9 Jul 2025 20:08:57.918,9 Jul 2025 20:15:30.711,392.793
479,10 Jul 2025 16:44:14.857,10 Jul 2025 16:47:46.690,211.833
480,10 Jul 2025 18:14:44.650,10 Jul 2025 18:26:14.260,689.611
481,10 Jul 2025 19:49:31.268,10 Jul 2025 19:58:02.223,510.955
482,11 Jul 2025 17:56:09.870,11 Jul 2025 18:07:18.308,668.437
483,11 Jul 2025 19:30:20.915,11 Jul 2025 19:40:10.889,589.975
484,12 Jul 2025 17:37:43.153,12 Jul 2025 17:48:08.767,625.614
485,12 Jul 2025 19:11:20.213,12 Jul 2025 19:22:03.689,643.476
486,13 Jul 2025 17:19:27.685,13 Jul 2025 17:28:42.343,554.659
487,13 Jul 2025 18:52:26.634,13 Jul 2025 19:03:43.408,676.774
488,13 Jul 2025 20:29:28.336,13 Jul 2025 20:32:14.388,166.052
489,14 Jul 2025 17:01:31.141,14 Jul 2025 17:08:51.131,439.990
490,14 Jul 2025 18:33:39.206,14 Jul 2025 18:45:11.255,692.049
491,14 Jul 2025 20:09:11.770,14 Jul 2025 20:15:42.825,391.055
492,15 Jul 2025 16:44:25.978,15 Jul 2025 16:48:02.308,216.330
493,15 Jul 2025 18:14:57.779,15 Jul 2025 18:26:27.523,689.744
494,15 Jul 2025 19:49:44.849,15 Jul 2025 19:58:14.688,509.839
495,16 Jul 2025 17:56:22.916,16 Jul 2025 18:07:31.719,668.803
496,16 Jul 2025 19:30:34.356,16 Jul 2025 19:40:23.567,589.211
497,17 Jul 2025 17:37:56.090,17 Jul 2025 17:48:22.351,626.261
498,17 Jul 2025 19:11:33.558,17 Jul 2025 19:22:16.532,642.975
499,18 Jul 2025 17:19:40.458,18 Jul 2025 17:28:56.156,555.698
500,18 Jul 2025 18:52:39.905,18 Jul 2025 19:03:56.395,676.491
501,18 Jul 2025 20:29:43.676,18 Jul 2025 20:32:24.928,161.252
502,19 Jul 2025 17:01:43.607,19 Jul 2025 17:09:05.323,441.716
503,19 Jul 2025 18:33:52.406,19 Jul 2025 18:45:24.378,691.972
504,19 Jul 2025 20:09:25.626,19 Jul 2025 20:15:54.931,389.305
505,20 Jul 2025 16:44:37.147,20 Jul 2025 16:48:17.871,220.724
506,20 Jul 2025 18:15:10.907,20 Jul 2025 18:26:40.783,689.875
507,20 Jul 2025 19:49:58.429,20 Jul 2025 19:58:27.148,508.718
508,21 Jul 2025 17:56:35.961,21 Jul 2025 18:07:45.126,669.165
509,21 Jul 2025 19:30:47.797,21 Jul 2025 19:40:36.241,588.444
510,22 Jul 2025 17:38:09.027,22 Jul 2025 17:48:35.931,626.904
511,22 Jul 2025 19:11:46.904,22 Jul 2025 19:22:29.370,642.466
512,23 Jul 2025 17:19:53.238,23 Jul 2025 17:29:09.968,556.730
513,23 Jul 2025 18:52:53.180,23 Jul 2025 19:04:09.380,676.200
514,23 Jul 2025 20:29:59.090,23 Jul 2025 20:32:35.394,156.305
515,24 Jul 2025 17:01:56.079,24 Jul 2025 17:09:19.507,443.428
516,24 Jul 2025 18:34:05.610,24 Jul 2025 18:45:37.500,691.889
517,24 Jul 2025 20:09:39.485,24 Jul 2025 20:16:07.033,387.547
518,25 Jul 2025 16:44:48.367,25 Jul 2025 16:48:33.386,225.018
519,25 Jul 2025 18:15:24.038,25 Jul 2025 18:26:54.042,690.004
520,25 Jul 2025 19:50:12.012,25 Jul 2025 19:58:39.606,507.593
521,26 Jul 2025 17:56:49.009,26 Jul 2025 18:07:58.530,669.521
522,26 Jul 2025 19:31:01.240,26 Jul 2025 19:40:48.914,587.674
523,27 Jul 2025 17:38:21.972,27 Jul 2025 17:48:49.511,627.539
524,27 Jul 2025 19:12:00.253,27 Jul 2025 19:22:42.209,641.956
525,28 Jul 2025 17:20:06.017,28 Jul 2025 17:29:23.775,557.758
526,28 Jul 2025 18:53:06.453,28 Jul 2025 19:04:22.365,675.912
527,28 Jul 2025 20:30:14.591,28 Jul 2025 20:32:45.774,151.183
528,29 Jul 2025 17:02:08.556,29 Jul 2025 17:09:33.688,445.132
529,29 Jul 2025 18:34:18.814,29 Jul 2025 18:45:50.620,691.806
530,29 Jul 2025 20:09:53.354,29 Jul 2025 20:16:19.127,385.773
531,30 Jul 2025 16:44:59.628,30 Jul 2025 16:48:48.858,229.230
532,30 Jul 2025 18:15:37.169,30 Jul 2025 18:27:07.299,690.130
533,30 Jul 2025 19:50:25.599,30 Jul 2025 19:58:52.059,506.460
534,31 Jul 2025 17:57:02.056,31 Jul 2025 18:08:11.937,669.881
535,31 Jul 2025 19:31:14.685,31 Jul 2025 19:41:01.584,586.899
536,1 Aug 2025 17:38:34.910,1 Aug 2025 17:49:03.088,628.178
537,1 Aug 2025 19:12:13.603,1 Aug 2025 19:22:55.045,641.443
538,2 Aug 2025 17:20:18.794,2 Aug 2025 17:29:37.576,558.782
539,2 Aug 2025 18:53:19.721,2 Aug 2025 19:04:35.346,675.625
540,2 Aug 2025 20:30:30.183,2 Aug 2025 20:32:56.051,145.868
541,3 Aug 2025 17:02:21.036,3 Aug 2025 17:09:47.856,446.819
542,3 Aug 2025 18:34:32.013,3 Aug 2025 18:46:03.738,691.724
543,3 Aug 2025 20:10:07.227,3 Aug 2025 20:16:31.213,383.986
544,4 Aug 2025 16:45:10.931,4 Aug 2025 16:49:04.283,233.353
545,4 Aug 2025 18:15:50.299,4 Aug 2025 18:27:20.553,690.254
546,4 Aug 2025 19:50:39.187,4 Aug 2025 19:59:04.509,505.323
547,5 Aug 2025 17:57:15.104,5 Aug 2025 18:08:25.339,670.235
548,5 Aug 2025 19:31:28.130,5 Aug 2025 19:41:14.251,586.121
549,6 Aug 2025 17:38:47.852,6 Aug 2025 17:49:16.661,628.809
550,6 Aug 2025 19:12:26.952,6 Aug 2025 19:23:07.880,640.927
551,7 Aug 2025 17:20:31.582,7 Aug 2025 17:29:51.376,559.793
552,7 Aug 2025 18:53:32.995,7 Aug 2025 19:04:48.326,675.332
553,7 Aug 2025 20:30:45.880,7 Aug 2025 20:33:06.229,140.349
554,8 Aug 2025 17:02:33.523,8 Aug 2025 17:10:02.022,448.499
555,8 Aug 2025 18:34:45.217,8 Aug 2025 18:46:16.854,691.637
556,8 Aug 2025 20:10:21.104,8 Aug 2025 20:16:43.294,382.190
557,9 Aug 2025 16:45:22.275,9 Aug 2025 16:49:19.669,237.393
558,9 Aug 2025 18:16:03.431,9 Aug 2025 18:27:33.803,690.372
559,9 Aug 2025 19:50:52.777,9 Aug 2025 19:59:16.957,504.180
560,10 Aug 2025 17:57:28.154,10 Aug 2025 18:08:38.740,670.586
561,10 Aug 2025 19:31:41.578,10 Aug 2025 19:41:26.918,585.340
562,11 Aug 2025 17:39:00.792,11 Aug 2025 17:49:30.234,629.441
563,11 Aug 2025 19:12:40.304,11 Aug 2025 19:23:20.716,640.411
564,12 Aug 2025 17:20:44.368,12 Aug 2025 17:30:05.173,560.806
565,12 Aug 2025 18:53:46.270,12 Aug 2025 19:05:01.305,675.035
566,12 Aug 2025 20:31:01.703,12 Aug 2025 20:33:16.284,134.581
567,13 Aug 2025 17:02:46.014,13 Aug 2025 17:10:16.185,450.170
568,13 Aug 2025 18:34:58.422,13 Aug 2025 18:46:29.969,691.547
569,13 Aug 2025 20:10:34.990,13 Aug 2025 20:16:55.367,380.378
570,14 Aug 2025 16:45:33.654,14 Aug 2025 16:49:35.017,241.363
571,14 Aug 2025 18:16:16.564,14 Aug 2025 18:27:47.055,690.491
572,14 Aug 2025 19:51:06.371,14 Aug 2025 19:59:29.405,503.035
573,15 Aug 2025 17:57:41.203,15 Aug 2025 18:08:52.138,670.935
574,15 Aug 2025 19:31:55.027,15 Aug 2025 19:41:39.580,584.554
575,16 Aug 2025 17:39:13.736,16 Aug 2025 17:49:43.803,630.067
576,16 Aug 2025 19:12:53.656,16 Aug 2025 19:23:33.549,639.893
577,17 Aug 2025 17:20:57.149,17 Aug 2025 17:30:18.965,561.816
578,17 Aug 2025 18:53:59.545,17 Aug 2025 19:05:14.281,674.736
579,17 Aug 2025 20:31:17.656,17 Aug 2025 20:33:26.202,128.547
580,18 Aug 2025 17:02:58.509,18 Aug 2025 17:10:30.339,451.830
581,18 Aug 2025 18:35:11.627,18 Aug 2025 18:46:43.081,691.454
582,18 Aug 2025 20:10:48.879,18 Aug 2025 20:17:07.433,378.555
583,19 Aug 2025 16:45:45.070,19 Aug 2025 16:49:50.324,245.254
584,19 Aug 2025 18:16:29.696,19 Aug 2025 18:28:00.304,690.607
585,19 Aug 2025 19:51:19.965,19 Aug 2025 19:59:41.845,501.880
586,20 Aug 2025 17:57:54.254,20 Aug 2025 18:09:05.534,671.280
587,20 Aug 2025 19:32:08.476,20 Aug 2025 19:41:52.241,583.765
588,21 Aug 2025 17:39:26.681,21 Aug 2025 17:49:57.370,630.689
589,21 Aug 2025 19:13:07.009,21 Aug 2025 19:23:46.378,639.369
590,22 Aug 2025 17:21:09.939,22 Aug 2025 17:30:32.755,562.816
591,22 Aug 2025 18:54:12.821,22 Aug 2025 19:05:27.256,674.435
592,22 Aug 2025 20:31:33.760,22 Aug 2025 20:33:35.970,122.210
593,23 Aug 2025 17:03:11.010,23 Aug 2025 17:10:44.488,453.478
594,23 Aug 2025 18:35:24.833,23 Aug 2025 18:46:56.193,691.359
595,23 Aug 2025 20:11:02.775,23 Aug 2025 20:17:19.494,376.719
596,24 Aug 2025 16:45:56.521,24 Aug 2025 16:50:05.599,249.078
597,24 Aug 2025 18:16:42.831,24 Aug 2025 18:28:13.553,690.721
598,24 Aug 2025 19:51:33.564,24 Aug 2025 19:59:54.283,500.719
599,25 Aug 2025 17:58:07.307,25 Aug 2025 18:09:18.929,671.623
600,25 Aug 2025 19:32:21.929,25 Aug 2025 19:42:04.905,582.976
601,26 Aug 2025 17:39:39.628,26 Aug 2025 17:50:10.933,631.305
602,26 Aug 2025 19:13:20.365,26 Aug 2025 19:23:59.206,638.841
603,27 Aug 2025 17:21:22.730,27 Aug 2025 17:30:46.543,563.814
604,27 Aug 2025 18:54:26.099,27 Aug 2025 19:05:40.230,674.131
605,27 Aug 2025 20:31:50.053,27 Aug 2025 20:33:45.547,115.494
606,28 Aug 2025 17:03:23.514,28 Aug 2025 17:10:58.633,455.119
607,28 Aug 2025 18:35:38.040,28 Aug 2025 18:47:09.302,691.262
608,28 Aug 2025 20:11:16.678,28 Aug 2025 20:17:31.545,374.868
609,29 Aug 2025 16:46:08.001,29 Aug 2025 16:50:20.840,252.839
610,29 Aug 2025 18:16:55.966,29 Aug 2025 18:28:26.799,690.833
611,29 Aug 2025 19:51:47.165,29 Aug 2025 20:00:06.716,499.551
612,30 Aug 2025 17:58:20.359,30 Aug 2025 18:09:32.322,671.963
613,30 Aug 2025 19:32:35.382,30 Aug 2025 19:42:17.561,582.178
614,31 Aug 2025 17:39:52.575,31 Aug 2025 17:50:24.496,631.921
615,31 Aug 2025 19:13:33.721,31 Aug 2025 19:24:12.031,638.311
616,1 Sep 2025 17:21:35.526,1 Sep 2025 17:31:00.325,564.800
617,1 Sep 2025 18:54:39.377,1 Sep 2025 19:05:53.196,673.819
618,1 Sep 2025 20:32:06.559,1 Sep 2025 20:33:54.914,108.355
619,2 Sep 2025 17:03:36.022,2 Sep 2025 17:11:12.771,456.748
620,2 Sep 2025 18:35:51.248,2 Sep 2025 18:47:22.408,691.161
621,2 Sep 2025 20:11:30.584,2 Sep 2025 20:17:43.590,373.006
622,3 Sep 2025 16:46:19.514,3 Sep 2025 16:50:36.048,256.534
623,3 Sep 2025 18:17:09.102,3 Sep 2025 18:28:40.044,690.942
624,3 Sep 2025 19:52:00.768,3 Sep 2025 20:00:19.146,498.378
625,4 Sep 2025 17:58:33.413,4 Sep 2025 18:09:45.713,672.300
626,4 Sep 2025 19:32:48.837,4 Sep 2025 19:42:30.214,581.378
627,5 Sep 2025 17:40:05.524,5 Sep 2025 17:50:38.057,632.533
628,5 Sep 2025 19:13:47.078,5 Sep 2025 19:24:24.855,637.778
629,6 Sep 2025 17:21:48.322,6 Sep 2025 17:31:14.107,565.785
630,6 Sep 2025 18:54:52.657,6 Sep 2025 19:06:06.167,673.510
631,6 Sep 2025 20:32:23.319,6 Sep 2025 20:34:04.024,100.704
632,7 Sep 2025 17:03:48.537,7 Sep 2025 17:11:26.904,458.367
633,7 Sep 2025 18:36:04.457,7 Sep 2025 18:47:35.515,691.058
634,7 Sep 2025 20:11:44.501,7 Sep 2025 20:17:55.629,371.128
635,8 Sep 2025 16:46:31.057,8 Sep 2025 16:50:51.227,260.170
636,8 Sep 2025 18:17:22.239,8 Sep 2025 18:28:53.288,691.049
637,8 Sep 2025 19:52:14.375,8 Sep 2025 20:00:31.574,497.198
638,9 Sep 2025 17:58:46.468,9 Sep 2025 18:09:59.104,672.635
639,9 Sep 2025 19:33:02.295,9 Sep 2025 19:42:42.867,580.572
640,10 Sep 2025 17:40:18.474,10 Sep 2025 17:50:51.617,633.142
641,10 Sep 2025 19:14:00.437,10 Sep 2025 19:24:37.678,637.241
642,11 Sep 2025 17:22:01.119,11 Sep 2025 17:31:27.887,566.768
643,11 Sep 2025 18:55:05.938,11 Sep 2025 19:06:19.136,673.198
644,11 Sep 2025 20:32:40.414,11 Sep 2025 20:34:12.800,92.386
645,12 Sep 2025 17:04:01.054,12 Sep 2025 17:11:41.036,459.982
646,12 Sep 2025 18:36:17.669,12 Sep 2025 18:47:48.619,690.950
647,12 Sep 2025 20:11:58.424,12 Sep 2025 20:18:07.659,369.235
648,13 Sep 2025 16:46:42.626,13 Sep 2025 16:51:06.377,263.751
649,13 Sep 2025 18:17:35.377,13 Sep 2025 18:29:06.529,691.153
650,13 Sep 2025 19:52:27.985,13 Sep 2025 20:00:43.996,496.011
651,14 Sep 2025 17:58:59.523,14 Sep 2025 18:10:12.491,672.968
652,14 Sep 2025 19:33:15.753,14 Sep 2025 19:42:55.516,579.762
653,15 Sep 2025 17:40:31.430,15 Sep 2025 17:51:05.173,633.743
654,15 Sep 2025 19:14:13.796,15 Sep 2025 19:24:50.497,636.701
655,16 Sep 2025 17:22:13.917,16 Sep 2025 17:31:41.662,567.744
656,16 Sep 2025 18:55:19.218,16 Sep 2025 19:06:32.102,672.883
657,16 Sep 2025 20:32:57.922,16 Sep 2025 20:34:21.158,83.235
658,17 Sep 2025 17:04:13.577,17 Sep 2025 17:11:55.158,461.581
659,17 Sep 2025 18:36:30.879,17 Sep 2025 18:48:01.722,690.842
660,17 Sep 2025 20:12:12.353,17 Sep 2025 20:18:19.682,367.330
661,18 Sep 2025 16:46:54.225,18 Sep 2025 16:51:21.497,267.272
662,18 Sep 2025 18:17:48.515,18 Sep 2025 18:29:19.770,691.254
663,18 Sep 2025 19:52:41.597,18 Sep 2025 20:00:56.417,494.820
664,19 Sep 2025 17:59:12.581,19 Sep 2025 18:10:25.878,673.297
665,19 Sep 2025 19:33:29.214,19 Sep 2025 19:43:08.163,578.949
666,20 Sep 2025 17:40:44.383,20 Sep 2025 17:51:18.729,634.346
667,20 Sep 2025 19:14:27.157,20 Sep 2025 19:25:03.316,636.159
668,21 Sep 2025 17:22:26.720,21 Sep 2025 17:31:55.436,568.716
669,21 Sep 2025 18:55:32.502,21 Sep 2025 19:06:45.068,672.566
670,21 Sep 2025 20:33:16.015,21 Sep 2025 20:34:28.936,72.921
671,22 Sep 2025 17:04:26.104,22 Sep 2025 17:12:09.274,463.169
672,22 Sep 2025 18:36:44.092,22 Sep 2025 18:48:14.825,690.733
673,22 Sep 2025 20:12:26.291,22 Sep 2025 20:18:31.699,365.408
674,23 Sep 2025 16:47:05.849,23 Sep 2025 16:51:36.596,270.747
675,23 Sep 2025 18:18:01.655,23 Sep 2025 18:29:33.009,691.354
676,23 Sep 2025 19:52:55.212,23 Sep 2025 20:01:08.834,493.622
677,24 Sep 2025 17:59:25.640,24 Sep 2025 18:10:39.263,673.624
678,24 Sep 2025 19:33:42.678,24 Sep 2025 19:43:20.809,578.131
679,25 Sep 2025 17:40:57.335,25 Sep 2025 17:51:32.283,634.947
680,25 Sep 2025 19:14:40.521,25 Sep 2025 19:25:16.133,635.612
681,26 Sep 2025 17:22:39.523,26 Sep 2025 17:32:09.207,569.684
682,26 Sep 2025 18:55:45.786,26 Sep 2025 19:06:58.034,672.248
683,26 Sep 2025 20:33:34.992,26 Sep 2025 20:34:35.824,60.832
684,27 Sep 2025 17:04:38.635,27 Sep 2025 17:12:23.384,464.749
685,27 Sep 2025 18:36:57.306,27 Sep 2025 18:48:27.927,690.622
686,27 Sep 2025 20:12:40.239,27 Sep 2025 20:18:43.706,363.467
687,28 Sep 2025 16:47:17.497,28 Sep 2025 16:51:51.662,274.165
688,28 Sep 2025 18:18:14.797,28 Sep 2025 18:29:46.247,691.451
689,28 Sep 2025 19:53:08.833,28 Sep 2025 20:01:21.247,492.415
690,29 Sep 2025 17:59:38.699,29 Sep 2025 18:10:52.647,673.948
691,29 Sep 2025 19:33:56.142,29 Sep 2025 19:43:33.451,577.309
692,30 Sep 2025 17:41:10.289,30 Sep 2025 17:51:45.834,635.545
693,30 Sep 2025 19:14:53.885,30 Sep 2025 19:25:28.948,635.064
694,1 Oct 2025 17:22:52.329,1 Oct 2025 17:32:22.975,570.647
695,1 Oct 2025 18:55:59.071,1 Oct 2025 19:07:10.996,671.925
696,1 Oct 2025 20:33:55.519,1 Oct 2025 20:34:41.165,45.646
697,2 Oct 2025 17:04:51.171,2 Oct 2025 17:12:37.491,466.320
698,2 Oct 2025 18:37:10.519,2 Oct 2025 18:48:41.027,690.507
699,2 Oct 2025 20:12:54.190,2 Oct 2025 20:18:55.707,361.517
700,3 Oct 2025 16:47:29.172,3 Oct 2025 16:52:06.710,277.538
701,3 Oct 2025 18:18:27.939,3 Oct 2025 18:29:59.484,691.545
702,3 Oct 2025 19:53:22.452,3 Oct 2025 20:01:33.658,491.206
703,4 Oct 2025 17:59:51.760,4 Oct 2025 18:11:06.029,674.269
704,4 Oct 2025 19:34:09.609,4 Oct 2025 19:43:46.093,576.484
705,5 Oct 2025 17:41:23.247,5 Oct 2025 17:51:59.384,636.137
706,5 Oct 2025 19:15:07.251,5 Oct 2025 19:25:41.763,634.512
707,6 Oct 2025 17:23:05.138,6 Oct 2025 17:32:36.742,571.604
708,6 Oct 2025 18:56:12.358,6 Oct 2025 19:07:23.961,671.603
709,6 Oct 2025 20:34:20.519,6 Oct 2025 20:34:42.043,21.524
710,7 Oct 2025 17:05:03.713,7 Oct 2025 17:12:51.595,467.883
711,7 Oct 2025 18:37:23.736,7 Oct 2025 18:48:54.126,690.390
712,7 Oct 2025 20:13:08.150,7 Oct 2025 20:19:07.701,359.551
713,8 Oct 2025 16:47:40.870,8 Oct 2025 16:52:21.732,280.862
714,8 Oct 2025 18:18:41.083,8 Oct 2025 18:30:12.720,691.637
715,8 Oct 2025 19:53:36.079,8 Oct 2025 20:01:46.065,489.987
716,9 Oct 2025 18:00:04.822,9 Oct 2025 18:11:19.410,674.588
717,9 Oct 2025 19:34:23.079,9 Oct 2025 19:43:58.732,575.653
718,10 Oct 2025 17:41:36.206,10 Oct 2025 17:52:12.933,636.727
719,10 Oct 2025 19:15:20.619,10 Oct 2025 19:25:54.575,633.956
720,11 Oct 2025 17:23:17.947,11 Oct 2025 17:32:50.505,572.558
721,11 Oct 2025 18:56:25.646,11 Oct 2025 19:07:36.920,671.274
722,12 Oct 2025 17:05:16.256,12 Oct 2025 17:13:05.693,469.436
723,12 Oct 2025 18:37:36.952,12 Oct 2025 18:49:07.223,690.271
724,12 Oct 2025 20:13:22.118,12 Oct 2025 20:19:19.685,357.568
725,13 Oct 2025 16:47:52.589,13 Oct 2025 16:52:36.728,284.139
726,13 Oct 2025 18:18:54.227,13 Oct 2025 18:30:25.953,691.726
727,13 Oct 2025 19:53:49.707,13 Oct 2025 20:01:58.469,488.762
728,14 Oct 2025 18:00:17.885,14 Oct 2025 18:11:32.789,674.904
729,14 Oct 2025 19:34:36.549,14 Oct 2025 19:44:11.368,574.819
730,15 Oct 2025 17:41:49.167,15 Oct 2025 17:52:26.479,637.312
731,15 Oct 2025 19:15:33.987,15 Oct 2025 19:26:07.385,633.398
732,16 Oct 2025 17:23:30.760,16 Oct 2025 17:33:04.266,573.505
733,16 Oct 2025 18:56:38.935,16 Oct 2025 19:07:49.879,670.944
734,17 Oct 2025 17:05:28.807,17 Oct 2025 17:13:19.786,470.979
735,17 Oct 2025 18:37:50.170,17 Oct 2025 18:49:20.319,690.149
736,17 Oct 2025 20:13:36.092,17 Oct 2025 20:19:31.664,355.572
737,18 Oct 2025 16:48:04.333,18 Oct 2025 16:52:51.702,287.369
738,18 Oct 2025 18:19:07.374,18 Oct 2025 18:30:39.187,691.813
739,18 Oct 2025 19:54:03.336,18 Oct 2025 20:02:10.870,487.534
740,19 Oct 2025 18:00:30.951,19 Oct 2025 18:11:46.168,675.217
741,19 Oct 2025 19:34:50.022,19 Oct 2025 19:44:24.004,573.982
742,20 Oct 2025 17:42:02.131,20 Oct 2025 17:52:40.025,637.894
743,20 Oct 2025 19:15:47.358,20 Oct 2025 19:26:20.195,632.837
744,21 Oct 2025 17:23:43.577,21 Oct 2025 17:33:18.026,574.449
745,21 Oct 2025 18:56:52.227,21 Oct 2025 19:08:02.838,670.611
746,22 Oct 2025 17:05:41.362,22 Oct 2025 17:13:33.876,472.515
747,22 Oct 2025 18:38:03.391,22 Oct 2025 18:49:33.416,690.025
748,22 Oct 2025 20:13:50.078,22 Oct 2025 20:19:43.634,353.556
749,23 Oct 2025 16:48:16.096,23 Oct 2025 16:53:06.657,290.560
750,23 Oct 2025 18:19:20.522,23 Oct 2025 18:30:52.419,691.898
751,23 Oct 2025 19:54:16.973,23 Oct 2025 20:02:23.268,486.296
752,24 Oct 2025 18:00:44.018,24 Oct 2025 18:11:59.546,675.528
753,24 Oct 2025 19:35:03.499,24 Oct 2025 19:44:36.637,573.138
754,25 Oct 2025 17:42:15.095,25 Oct 2025 17:52:53.569,638.474
755,25 Oct 2025 19:16:00.731,25 Oct 2025 19:26:33.003,632.272
756,26 Oct 2025 17:23:56.394,26 Oct 2025 17:33:31.782,575.388
757,26 Oct 2025 18:57:05.519,26 Oct 2025 19:08:15.794,670.275
758,27 Oct 2025 17:05:53.920,27 Oct 2025 17:13:47.961,474.041
759,27 Oct 2025 18:38:16.611,27 Oct 2025 18:49:46.510,689.898
760,27 Oct 2025 20:14:04.069,27 Oct 2025 20:19:55.595,351.526
761,28 Oct 2025 16:48:27.881,28 Oct 2025 16:53:21.589,293.708
762,28 Oct 2025 18:19:33.670,28 Oct 2025 18:31:05.650,691.979
763,28 Oct 2025 19:54:30.611,28 Oct 2025 20:02:35.663,485.052
764,29 Oct 2025 18:00:57.086,29 Oct 2025 18:12:12.921,675.835
765,29 Oct 2025 19:35:16.976,29 Oct 2025 19:44:49.268,572.292
766,30 Oct 2025 17:42:28.062,30 Oct 2025 17:53:07.111,639.049
767,30 Oct 2025 19:16:14.105,30 Oct 2025 19:26:45.809,631.704
768,31 Oct 2025 17:24:09.215,31 Oct 2025 17:33:45.536,576.321
769,31 Oct 2025 18:57:18.813,31 Oct 2025 19:08:28.749,669.937
770,1 Nov 2025 17:06:06.485,1 Nov 2025 17:14:02.041,475.556
771,1 Nov 2025 18:38:29.834,1 Nov 2025 18:49:59.603,689.769
772,1 Nov 2025 20:14:18.068,1 Nov 2025 20:20:07.550,349.482
773,2 Nov 2025 16:48:39.688,2 Nov 2025 16:53:36.500,296.812
774,2 Nov 2025 18:19:46.821,2 Nov 2025 18:31:18.880,692.059
775,2 Nov 2025 19:54:44.252,2 Nov 2025 20:02:48.055,483.803
776,3 Nov 2025 18:01:10.156,3 Nov 2025 18:12:26.296,676.140
777,3 Nov 2025 19:35:30.458,3 Nov 2025 19:45:01.898,571.440
778,4 Nov 2025 17:42:41.031,4 Nov 2025 17:53:20.652,639.621
779,4 Nov 2025 19:16:27.482,4 Nov 2025 19:26:58.615,631.133
780,5 Nov 2025 17:24:22.039,5 Nov 2025 17:33:59.289,577.250
781,5 Nov 2025 18:57:32.109,5 Nov 2025 19:08:41.705,669.595
782,6 Nov 2025 17:06:19.053,6 Nov 2025 17:14:16.117,477.064
783,6 Nov 2025 18:38:43.059,6 Nov 2025 18:50:12.696,689.637
784,6 Nov 2025 20:14:32.078,6 Nov 2025 20:20:19.495,347.418
785,7 Nov 2025 16:48:51.512,7 Nov 2025 16:53:51.393,299.880
786,7 Nov 2025 18:19:59.974,7 Nov 2025 18:31:32.110,692.136
787,7 Nov 2025 19:54:57.899,7 Nov 2025 20:03:00.443,482.544
788,8 Nov 2025 18:01:23.227,8 Nov 2025 18:12:39.670,676.443
789,8 Nov 2025 19:35:43.940,8 Nov 2025 19:45:14.525,570.585
790,9 Nov 2025 17:42:54.002,9 Nov 2025 17:53:34.189,640.187
791,9 Nov 2025 19:16:40.859,9 Nov 2025 19:27:11.418,630.559
792,10 Nov 2025 17:24:34.863,10 Nov 2025 17:34:13.038,578.175
793,10 Nov 2025 18:57:45.406,10 Nov 2025 19:08:54.657,669.251
794,11 Nov 2025 17:06:31.626,11 Nov 2025 17:14:30.189,478.563
795,11 Nov 2025 18:38:56.280,11 Nov 2025 18:50:25.786,689.506
796,11 Nov 2025 20:14:46.093,11 Nov 2025 20:20:31.433,345.340
797,12 Nov 2025 16:49:03.357,12 Nov 2025 16:54:06.266,302.909
798,12 Nov 2025 18:20:13.126,12 Nov 2025 18:31:45.336,692.210
799,12 Nov 2025 19:55:11.546,12 Nov 2025 20:03:12.828,481.282
800,13 Nov 2025 18:01:36.300,13 Nov 2025 18:12:53.042,676.742
801,13 Nov 2025 19:35:57.426,13 Nov 2025 19:45:27.151,569.724
802,14 Nov 2025 17:43:06.973,14 Nov 2025 17:53:47.729,640.755
803,14 Nov 2025 19:16:54.238,14 Nov 2025 19:27:24.221,629.983
804,15 Nov 2025 17:24:47.693,15 Nov 2025 17:34:26.786,579.093
805,15 Nov 2025 18:57:58.704,15 Nov 2025 19:09:07.609,668.905
806,16 Nov 2025 17:06:44.205,16 Nov 2025 17:14:44.256,480.051
807,16 Nov 2025 18:39:09.507,16 Nov 2025 18:50:38.877,689.370
808,16 Nov 2025 20:15:00.116,16 Nov 2025 20:20:43.363,343.248
809,17 Nov 2025 16:49:15.222,17 Nov 2025 16:54:21.121,305.899
810,17 Nov 2025 18:20:26.282,17 Nov 2025 18:31:58.564,692.282
811,17 Nov 2025 19:55:25.199,17 Nov 2025 20:03:25.212,480.013
812,18 Nov 2025 18:01:49.376,18 Nov 2025 18:13:06.414,677.038
813,18 Nov 2025 19:36:10.909,18 Nov 2025 19:45:39.775,568.866
814,19 Nov 2025 17:43:19.948,19 Nov 2025 17:54:01.263,641.315
815,19 Nov 2025 19:17:07.620,19 Nov 2025 19:27:37.021,629.401
816,20 Nov 2025 17:25:00.524,20 Nov 2025 17:34:40.532,580.008
817,20 Nov 2025 18:58:12.005,20 Nov 2025 19:09:20.561,668.556
818,21 Nov 2025 17:06:56.788,21 Nov 2025 17:14:58.320,481.532
819,21 Nov 2025 18:39:22.736,21 Nov 2025 18:50:51.967,689.231
820,21 Nov 2025 20:15:14.151,21 Nov 2025 20:20:55.283,341.132
821,22 Nov 2025 16:49:27.104,22 Nov 2025 16:54:35.960,308.856
822,22 Nov 2025 18:20:39.439,22 Nov 2025 18:32:11.791,692.351
823,22 Nov 2025 19:55:38.857,22 Nov 2025 20:03:37.591,478.735
824,23 Nov 2025 18:02:02.452,23 Nov 2025 18:13:19.784,677.332
825,23 Nov 2025 19:36:24.398,23 Nov 2025 19:45:52.397,567.999
826,24 Nov 2025 17:43:32.924,24 Nov 2025 17:54:14.798,641.874
827,24 Nov 2025 19:17:21.003,24 Nov 2025 19:27:49.819,628.816
828,25 Nov 2025 17:25:13.358,25 Nov 2025 17:34:54.273,580.915
829,25 Nov 2025 18:58:25.307,25 Nov 2025 19:09:33.511,668.204
830,26 Nov 2025 17:07:09.375,26 Nov 2025 17:15:12.378,483.003
831,26 Nov 2025 18:39:35.966,26 Nov 2025 18:51:05.055,689.089
832,26 Nov 2025 20:15:28.192,26 Nov 2025 20:21:07.194,339.002
833,27 Nov 2025 16:49:39.005,27 Nov 2025 16:54:50.778,311.773
834,27 Nov 2025 18:20:52.597,27 Nov 2025 18:32:25.015,692.418
835,27 Nov 2025 19:55:52.512,27 Nov 2025 20:03:49.968,477.455
836,28 Nov 2025 18:02:15.530,28 Nov 2025 18:13:33.153,677.623
837,28 Nov 2025 19:36:37.888,28 Nov 2025 19:46:05.017,567.129
838,29 Nov 2025 17:43:45.903,29 Nov 2025 17:54:28.331,642.429
839,29 Nov 2025 19:17:34.387,29 Nov 2025 19:28:02.616,628.229
840,30 Nov 2025 17:25:26.195,30 Nov 2025 17:35:08.014,581.818
841,30 Nov 2025 18:58:38.610,30 Nov 2025 19:09:46.460,667.850
842,1 Dec 2025 17:07:21.969,1 Dec 2025 17:15:26.432,484.463
843,1 Dec 2025 18:39:49.197,1 Dec 2025 18:51:18.143,688.945
844,1 Dec 2025 20:15:42.243,1 Dec 2025 20:21:19.098,336.856
845,2 Dec 2025 16:49:50.924,2 Dec 2025 16:55:05.581,314.657
846,2 Dec 2025 18:21:05.757,2 Dec 2025 18:32:38.240,692.482
847,2 Dec 2025 19:56:06.175,2 Dec 2025 20:04:02.342,476.167
848,3 Dec 2025 18:02:28.611,3 Dec 2025 18:13:46.522,677.911
849,3 Dec 2025 19:36:51.382,3 Dec 2025 19:46:17.637,566.255
850,4 Dec 2025 17:43:58.884,4 Dec 2025 17:54:41.865,642.981
851,4 Dec 2025 19:17:47.774,4 Dec 2025 19:28:15.415,627.641
852,5 Dec 2025 17:25:39.035,5 Dec 2025 17:35:21.754,582.719
853,5 Dec 2025 18:58:51.915,5 Dec 2025 19:09:59.408,667.493
854,6 Dec 2025 17:07:34.565,6 Dec 2025 17:15:40.483,485.918
855,6 Dec 2025 18:40:02.430,6 Dec 2025 18:51:31.229,688.799
856,6 Dec 2025 20:15:56.304,6 Dec 2025 20:21:30.998,334.694
857,7 Dec 2025 16:50:02.858,7 Dec 2025 16:55:20.367,317.509
858,7 Dec 2025 18:21:18.918,7 Dec 2025 18:32:51.462,692.544
859,7 Dec 2025 19:56:19.840,7 Dec 2025 20:04:14.711,474.871
860,8 Dec 2025 18:02:41.691,8 Dec 2025 18:13:59.884,678.193
861,8 Dec 2025 19:37:04.877,8 Dec 2025 19:46:30.253,565.376
862,9 Dec 2025 17:44:11.865,9 Dec 2025 17:54:55.394,643.529
863,9 Dec 2025 19:18:01.161,9 Dec 2025 19:28:28.209,627.048
864,10 Dec 2025 17:25:51.877,10 Dec 2025 17:35:35.489,583.613
865,10 Dec 2025 18:59:05.220,10 Dec 2025 19:10:12.355,667.134
866,11 Dec 2025 17:07:47.167,11 Dec 2025 17:15:54.527,487.360
867,11 Dec 2025 18:40:15.664,11 Dec 2025 18:51:44.314,688.650
868,11 Dec 2025 20:16:10.370,11 Dec 2025 20:21:42.883,332.512
869,12 Dec 2025 16:50:14.811,12 Dec 2025 16:55:35.135,320.323
870,12 Dec 2025 18:21:32.080,12 Dec 2025 18:33:04.684,692.604
871,12 Dec 2025 19:56:33.507,12 Dec 2025 20:04:27.079,473.572
872,13 Dec 2025 18:02:54.775,13 Dec 2025 18:14:13.250,678.475
873,13 Dec 2025 19:37:18.374,13 Dec 2025 19:46:42.868,564.494
874,14 Dec 2025 17:44:24.851,14 Dec 2025 17:55:08.924,644.073
875,14 Dec 2025 19:18:14.551,14 Dec 2025 19:28:41.009,626.459
876,15 Dec 2025 17:26:04.723,15 Dec 2025 17:35:49.225,584.502
877,15 Dec 2025 18:59:18.529,15 Dec 2025 19:10:25.301,666.773
878,16 Dec 2025 17:07:59.776,16 Dec 2025 17:16:08.570,488.794
879,16 Dec 2025 18:40:28.900,16 Dec 2025 18:51:57.399,688.499
880,16 Dec 2025 20:16:24.448,16 Dec 2025 20:21:54.760,330.312
881,17 Dec 2025 16:50:26.781,17 Dec 2025 16:55:49.889,323.108
882,17 Dec 2025 18:21:45.246,17 Dec 2025 18:33:17.906,692.660
883,17 Dec 2025 19:56:47.180,17 Dec 2025 20:04:39.444,472.265
884,18 Dec 2025 18:03:07.861,18 Dec 2025 18:14:26.615,678.755
885,18 Dec 2025 19:37:31.874,18 Dec 2025 19:46:55.482,563.608
886,19 Dec 2025 17:44:37.838,19 Dec 2025 17:55:22.452,644.614
887,19 Dec 2025 19:18:27.943,19 Dec 2025 19:28:53.803,625.861
888,20 Dec 2025 17:26:17.571,20 Dec 2025 17:36:02.957,585.386
889,20 Dec 2025 18:59:31.838,20 Dec 2025 19:10:38.246,666.408
890,21 Dec 2025 17:08:12.387,21 Dec 2025 17:16:22.607,490.220
891,21 Dec 2025 18:40:42.137,21 Dec 2025 18:52:10.483,688.346
892,21 Dec 2025 20:16:38.534,21 Dec 2025 20:22:06.629,328.096
893,22 Dec 2025 16:50:38.766,22 Dec 2025 16:56:04.626,325.860
894,22 Dec 2025 18:21:58.411,22 Dec 2025 18:33:31.125,692.714
895,22 Dec 2025 19:57:00.854,22 Dec 2025 20:04:51.805,470.951
896,23 Dec 2025 18:03:20.947,23 Dec 2025 18:14:39.978,679.031
897,23 Dec 2025 19:37:45.375,23 Dec 2025 19:47:08.093,562.718
898,24 Dec 2025 17:44:50.826,24 Dec 2025 17:55:35.977,645.151
899,24 Dec 2025 19:18:41.334,24 Dec 2025 19:29:06.595,625.260
900,25 Dec 2025 17:26:30.422,25 Dec 2025 17:36:16.686,586.265
901,25 Dec 2025 18:59:45.147,25 Dec 2025 19:10:51.189,666.041
902,26 Dec 2025 17:08:25.004,26 Dec 2025 17:16:36.639,491.635
903,26 Dec 2025 18:40:55.375,26 Dec 2025 18:52:23.565,688.190
904,26 Dec 2025 20:16:52.625,26 Dec 2025 20:22:18.490,325.865
905,27 Dec 2025 16:50:50.769,27 Dec 2025 16:56:19.347,328.578
906,27 Dec 2025 18:22:11.578,27 Dec 2025 18:33:44.344,692.766
907,27 Dec 2025 19:57:14.530,27 Dec 2025 20:05:04.164,469.634
908,28 Dec 2025 18:03:34.035,28 Dec 2025 18:14:53.340,679.305
909,28 Dec 2025 19:37:58.878,28 Dec 2025 19:47:20.703,561.825
910,29 Dec 2025 17:45:03.817,29 Dec 2025 17:55:49.502,645.684
911,29 Dec 2025 19:18:54.728,29 Dec 2025 19:29:19.386,624.658
912,30 Dec 2025 17:26:43.276,30 Dec 2025 17:36:30.415,587.138
913,30 Dec 2025 18:59:58.460,30 Dec 2025 19:11:04.132,665.672
914,31 Dec 2025 17:08:37.626,31 Dec 2025 17:16:50.669,493.042
915,31 Dec 2025 18:41:08.616,31 Dec 2025 18:52:36.647,688.031
916,31 Dec 2025 20:17:06.730,31 Dec 2025 20:22:30.343,323.612

Global Statistics
"Min Duration",709,6 Oct 2025 20:34:20.519,6 Oct 2025 20:34:42.043,21.524
"Max Duration",83,4 Feb 2025 18:26:37.062,4 Feb 2025 18:38:10.328,693.266
"Mean Duration",,,,541.671
"Total Duration",,,,496170.372


