3UCubedIntegratedSim/Reports & Plots/Comms/Past Comms Data/SSU/CSV/Sat11.csv

"Access","Start Time (UTCG)","Stop Time (UTCG)","Duration (sec)"
1,1 Jan 2025 18:08:16.767,1 Jan 2025 18:16:27.342,490.575
2,1 Jan 2025 19:40:46.639,1 Jan 2025 19:52:14.943,688.304
3,1 Jan 2025 21:16:43.189,1 Jan 2025 21:22:10.784,327.595
4,2 Jan 2025 17:50:42.997,2 Jan 2025 17:56:09.540,326.543
5,2 Jan 2025 19:22:02.901,2 Jan 2025 19:33:35.624,692.723
6,2 Jan 2025 20:57:05.425,2 Jan 2025 21:04:56.073,470.647
7,3 Jan 2025 19:03:25.422,3 Jan 2025 19:14:44.518,679.095
8,3 Jan 2025 20:37:49.914,3 Jan 2025 20:47:12.421,562.507
9,4 Jan 2025 18:44:55.283,4 Jan 2025 18:55:40.563,645.280
10,4 Jan 2025 20:18:45.855,4 Jan 2025 20:29:10.969,625.114
11,5 Jan 2025 18:26:34.851,5 Jan 2025 18:36:21.329,586.478
12,5 Jan 2025 19:59:49.655,5 Jan 2025 20:10:55.604,665.949
13,6 Jan 2025 18:08:29.382,6 Jan 2025 18:16:41.363,491.981
14,6 Jan 2025 19:40:59.871,6 Jan 2025 19:52:28.018,688.147
15,6 Jan 2025 21:16:57.269,6 Jan 2025 21:22:22.642,325.372
16,7 Jan 2025 17:50:55.004,7 Jan 2025 17:56:24.245,329.241
17,7 Jan 2025 19:22:16.062,7 Jan 2025 19:33:48.836,692.774
18,7 Jan 2025 20:57:19.092,7 Jan 2025 21:05:08.427,469.335
19,8 Jan 2025 19:03:38.506,8 Jan 2025 19:14:57.872,679.367
20,8 Jan 2025 20:38:03.408,8 Jan 2025 20:47:25.026,561.617
21,9 Jan 2025 18:45:08.270,9 Jan 2025 18:55:54.080,645.810
22,9 Jan 2025 20:18:59.241,9 Jan 2025 20:29:23.754,624.513
23,10 Jan 2025 18:26:47.702,10 Jan 2025 18:36:35.049,587.347
24,10 Jan 2025 20:00:02.960,10 Jan 2025 20:11:08.541,665.581
25,11 Jan 2025 18:08:42.002,11 Jan 2025 18:16:55.382,493.380
26,11 Jan 2025 19:41:13.104,11 Jan 2025 19:52:41.093,687.989
27,11 Jan 2025 21:17:11.364,11 Jan 2025 21:22:34.490,323.126
28,12 Jan 2025 17:51:07.024,12 Jan 2025 17:56:38.938,331.915
29,12 Jan 2025 19:22:29.225,12 Jan 2025 19:34:02.047,692.822
30,12 Jan 2025 20:57:32.764,12 Jan 2025 21:05:20.778,468.014
31,13 Jan 2025 19:03:51.590,13 Jan 2025 19:15:11.226,679.636
32,13 Jan 2025 20:38:16.906,13 Jan 2025 20:47:37.628,560.722
33,14 Jan 2025 18:45:21.257,14 Jan 2025 18:56:07.595,646.337
34,14 Jan 2025 20:19:12.629,14 Jan 2025 20:29:36.537,623.909
35,15 Jan 2025 18:27:00.550,15 Jan 2025 18:36:48.768,588.218
36,15 Jan 2025 20:00:16.265,15 Jan 2025 20:11:21.471,665.206
37,16 Jan 2025 18:08:54.624,16 Jan 2025 18:17:09.395,494.772
38,16 Jan 2025 19:41:26.337,16 Jan 2025 19:52:54.166,687.828
39,16 Jan 2025 21:17:25.466,16 Jan 2025 21:22:46.327,320.862
40,17 Jan 2025 17:51:19.057,17 Jan 2025 17:56:53.615,334.558
41,17 Jan 2025 19:22:42.387,17 Jan 2025 19:34:15.255,692.868
42,17 Jan 2025 20:57:46.437,17 Jan 2025 21:05:33.121,466.684
43,18 Jan 2025 19:04:04.674,18 Jan 2025 19:15:24.576,679.902
44,18 Jan 2025 20:38:30.400,18 Jan 2025 20:47:50.227,559.827
45,19 Jan 2025 18:45:34.246,19 Jan 2025 18:56:21.107,646.861
46,19 Jan 2025 20:19:26.016,19 Jan 2025 20:29:49.318,623.302
47,20 Jan 2025 18:27:13.404,20 Jan 2025 18:37:02.480,589.076
48,20 Jan 2025 20:00:29.570,20 Jan 2025 20:11:34.405,664.834
49,21 Jan 2025 18:09:07.252,21 Jan 2025 18:17:23.404,496.153
50,21 Jan 2025 19:41:39.572,21 Jan 2025 19:53:07.237,687.665
51,21 Jan 2025 21:17:39.575,21 Jan 2025 21:22:58.156,318.581
52,22 Jan 2025 17:51:31.105,22 Jan 2025 17:57:08.277,337.172
53,22 Jan 2025 19:22:55.552,22 Jan 2025 19:34:28.462,692.911
54,22 Jan 2025 20:58:00.113,22 Jan 2025 21:05:45.468,465.355
55,23 Jan 2025 19:04:17.761,23 Jan 2025 19:15:37.927,680.165
56,23 Jan 2025 20:38:43.899,23 Jan 2025 20:48:02.826,558.927
57,24 Jan 2025 18:45:47.242,24 Jan 2025 18:56:34.621,647.379
58,24 Jan 2025 20:19:39.402,24 Jan 2025 20:30:02.099,622.697
59,25 Jan 2025 18:27:26.266,25 Jan 2025 18:37:16.192,589.926
60,25 Jan 2025 20:00:42.879,25 Jan 2025 20:11:47.335,664.457
61,26 Jan 2025 18:09:19.883,26 Jan 2025 18:17:37.410,497.527
62,26 Jan 2025 19:41:52.809,26 Jan 2025 19:53:20.308,687.499
63,26 Jan 2025 21:17:53.697,26 Jan 2025 21:23:09.974,316.276
64,27 Jan 2025 17:51:43.166,27 Jan 2025 17:57:22.928,339.761
65,27 Jan 2025 19:23:08.717,27 Jan 2025 19:34:41.669,692.952
66,27 Jan 2025 20:58:13.793,27 Jan 2025 21:05:57.808,464.014
67,28 Jan 2025 19:04:30.849,28 Jan 2025 19:15:51.275,680.426
68,28 Jan 2025 20:38:57.401,28 Jan 2025 20:48:15.421,558.020
69,29 Jan 2025 18:46:00.233,29 Jan 2025 18:56:48.129,647.896
70,29 Jan 2025 20:19:52.793,29 Jan 2025 20:30:14.877,622.084
71,30 Jan 2025 18:27:39.124,30 Jan 2025 18:37:29.900,590.776
72,30 Jan 2025 20:00:56.187,30 Jan 2025 20:12:00.265,664.078
73,31 Jan 2025 18:09:32.520,31 Jan 2025 18:17:51.412,498.892
74,31 Jan 2025 19:42:06.045,31 Jan 2025 19:53:33.376,687.331
75,31 Jan 2025 21:18:07.829,31 Jan 2025 21:23:21.779,313.951
76,1 Feb 2025 17:51:55.239,1 Feb 2025 17:57:37.562,342.323
77,1 Feb 2025 19:23:21.883,1 Feb 2025 19:34:54.873,692.990
78,1 Feb 2025 20:58:27.475,1 Feb 2025 21:06:10.144,462.669
79,2 Feb 2025 19:04:43.937,2 Feb 2025 19:16:04.621,680.684
80,2 Feb 2025 20:39:10.902,2 Feb 2025 20:48:28.014,557.112
81,3 Feb 2025 18:46:13.226,3 Feb 2025 18:57:01.635,648.409
82,3 Feb 2025 20:20:06.184,3 Feb 2025 20:30:27.653,621.468
83,4 Feb 2025 18:27:51.985,4 Feb 2025 18:37:43.606,591.621
84,4 Feb 2025 20:01:09.496,4 Feb 2025 20:12:13.193,663.697
85,5 Feb 2025 18:09:45.159,5 Feb 2025 18:18:05.408,500.249
86,5 Feb 2025 19:42:19.283,5 Feb 2025 19:53:46.444,687.161
87,5 Feb 2025 21:18:21.969,5 Feb 2025 21:23:33.577,311.608
88,6 Feb 2025 17:52:07.327,6 Feb 2025 17:57:52.185,344.858
89,6 Feb 2025 19:23:35.051,6 Feb 2025 19:35:08.077,693.026
90,6 Feb 2025 20:58:41.161,6 Feb 2025 21:06:22.477,461.316
91,7 Feb 2025 19:04:57.029,7 Feb 2025 19:16:17.967,680.939
92,7 Feb 2025 20:39:24.408,7 Feb 2025 20:48:40.606,556.198
93,8 Feb 2025 18:46:26.222,8 Feb 2025 18:57:15.141,648.919
94,8 Feb 2025 20:20:19.579,8 Feb 2025 20:30:40.428,620.849
95,9 Feb 2025 18:28:04.849,9 Feb 2025 18:37:57.305,592.457
96,9 Feb 2025 20:01:22.808,9 Feb 2025 20:12:26.121,663.313
97,10 Feb 2025 18:09:57.802,10 Feb 2025 18:18:19.405,501.603
98,10 Feb 2025 19:42:32.523,10 Feb 2025 19:53:59.510,686.988
99,10 Feb 2025 21:18:36.122,10 Feb 2025 21:23:45.361,309.239
100,11 Feb 2025 17:52:19.426,11 Feb 2025 17:58:06.795,347.370
101,11 Feb 2025 19:23:48.220,11 Feb 2025 19:35:21.280,693.060
102,11 Feb 2025 20:58:54.850,11 Feb 2025 21:06:34.806,459.955
103,12 Feb 2025 19:05:10.120,12 Feb 2025 19:16:31.311,681.191
104,12 Feb 2025 20:39:37.914,12 Feb 2025 20:48:53.194,555.280
105,13 Feb 2025 18:46:39.218,13 Feb 2025 18:57:28.644,649.426
106,13 Feb 2025 20:20:32.973,13 Feb 2025 20:30:53.200,620.227
107,14 Feb 2025 18:28:17.713,14 Feb 2025 18:38:11.005,593.292
108,14 Feb 2025 20:01:36.119,14 Feb 2025 20:12:39.046,662.927
109,15 Feb 2025 18:10:10.448,15 Feb 2025 18:18:33.392,502.944
110,15 Feb 2025 19:42:45.762,15 Feb 2025 19:54:12.574,686.812
111,15 Feb 2025 21:18:50.283,15 Feb 2025 21:23:57.135,306.852
112,16 Feb 2025 17:52:31.537,16 Feb 2025 17:58:21.391,349.853
113,16 Feb 2025 19:24:01.389,16 Feb 2025 19:35:34.479,693.091
114,16 Feb 2025 20:59:08.541,16 Feb 2025 21:06:47.130,458.590
115,17 Feb 2025 19:05:23.212,17 Feb 2025 19:16:44.652,681.440
116,17 Feb 2025 20:39:51.418,17 Feb 2025 20:49:05.781,554.363
117,18 Feb 2025 18:46:52.216,18 Feb 2025 18:57:42.145,649.929
118,18 Feb 2025 20:20:46.368,18 Feb 2025 20:31:05.971,619.603
119,19 Feb 2025 18:28:30.581,19 Feb 2025 18:38:24.704,594.123
120,19 Feb 2025 20:01:49.431,19 Feb 2025 20:12:51.970,662.539
121,20 Feb 2025 18:10:23.100,20 Feb 2025 18:18:47.376,504.276
122,20 Feb 2025 19:42:59.003,20 Feb 2025 19:54:25.637,686.635
123,20 Feb 2025 21:19:04.454,20 Feb 2025 21:24:08.899,304.444
124,21 Feb 2025 17:52:43.663,21 Feb 2025 17:58:35.975,352.312
125,21 Feb 2025 19:24:14.560,21 Feb 2025 19:35:47.679,693.119
126,21 Feb 2025 20:59:22.235,21 Feb 2025 21:06:59.453,457.218
127,22 Feb 2025 19:05:36.306,22 Feb 2025 19:16:57.993,681.687
128,22 Feb 2025 20:40:04.928,22 Feb 2025 20:49:18.366,553.438
129,23 Feb 2025 18:47:05.216,23 Feb 2025 18:57:55.645,650.429
130,23 Feb 2025 20:20:59.766,23 Feb 2025 20:31:18.741,618.975
131,24 Feb 2025 18:28:43.451,24 Feb 2025 18:38:38.401,594.950
132,24 Feb 2025 20:02:02.746,24 Feb 2025 20:13:04.893,662.147
133,25 Feb 2025 18:10:35.754,25 Feb 2025 18:19:01.356,505.602
134,25 Feb 2025 19:43:12.245,25 Feb 2025 19:54:38.699,686.455
135,25 Feb 2025 21:19:18.639,25 Feb 2025 21:24:20.649,302.010
136,26 Feb 2025 17:52:55.794,26 Feb 2025 17:58:50.548,354.754
137,26 Feb 2025 19:24:27.730,26 Feb 2025 19:36:00.875,693.145
138,26 Feb 2025 20:59:35.933,26 Feb 2025 21:07:11.768,455.834
139,27 Feb 2025 19:05:49.400,27 Feb 2025 19:17:11.332,681.931
140,27 Feb 2025 20:40:18.438,27 Feb 2025 20:49:30.947,552.509
141,28 Feb 2025 18:47:18.216,28 Feb 2025 18:58:09.141,650.926
142,28 Feb 2025 20:21:13.163,28 Feb 2025 20:31:31.508,618.345
143,1 Mar 2025 18:28:56.321,1 Mar 2025 18:38:52.094,595.773
144,1 Mar 2025 20:02:16.059,1 Mar 2025 20:13:17.813,661.753
145,2 Mar 2025 18:10:48.412,2 Mar 2025 18:19:15.330,506.919
146,2 Mar 2025 19:43:25.486,2 Mar 2025 19:54:51.759,686.272
147,2 Mar 2025 21:19:32.833,2 Mar 2025 21:24:32.388,299.555
148,3 Mar 2025 17:53:07.940,3 Mar 2025 17:59:05.106,357.166
149,3 Mar 2025 19:24:40.903,3 Mar 2025 19:36:14.070,693.168
150,3 Mar 2025 20:59:49.632,3 Mar 2025 21:07:24.081,454.449
151,4 Mar 2025 19:06:02.496,4 Mar 2025 19:17:24.668,682.172
152,4 Mar 2025 20:40:31.949,4 Mar 2025 20:49:43.527,551.577
153,5 Mar 2025 18:47:31.219,5 Mar 2025 18:58:22.637,651.418
154,5 Mar 2025 20:21:26.562,5 Mar 2025 20:31:44.274,617.712
155,6 Mar 2025 18:29:09.196,6 Mar 2025 18:39:05.786,596.590
156,6 Mar 2025 20:02:29.375,6 Mar 2025 20:13:30.733,661.358
157,7 Mar 2025 18:11:01.075,7 Mar 2025 18:19:29.302,508.227
158,7 Mar 2025 19:43:38.731,7 Mar 2025 19:55:04.818,686.087
159,7 Mar 2025 21:19:47.038,7 Mar 2025 21:24:44.116,297.077
160,8 Mar 2025 17:53:20.104,8 Mar 2025 17:59:19.655,359.550
161,8 Mar 2025 19:24:54.077,8 Mar 2025 19:36:27.266,693.188
162,8 Mar 2025 21:00:03.337,8 Mar 2025 21:07:36.392,453.055
163,9 Mar 2025 19:06:15.594,9 Mar 2025 19:17:38.004,682.410
164,9 Mar 2025 20:40:45.464,9 Mar 2025 20:49:56.105,550.640
165,10 Mar 2025 18:47:44.223,10 Mar 2025 18:58:36.131,651.908
166,10 Mar 2025 20:21:39.963,10 Mar 2025 20:31:57.038,617.075
167,11 Mar 2025 18:29:22.072,11 Mar 2025 18:39:19.475,597.403
168,11 Mar 2025 20:02:42.692,11 Mar 2025 20:13:43.651,660.959
169,12 Mar 2025 18:11:13.741,12 Mar 2025 18:19:43.269,509.528
170,12 Mar 2025 19:43:51.975,12 Mar 2025 19:55:17.875,685.900
171,12 Mar 2025 21:20:01.257,12 Mar 2025 21:24:55.831,294.574
172,13 Mar 2025 17:53:32.271,13 Mar 2025 17:59:34.190,361.919
173,13 Mar 2025 19:25:07.251,13 Mar 2025 19:36:40.458,693.207
174,13 Mar 2025 21:00:17.043,13 Mar 2025 21:07:48.697,451.655
175,14 Mar 2025 19:06:28.691,14 Mar 2025 19:17:51.338,682.646
176,14 Mar 2025 20:40:58.979,14 Mar 2025 20:50:08.679,549.700
177,15 Mar 2025 18:47:57.227,15 Mar 2025 18:58:49.621,652.394
178,15 Mar 2025 20:21:53.364,15 Mar 2025 20:32:09.800,616.435
179,16 Mar 2025 18:29:34.949,16 Mar 2025 18:39:33.159,598.210
180,16 Mar 2025 20:02:56.008,16 Mar 2025 20:13:56.566,660.558
181,17 Mar 2025 18:11:26.408,17 Mar 2025 18:19:57.226,510.818
182,17 Mar 2025 19:44:05.223,17 Mar 2025 19:55:30.933,685.709
183,17 Mar 2025 21:20:15.479,17 Mar 2025 21:25:07.528,292.049
184,18 Mar 2025 17:53:44.452,18 Mar 2025 17:59:48.713,364.261
185,18 Mar 2025 19:25:20.426,18 Mar 2025 19:36:53.648,693.222
186,18 Mar 2025 21:00:30.750,18 Mar 2025 21:08:01.001,450.251
187,19 Mar 2025 19:06:41.790,19 Mar 2025 19:18:04.670,682.879
188,19 Mar 2025 20:41:12.494,19 Mar 2025 20:50:21.251,548.757
189,20 Mar 2025 18:48:10.234,20 Mar 2025 18:59:03.110,652.877
190,20 Mar 2025 20:22:06.768,20 Mar 2025 20:32:22.560,615.791
191,21 Mar 2025 18:29:47.829,21 Mar 2025 18:39:46.842,599.012
192,21 Mar 2025 20:03:09.326,21 Mar 2025 20:14:09.481,660.154
193,22 Mar 2025 18:11:39.082,22 Mar 2025 18:20:11.185,512.103
194,22 Mar 2025 19:44:18.470,22 Mar 2025 19:55:43.986,685.516
195,22 Mar 2025 21:20:29.720,22 Mar 2025 21:25:19.217,289.497
196,23 Mar 2025 17:53:56.643,23 Mar 2025 18:00:03.227,366.584
197,23 Mar 2025 19:25:33.603,23 Mar 2025 19:37:06.838,693.236
198,23 Mar 2025 21:00:44.463,23 Mar 2025 21:08:13.300,448.837
199,24 Mar 2025 19:06:54.891,24 Mar 2025 19:18:18.001,683.110
200,24 Mar 2025 20:41:26.013,24 Mar 2025 20:50:33.822,547.809
201,25 Mar 2025 18:48:23.242,25 Mar 2025 18:59:16.598,653.356
202,25 Mar 2025 20:22:20.173,25 Mar 2025 20:32:35.318,615.145
203,26 Mar 2025 18:30:00.711,26 Mar 2025 18:40:00.522,599.811
204,26 Mar 2025 20:03:22.645,26 Mar 2025 20:14:22.393,659.748
205,27 Mar 2025 18:11:51.757,27 Mar 2025 18:20:25.139,513.381
206,27 Mar 2025 19:44:31.716,27 Mar 2025 19:55:57.037,685.321
207,27 Mar 2025 21:20:43.974,27 Mar 2025 21:25:30.890,286.915
208,28 Mar 2025 17:54:08.842,28 Mar 2025 18:00:17.729,368.887
209,28 Mar 2025 19:25:46.779,28 Mar 2025 19:37:20.026,693.246
210,28 Mar 2025 21:00:58.178,28 Mar 2025 21:08:25.593,447.416
211,29 Mar 2025 19:07:07.991,29 Mar 2025 19:18:31.329,683.338
212,29 Mar 2025 20:41:39.532,29 Mar 2025 20:50:46.388,546.856
213,30 Mar 2025 18:48:36.250,30 Mar 2025 18:59:30.082,653.832
214,30 Mar 2025 20:22:33.577,30 Mar 2025 20:32:48.074,614.497
215,31 Mar 2025 18:30:13.594,31 Mar 2025 18:40:14.198,600.604
216,31 Mar 2025 20:03:35.964,31 Mar 2025 20:14:35.304,659.340
217,1 Apr 2025 18:12:04.437,1 Apr 2025 18:20:39.088,514.650
218,1 Apr 2025 19:44:44.963,1 Apr 2025 19:56:10.086,685.123
219,1 Apr 2025 21:20:58.238,1 Apr 2025 21:25:42.551,284.313
220,2 Apr 2025 17:54:21.054,2 Apr 2025 18:00:32.218,371.165
221,2 Apr 2025 19:25:59.957,2 Apr 2025 19:37:33.212,693.255
222,2 Apr 2025 21:01:11.894,2 Apr 2025 21:08:37.884,445.990
223,3 Apr 2025 19:07:21.094,3 Apr 2025 19:18:44.656,683.562
224,3 Apr 2025 20:41:53.052,3 Apr 2025 20:50:58.954,545.902
225,4 Apr 2025 18:48:49.261,4 Apr 2025 18:59:43.566,654.305
226,4 Apr 2025 20:22:46.977,4 Apr 2025 20:33:00.829,613.851
227,5 Apr 2025 18:30:26.480,5 Apr 2025 18:40:27.873,601.392
228,5 Apr 2025 20:03:49.285,5 Apr 2025 20:14:48.214,658.929
229,6 Apr 2025 18:12:17.121,6 Apr 2025 18:20:53.034,515.913
230,6 Apr 2025 19:44:58.212,6 Apr 2025 19:56:23.138,684.926
231,6 Apr 2025 21:21:12.518,6 Apr 2025 21:25:54.198,281.679
232,7 Apr 2025 17:54:33.275,7 Apr 2025 18:00:46.699,373.424
233,7 Apr 2025 19:26:13.136,7 Apr 2025 19:37:46.397,693.261
234,7 Apr 2025 21:01:25.616,7 Apr 2025 21:08:50.170,444.554
235,8 Apr 2025 19:07:34.197,8 Apr 2025 19:18:57.984,683.787
236,8 Apr 2025 20:42:06.571,8 Apr 2025 20:51:11.516,544.945
237,9 Apr 2025 18:49:02.277,9 Apr 2025 18:59:57.044,654.767
238,9 Apr 2025 20:23:00.388,9 Apr 2025 20:33:13.580,613.193
239,10 Apr 2025 18:30:39.367,10 Apr 2025 18:40:41.544,602.176
240,10 Apr 2025 20:04:02.605,10 Apr 2025 20:15:01.120,658.515
241,11 Apr 2025 18:12:29.806,11 Apr 2025 18:21:06.976,517.170
242,11 Apr 2025 19:45:11.460,11 Apr 2025 19:56:36.184,684.724
243,11 Apr 2025 21:21:26.811,11 Apr 2025 21:26:05.828,279.018
244,12 Apr 2025 17:54:45.505,12 Apr 2025 18:01:01.167,375.662
245,12 Apr 2025 19:26:26.314,12 Apr 2025 19:37:59.578,693.264
246,12 Apr 2025 21:01:39.338,12 Apr 2025 21:09:02.451,443.113
247,13 Apr 2025 19:07:47.299,13 Apr 2025 19:19:11.306,684.006
248,13 Apr 2025 20:42:20.093,13 Apr 2025 20:51:24.075,543.982
249,14 Apr 2025 18:49:15.289,14 Apr 2025 19:00:10.521,655.233
250,14 Apr 2025 20:23:13.793,14 Apr 2025 20:33:26.330,612.537
251,15 Apr 2025 18:30:52.256,15 Apr 2025 18:40:55.211,602.955
252,15 Apr 2025 20:04:15.926,15 Apr 2025 20:15:14.025,658.099
253,16 Apr 2025 18:12:42.495,16 Apr 2025 18:21:20.910,518.415
254,16 Apr 2025 19:45:24.708,16 Apr 2025 19:56:49.228,684.520
255,16 Apr 2025 21:21:41.115,16 Apr 2025 21:26:17.446,276.331
256,17 Apr 2025 17:54:57.746,17 Apr 2025 18:01:15.625,377.878
257,17 Apr 2025 19:26:39.493,17 Apr 2025 19:38:12.759,693.265
258,17 Apr 2025 21:01:53.063,17 Apr 2025 21:09:14.729,441.666
259,18 Apr 2025 19:08:00.404,18 Apr 2025 19:19:24.626,684.222
260,18 Apr 2025 20:42:33.617,18 Apr 2025 20:51:36.632,543.016
261,19 Apr 2025 18:49:28.303,19 Apr 2025 19:00:23.998,655.695
262,19 Apr 2025 20:23:27.200,19 Apr 2025 20:33:39.078,611.878
263,20 Apr 2025 18:31:05.147,20 Apr 2025 18:41:08.877,603.730
264,20 Apr 2025 20:04:29.248,20 Apr 2025 20:15:26.929,657.681
265,21 Apr 2025 18:12:55.188,21 Apr 2025 18:21:34.843,519.655
266,21 Apr 2025 19:45:37.959,21 Apr 2025 19:57:02.271,684.313
267,21 Apr 2025 21:21:55.436,21 Apr 2025 21:26:29.047,273.611
268,22 Apr 2025 17:55:09.996,22 Apr 2025 18:01:30.074,380.078
269,22 Apr 2025 19:26:52.674,22 Apr 2025 19:38:25.938,693.264
270,22 Apr 2025 21:02:06.793,22 Apr 2025 21:09:27.002,440.209
271,23 Apr 2025 19:08:13.509,23 Apr 2025 19:19:37.946,684.436
272,23 Apr 2025 20:42:47.143,23 Apr 2025 20:51:49.187,542.043
273,24 Apr 2025 18:49:41.318,24 Apr 2025 19:00:37.472,656.154
274,24 Apr 2025 20:23:40.609,24 Apr 2025 20:33:51.824,611.215
275,25 Apr 2025 18:31:18.038,25 Apr 2025 18:41:22.540,604.501
276,25 Apr 2025 20:04:42.571,25 Apr 2025 20:15:39.834,657.264
277,26 Apr 2025 18:13:07.883,26 Apr 2025 18:21:48.771,520.888
278,26 Apr 2025 19:45:51.208,26 Apr 2025 19:57:15.312,684.103
279,26 Apr 2025 21:22:09.771,26 Apr 2025 21:26:40.631,270.860
280,27 Apr 2025 17:55:22.254,27 Apr 2025 18:01:44.511,382.257
281,27 Apr 2025 19:27:05.849,27 Apr 2025 19:38:39.115,693.266
282,27 Apr 2025 21:02:20.524,27 Apr 2025 21:09:39.270,438.746
283,28 Apr 2025 19:08:26.614,28 Apr 2025 19:19:51.257,684.643
284,28 Apr 2025 20:43:00.673,28 Apr 2025 20:52:01.736,541.063
285,29 Apr 2025 18:49:54.333,29 Apr 2025 19:00:50.945,656.612
286,29 Apr 2025 20:23:54.013,29 Apr 2025 20:34:04.567,610.554
287,30 Apr 2025 18:31:30.932,30 Apr 2025 18:41:36.199,605.267
288,30 Apr 2025 20:04:55.893,30 Apr 2025 20:15:52.734,656.841
289,1 May 2025 18:13:20.582,1 May 2025 18:22:02.697,522.115
290,1 May 2025 19:46:04.455,1 May 2025 19:57:28.352,683.897
291,1 May 2025 21:22:24.123,1 May 2025 21:26:52.200,268.077
292,2 May 2025 17:55:34.523,2 May 2025 18:01:58.938,384.415
293,2 May 2025 19:27:19.036,2 May 2025 19:38:52.290,693.254
294,2 May 2025 21:02:34.259,2 May 2025 21:09:51.536,437.277
295,3 May 2025 19:08:39.722,3 May 2025 19:20:04.577,684.855
296,3 May 2025 20:43:14.198,3 May 2025 20:52:14.287,540.089
297,4 May 2025 18:50:07.351,4 May 2025 19:01:04.411,657.060
298,4 May 2025 20:24:07.427,4 May 2025 20:34:17.309,609.882
299,5 May 2025 18:31:43.828,5 May 2025 18:41:49.857,606.029
300,5 May 2025 20:05:09.218,5 May 2025 20:16:05.632,656.414
301,6 May 2025 18:13:33.283,6 May 2025 18:22:16.617,523.333
302,6 May 2025 19:46:17.707,6 May 2025 19:57:41.391,683.684
303,6 May 2025 21:22:38.491,6 May 2025 21:27:03.749,265.259
304,7 May 2025 17:55:46.798,7 May 2025 18:02:13.357,386.559
305,7 May 2025 19:27:32.213,7 May 2025 19:39:05.464,693.251
306,7 May 2025 21:02:47.998,7 May 2025 21:10:03.795,435.797
307,8 May 2025 19:08:52.829,8 May 2025 19:20:17.885,685.056
308,8 May 2025 20:43:27.733,8 May 2025 20:52:26.830,539.098
309,9 May 2025 18:50:20.368,9 May 2025 19:01:17.882,657.515
310,9 May 2025 20:24:20.835,9 May 2025 20:34:30.047,609.213
311,10 May 2025 18:31:56.723,10 May 2025 18:42:03.510,606.787
312,10 May 2025 20:05:22.541,10 May 2025 20:16:18.527,655.986
313,11 May 2025 18:13:45.990,11 May 2025 18:22:30.533,524.543
314,11 May 2025 19:46:30.957,11 May 2025 19:57:54.429,683.472
315,11 May 2025 21:22:52.872,11 May 2025 21:27:15.281,262.409
316,12 May 2025 17:55:59.081,12 May 2025 18:02:27.763,388.682
317,12 May 2025 19:27:45.394,12 May 2025 19:39:18.634,693.240
318,12 May 2025 21:03:01.737,12 May 2025 21:10:16.050,434.312
319,13 May 2025 19:09:05.934,13 May 2025 19:20:31.195,685.261
320,13 May 2025 20:43:41.260,13 May 2025 20:52:39.373,538.113
321,14 May 2025 18:50:33.386,14 May 2025 19:01:31.346,657.961
322,14 May 2025 20:24:34.246,14 May 2025 20:34:42.784,608.538
323,15 May 2025 18:32:09.622,15 May 2025 18:42:17.161,607.539
324,15 May 2025 20:05:35.866,15 May 2025 20:16:31.420,655.555
325,16 May 2025 18:13:58.698,16 May 2025 18:22:44.439,525.741
326,16 May 2025 19:46:44.210,16 May 2025 19:58:07.463,683.254
327,16 May 2025 21:23:07.269,16 May 2025 21:27:26.796,259.527
328,17 May 2025 17:56:11.374,17 May 2025 18:02:42.161,390.787
329,17 May 2025 19:27:58.577,17 May 2025 19:39:31.804,693.227
330,17 May 2025 21:03:15.481,17 May 2025 21:10:28.301,432.819
331,18 May 2025 19:09:19.043,18 May 2025 19:20:44.504,685.461
332,18 May 2025 20:43:54.793,18 May 2025 20:52:51.913,537.120
333,19 May 2025 18:50:46.402,19 May 2025 19:01:44.810,658.408
334,19 May 2025 20:24:47.658,19 May 2025 20:34:55.519,607.861
335,20 May 2025 18:32:22.522,20 May 2025 18:42:30.810,608.289
336,20 May 2025 20:05:49.192,20 May 2025 20:16:44.312,655.121
337,21 May 2025 18:14:11.408,21 May 2025 18:22:58.347,526.939
338,21 May 2025 19:46:57.463,21 May 2025 19:58:20.496,683.033
339,21 May 2025 21:23:21.687,21 May 2025 21:27:38.289,256.602
340,22 May 2025 17:56:23.673,22 May 2025 18:02:56.551,392.878
341,22 May 2025 19:28:11.761,22 May 2025 19:39:44.972,693.211
342,22 May 2025 21:03:29.230,22 May 2025 21:10:40.546,431.316
343,23 May 2025 19:09:32.152,23 May 2025 19:20:57.811,685.658
344,23 May 2025 20:44:08.327,23 May 2025 20:53:04.450,536.123
345,24 May 2025 18:50:59.422,24 May 2025 19:01:58.266,658.844
346,24 May 2025 20:25:01.071,24 May 2025 20:35:08.250,607.179
347,25 May 2025 18:32:35.422,25 May 2025 18:42:44.455,609.033
348,25 May 2025 20:06:02.517,25 May 2025 20:16:57.201,654.684
349,26 May 2025 18:14:24.120,26 May 2025 18:23:12.249,528.129
350,26 May 2025 19:47:10.715,26 May 2025 19:58:33.525,682.810
351,26 May 2025 21:23:36.120,26 May 2025 21:27:49.764,253.644
352,27 May 2025 17:56:35.981,27 May 2025 18:03:10.929,394.948
353,27 May 2025 19:28:24.944,27 May 2025 19:39:58.136,693.193
354,27 May 2025 21:03:42.979,27 May 2025 21:10:52.786,429.808
355,28 May 2025 19:09:45.262,28 May 2025 19:21:11.115,685.853
356,28 May 2025 20:44:21.861,28 May 2025 20:53:16.984,535.123
357,29 May 2025 18:51:12.443,29 May 2025 19:02:11.724,659.280
358,29 May 2025 20:25:14.485,29 May 2025 20:35:20.980,606.496
359,30 May 2025 18:32:48.325,30 May 2025 18:42:58.098,609.773
360,30 May 2025 20:06:15.843,30 May 2025 20:17:10.089,654.246
361,31 May 2025 18:14:36.836,31 May 2025 18:23:26.148,529.313
362,31 May 2025 19:47:23.969,31 May 2025 19:58:46.554,682.585
363,31 May 2025 21:23:50.573,31 May 2025 21:28:01.215,250.642
364,1 Jun 2025 17:56:48.297,1 Jun 2025 18:03:25.300,397.003
365,1 Jun 2025 19:28:38.129,1 Jun 2025 19:40:11.301,693.172
366,1 Jun 2025 21:03:56.733,1 Jun 2025 21:11:05.023,428.290
367,2 Jun 2025 17:40:49.045,2 Jun 2025 17:41:28.813,39.768
368,2 Jun 2025 19:09:58.373,2 Jun 2025 19:21:24.419,686.046
369,2 Jun 2025 20:44:35.399,2 Jun 2025 20:53:29.516,534.117
370,3 Jun 2025 18:51:25.466,3 Jun 2025 19:02:25.180,659.714
371,3 Jun 2025 20:25:27.898,3 Jun 2025 20:35:33.708,605.810
372,4 Jun 2025 18:33:01.228,4 Jun 2025 18:43:11.738,610.510
373,4 Jun 2025 20:06:29.171,4 Jun 2025 20:17:22.975,653.804
374,5 Jun 2025 18:14:49.550,5 Jun 2025 18:23:40.042,530.492
375,5 Jun 2025 19:47:37.227,5 Jun 2025 19:58:59.577,682.349
376,5 Jun 2025 21:24:05.043,5 Jun 2025 21:28:12.650,247.607
377,6 Jun 2025 17:57:00.618,6 Jun 2025 18:03:39.662,399.043
378,6 Jun 2025 19:28:51.317,6 Jun 2025 19:40:24.462,693.145
379,6 Jun 2025 21:04:10.491,6 Jun 2025 21:11:17.253,426.762
380,7 Jun 2025 17:40:52.257,7 Jun 2025 17:41:52.368,60.111
381,7 Jun 2025 19:10:11.482,7 Jun 2025 19:21:37.720,686.237
382,7 Jun 2025 20:44:48.933,7 Jun 2025 20:53:42.043,533.110
383,8 Jun 2025 18:51:38.488,8 Jun 2025 19:02:38.632,660.145
384,8 Jun 2025 20:25:41.313,8 Jun 2025 20:35:46.433,605.119
385,9 Jun 2025 18:33:14.134,9 Jun 2025 18:43:25.374,611.240
386,9 Jun 2025 20:06:42.497,9 Jun 2025 20:17:35.857,653.360
387,10 Jun 2025 18:15:02.268,10 Jun 2025 18:23:53.932,531.663
388,10 Jun 2025 19:47:50.481,10 Jun 2025 19:59:12.600,682.119
389,10 Jun 2025 21:24:19.535,10 Jun 2025 21:28:24.061,244.525
390,11 Jun 2025 17:57:12.948,11 Jun 2025 18:03:54.013,401.065
391,11 Jun 2025 19:29:04.502,11 Jun 2025 19:40:37.621,693.119
392,11 Jun 2025 21:04:24.251,11 Jun 2025 21:11:29.478,425.228
393,12 Jun 2025 17:40:58.147,12 Jun 2025 17:42:13.232,75.085
394,12 Jun 2025 19:10:24.593,12 Jun 2025 19:21:51.016,686.422
395,12 Jun 2025 20:45:02.472,12 Jun 2025 20:53:54.568,532.096
396,13 Jun 2025 18:51:51.511,13 Jun 2025 19:02:52.083,660.572
397,13 Jun 2025 20:25:54.729,13 Jun 2025 20:35:59.156,604.426
398,14 Jun 2025 18:33:27.041,14 Jun 2025 18:43:39.009,611.968
399,14 Jun 2025 20:06:55.826,14 Jun 2025 20:17:48.739,652.913
400,15 Jun 2025 18:15:14.991,15 Jun 2025 18:24:07.819,532.828
401,15 Jun 2025 19:48:03.736,15 Jun 2025 19:59:25.623,681.887
402,15 Jun 2025 21:24:34.052,15 Jun 2025 21:28:35.449,241.397
403,16 Jun 2025 17:57:25.285,16 Jun 2025 18:04:08.358,403.072
404,16 Jun 2025 19:29:17.688,16 Jun 2025 19:40:50.780,693.092
405,16 Jun 2025 21:04:38.016,16 Jun 2025 21:11:41.700,423.684
406,17 Jun 2025 17:41:05.307,17 Jun 2025 17:42:32.831,87.525
407,17 Jun 2025 19:10:37.706,17 Jun 2025 19:22:04.314,686.608
408,17 Jun 2025 20:45:16.014,17 Jun 2025 20:54:07.091,531.077
409,18 Jun 2025 18:52:04.536,18 Jun 2025 19:03:05.533,660.996
410,18 Jun 2025 20:26:08.148,18 Jun 2025 20:36:11.876,603.729
411,19 Jun 2025 18:33:39.948,19 Jun 2025 18:43:52.641,612.693
412,19 Jun 2025 20:07:09.155,19 Jun 2025 20:18:01.618,652.463
413,20 Jun 2025 18:15:27.715,20 Jun 2025 18:24:21.701,533.987
414,20 Jun 2025 19:48:16.992,20 Jun 2025 19:59:38.644,681.652
415,20 Jun 2025 21:24:48.592,20 Jun 2025 21:28:46.811,238.219
416,21 Jun 2025 17:57:37.628,21 Jun 2025 18:04:22.693,405.065
417,21 Jun 2025 19:29:30.871,21 Jun 2025 19:41:03.935,693.064
418,21 Jun 2025 21:04:51.784,21 Jun 2025 21:11:53.914,422.130
419,22 Jun 2025 17:41:13.256,22 Jun 2025 17:42:51.638,98.382
420,22 Jun 2025 19:10:50.819,22 Jun 2025 19:22:17.608,686.788
421,22 Jun 2025 20:45:29.556,22 Jun 2025 20:54:19.608,530.052
422,23 Jun 2025 18:52:17.560,23 Jun 2025 19:03:18.978,661.418
423,23 Jun 2025 20:26:21.565,23 Jun 2025 20:36:24.594,603.028
424,24 Jun 2025 18:33:52.855,24 Jun 2025 18:44:06.268,613.413
425,24 Jun 2025 20:07:22.484,24 Jun 2025 20:18:14.495,652.011
426,25 Jun 2025 18:15:40.442,25 Jun 2025 18:24:35.579,535.137
427,25 Jun 2025 19:48:30.247,25 Jun 2025 19:59:51.662,681.415
428,25 Jun 2025 21:25:03.151,25 Jun 2025 21:28:58.150,234.999
429,26 Jun 2025 17:57:49.979,26 Jun 2025 18:04:37.019,407.040
430,26 Jun 2025 19:29:44.058,26 Jun 2025 19:41:17.089,693.031
431,26 Jun 2025 21:05:05.555,26 Jun 2025 21:12:06.129,420.574
432,27 Jun 2025 17:41:21.766,27 Jun 2025 17:43:09.884,108.118
433,27 Jun 2025 19:11:03.933,27 Jun 2025 19:22:30.901,686.968
434,27 Jun 2025 20:45:43.100,27 Jun 2025 20:54:32.125,529.024
435,28 Jun 2025 18:52:30.590,28 Jun 2025 19:03:32.422,661.832
436,28 Jun 2025 20:26:34.984,28 Jun 2025 20:36:37.310,602.326
437,29 Jun 2025 18:34:05.767,29 Jun 2025 18:44:19.895,614.128
438,29 Jun 2025 20:07:35.815,29 Jun 2025 20:18:27.371,651.556
439,30 Jun 2025 18:15:53.172,30 Jun 2025 18:24:49.455,536.283
440,30 Jun 2025 19:48:43.504,30 Jun 2025 20:00:04.679,681.175
441,30 Jun 2025 21:25:17.739,30 Jun 2025 21:29:09.463,231.724
442,1 Jul 2025 17:58:02.336,1 Jul 2025 18:04:51.339,409.004
443,1 Jul 2025 19:29:57.246,1 Jul 2025 19:41:30.242,692.995
444,1 Jul 2025 21:05:19.333,1 Jul 2025 21:12:18.334,419.001
445,2 Jul 2025 17:41:30.680,2 Jul 2025 17:43:27.722,117.042
446,2 Jul 2025 19:11:17.045,2 Jul 2025 19:22:44.191,687.146
447,2 Jul 2025 20:45:56.648,2 Jul 2025 20:54:44.638,527.990
448,3 Jul 2025 18:52:43.616,3 Jul 2025 19:03:45.864,662.248
449,3 Jul 2025 20:26:48.404,3 Jul 2025 20:36:50.023,601.619
450,4 Jul 2025 18:34:18.677,4 Jul 2025 18:44:33.519,614.841
451,4 Jul 2025 20:07:49.145,4 Jul 2025 20:18:40.244,651.098
452,5 Jul 2025 18:16:05.903,5 Jul 2025 18:25:03.324,537.421
453,5 Jul 2025 19:48:56.757,5 Jul 2025 20:00:17.698,680.940
454,5 Jul 2025 21:25:32.351,5 Jul 2025 21:29:20.746,228.395
455,6 Jul 2025 17:58:14.702,6 Jul 2025 18:05:05.650,410.947
456,6 Jul 2025 19:30:10.431,6 Jul 2025 19:41:43.391,692.961
457,6 Jul 2025 21:05:33.113,6 Jul 2025 21:12:30.532,417.420
458,7 Jul 2025 17:41:39.924,7 Jul 2025 17:43:45.230,125.306
459,7 Jul 2025 19:11:30.160,7 Jul 2025 19:22:57.480,687.319
460,7 Jul 2025 20:46:10.195,7 Jul 2025 20:54:57.146,526.951
461,8 Jul 2025 18:52:56.643,8 Jul 2025 19:03:59.304,662.661
462,8 Jul 2025 20:27:01.825,8 Jul 2025 20:37:02.733,600.909
463,9 Jul 2025 18:34:31.589,9 Jul 2025 18:44:47.139,615.550
464,9 Jul 2025 20:08:02.476,9 Jul 2025 20:18:53.114,650.638
465,10 Jul 2025 18:16:18.642,10 Jul 2025 18:25:17.193,538.551
466,10 Jul 2025 19:49:10.019,10 Jul 2025 20:00:30.706,680.688
467,10 Jul 2025 21:25:46.990,10 Jul 2025 21:29:32.003,225.013
468,11 Jul 2025 17:58:27.068,11 Jul 2025 18:05:19.952,412.884
469,11 Jul 2025 19:30:23.623,11 Jul 2025 19:41:56.540,692.916
470,11 Jul 2025 21:05:46.896,11 Jul 2025 21:12:42.727,415.830
471,12 Jul 2025 17:41:49.429,12 Jul 2025 17:44:02.471,133.041
472,12 Jul 2025 19:11:43.273,12 Jul 2025 19:23:10.768,687.495
473,12 Jul 2025 20:46:23.745,12 Jul 2025 20:55:09.653,525.908
474,13 Jul 2025 18:53:09.672,13 Jul 2025 19:04:12.743,663.071
475,13 Jul 2025 20:27:15.247,13 Jul 2025 20:37:15.443,600.195
476,14 Jul 2025 18:34:44.503,14 Jul 2025 18:45:00.758,616.255
477,14 Jul 2025 20:08:15.810,14 Jul 2025 20:19:05.984,650.174
478,15 Jul 2025 18:16:31.374,15 Jul 2025 18:25:31.054,539.680
479,15 Jul 2025 19:49:23.274,15 Jul 2025 20:00:43.722,680.448
480,15 Jul 2025 21:26:01.656,15 Jul 2025 21:29:43.230,221.574
481,16 Jul 2025 17:58:39.448,16 Jul 2025 18:05:34.249,414.800
482,16 Jul 2025 19:30:36.809,16 Jul 2025 19:42:09.687,692.878
483,16 Jul 2025 21:06:00.686,16 Jul 2025 21:12:54.915,414.229
484,17 Jul 2025 17:41:59.153,17 Jul 2025 17:44:19.495,140.342
485,17 Jul 2025 19:11:56.389,17 Jul 2025 19:23:24.054,687.665
486,17 Jul 2025 20:46:37.298,17 Jul 2025 20:55:22.157,524.859
487,18 Jul 2025 18:53:22.701,18 Jul 2025 19:04:26.179,663.479
488,18 Jul 2025 20:27:28.671,18 Jul 2025 20:37:28.149,599.478
489,19 Jul 2025 18:34:57.416,19 Jul 2025 18:45:14.373,616.957
490,19 Jul 2025 20:08:29.143,19 Jul 2025 20:19:18.851,649.707
491,20 Jul 2025 18:16:44.111,20 Jul 2025 18:25:44.913,540.802
492,20 Jul 2025 19:49:36.532,20 Jul 2025 20:00:56.731,680.199
493,20 Jul 2025 21:26:16.353,20 Jul 2025 21:29:54.419,218.066
494,21 Jul 2025 17:58:51.829,21 Jul 2025 18:05:48.535,416.706
495,21 Jul 2025 19:30:50.000,21 Jul 2025 19:42:22.831,692.832
496,21 Jul 2025 21:06:14.479,21 Jul 2025 21:13:07.097,412.618
497,22 Jul 2025 17:42:09.066,22 Jul 2025 17:44:36.325,147.259
498,22 Jul 2025 19:12:09.505,22 Jul 2025 19:23:37.337,687.832
499,22 Jul 2025 20:46:50.851,22 Jul 2025 20:55:34.656,523.805
500,23 Jul 2025 18:53:35.730,23 Jul 2025 19:04:39.613,663.883
501,23 Jul 2025 20:27:42.095,23 Jul 2025 20:37:40.852,598.758
502,24 Jul 2025 18:35:10.332,24 Jul 2025 18:45:27.986,617.654
503,24 Jul 2025 20:08:42.477,24 Jul 2025 20:19:31.716,649.239
504,25 Jul 2025 18:16:56.853,25 Jul 2025 18:25:58.769,541.916
505,25 Jul 2025 19:49:49.792,25 Jul 2025 20:01:09.739,679.946
506,25 Jul 2025 21:26:31.080,25 Jul 2025 21:30:05.584,214.503
507,26 Jul 2025 17:59:04.218,26 Jul 2025 18:06:02.816,418.598
508,26 Jul 2025 19:31:03.192,26 Jul 2025 19:42:35.975,692.783
509,26 Jul 2025 21:06:28.276,26 Jul 2025 21:13:19.275,410.999
510,27 Jul 2025 17:42:19.147,27 Jul 2025 17:44:52.995,153.848
511,27 Jul 2025 19:12:22.622,27 Jul 2025 19:23:50.619,687.997
512,27 Jul 2025 20:47:04.407,27 Jul 2025 20:55:47.154,522.747
513,28 Jul 2025 18:53:48.762,28 Jul 2025 19:04:53.046,664.284
514,28 Jul 2025 20:27:55.522,28 Jul 2025 20:37:53.555,598.033
515,29 Jul 2025 18:35:23.250,29 Jul 2025 18:45:41.598,618.348
516,29 Jul 2025 20:08:55.814,29 Jul 2025 20:19:44.580,648.766
517,30 Jul 2025 18:17:09.596,30 Jul 2025 18:26:12.622,543.027
518,30 Jul 2025 19:50:03.054,30 Jul 2025 20:01:22.745,679.691
519,30 Jul 2025 21:26:45.846,30 Jul 2025 21:30:16.711,210.865
520,31 Jul 2025 17:59:16.611,31 Jul 2025 18:06:17.089,420.479
521,31 Jul 2025 19:31:16.384,31 Jul 2025 19:42:49.117,692.733
522,31 Jul 2025 21:06:42.080,31 Jul 2025 21:13:31.446,409.366
523,1 Aug 2025 17:42:29.356,1 Aug 2025 17:45:09.525,160.168
524,1 Aug 2025 19:12:35.740,1 Aug 2025 19:24:03.895,688.155
525,1 Aug 2025 20:47:17.966,1 Aug 2025 20:55:59.648,521.681
526,2 Aug 2025 18:54:01.793,2 Aug 2025 19:05:06.474,664.681
527,2 Aug 2025 20:28:08.944,2 Aug 2025 20:38:06.254,597.309
528,3 Aug 2025 18:35:36.167,3 Aug 2025 18:45:55.206,619.038
529,3 Aug 2025 20:09:09.150,3 Aug 2025 20:19:57.441,648.291
530,4 Aug 2025 18:17:22.340,4 Aug 2025 18:26:26.471,544.131
531,4 Aug 2025 19:50:16.314,4 Aug 2025 20:01:35.748,679.434
532,4 Aug 2025 21:27:00.644,4 Aug 2025 21:30:27.802,207.158
533,5 Aug 2025 17:59:29.010,5 Aug 2025 18:06:31.355,422.345
534,5 Aug 2025 19:31:29.570,5 Aug 2025 19:43:02.256,692.686
535,5 Aug 2025 21:06:55.887,5 Aug 2025 21:13:43.611,407.725
536,6 Aug 2025 17:42:39.699,6 Aug 2025 17:45:25.924,166.225
537,6 Aug 2025 19:12:48.858,6 Aug 2025 19:24:17.176,688.318
538,6 Aug 2025 20:47:31.526,6 Aug 2025 20:56:12.138,520.612
539,7 Aug 2025 18:54:14.825,7 Aug 2025 19:05:19.902,665.077
540,7 Aug 2025 20:28:22.373,7 Aug 2025 20:38:18.951,596.578
541,8 Aug 2025 18:35:49.089,8 Aug 2025 18:46:08.812,619.722
542,8 Aug 2025 20:09:22.487,8 Aug 2025 20:20:10.300,647.813
543,9 Aug 2025 18:17:35.088,9 Aug 2025 18:26:40.317,545.229
544,9 Aug 2025 19:50:29.577,9 Aug 2025 20:01:48.751,679.174
545,9 Aug 2025 21:27:15.478,9 Aug 2025 21:30:38.861,203.383
546,10 Aug 2025 17:59:41.416,10 Aug 2025 18:06:45.609,424.194
547,10 Aug 2025 19:31:42.767,10 Aug 2025 19:43:15.399,692.632
548,10 Aug 2025 21:07:09.702,10 Aug 2025 21:13:55.768,406.066
549,11 Aug 2025 17:42:50.154,11 Aug 2025 17:45:42.211,172.057
550,11 Aug 2025 19:13:01.979,11 Aug 2025 19:24:30.453,688.474
551,11 Aug 2025 20:47:45.090,11 Aug 2025 20:56:24.627,519.537
552,12 Aug 2025 18:54:27.860,12 Aug 2025 19:05:33.330,665.470
553,12 Aug 2025 20:28:35.804,12 Aug 2025 20:38:31.647,595.843
554,13 Aug 2025 18:36:02.011,13 Aug 2025 18:46:22.416,620.406
555,13 Aug 2025 20:09:35.827,13 Aug 2025 20:20:23.159,647.331
556,14 Aug 2025 18:17:47.838,14 Aug 2025 18:26:54.160,546.322
557,14 Aug 2025 19:50:42.841,14 Aug 2025 20:02:01.753,678.911
558,14 Aug 2025 21:27:30.356,14 Aug 2025 21:30:49.873,199.517
559,15 Aug 2025 17:59:53.826,15 Aug 2025 18:06:59.863,426.037
560,15 Aug 2025 19:31:55.961,15 Aug 2025 19:43:28.535,692.575
561,15 Aug 2025 21:07:23.521,15 Aug 2025 21:14:07.921,404.400
562,16 Aug 2025 17:43:00.707,16 Aug 2025 17:45:58.398,177.691
563,16 Aug 2025 19:13:15.099,16 Aug 2025 19:24:43.727,688.628
564,16 Aug 2025 20:47:58.655,16 Aug 2025 20:56:37.111,518.456
565,17 Aug 2025 18:54:40.894,17 Aug 2025 19:05:46.755,665.861
566,17 Aug 2025 20:28:49.235,17 Aug 2025 20:38:44.339,595.103
567,18 Aug 2025 18:36:14.932,18 Aug 2025 18:46:36.017,621.085
568,18 Aug 2025 20:09:49.166,18 Aug 2025 20:20:36.014,646.847
569,19 Aug 2025 18:18:00.589,19 Aug 2025 18:27:07.999,547.409
570,19 Aug 2025 19:50:56.104,19 Aug 2025 20:02:14.751,678.646
571,19 Aug 2025 21:27:45.271,19 Aug 2025 21:31:00.843,195.572
572,20 Aug 2025 18:00:06.242,20 Aug 2025 18:07:14.108,427.866
573,20 Aug 2025 19:32:09.154,20 Aug 2025 19:43:41.670,692.516
574,20 Aug 2025 21:07:37.342,20 Aug 2025 21:14:20.070,402.727
575,21 Aug 2025 17:43:11.351,21 Aug 2025 17:46:14.489,183.137
576,21 Aug 2025 19:13:28.220,21 Aug 2025 19:24:56.999,688.780
577,21 Aug 2025 20:48:12.227,21 Aug 2025 20:56:49.595,517.368
578,22 Aug 2025 18:54:53.930,22 Aug 2025 19:06:00.176,666.246
579,22 Aug 2025 20:29:02.668,22 Aug 2025 20:38:57.030,594.361
580,23 Aug 2025 18:36:27.855,23 Aug 2025 18:46:49.617,621.762
581,23 Aug 2025 20:10:02.507,23 Aug 2025 20:20:48.868,646.361
582,24 Aug 2025 18:18:13.345,24 Aug 2025 18:27:21.836,548.491
583,24 Aug 2025 19:51:09.370,24 Aug 2025 20:02:27.749,678.379
584,24 Aug 2025 21:28:00.233,24 Aug 2025 21:31:11.770,191.538
585,25 Aug 2025 18:00:18.665,25 Aug 2025 18:07:28.346,429.681
586,25 Aug 2025 19:32:22.350,25 Aug 2025 19:43:54.805,692.454
587,25 Aug 2025 21:07:51.172,25 Aug 2025 21:14:32.213,401.041
588,26 Aug 2025 17:43:22.081,26 Aug 2025 17:46:30.499,188.419
589,26 Aug 2025 19:13:41.343,26 Aug 2025 19:25:10.272,688.929
590,26 Aug 2025 20:48:25.799,26 Aug 2025 20:57:02.074,516.275
591,27 Aug 2025 18:55:06.967,27 Aug 2025 19:06:13.598,666.631
592,27 Aug 2025 20:29:16.104,27 Aug 2025 20:39:09.719,593.614
593,28 Aug 2025 18:36:40.780,28 Aug 2025 18:47:03.215,622.435
594,28 Aug 2025 20:10:15.851,28 Aug 2025 20:21:01.721,645.871
595,29 Aug 2025 18:18:26.101,29 Aug 2025 18:27:35.669,549.568
596,29 Aug 2025 19:51:22.637,29 Aug 2025 20:02:40.746,678.108
597,29 Aug 2025 21:28:15.245,29 Aug 2025 21:31:22.646,187.400
598,30 Aug 2025 18:00:31.092,30 Aug 2025 18:07:42.580,431.488
599,30 Aug 2025 19:32:35.547,30 Aug 2025 19:44:07.937,692.390
600,30 Aug 2025 21:08:05.006,30 Aug 2025 21:14:44.349,399.343
601,31 Aug 2025 17:43:32.884,31 Aug 2025 17:46:46.431,193.547
602,31 Aug 2025 19:13:54.466,31 Aug 2025 19:25:23.541,689.076
603,31 Aug 2025 20:48:39.372,31 Aug 2025 20:57:14.549,515.177
604,1 Sep 2025 18:55:20.004,1 Sep 2025 19:06:27.018,667.013
605,1 Sep 2025 20:29:29.541,1 Sep 2025 20:39:22.405,592.863
606,2 Sep 2025 18:36:53.706,2 Sep 2025 18:47:16.810,623.104
607,2 Sep 2025 20:10:29.194,2 Sep 2025 20:21:14.572,645.378
608,3 Sep 2025 18:18:38.865,3 Sep 2025 18:27:49.499,550.634
609,3 Sep 2025 19:51:35.904,3 Sep 2025 20:02:53.740,677.836
610,3 Sep 2025 21:28:30.305,3 Sep 2025 21:31:33.472,183.167
611,4 Sep 2025 18:00:43.526,4 Sep 2025 18:07:56.807,433.281
612,4 Sep 2025 19:32:48.743,4 Sep 2025 19:44:21.067,692.324
613,4 Sep 2025 21:08:18.844,4 Sep 2025 21:14:56.480,397.635
614,5 Sep 2025 17:43:43.763,5 Sep 2025 17:47:02.289,198.526
615,5 Sep 2025 19:14:07.590,5 Sep 2025 19:25:36.810,689.220
616,5 Sep 2025 20:48:52.947,5 Sep 2025 20:57:27.022,514.075
617,6 Sep 2025 18:55:33.044,6 Sep 2025 19:06:40.436,667.392
618,6 Sep 2025 20:29:42.979,6 Sep 2025 20:39:35.089,592.110
619,7 Sep 2025 18:37:06.635,7 Sep 2025 18:47:30.404,623.769
620,7 Sep 2025 20:10:42.539,7 Sep 2025 20:21:27.421,644.882
621,8 Sep 2025 18:18:51.627,8 Sep 2025 18:28:03.327,551.700
622,8 Sep 2025 19:51:49.174,8 Sep 2025 20:03:06.734,677.560
623,8 Sep 2025 21:28:45.420,8 Sep 2025 21:31:44.245,178.825
624,9 Sep 2025 18:00:55.966,9 Sep 2025 18:08:11.027,435.061
625,9 Sep 2025 19:33:01.943,9 Sep 2025 19:44:34.198,692.255
626,9 Sep 2025 21:08:32.690,9 Sep 2025 21:15:08.610,395.919
627,10 Sep 2025 17:43:54.705,10 Sep 2025 17:47:18.084,203.379
628,10 Sep 2025 19:14:20.716,10 Sep 2025 19:25:50.078,689.362
629,10 Sep 2025 20:49:06.526,10 Sep 2025 20:57:39.492,512.965
630,11 Sep 2025 18:55:46.087,11 Sep 2025 19:06:53.854,667.767
631,11 Sep 2025 20:29:56.421,11 Sep 2025 20:39:47.772,591.351
632,12 Sep 2025 18:37:19.565,12 Sep 2025 18:47:43.996,624.431
633,12 Sep 2025 20:10:55.887,12 Sep 2025 20:21:40.269,644.383
634,13 Sep 2025 18:19:04.390,13 Sep 2025 18:28:17.152,552.762
635,13 Sep 2025 19:52:02.443,13 Sep 2025 20:03:19.726,677.282
636,13 Sep 2025 21:29:00.596,13 Sep 2025 21:31:54.954,174.358
637,14 Sep 2025 18:01:08.409,14 Sep 2025 18:08:25.242,436.833
638,14 Sep 2025 19:33:15.139,14 Sep 2025 19:44:47.325,692.186
639,14 Sep 2025 21:08:46.541,14 Sep 2025 21:15:20.727,394.186
640,15 Sep 2025 17:44:05.707,15 Sep 2025 17:47:33.815,208.108
641,15 Sep 2025 19:14:33.842,15 Sep 2025 19:26:03.343,689.501
642,15 Sep 2025 20:49:20.107,15 Sep 2025 20:57:51.957,511.851
643,16 Sep 2025 18:55:59.128,16 Sep 2025 19:07:07.268,668.140
644,16 Sep 2025 20:30:09.862,16 Sep 2025 20:40:00.451,590.588
645,17 Sep 2025 18:37:32.495,17 Sep 2025 18:47:57.585,625.089
646,17 Sep 2025 20:11:09.234,17 Sep 2025 20:21:53.115,643.881
647,18 Sep 2025 18:19:17.156,18 Sep 2025 18:28:30.973,553.817
648,18 Sep 2025 19:52:15.714,18 Sep 2025 20:03:32.716,677.002
649,18 Sep 2025 21:29:15.831,18 Sep 2025 21:32:05.605,169.774
650,19 Sep 2025 18:01:20.860,19 Sep 2025 18:08:39.451,438.591
651,19 Sep 2025 19:33:28.340,19 Sep 2025 19:45:00.452,692.112
652,19 Sep 2025 21:09:00.397,19 Sep 2025 21:15:32.841,392.444
653,20 Sep 2025 17:44:16.769,20 Sep 2025 17:47:49.488,212.719
654,20 Sep 2025 19:14:46.969,20 Sep 2025 19:26:16.608,689.638
655,20 Sep 2025 20:49:33.691,20 Sep 2025 20:58:04.422,510.731
656,21 Sep 2025 18:56:12.172,21 Sep 2025 19:07:20.682,668.511
657,21 Sep 2025 20:30:23.307,21 Sep 2025 20:40:13.129,589.822
658,22 Sep 2025 18:37:45.430,22 Sep 2025 18:48:11.174,625.744
659,22 Sep 2025 20:11:22.584,22 Sep 2025 20:22:05.960,643.376
660,23 Sep 2025 18:19:29.925,23 Sep 2025 18:28:44.793,554.868
661,23 Sep 2025 19:52:28.988,23 Sep 2025 20:03:45.706,676.718
662,23 Sep 2025 21:29:31.139,23 Sep 2025 21:32:16.185,165.046
663,24 Sep 2025 18:01:33.316,24 Sep 2025 18:08:53.655,440.339
664,24 Sep 2025 19:33:41.543,24 Sep 2025 19:45:13.578,692.035
665,24 Sep 2025 21:09:14.261,24 Sep 2025 21:15:44.948,390.687
666,25 Sep 2025 17:44:27.882,25 Sep 2025 17:48:05.111,217.229
667,25 Sep 2025 19:15:00.099,25 Sep 2025 19:26:29.872,689.773
668,25 Sep 2025 20:49:47.279,25 Sep 2025 20:58:16.883,509.604
669,26 Sep 2025 18:56:25.216,26 Sep 2025 19:07:34.095,668.879
670,26 Sep 2025 20:30:36.754,26 Sep 2025 20:40:25.805,589.051
671,27 Sep 2025 18:37:58.364,27 Sep 2025 18:48:24.760,626.396
672,27 Sep 2025 20:11:35.933,27 Sep 2025 20:22:18.803,642.870
673,28 Sep 2025 18:19:42.695,28 Sep 2025 18:28:58.609,555.914
674,28 Sep 2025 19:52:42.262,28 Sep 2025 20:03:58.694,676.432
675,28 Sep 2025 21:29:46.523,28 Sep 2025 21:32:26.688,160.164
676,29 Sep 2025 18:01:45.777,29 Sep 2025 18:09:07.852,442.075
677,29 Sep 2025 19:33:54.746,29 Sep 2025 19:45:26.702,691.957
678,29 Sep 2025 21:09:28.130,29 Sep 2025 21:15:57.048,388.917
679,30 Sep 2025 17:44:39.046,30 Sep 2025 17:48:20.680,221.634
680,30 Sep 2025 19:15:13.229,30 Sep 2025 19:26:43.134,689.905
681,30 Sep 2025 20:50:00.868,30 Sep 2025 20:58:29.341,508.472
682,1 Oct 2025 18:56:38.261,1 Oct 2025 19:07:47.500,669.239
683,1 Oct 2025 20:30:50.202,1 Oct 2025 20:40:38.479,588.277
684,2 Oct 2025 18:38:11.301,2 Oct 2025 18:48:38.344,627.043
685,2 Oct 2025 20:11:49.285,2 Oct 2025 20:22:31.641,642.356
686,3 Oct 2025 18:19:55.473,3 Oct 2025 18:29:12.426,556.953
687,3 Oct 2025 19:52:55.541,3 Oct 2025 20:04:11.680,676.140
688,3 Oct 2025 21:30:01.986,3 Oct 2025 21:32:37.112,155.126
689,4 Oct 2025 18:01:58.244,4 Oct 2025 18:09:22.042,443.798
690,4 Oct 2025 19:34:07.953,4 Oct 2025 19:45:39.827,691.874
691,4 Oct 2025 21:09:42.003,4 Oct 2025 21:16:09.143,387.140
692,5 Oct 2025 17:44:50.260,5 Oct 2025 17:48:36.200,225.941
693,5 Oct 2025 19:15:26.361,5 Oct 2025 19:26:56.395,690.034
694,5 Oct 2025 20:50:14.461,5 Oct 2025 20:58:41.797,507.336
695,6 Oct 2025 18:56:51.310,6 Oct 2025 19:08:00.913,669.603
696,6 Oct 2025 20:31:03.652,6 Oct 2025 20:40:51.152,587.500
697,7 Oct 2025 18:38:24.245,7 Oct 2025 18:48:51.927,627.682
698,7 Oct 2025 20:12:02.640,7 Oct 2025 20:22:44.482,641.842
699,8 Oct 2025 18:20:08.247,8 Oct 2025 18:29:26.236,557.989
700,8 Oct 2025 19:53:08.814,8 Oct 2025 20:04:24.667,675.853
701,8 Oct 2025 21:30:17.536,8 Oct 2025 21:32:47.447,149.910
702,9 Oct 2025 18:02:10.717,9 Oct 2025 18:09:36.225,445.508
703,9 Oct 2025 19:34:21.157,9 Oct 2025 19:45:52.950,691.793
704,9 Oct 2025 21:09:55.886,9 Oct 2025 21:16:21.231,385.345
705,10 Oct 2025 17:45:01.515,10 Oct 2025 17:48:51.679,230.164
706,10 Oct 2025 19:15:39.494,10 Oct 2025 19:27:09.655,690.161
707,10 Oct 2025 20:50:28.058,10 Oct 2025 20:58:54.249,506.191
708,11 Oct 2025 18:57:04.358,11 Oct 2025 19:08:14.323,669.965
709,11 Oct 2025 20:31:17.105,11 Oct 2025 20:41:03.823,586.718
710,12 Oct 2025 18:38:37.183,12 Oct 2025 18:49:05.508,628.325
711,12 Oct 2025 20:12:15.995,12 Oct 2025 20:22:57.320,641.324
712,13 Oct 2025 18:20:21.026,13 Oct 2025 18:29:40.044,559.018
713,13 Oct 2025 19:53:22.092,13 Oct 2025 20:04:37.651,675.559
714,13 Oct 2025 21:30:33.189,13 Oct 2025 21:32:57.679,144.490
715,14 Oct 2025 18:02:23.194,14 Oct 2025 18:09:50.403,447.209
716,14 Oct 2025 19:34:34.363,14 Oct 2025 19:46:06.070,691.707
717,14 Oct 2025 21:10:09.773,14 Oct 2025 21:16:33.313,383.540
718,15 Oct 2025 17:45:12.814,15 Oct 2025 17:49:07.111,234.297
719,15 Oct 2025 19:15:52.627,15 Oct 2025 19:27:22.913,690.286
720,15 Oct 2025 20:50:41.655,15 Oct 2025 20:59:06.698,505.043
721,16 Oct 2025 18:57:17.409,16 Oct 2025 19:08:27.729,670.321
722,16 Oct 2025 20:31:30.558,16 Oct 2025 20:41:16.491,585.933
723,17 Oct 2025 18:38:50.128,17 Oct 2025 18:49:19.087,628.959
724,17 Oct 2025 20:12:29.352,17 Oct 2025 20:23:10.157,640.805
725,18 Oct 2025 18:20:33.814,18 Oct 2025 18:29:53.850,560.035
726,18 Oct 2025 19:53:35.372,18 Oct 2025 20:04:50.635,675.263
727,18 Oct 2025 21:30:48.950,18 Oct 2025 21:33:07.806,138.856
728,19 Oct 2025 18:02:35.680,19 Oct 2025 18:10:04.578,448.899
729,19 Oct 2025 19:34:47.572,19 Oct 2025 19:46:19.191,691.619
730,19 Oct 2025 21:10:23.667,19 Oct 2025 21:16:45.390,381.723
731,20 Oct 2025 17:45:24.156,20 Oct 2025 17:49:22.506,238.350
732,20 Oct 2025 19:16:05.764,20 Oct 2025 19:27:36.169,690.405
733,20 Oct 2025 20:50:55.258,20 Oct 2025 20:59:19.146,503.889
734,21 Oct 2025 18:57:30.462,21 Oct 2025 19:08:41.136,670.674
735,21 Oct 2025 20:31:44.016,21 Oct 2025 20:41:29.160,585.144
736,22 Oct 2025 18:39:03.069,22 Oct 2025 18:49:32.666,629.597
737,22 Oct 2025 20:12:42.712,22 Oct 2025 20:23:22.996,640.284
738,23 Oct 2025 18:20:46.600,23 Oct 2025 18:30:07.654,561.054
739,23 Oct 2025 19:53:48.654,23 Oct 2025 20:05:03.618,674.964
740,23 Oct 2025 21:31:04.844,23 Oct 2025 21:33:17.804,132.960
741,24 Oct 2025 18:02:48.169,24 Oct 2025 18:10:18.749,450.580
742,24 Oct 2025 19:35:00.783,24 Oct 2025 19:46:32.311,691.528
743,24 Oct 2025 21:10:37.569,24 Oct 2025 21:16:57.460,379.891
744,25 Oct 2025 17:45:35.533,25 Oct 2025 17:49:37.862,242.329
745,25 Oct 2025 19:16:18.902,25 Oct 2025 19:27:49.426,690.524
746,25 Oct 2025 20:51:08.863,25 Oct 2025 20:59:31.595,502.732
747,26 Oct 2025 18:57:43.516,26 Oct 2025 19:08:54.540,671.025
748,26 Oct 2025 20:31:57.475,26 Oct 2025 20:41:41.825,584.351
749,27 Oct 2025 18:39:16.016,27 Oct 2025 18:49:46.242,630.226
750,27 Oct 2025 20:12:56.073,27 Oct 2025 20:23:35.834,639.760
751,28 Oct 2025 18:20:59.384,28 Oct 2025 18:30:21.454,562.070
752,28 Oct 2025 19:54:01.936,28 Oct 2025 20:05:16.599,674.663
753,28 Oct 2025 21:31:20.873,28 Oct 2025 21:33:27.660,126.787
754,29 Oct 2025 18:03:00.664,29 Oct 2025 18:10:32.912,452.248
755,29 Oct 2025 19:35:13.994,29 Oct 2025 19:46:45.429,691.434
756,29 Oct 2025 21:10:51.475,29 Oct 2025 21:17:09.523,378.049
757,30 Oct 2025 17:45:46.949,30 Oct 2025 17:49:53.179,246.229
758,30 Oct 2025 19:16:32.040,30 Oct 2025 19:28:02.681,690.641
759,30 Oct 2025 20:51:22.470,30 Oct 2025 20:59:44.037,501.567
760,31 Oct 2025 18:57:56.571,31 Oct 2025 19:09:07.943,671.372
761,31 Oct 2025 20:32:10.934,31 Oct 2025 20:41:54.489,583.555
762,1 Nov 2025 18:39:28.965,1 Nov 2025 18:49:59.816,630.852
763,1 Nov 2025 20:13:09.435,1 Nov 2025 20:23:48.667,639.232
764,2 Nov 2025 18:21:12.176,2 Nov 2025 18:30:35.252,563.076
765,2 Nov 2025 19:54:15.220,2 Nov 2025 20:05:29.579,674.359
766,2 Nov 2025 21:31:37.061,2 Nov 2025 21:33:37.357,120.296
767,3 Nov 2025 18:03:13.166,3 Nov 2025 18:10:47.071,453.905
768,3 Nov 2025 19:35:27.208,3 Nov 2025 19:46:58.546,691.338
769,3 Nov 2025 21:11:05.388,3 Nov 2025 21:17:21.582,376.194
770,4 Nov 2025 17:45:58.401,4 Nov 2025 17:50:08.462,250.060
771,4 Nov 2025 19:16:45.181,4 Nov 2025 19:28:15.937,690.755
772,4 Nov 2025 20:51:36.082,4 Nov 2025 20:59:56.477,500.395
773,5 Nov 2025 18:58:09.629,5 Nov 2025 19:09:21.346,671.717
774,5 Nov 2025 20:32:24.398,5 Nov 2025 20:42:07.157,582.759
775,6 Nov 2025 18:39:41.917,6 Nov 2025 18:50:13.388,631.471
776,6 Nov 2025 20:13:22.801,6 Nov 2025 20:24:01.501,638.700
777,7 Nov 2025 18:21:24.971,7 Nov 2025 18:30:49.049,564.079
778,7 Nov 2025 19:54:28.507,7 Nov 2025 20:05:42.559,674.052
779,7 Nov 2025 21:31:53.453,7 Nov 2025 21:33:46.854,113.402
780,8 Nov 2025 18:03:25.672,8 Nov 2025 18:11:01.226,455.553
781,8 Nov 2025 19:35:40.423,8 Nov 2025 19:47:11.662,691.240
782,8 Nov 2025 21:11:19.308,8 Nov 2025 21:17:33.632,374.324
783,9 Nov 2025 17:46:09.884,9 Nov 2025 17:50:23.712,253.828
784,9 Nov 2025 19:16:58.323,9 Nov 2025 19:28:29.190,690.867
785,9 Nov 2025 20:51:49.696,9 Nov 2025 21:00:08.912,499.217
786,10 Nov 2025 18:58:22.687,10 Nov 2025 19:09:34.746,672.059
787,10 Nov 2025 20:32:37.862,10 Nov 2025 20:42:19.817,581.955
788,11 Nov 2025 18:39:54.868,11 Nov 2025 18:50:26.958,632.090
789,11 Nov 2025 20:13:36.165,11 Nov 2025 20:24:14.331,638.166
790,12 Nov 2025 18:21:37.772,12 Nov 2025 18:31:02.840,565.069
791,12 Nov 2025 19:54:41.794,12 Nov 2025 20:05:55.532,673.738
792,12 Nov 2025 21:32:10.063,12 Nov 2025 21:33:56.130,106.067
793,13 Nov 2025 18:03:38.185,13 Nov 2025 18:11:15.373,457.188
794,13 Nov 2025 19:35:53.638,13 Nov 2025 19:47:24.776,691.138
795,13 Nov 2025 21:11:33.230,13 Nov 2025 21:17:45.677,372.447
796,14 Nov 2025 17:46:21.403,14 Nov 2025 17:50:38.928,257.525
797,14 Nov 2025 19:17:11.466,14 Nov 2025 19:28:42.442,690.976
798,14 Nov 2025 20:52:03.312,14 Nov 2025 21:00:21.346,498.035
799,15 Nov 2025 18:58:35.748,15 Nov 2025 19:09:48.145,672.397
800,15 Nov 2025 20:32:51.328,15 Nov 2025 20:42:32.477,581.149
801,16 Nov 2025 18:40:07.824,16 Nov 2025 18:50:40.529,632.704
802,16 Nov 2025 20:13:49.533,16 Nov 2025 20:24:27.162,637.629
803,17 Nov 2025 18:21:50.573,17 Nov 2025 18:31:16.632,566.059
804,17 Nov 2025 19:54:55.083,17 Nov 2025 20:06:08.510,673.427
805,17 Nov 2025 21:32:26.954,17 Nov 2025 21:34:05.127,98.173
806,18 Nov 2025 18:03:50.704,18 Nov 2025 18:11:29.521,458.817
807,18 Nov 2025 19:36:06.859,18 Nov 2025 19:47:37.889,691.030
808,18 Nov 2025 21:11:47.163,18 Nov 2025 21:17:57.717,370.554
809,19 Nov 2025 17:46:32.952,19 Nov 2025 17:50:54.117,261.165
810,19 Nov 2025 19:17:24.612,19 Nov 2025 19:28:55.695,691.083
811,19 Nov 2025 20:52:16.932,19 Nov 2025 21:00:33.778,496.846
812,20 Nov 2025 18:58:48.812,20 Nov 2025 19:10:01.545,672.733
813,20 Nov 2025 20:33:04.798,20 Nov 2025 20:42:45.135,580.337
814,21 Nov 2025 18:40:20.782,21 Nov 2025 18:50:54.098,633.316
815,21 Nov 2025 20:14:02.903,21 Nov 2025 20:24:39.991,637.088
816,22 Nov 2025 18:22:03.377,22 Nov 2025 18:31:30.421,567.045
817,22 Nov 2025 19:55:08.374,22 Nov 2025 20:06:21.486,673.112
818,22 Nov 2025 21:32:44.203,22 Nov 2025 21:34:13.766,89.563
819,23 Nov 2025 18:04:03.227,23 Nov 2025 18:11:43.660,460.433
820,23 Nov 2025 19:36:20.078,23 Nov 2025 19:47:51.002,690.924
821,23 Nov 2025 21:12:01.103,23 Nov 2025 21:18:09.748,368.645
822,24 Nov 2025 17:46:44.530,24 Nov 2025 17:51:09.275,264.745
823,24 Nov 2025 19:17:37.758,24 Nov 2025 19:29:08.945,691.187
824,24 Nov 2025 20:52:30.555,24 Nov 2025 21:00:46.206,495.651
825,25 Nov 2025 18:59:01.875,25 Nov 2025 19:10:14.942,673.066
826,25 Nov 2025 20:33:18.268,25 Nov 2025 20:42:57.791,579.523
827,26 Nov 2025 18:40:33.745,26 Nov 2025 18:51:07.664,633.919
828,26 Nov 2025 20:14:16.272,26 Nov 2025 20:24:52.818,636.546
829,27 Nov 2025 18:22:16.183,27 Nov 2025 18:31:44.207,568.024
830,27 Nov 2025 19:55:21.664,27 Nov 2025 20:06:34.460,672.796
831,27 Nov 2025 21:33:01.910,27 Nov 2025 21:34:21.943,80.033
832,28 Nov 2025 18:04:15.757,28 Nov 2025 18:11:57.792,462.035
833,28 Nov 2025 19:36:33.298,28 Nov 2025 19:48:04.114,690.816
834,28 Nov 2025 21:12:15.048,28 Nov 2025 21:18:21.774,366.726
835,29 Nov 2025 17:46:56.138,29 Nov 2025 17:51:24.403,268.264
836,29 Nov 2025 19:17:50.906,29 Nov 2025 19:29:22.194,691.288
837,29 Nov 2025 20:52:44.179,29 Nov 2025 21:00:58.632,494.453
838,30 Nov 2025 18:59:14.941,30 Nov 2025 19:10:28.337,673.396
839,30 Nov 2025 20:33:31.739,30 Nov 2025 20:43:10.445,578.706
840,1 Dec 2025 18:40:46.707,1 Dec 2025 18:51:21.229,634.523
841,1 Dec 2025 20:14:29.644,1 Dec 2025 20:25:05.645,636.000
842,2 Dec 2025 18:22:28.994,2 Dec 2025 18:31:57.991,568.997
843,2 Dec 2025 19:55:34.958,2 Dec 2025 20:06:47.435,672.477
844,2 Dec 2025 21:33:20.274,2 Dec 2025 21:34:29.463,69.189
845,3 Dec 2025 18:04:28.293,3 Dec 2025 18:12:11.917,463.624
846,3 Dec 2025 19:36:46.521,3 Dec 2025 19:48:17.227,690.707
847,3 Dec 2025 21:12:29.004,3 Dec 2025 21:18:33.794,364.790
848,4 Dec 2025 17:47:07.774,4 Dec 2025 17:51:39.506,271.733
849,4 Dec 2025 19:18:04.056,4 Dec 2025 19:29:35.444,691.387
850,4 Dec 2025 20:52:57.808,4 Dec 2025 21:01:11.056,493.248
851,5 Dec 2025 18:59:28.010,5 Dec 2025 19:10:41.733,673.723
852,5 Dec 2025 20:33:45.215,5 Dec 2025 20:43:23.098,577.883
853,6 Dec 2025 18:40:59.668,6 Dec 2025 18:51:34.793,635.126
854,6 Dec 2025 20:14:43.019,6 Dec 2025 20:25:18.470,635.452
855,7 Dec 2025 18:22:41.805,7 Dec 2025 18:32:11.772,569.967
856,7 Dec 2025 19:55:48.252,7 Dec 2025 20:07:00.409,672.157
857,7 Dec 2025 21:33:39.689,7 Dec 2025 21:34:35.940,56.251
858,8 Dec 2025 18:04:40.832,8 Dec 2025 18:12:26.039,465.207
859,8 Dec 2025 19:36:59.743,8 Dec 2025 19:48:30.337,690.594
860,8 Dec 2025 21:12:42.963,8 Dec 2025 21:18:45.805,362.842
861,9 Dec 2025 17:47:19.435,9 Dec 2025 17:51:54.586,275.151
862,9 Dec 2025 19:18:17.206,9 Dec 2025 19:29:48.690,691.484
863,9 Dec 2025 20:53:11.436,9 Dec 2025 21:01:23.475,492.039
864,10 Dec 2025 18:59:41.078,10 Dec 2025 19:10:55.125,674.047
865,10 Dec 2025 20:33:58.689,10 Dec 2025 20:43:35.748,577.059
866,11 Dec 2025 18:41:12.632,11 Dec 2025 18:51:48.354,635.722
867,11 Dec 2025 20:14:56.392,11 Dec 2025 20:25:31.293,634.901
868,12 Dec 2025 18:22:54.621,12 Dec 2025 18:32:25.550,570.929
869,12 Dec 2025 19:56:01.547,12 Dec 2025 20:07:13.380,671.833
870,12 Dec 2025 21:34:01.104,12 Dec 2025 21:34:40.409,39.305
871,13 Dec 2025 18:04:53.379,13 Dec 2025 18:12:40.157,466.778
872,13 Dec 2025 19:37:12.968,13 Dec 2025 19:48:43.446,690.478
873,13 Dec 2025 21:12:56.927,13 Dec 2025 21:18:57.812,360.885
874,14 Dec 2025 17:47:31.125,14 Dec 2025 17:52:09.635,278.510
875,14 Dec 2025 19:18:30.359,14 Dec 2025 19:30:01.936,691.578
876,14 Dec 2025 20:53:25.069,14 Dec 2025 21:01:35.894,490.825
877,15 Dec 2025 18:59:54.150,15 Dec 2025 19:11:08.518,674.368
878,15 Dec 2025 20:34:12.167,15 Dec 2025 20:43:48.398,576.231
879,16 Dec 2025 18:41:25.601,16 Dec 2025 18:52:01.915,636.314
880,16 Dec 2025 20:15:09.769,16 Dec 2025 20:25:44.116,634.347
881,17 Dec 2025 18:23:07.441,17 Dec 2025 18:32:39.327,571.886
882,17 Dec 2025 19:56:14.845,17 Dec 2025 20:07:26.354,671.509
883,18 Dec 2025 18:05:05.931,18 Dec 2025 18:12:54.270,468.339
884,18 Dec 2025 19:37:26.194,18 Dec 2025 19:48:56.554,690.360
885,18 Dec 2025 21:13:10.899,18 Dec 2025 21:19:09.812,358.913
886,19 Dec 2025 17:47:42.839,19 Dec 2025 17:52:24.662,281.823
887,19 Dec 2025 19:18:43.513,19 Dec 2025 19:30:15.182,691.669
888,19 Dec 2025 20:53:38.706,19 Dec 2025 21:01:48.309,489.603
889,20 Dec 2025 19:00:07.223,20 Dec 2025 19:11:21.909,674.686
890,20 Dec 2025 20:34:25.647,20 Dec 2025 20:44:01.046,575.399
891,21 Dec 2025 18:41:38.571,21 Dec 2025 18:52:15.473,636.903
892,21 Dec 2025 20:15:23.147,21 Dec 2025 20:25:56.937,633.791
893,22 Dec 2025 18:23:20.262,22 Dec 2025 18:32:53.100,572.838
894,22 Dec 2025 19:56:28.143,22 Dec 2025 20:07:39.323,671.180
895,23 Dec 2025 18:05:18.488,23 Dec 2025 18:13:08.377,469.889
896,23 Dec 2025 19:37:39.421,23 Dec 2025 19:49:09.660,690.240
897,23 Dec 2025 21:13:24.877,23 Dec 2025 21:19:21.803,356.926
898,24 Dec 2025 17:47:54.577,24 Dec 2025 17:52:39.662,285.085
899,24 Dec 2025 19:18:56.668,24 Dec 2025 19:30:28.425,691.757
900,24 Dec 2025 20:53:52.343,24 Dec 2025 21:02:00.721,488.378
901,25 Dec 2025 19:00:20.296,25 Dec 2025 19:11:35.297,675.001
902,25 Dec 2025 20:34:39.126,25 Dec 2025 20:44:13.691,574.565
903,26 Dec 2025 18:41:51.542,26 Dec 2025 18:52:29.029,637.486
904,26 Dec 2025 20:15:36.524,26 Dec 2025 20:26:09.756,633.232
905,27 Dec 2025 18:23:33.087,27 Dec 2025 18:33:06.870,573.783
906,27 Dec 2025 19:56:41.441,27 Dec 2025 20:07:52.290,670.849
907,28 Dec 2025 18:05:31.051,28 Dec 2025 18:13:22.479,471.428
908,28 Dec 2025 19:37:52.649,28 Dec 2025 19:49:22.766,690.117
909,28 Dec 2025 21:13:38.860,28 Dec 2025 21:19:33.789,354.929
910,29 Dec 2025 17:48:06.340,29 Dec 2025 17:52:54.639,288.299
911,29 Dec 2025 19:19:09.825,29 Dec 2025 19:30:41.668,691.843
912,29 Dec 2025 20:54:05.981,29 Dec 2025 21:02:13.131,487.150
913,30 Dec 2025 19:00:33.373,30 Dec 2025 19:11:48.685,675.312
914,30 Dec 2025 20:34:52.608,30 Dec 2025 20:44:26.335,573.727
915,31 Dec 2025 18:42:04.517,31 Dec 2025 18:52:42.584,638.067
916,31 Dec 2025 20:15:49.905,31 Dec 2025 20:26:22.576,632.671

Global Statistics
"Min Duration",870,12 Dec 2025 21:34:01.104,12 Dec 2025 21:34:40.409,39.305
"Max Duration",281,27 Apr 2025 19:27:05.849,27 Apr 2025 19:38:39.115,693.266
"Mean Duration",,,,541.956
"Total Duration",,,,496431.844


