3UCubedIntegratedSim/Reports & Plots/Comms/Past Comms Data/SSU/CSV/Sat12.csv

"Access","Start Time (UTCG)","Stop Time (UTCG)","Duration (sec)"
1,1 Jan 2025 19:41:43.013,1 Jan 2025 19:52:20.047,637.034
2,1 Jan 2025 21:15:27.643,1 Jan 2025 21:26:01.304,633.660
3,2 Jan 2025 19:23:24.668,2 Jan 2025 19:32:57.734,573.066
4,2 Jan 2025 20:56:32.627,2 Jan 2025 21:07:43.727,671.100
5,3 Jan 2025 19:05:22.842,3 Jan 2025 19:13:13.096,470.254
6,3 Jan 2025 20:37:43.893,3 Jan 2025 20:49:14.103,690.210
7,3 Jan 2025 22:13:29.469,3 Jan 2025 22:19:25.975,356.507
8,4 Jan 2025 18:47:58.746,4 Jan 2025 18:52:44.596,285.850
9,4 Jan 2025 20:19:01.132,4 Jan 2025 20:30:32.905,691.773
10,4 Jan 2025 21:53:56.871,4 Jan 2025 22:02:04.984,488.113
11,5 Jan 2025 20:00:24.747,5 Jan 2025 20:11:39.817,675.070
12,5 Jan 2025 21:34:43.630,5 Jan 2025 21:44:18.007,574.377
13,6 Jan 2025 19:41:55.975,6 Jan 2025 19:52:33.594,637.619
14,6 Jan 2025 21:15:41.013,6 Jan 2025 21:26:14.116,633.103
15,7 Jan 2025 19:23:37.491,7 Jan 2025 19:33:11.493,574.002
16,7 Jan 2025 20:56:45.919,7 Jan 2025 21:07:56.688,670.770
17,8 Jan 2025 19:05:35.401,8 Jan 2025 19:13:27.187,471.786
18,8 Jan 2025 20:37:57.116,8 Jan 2025 20:49:27.201,690.084
19,8 Jan 2025 22:13:43.443,8 Jan 2025 22:19:37.956,354.513
20,9 Jan 2025 18:48:10.512,9 Jan 2025 18:52:59.557,289.045
21,9 Jan 2025 20:19:14.282,9 Jan 2025 20:30:46.140,691.858
22,9 Jan 2025 21:54:10.502,9 Jan 2025 22:02:17.388,486.886
23,10 Jan 2025 20:00:37.817,10 Jan 2025 20:11:53.197,675.380
24,10 Jan 2025 21:34:57.104,10 Jan 2025 21:44:30.645,573.541
25,11 Jan 2025 19:42:08.944,11 Jan 2025 19:52:47.141,638.197
26,11 Jan 2025 21:15:54.386,11 Jan 2025 21:26:26.928,632.542
27,12 Jan 2025 19:23:50.314,12 Jan 2025 19:33:25.253,574.939
28,12 Jan 2025 20:56:59.213,12 Jan 2025 21:08:09.649,670.436
29,13 Jan 2025 19:05:47.965,13 Jan 2025 19:13:41.275,473.310
30,13 Jan 2025 20:38:10.339,13 Jan 2025 20:49:40.298,689.959
31,13 Jan 2025 22:13:57.427,13 Jan 2025 22:19:49.928,352.501
32,14 Jan 2025 18:48:22.296,14 Jan 2025 18:53:14.497,292.201
33,14 Jan 2025 20:19:27.433,14 Jan 2025 20:30:59.373,691.940
34,14 Jan 2025 21:54:24.138,14 Jan 2025 22:02:29.788,485.650
35,15 Jan 2025 20:00:50.887,15 Jan 2025 20:12:06.575,675.688
36,15 Jan 2025 21:35:10.580,15 Jan 2025 21:44:43.280,572.700
37,16 Jan 2025 19:42:21.913,16 Jan 2025 19:53:00.685,638.772
38,16 Jan 2025 21:16:07.759,16 Jan 2025 21:26:39.737,631.978
39,17 Jan 2025 19:24:03.137,17 Jan 2025 19:33:39.008,575.871
40,17 Jan 2025 20:57:12.506,17 Jan 2025 21:08:22.606,670.100
41,18 Jan 2025 19:06:00.532,18 Jan 2025 19:13:55.355,474.824
42,18 Jan 2025 20:38:23.561,18 Jan 2025 20:49:53.393,689.832
43,18 Jan 2025 22:14:11.416,18 Jan 2025 22:20:01.892,350.476
44,19 Jan 2025 18:48:34.102,19 Jan 2025 18:53:29.414,295.311
45,19 Jan 2025 20:19:40.584,19 Jan 2025 20:31:12.604,692.020
46,19 Jan 2025 21:54:37.774,19 Jan 2025 22:02:42.185,484.411
47,20 Jan 2025 20:01:03.959,20 Jan 2025 20:12:19.951,675.992
48,20 Jan 2025 21:35:24.057,20 Jan 2025 21:44:55.913,571.856
49,21 Jan 2025 19:42:34.884,21 Jan 2025 19:53:14.226,639.343
50,21 Jan 2025 21:16:21.132,21 Jan 2025 21:26:52.545,631.412
51,22 Jan 2025 19:24:15.964,22 Jan 2025 19:33:52.761,576.797
52,22 Jan 2025 20:57:25.800,22 Jan 2025 21:08:35.562,669.762
53,23 Jan 2025 19:06:13.105,23 Jan 2025 19:14:09.432,476.327
54,23 Jan 2025 20:38:36.786,23 Jan 2025 20:50:06.487,689.702
55,23 Jan 2025 22:14:25.412,23 Jan 2025 22:20:13.849,348.437
56,24 Jan 2025 18:48:45.930,24 Jan 2025 18:53:44.311,298.380
57,24 Jan 2025 20:19:53.737,24 Jan 2025 20:31:25.835,692.098
58,24 Jan 2025 21:54:51.413,24 Jan 2025 22:02:54.579,483.166
59,25 Jan 2025 20:01:17.033,25 Jan 2025 20:12:33.326,676.294
60,25 Jan 2025 21:35:37.538,25 Jan 2025 21:45:08.545,571.006
61,26 Jan 2025 19:42:47.861,26 Jan 2025 19:53:27.767,639.907
62,26 Jan 2025 21:16:34.509,26 Jan 2025 21:27:05.352,630.843
63,27 Jan 2025 19:24:28.794,27 Jan 2025 19:34:06.512,577.718
64,27 Jan 2025 20:57:39.097,27 Jan 2025 21:08:48.518,669.421
65,28 Jan 2025 19:06:25.683,28 Jan 2025 19:14:23.505,477.823
66,28 Jan 2025 20:38:50.008,28 Jan 2025 20:50:19.580,689.572
67,28 Jan 2025 22:14:39.417,28 Jan 2025 22:20:25.798,346.381
68,29 Jan 2025 18:48:57.775,29 Jan 2025 18:53:59.189,301.413
69,29 Jan 2025 20:20:06.891,29 Jan 2025 20:31:39.064,692.173
70,29 Jan 2025 21:55:05.056,29 Jan 2025 22:03:06.970,481.914
71,30 Jan 2025 20:01:30.106,30 Jan 2025 20:12:46.699,676.593
72,30 Jan 2025 21:35:51.020,30 Jan 2025 21:45:21.173,570.153
73,31 Jan 2025 19:43:00.832,31 Jan 2025 19:53:41.305,640.473
74,31 Jan 2025 21:16:47.885,31 Jan 2025 21:27:18.151,630.266
75,1 Feb 2025 19:24:41.624,1 Feb 2025 19:34:20.259,578.635
76,1 Feb 2025 20:57:52.393,1 Feb 2025 21:09:01.471,669.078
77,2 Feb 2025 19:06:38.264,2 Feb 2025 19:14:37.571,479.308
78,2 Feb 2025 20:39:03.233,2 Feb 2025 20:50:32.670,689.437
79,2 Feb 2025 22:14:53.428,2 Feb 2025 22:20:37.737,344.309
80,3 Feb 2025 18:49:09.641,3 Feb 2025 18:54:14.045,304.405
81,3 Feb 2025 20:20:20.046,3 Feb 2025 20:31:52.291,692.245
82,3 Feb 2025 21:55:18.700,3 Feb 2025 22:03:19.357,480.657
83,4 Feb 2025 20:01:43.182,4 Feb 2025 20:13:00.070,676.888
84,4 Feb 2025 21:36:04.496,4 Feb 2025 21:45:33.800,569.303
85,5 Feb 2025 19:43:13.807,5 Feb 2025 19:53:54.841,641.034
86,5 Feb 2025 21:17:01.262,5 Feb 2025 21:27:30.958,629.696
87,6 Feb 2025 19:24:54.459,6 Feb 2025 19:34:34.004,579.545
88,6 Feb 2025 20:58:05.691,6 Feb 2025 21:09:14.423,668.732
89,7 Feb 2025 19:06:50.851,7 Feb 2025 19:14:51.634,480.783
90,7 Feb 2025 20:39:16.461,7 Feb 2025 20:50:45.761,689.300
91,7 Feb 2025 22:15:07.445,7 Feb 2025 22:20:49.671,342.226
92,8 Feb 2025 18:49:21.525,8 Feb 2025 18:54:28.885,307.360
93,8 Feb 2025 20:20:33.203,8 Feb 2025 20:32:05.518,692.315
94,8 Feb 2025 21:55:32.349,8 Feb 2025 22:03:31.742,479.393
95,9 Feb 2025 20:01:56.259,9 Feb 2025 20:13:13.441,677.182
96,9 Feb 2025 21:36:17.980,9 Feb 2025 21:45:46.425,568.445
97,10 Feb 2025 19:43:26.785,10 Feb 2025 19:54:08.374,641.589
98,10 Feb 2025 21:17:14.642,10 Feb 2025 21:27:43.760,629.118
99,11 Feb 2025 19:25:07.295,11 Feb 2025 19:34:47.744,580.449
100,11 Feb 2025 20:58:18.990,11 Feb 2025 21:09:27.374,668.384
101,12 Feb 2025 19:07:03.441,12 Feb 2025 19:15:05.691,482.250
102,12 Feb 2025 20:39:29.689,12 Feb 2025 20:50:58.849,689.160
103,12 Feb 2025 22:15:21.473,12 Feb 2025 22:21:01.591,340.118
104,13 Feb 2025 18:49:33.425,13 Feb 2025 18:54:43.706,310.280
105,13 Feb 2025 20:20:46.359,13 Feb 2025 20:32:18.742,692.382
106,13 Feb 2025 21:55:45.998,13 Feb 2025 22:03:44.122,478.124
107,14 Feb 2025 20:02:09.336,14 Feb 2025 20:13:26.808,677.472
108,14 Feb 2025 21:36:31.464,14 Feb 2025 21:45:59.046,567.582
109,15 Feb 2025 19:43:39.763,15 Feb 2025 19:54:21.904,642.141
110,15 Feb 2025 21:17:28.021,15 Feb 2025 21:27:56.555,628.534
111,16 Feb 2025 19:25:20.132,16 Feb 2025 19:35:01.482,581.350
112,16 Feb 2025 20:58:32.289,16 Feb 2025 21:09:40.322,668.033
113,17 Feb 2025 19:07:16.036,17 Feb 2025 19:15:19.742,483.706
114,17 Feb 2025 20:39:42.917,17 Feb 2025 20:51:11.935,689.019
115,17 Feb 2025 22:15:35.506,17 Feb 2025 22:21:13.505,337.999
116,18 Feb 2025 18:49:45.345,18 Feb 2025 18:54:58.506,313.161
117,18 Feb 2025 20:20:59.517,18 Feb 2025 20:32:31.964,692.447
118,18 Feb 2025 21:55:59.649,18 Feb 2025 22:03:56.500,476.850
119,19 Feb 2025 20:02:22.415,19 Feb 2025 20:13:40.174,677.759
120,19 Feb 2025 21:36:44.950,19 Feb 2025 21:46:11.667,566.717
121,20 Feb 2025 19:43:52.744,20 Feb 2025 19:54:35.434,642.690
122,20 Feb 2025 21:17:41.402,20 Feb 2025 21:28:09.352,627.950
123,21 Feb 2025 19:25:32.974,21 Feb 2025 19:35:15.219,582.245
124,21 Feb 2025 20:58:45.590,21 Feb 2025 21:09:53.270,667.680
125,22 Feb 2025 19:07:28.636,22 Feb 2025 19:15:33.789,485.153
126,22 Feb 2025 20:39:56.147,22 Feb 2025 20:51:25.021,688.874
127,22 Feb 2025 22:15:49.548,22 Feb 2025 22:21:25.412,335.864
128,23 Feb 2025 18:49:57.282,23 Feb 2025 18:55:13.292,316.010
129,23 Feb 2025 20:21:12.677,23 Feb 2025 20:32:45.186,692.509
130,23 Feb 2025 21:56:13.305,23 Feb 2025 22:04:08.874,475.570
131,24 Feb 2025 20:02:35.496,24 Feb 2025 20:13:53.536,678.040
132,24 Feb 2025 21:36:58.438,24 Feb 2025 21:46:24.285,565.847
133,25 Feb 2025 19:44:05.727,25 Feb 2025 19:54:48.963,643.237
134,25 Feb 2025 21:17:54.785,25 Feb 2025 21:28:22.149,627.364
135,26 Feb 2025 19:25:45.817,26 Feb 2025 19:35:28.953,583.137
136,26 Feb 2025 20:58:58.892,26 Feb 2025 21:10:06.216,667.324
137,27 Feb 2025 19:07:41.239,27 Feb 2025 19:15:47.832,486.593
138,27 Feb 2025 20:40:09.377,27 Feb 2025 20:51:38.105,688.727
139,27 Feb 2025 22:16:03.599,27 Feb 2025 22:21:37.313,333.713
140,28 Feb 2025 18:50:09.233,28 Feb 2025 18:55:28.059,318.827
141,28 Feb 2025 20:21:25.836,28 Feb 2025 20:32:58.405,692.569
142,28 Feb 2025 21:56:26.962,28 Feb 2025 22:04:21.244,474.282
143,1 Mar 2025 20:02:48.577,1 Mar 2025 20:14:06.898,678.321
144,1 Mar 2025 21:37:11.927,1 Mar 2025 21:46:36.900,564.973
145,2 Mar 2025 19:44:18.709,2 Mar 2025 19:55:02.488,643.779
146,2 Mar 2025 21:18:08.167,2 Mar 2025 21:28:34.942,626.775
147,3 Mar 2025 19:25:58.661,3 Mar 2025 19:35:42.683,584.022
148,3 Mar 2025 20:59:12.193,3 Mar 2025 21:10:19.159,666.966
149,4 Mar 2025 19:07:53.847,4 Mar 2025 19:16:01.868,488.021
150,4 Mar 2025 20:40:22.608,4 Mar 2025 20:51:51.186,688.578
151,4 Mar 2025 22:16:17.655,4 Mar 2025 22:21:49.200,331.545
152,5 Mar 2025 18:50:21.203,5 Mar 2025 18:55:42.809,321.606
153,5 Mar 2025 20:21:38.997,5 Mar 2025 20:33:11.623,692.627
154,5 Mar 2025 21:56:40.621,5 Mar 2025 22:04:33.612,472.991
155,6 Mar 2025 20:03:01.659,6 Mar 2025 20:14:20.259,678.600
156,6 Mar 2025 21:37:25.417,6 Mar 2025 21:46:49.514,564.097
157,7 Mar 2025 19:44:31.695,7 Mar 2025 19:55:16.013,644.317
158,7 Mar 2025 21:18:21.551,7 Mar 2025 21:28:47.739,626.188
159,8 Mar 2025 19:26:11.510,8 Mar 2025 19:35:56.412,584.902
160,8 Mar 2025 20:59:25.497,8 Mar 2025 21:10:32.103,666.606
161,9 Mar 2025 19:08:06.460,9 Mar 2025 19:16:15.902,489.441
162,9 Mar 2025 20:40:35.841,9 Mar 2025 20:52:04.268,688.427
163,9 Mar 2025 22:16:31.722,9 Mar 2025 22:22:01.079,329.358
164,10 Mar 2025 18:50:33.187,10 Mar 2025 18:55:57.545,324.358
165,10 Mar 2025 20:21:52.159,10 Mar 2025 20:33:24.840,692.681
166,10 Mar 2025 21:56:54.284,10 Mar 2025 22:04:45.976,471.692
167,11 Mar 2025 20:03:14.743,11 Mar 2025 20:14:33.619,678.876
168,11 Mar 2025 21:37:38.910,11 Mar 2025 21:47:02.125,563.216
169,12 Mar 2025 19:44:44.681,12 Mar 2025 19:55:29.534,644.853
170,12 Mar 2025 21:18:34.936,12 Mar 2025 21:29:00.529,625.594
171,13 Mar 2025 19:26:24.358,13 Mar 2025 19:36:10.137,585.779
172,13 Mar 2025 20:59:38.800,13 Mar 2025 21:10:45.043,666.243
173,14 Mar 2025 19:08:19.075,14 Mar 2025 19:16:29.928,490.853
174,14 Mar 2025 20:40:49.073,14 Mar 2025 20:52:17.346,688.273
175,14 Mar 2025 22:16:45.794,14 Mar 2025 22:22:12.947,327.153
176,15 Mar 2025 18:50:45.186,15 Mar 2025 18:56:12.262,327.077
177,15 Mar 2025 20:22:05.320,15 Mar 2025 20:33:38.054,692.734
178,15 Mar 2025 21:57:07.948,15 Mar 2025 22:04:58.335,470.387
179,16 Mar 2025 20:03:27.827,16 Mar 2025 20:14:46.976,679.149
180,16 Mar 2025 21:37:52.402,16 Mar 2025 21:47:14.733,562.332
181,17 Mar 2025 19:44:57.668,17 Mar 2025 19:55:43.053,645.384
182,17 Mar 2025 21:18:48.320,17 Mar 2025 21:29:13.317,624.997
183,18 Mar 2025 19:26:37.209,18 Mar 2025 19:36:23.858,586.649
184,18 Mar 2025 20:59:52.104,18 Mar 2025 21:10:57.982,665.878
185,19 Mar 2025 19:08:31.696,19 Mar 2025 19:16:43.950,492.254
186,19 Mar 2025 20:41:02.306,19 Mar 2025 20:52:30.423,688.117
187,19 Mar 2025 22:16:59.875,19 Mar 2025 22:22:24.809,324.934
188,20 Mar 2025 18:50:57.201,20 Mar 2025 18:56:26.964,329.763
189,20 Mar 2025 20:22:18.483,20 Mar 2025 20:33:51.267,692.783
190,20 Mar 2025 21:57:21.614,20 Mar 2025 22:05:10.692,469.078
191,21 Mar 2025 20:03:40.912,21 Mar 2025 20:15:00.331,679.419
192,21 Mar 2025 21:38:05.896,21 Mar 2025 21:47:27.340,561.444
193,22 Mar 2025 19:45:10.658,22 Mar 2025 19:55:56.570,645.912
194,22 Mar 2025 21:19:01.707,22 Mar 2025 21:29:26.104,624.397
195,23 Mar 2025 19:26:50.064,23 Mar 2025 19:36:37.578,587.514
196,23 Mar 2025 21:00:05.410,23 Mar 2025 21:11:10.920,665.510
197,24 Mar 2025 19:08:44.321,24 Mar 2025 19:16:57.969,493.648
198,24 Mar 2025 20:41:15.541,24 Mar 2025 20:52:43.499,687.958
199,24 Mar 2025 22:17:13.967,24 Mar 2025 22:22:36.660,322.693
200,25 Mar 2025 18:51:09.230,25 Mar 2025 18:56:41.653,332.423
201,25 Mar 2025 20:22:31.648,25 Mar 2025 20:34:04.479,692.831
202,25 Mar 2025 21:57:35.284,25 Mar 2025 22:05:23.044,467.760
203,26 Mar 2025 20:03:53.999,26 Mar 2025 20:15:13.685,679.687
204,26 Mar 2025 21:38:19.393,26 Mar 2025 21:47:39.944,560.552
205,27 Mar 2025 19:45:23.648,27 Mar 2025 19:56:10.085,646.437
206,27 Mar 2025 21:19:15.095,27 Mar 2025 21:29:38.888,623.794
207,28 Mar 2025 19:27:02.916,28 Mar 2025 19:36:51.297,588.381
208,28 Mar 2025 21:00:18.715,28 Mar 2025 21:11:23.851,665.135
209,29 Mar 2025 19:08:56.947,29 Mar 2025 19:17:11.981,495.034
210,29 Mar 2025 20:41:28.775,29 Mar 2025 20:52:56.572,687.797
211,29 Mar 2025 22:17:28.066,29 Mar 2025 22:22:48.500,320.434
212,30 Mar 2025 18:51:21.271,30 Mar 2025 18:56:56.324,335.053
213,30 Mar 2025 20:22:44.812,30 Mar 2025 20:34:17.687,692.875
214,30 Mar 2025 21:57:48.955,30 Mar 2025 22:05:35.390,466.434
215,31 Mar 2025 20:04:07.085,31 Mar 2025 20:15:27.036,679.951
216,31 Mar 2025 21:38:32.886,31 Mar 2025 21:47:52.545,559.659
217,1 Apr 2025 19:45:36.639,1 Apr 2025 19:56:23.597,646.958
218,1 Apr 2025 21:19:28.482,1 Apr 2025 21:29:51.670,623.188
219,2 Apr 2025 19:27:15.773,2 Apr 2025 19:37:05.009,589.236
220,2 Apr 2025 21:00:32.021,2 Apr 2025 21:11:36.786,664.764
221,3 Apr 2025 19:09:09.580,3 Apr 2025 19:17:25.989,496.408
222,3 Apr 2025 20:41:42.010,3 Apr 2025 20:53:09.645,687.634
223,3 Apr 2025 22:17:42.172,3 Apr 2025 22:23:00.332,318.160
224,4 Apr 2025 18:51:33.329,4 Apr 2025 18:57:10.982,337.653
225,4 Apr 2025 20:22:57.977,4 Apr 2025 20:34:30.896,692.918
226,4 Apr 2025 21:58:02.629,4 Apr 2025 22:05:47.739,465.110
227,5 Apr 2025 20:04:20.174,5 Apr 2025 20:15:40.387,680.213
228,5 Apr 2025 21:38:46.384,5 Apr 2025 21:48:05.145,558.761
229,6 Apr 2025 19:45:49.638,6 Apr 2025 19:56:37.111,647.473
230,6 Apr 2025 21:19:41.867,6 Apr 2025 21:30:04.452,622.585
231,7 Apr 2025 19:27:28.638,7 Apr 2025 19:37:18.720,590.082
232,7 Apr 2025 21:00:45.329,7 Apr 2025 21:11:49.717,664.388
233,8 Apr 2025 19:09:22.216,8 Apr 2025 19:17:39.992,497.777
234,8 Apr 2025 20:41:55.247,8 Apr 2025 20:53:22.715,687.468
235,8 Apr 2025 22:17:56.290,8 Apr 2025 22:23:12.152,315.862
236,9 Apr 2025 18:51:45.397,9 Apr 2025 18:57:25.626,340.229
237,9 Apr 2025 20:23:11.143,9 Apr 2025 20:34:44.102,692.958
238,9 Apr 2025 21:58:16.307,9 Apr 2025 22:06:00.080,463.774
239,10 Apr 2025 20:04:33.262,10 Apr 2025 20:15:53.734,680.472
240,10 Apr 2025 21:38:59.883,10 Apr 2025 21:48:17.741,557.858
241,11 Apr 2025 19:46:02.630,11 Apr 2025 19:56:50.618,647.988
242,11 Apr 2025 21:19:55.256,11 Apr 2025 21:30:17.230,621.974
243,12 Apr 2025 19:27:41.498,12 Apr 2025 19:37:32.426,590.928
244,12 Apr 2025 21:00:58.636,12 Apr 2025 21:12:02.646,664.010
245,13 Apr 2025 19:09:34.856,13 Apr 2025 19:17:53.992,499.136
246,13 Apr 2025 20:42:08.482,13 Apr 2025 20:53:35.783,687.300
247,13 Apr 2025 22:18:10.415,13 Apr 2025 22:23:23.960,313.545
248,14 Apr 2025 18:51:57.479,14 Apr 2025 18:57:40.254,342.776
249,14 Apr 2025 20:23:24.309,14 Apr 2025 20:34:57.305,692.996
250,14 Apr 2025 21:58:29.984,14 Apr 2025 22:06:12.418,462.434
251,15 Apr 2025 20:04:46.351,15 Apr 2025 20:16:07.079,680.728
252,15 Apr 2025 21:39:13.381,15 Apr 2025 21:48:30.334,556.953
253,16 Apr 2025 19:46:15.624,16 Apr 2025 19:57:04.123,648.498
254,16 Apr 2025 21:20:08.645,16 Apr 2025 21:30:30.005,621.360
255,17 Apr 2025 19:27:54.361,17 Apr 2025 19:37:46.129,591.768
256,17 Apr 2025 21:01:11.944,17 Apr 2025 21:12:15.574,663.630
257,18 Apr 2025 19:09:47.499,18 Apr 2025 19:18:07.986,500.487
258,18 Apr 2025 20:42:21.719,18 Apr 2025 20:53:48.849,687.130
259,18 Apr 2025 22:18:24.549,18 Apr 2025 22:23:35.760,311.211
260,19 Apr 2025 18:52:09.574,19 Apr 2025 18:57:54.870,345.296
261,19 Apr 2025 20:23:37.476,19 Apr 2025 20:35:10.508,693.031
262,19 Apr 2025 21:58:43.665,19 Apr 2025 22:06:24.752,461.087
263,20 Apr 2025 20:04:59.442,20 Apr 2025 20:16:20.423,680.981
264,20 Apr 2025 21:39:26.883,20 Apr 2025 21:48:42.926,556.043
265,21 Apr 2025 19:46:28.621,21 Apr 2025 19:57:17.627,649.006
266,21 Apr 2025 21:20:22.037,21 Apr 2025 21:30:42.780,620.743
267,22 Apr 2025 19:28:07.227,22 Apr 2025 19:37:59.826,592.599
268,22 Apr 2025 21:01:25.253,22 Apr 2025 21:12:28.500,663.247
269,23 Apr 2025 19:10:00.145,23 Apr 2025 19:18:21.977,501.832
270,23 Apr 2025 20:42:34.957,23 Apr 2025 20:54:01.914,686.957
271,23 Apr 2025 22:18:38.696,23 Apr 2025 22:23:47.547,308.851
272,24 Apr 2025 18:52:21.679,24 Apr 2025 18:58:09.473,347.794
273,24 Apr 2025 20:23:50.644,24 Apr 2025 20:35:23.708,693.064
274,24 Apr 2025 21:58:57.350,24 Apr 2025 22:06:37.081,459.731
275,25 Apr 2025 20:05:12.533,25 Apr 2025 20:16:33.765,681.232
276,25 Apr 2025 21:39:40.386,25 Apr 2025 21:48:55.514,555.128
277,26 Apr 2025 19:46:41.617,26 Apr 2025 19:57:31.127,649.510
278,26 Apr 2025 21:20:35.428,26 Apr 2025 21:30:55.551,620.123
279,27 Apr 2025 19:28:20.092,27 Apr 2025 19:38:13.523,593.431
280,27 Apr 2025 21:01:38.562,27 Apr 2025 21:12:41.424,662.862
281,28 Apr 2025 19:10:12.793,28 Apr 2025 19:18:35.960,503.166
282,28 Apr 2025 20:42:48.194,28 Apr 2025 20:54:14.976,686.782
283,28 Apr 2025 22:18:52.850,28 Apr 2025 22:23:59.322,306.473
284,29 Apr 2025 18:52:33.797,29 Apr 2025 18:58:24.061,350.263
285,29 Apr 2025 20:24:03.812,29 Apr 2025 20:35:36.906,693.094
286,29 Apr 2025 21:59:11.035,29 Apr 2025 22:06:49.406,458.371
287,30 Apr 2025 20:05:25.624,30 Apr 2025 20:16:47.104,681.480
288,30 Apr 2025 21:39:53.886,30 Apr 2025 21:49:08.100,554.214
289,1 May 2025 19:46:54.615,1 May 2025 19:57:44.625,650.010
290,1 May 2025 21:20:48.820,1 May 2025 21:31:08.321,619.501
291,2 May 2025 19:28:32.961,2 May 2025 19:38:27.219,594.258
292,2 May 2025 21:01:51.872,2 May 2025 21:12:54.346,662.474
293,3 May 2025 19:10:25.447,3 May 2025 19:18:49.940,504.492
294,3 May 2025 20:43:01.434,3 May 2025 20:54:28.038,686.604
295,3 May 2025 22:19:07.015,3 May 2025 22:24:11.087,304.073
296,4 May 2025 18:52:45.928,4 May 2025 18:58:38.638,352.710
297,4 May 2025 20:24:16.981,4 May 2025 20:35:50.103,693.122
298,4 May 2025 21:59:24.725,4 May 2025 22:07:01.728,457.004
299,5 May 2025 20:05:38.717,5 May 2025 20:17:00.442,681.725
300,5 May 2025 21:40:07.391,5 May 2025 21:49:20.683,553.292
301,6 May 2025 19:47:07.614,6 May 2025 19:57:58.122,650.508
302,6 May 2025 21:21:02.214,6 May 2025 21:31:21.089,618.875
303,7 May 2025 19:28:45.830,7 May 2025 19:38:40.912,595.081
304,7 May 2025 21:02:05.183,7 May 2025 21:13:07.267,662.084
305,8 May 2025 19:10:38.102,8 May 2025 19:19:03.914,505.812
306,8 May 2025 20:43:14.673,8 May 2025 20:54:41.097,686.424
307,8 May 2025 22:19:21.192,8 May 2025 22:24:22.838,301.646
308,9 May 2025 18:52:58.063,9 May 2025 18:58:53.202,355.139
309,9 May 2025 20:24:30.149,9 May 2025 20:36:03.296,693.147
310,9 May 2025 21:59:38.417,9 May 2025 22:07:14.042,455.626
311,10 May 2025 20:05:51.810,10 May 2025 20:17:13.777,681.968
312,10 May 2025 21:40:20.896,10 May 2025 21:49:33.263,552.367
313,11 May 2025 19:47:20.612,11 May 2025 19:58:11.614,651.002
314,11 May 2025 21:21:15.607,11 May 2025 21:31:33.854,618.247
315,12 May 2025 19:28:58.701,12 May 2025 19:38:54.600,595.900
316,12 May 2025 21:02:18.493,12 May 2025 21:13:20.184,661.691
317,13 May 2025 19:10:50.761,13 May 2025 19:19:17.883,507.122
318,13 May 2025 20:43:27.911,13 May 2025 20:54:54.153,686.242
319,13 May 2025 22:19:35.377,13 May 2025 22:24:34.577,299.200
320,14 May 2025 18:53:10.218,14 May 2025 18:59:07.752,357.534
321,14 May 2025 20:24:43.319,14 May 2025 20:36:16.488,693.169
322,14 May 2025 21:59:52.110,14 May 2025 22:07:26.354,454.245
323,15 May 2025 20:06:04.903,15 May 2025 20:17:27.110,682.207
324,15 May 2025 21:40:34.402,15 May 2025 21:49:45.840,551.438
325,16 May 2025 19:47:33.613,16 May 2025 19:58:25.105,651.492
326,16 May 2025 21:21:29.001,16 May 2025 21:31:46.617,617.616
327,17 May 2025 19:29:11.574,17 May 2025 19:39:08.287,596.714
328,17 May 2025 21:02:31.804,17 May 2025 21:13:33.100,661.296
329,18 May 2025 19:11:03.423,18 May 2025 19:19:31.849,508.425
330,18 May 2025 20:43:41.151,18 May 2025 20:55:07.209,686.057
331,18 May 2025 22:19:49.575,18 May 2025 22:24:46.304,296.729
332,19 May 2025 18:53:22.380,19 May 2025 18:59:22.291,359.912
333,19 May 2025 20:24:56.490,19 May 2025 20:36:29.679,693.189
334,19 May 2025 22:00:05.807,19 May 2025 22:07:38.663,452.856
335,20 May 2025 20:06:17.998,20 May 2025 20:17:40.442,682.444
336,20 May 2025 21:40:47.911,20 May 2025 21:49:58.416,550.504
337,21 May 2025 19:47:46.615,21 May 2025 19:58:38.595,651.980
338,21 May 2025 21:21:42.397,21 May 2025 21:31:59.378,616.981
339,22 May 2025 19:29:24.448,22 May 2025 19:39:21.971,597.524
340,22 May 2025 21:02:45.117,22 May 2025 21:13:46.015,660.898
341,23 May 2025 19:11:16.088,23 May 2025 19:19:45.809,509.721
342,23 May 2025 20:43:54.392,23 May 2025 20:55:20.262,685.870
343,23 May 2025 22:20:03.787,23 May 2025 22:24:58.019,294.232
344,24 May 2025 18:53:34.549,24 May 2025 18:59:36.819,362.270
345,24 May 2025 20:25:09.660,24 May 2025 20:36:42.867,693.207
346,24 May 2025 22:00:19.507,24 May 2025 22:07:50.967,451.459
347,25 May 2025 20:06:31.092,25 May 2025 20:17:53.771,682.679
348,25 May 2025 21:41:01.420,25 May 2025 21:50:10.987,549.566
349,26 May 2025 19:47:59.616,26 May 2025 19:58:52.080,652.464
350,26 May 2025 21:21:55.794,26 May 2025 21:32:12.136,616.342
351,27 May 2025 19:29:37.323,27 May 2025 19:39:35.650,598.327
352,27 May 2025 21:02:58.428,27 May 2025 21:13:58.926,660.498
353,28 May 2025 19:11:28.755,28 May 2025 19:19:59.761,511.006
354,28 May 2025 20:44:07.636,28 May 2025 20:55:33.315,685.679
355,28 May 2025 22:20:18.001,28 May 2025 22:25:09.714,291.713
356,29 May 2025 18:53:46.731,29 May 2025 18:59:51.333,364.602
357,29 May 2025 20:25:22.831,29 May 2025 20:36:56.054,693.222
358,29 May 2025 22:00:33.209,29 May 2025 22:08:03.268,450.060
359,30 May 2025 20:06:44.188,30 May 2025 20:18:07.098,682.911
360,30 May 2025 21:41:14.931,30 May 2025 21:50:23.556,548.625
361,31 May 2025 19:48:12.620,31 May 2025 19:59:05.565,652.944
362,31 May 2025 21:22:09.193,31 May 2025 21:32:24.893,615.700
363,1 Jun 2025 19:29:50.201,1 Jun 2025 19:39:49.327,599.127
364,1 Jun 2025 21:03:11.742,1 Jun 2025 21:14:11.837,660.095
365,2 Jun 2025 19:11:41.426,2 Jun 2025 19:20:13.714,512.287
366,2 Jun 2025 20:44:20.878,2 Jun 2025 20:55:46.365,685.487
367,2 Jun 2025 22:20:32.237,2 Jun 2025 22:25:21.400,289.163
368,3 Jun 2025 18:53:58.921,3 Jun 2025 19:00:05.839,366.918
369,3 Jun 2025 20:25:36.004,3 Jun 2025 20:37:09.239,693.235
370,3 Jun 2025 22:00:46.916,3 Jun 2025 22:08:15.564,448.648
371,4 Jun 2025 20:06:57.284,4 Jun 2025 20:18:20.424,683.140
372,4 Jun 2025 21:41:28.444,4 Jun 2025 21:50:36.123,547.679
373,5 Jun 2025 19:48:25.624,5 Jun 2025 19:59:19.047,653.423
374,5 Jun 2025 21:22:22.592,5 Jun 2025 21:32:37.647,615.055
375,6 Jun 2025 19:30:03.078,6 Jun 2025 19:40:03.001,599.923
376,6 Jun 2025 21:03:25.056,6 Jun 2025 21:14:24.745,659.690
377,7 Jun 2025 19:11:54.099,7 Jun 2025 19:20:27.661,513.562
378,7 Jun 2025 20:44:34.120,7 Jun 2025 20:55:59.411,685.291
379,7 Jun 2025 22:20:46.484,7 Jun 2025 22:25:33.070,286.585
380,8 Jun 2025 18:54:11.119,8 Jun 2025 19:00:20.331,369.212
381,8 Jun 2025 20:25:49.176,8 Jun 2025 20:37:22.421,693.245
382,8 Jun 2025 22:01:00.624,8 Jun 2025 22:08:27.853,447.229
383,9 Jun 2025 20:07:10.380,9 Jun 2025 20:18:33.747,683.367
384,9 Jun 2025 21:41:41.957,9 Jun 2025 21:50:48.685,546.728
385,10 Jun 2025 19:48:38.628,10 Jun 2025 19:59:32.525,653.897
386,10 Jun 2025 21:22:35.990,10 Jun 2025 21:32:50.398,614.407
387,11 Jun 2025 19:30:15.957,11 Jun 2025 19:40:16.671,600.714
388,11 Jun 2025 21:03:38.369,11 Jun 2025 21:14:37.651,659.282
389,12 Jun 2025 19:12:06.775,12 Jun 2025 19:20:41.603,514.828
390,12 Jun 2025 20:44:47.361,12 Jun 2025 20:56:12.455,685.094
391,12 Jun 2025 22:21:00.743,12 Jun 2025 22:25:44.727,283.983
392,13 Jun 2025 18:54:23.329,13 Jun 2025 19:00:34.813,371.484
393,13 Jun 2025 20:26:02.348,13 Jun 2025 20:37:35.602,693.253
394,13 Jun 2025 22:01:14.335,13 Jun 2025 22:08:40.139,445.804
395,14 Jun 2025 20:07:23.477,14 Jun 2025 20:18:47.069,683.591
396,14 Jun 2025 21:41:55.472,14 Jun 2025 21:51:01.246,545.774
397,15 Jun 2025 19:48:51.635,15 Jun 2025 19:59:46.003,654.368
398,15 Jun 2025 21:22:49.386,15 Jun 2025 21:33:03.148,613.762
399,16 Jun 2025 19:30:28.839,16 Jun 2025 19:40:30.340,601.501
400,16 Jun 2025 21:03:51.685,16 Jun 2025 21:14:50.556,658.871
401,17 Jun 2025 19:12:19.454,17 Jun 2025 19:20:55.543,516.088
402,17 Jun 2025 20:45:00.605,17 Jun 2025 20:56:25.501,684.896
403,17 Jun 2025 22:21:15.019,17 Jun 2025 22:25:56.368,281.349
404,18 Jun 2025 18:54:35.547,18 Jun 2025 19:00:49.286,373.739
405,18 Jun 2025 20:26:15.523,18 Jun 2025 20:37:48.782,693.259
406,18 Jun 2025 22:01:28.052,18 Jun 2025 22:08:52.421,444.369
407,19 Jun 2025 20:07:36.576,19 Jun 2025 20:19:00.391,683.816
408,19 Jun 2025 21:42:08.986,19 Jun 2025 21:51:13.804,544.818
409,20 Jun 2025 19:49:04.646,20 Jun 2025 19:59:59.476,654.830
410,20 Jun 2025 21:23:02.791,20 Jun 2025 21:33:15.895,613.104
411,21 Jun 2025 19:30:41.721,21 Jun 2025 19:40:44.005,602.284
412,21 Jun 2025 21:04:05.001,21 Jun 2025 21:15:03.458,658.457
413,22 Jun 2025 19:12:32.135,22 Jun 2025 19:21:09.478,517.343
414,22 Jun 2025 20:45:13.848,22 Jun 2025 20:56:38.542,684.694
415,22 Jun 2025 22:21:29.308,22 Jun 2025 22:26:07.993,278.685
416,23 Jun 2025 18:54:47.774,23 Jun 2025 19:01:03.746,375.972
417,23 Jun 2025 20:26:28.696,23 Jun 2025 20:38:01.958,693.262
418,23 Jun 2025 22:01:41.769,23 Jun 2025 22:09:04.697,442.927
419,24 Jun 2025 20:07:49.673,24 Jun 2025 20:19:13.707,684.034
420,24 Jun 2025 21:42:22.503,24 Jun 2025 21:51:26.358,543.855
421,25 Jun 2025 19:49:17.653,25 Jun 2025 20:00:12.948,655.295
422,25 Jun 2025 21:23:16.192,25 Jun 2025 21:33:28.639,612.448
423,26 Jun 2025 19:30:54.605,26 Jun 2025 19:40:57.667,603.062
424,26 Jun 2025 21:04:18.316,26 Jun 2025 21:15:16.358,658.041
425,27 Jun 2025 19:12:44.820,27 Jun 2025 19:21:23.407,518.587
426,27 Jun 2025 20:45:27.092,27 Jun 2025 20:56:51.582,684.489
427,27 Jun 2025 22:21:43.609,27 Jun 2025 22:26:19.604,275.995
428,28 Jun 2025 18:55:00.011,28 Jun 2025 19:01:18.198,378.186
429,28 Jun 2025 20:26:41.871,28 Jun 2025 20:38:15.134,693.263
430,28 Jun 2025 22:01:55.491,28 Jun 2025 22:09:16.970,441.479
431,29 Jun 2025 20:08:02.774,29 Jun 2025 20:19:27.024,684.250
432,29 Jun 2025 21:42:36.023,29 Jun 2025 21:51:38.911,542.887
433,30 Jun 2025 19:49:30.662,30 Jun 2025 20:00:26.420,655.757
434,30 Jun 2025 21:23:29.595,30 Jun 2025 21:33:41.383,611.788
435,1 Jul 2025 19:31:07.491,1 Jul 2025 19:41:11.328,603.837
436,1 Jul 2025 21:04:31.635,1 Jul 2025 21:15:29.257,657.622
437,2 Jul 2025 19:12:57.507,2 Jul 2025 19:21:37.334,519.827
438,2 Jul 2025 20:45:40.338,2 Jul 2025 20:57:04.620,684.282
439,2 Jul 2025 22:21:57.930,2 Jul 2025 22:26:31.197,273.267
440,3 Jul 2025 18:55:12.255,3 Jul 2025 19:01:32.640,380.385
441,3 Jul 2025 20:26:55.046,3 Jul 2025 20:38:28.308,693.262
442,3 Jul 2025 22:02:09.218,3 Jul 2025 22:09:29.237,440.019
443,4 Jul 2025 20:08:15.873,4 Jul 2025 20:19:40.337,684.464
444,4 Jul 2025 21:42:49.546,4 Jul 2025 21:51:51.459,541.913
445,5 Jul 2025 19:49:43.671,5 Jul 2025 20:00:39.888,656.217
446,5 Jul 2025 21:23:42.999,5 Jul 2025 21:33:54.123,611.124
447,6 Jul 2025 19:31:20.377,6 Jul 2025 19:41:24.985,604.608
448,6 Jul 2025 21:04:44.952,6 Jul 2025 21:15:42.156,657.204
449,7 Jul 2025 19:13:10.195,7 Jul 2025 19:21:51.260,521.065
450,7 Jul 2025 20:45:53.578,7 Jul 2025 20:57:17.656,684.077
451,7 Jul 2025 22:22:12.269,7 Jul 2025 22:26:42.772,270.503
452,8 Jul 2025 18:55:24.507,8 Jul 2025 19:01:47.071,382.563
453,8 Jul 2025 20:27:08.221,8 Jul 2025 20:38:41.479,693.258
454,8 Jul 2025 22:02:22.946,8 Jul 2025 22:09:41.499,438.553
455,9 Jul 2025 20:08:28.973,9 Jul 2025 20:19:53.648,684.675
456,9 Jul 2025 21:43:03.069,9 Jul 2025 21:52:04.005,540.936
457,10 Jul 2025 19:49:56.681,10 Jul 2025 20:00:53.354,656.672
458,10 Jul 2025 21:23:56.403,10 Jul 2025 21:34:06.861,610.457
459,11 Jul 2025 19:31:33.265,11 Jul 2025 19:41:38.639,605.374
460,11 Jul 2025 21:04:58.271,11 Jul 2025 21:15:55.051,656.780
461,12 Jul 2025 19:13:22.888,12 Jul 2025 19:22:05.177,522.289
462,12 Jul 2025 20:46:06.825,12 Jul 2025 20:57:30.691,683.866
463,12 Jul 2025 22:22:26.620,12 Jul 2025 22:26:54.331,267.712
464,13 Jul 2025 18:55:36.769,13 Jul 2025 19:02:01.493,384.724
465,13 Jul 2025 20:27:21.398,13 Jul 2025 20:38:54.650,693.251
466,13 Jul 2025 22:02:36.679,13 Jul 2025 22:09:53.758,437.079
467,14 Jul 2025 20:08:42.076,14 Jul 2025 20:20:06.959,684.883
468,14 Jul 2025 21:43:16.595,14 Jul 2025 21:52:16.549,539.954
469,15 Jul 2025 19:50:09.694,15 Jul 2025 20:01:06.817,657.123
470,15 Jul 2025 21:24:09.810,15 Jul 2025 21:34:19.598,609.787
471,16 Jul 2025 19:31:46.155,16 Jul 2025 19:41:52.292,606.137
472,16 Jul 2025 21:05:11.592,16 Jul 2025 21:16:07.944,656.352
473,17 Jul 2025 19:13:35.584,17 Jul 2025 19:22:19.092,523.509
474,17 Jul 2025 20:46:20.073,17 Jul 2025 20:57:43.724,683.652
475,17 Jul 2025 22:22:40.990,17 Jul 2025 22:27:05.870,264.880
476,18 Jul 2025 18:55:49.038,18 Jul 2025 19:02:15.907,386.869
477,18 Jul 2025 20:27:34.571,18 Jul 2025 20:39:07.819,693.248
478,18 Jul 2025 22:02:50.417,18 Jul 2025 22:10:06.011,435.594
479,19 Jul 2025 20:08:55.178,19 Jul 2025 20:20:20.262,685.084
480,19 Jul 2025 21:43:30.127,19 Jul 2025 21:52:29.086,538.959
481,20 Jul 2025 19:50:22.705,20 Jul 2025 20:01:20.284,657.579
482,20 Jul 2025 21:24:23.215,20 Jul 2025 21:34:32.331,609.116
483,21 Jul 2025 19:31:59.044,21 Jul 2025 19:42:05.941,606.897
484,21 Jul 2025 21:05:24.912,21 Jul 2025 21:16:20.834,655.922
485,22 Jul 2025 19:13:48.284,22 Jul 2025 19:22:32.999,524.715
486,22 Jul 2025 20:46:33.320,22 Jul 2025 20:57:56.758,683.439
487,22 Jul 2025 22:22:55.376,22 Jul 2025 22:27:17.391,262.015
488,23 Jul 2025 18:56:01.314,23 Jul 2025 19:02:30.309,388.995
489,23 Jul 2025 20:27:47.748,23 Jul 2025 20:39:20.985,693.237
490,23 Jul 2025 22:03:04.157,23 Jul 2025 22:10:18.259,434.102
491,24 Jul 2025 20:09:08.279,24 Jul 2025 20:20:33.568,685.289
492,24 Jul 2025 21:43:43.653,24 Jul 2025 21:52:41.623,537.970
493,25 Jul 2025 19:50:35.718,25 Jul 2025 20:01:33.744,658.026
494,25 Jul 2025 21:24:36.624,25 Jul 2025 21:34:45.063,608.439
495,26 Jul 2025 19:32:11.937,26 Jul 2025 19:42:19.588,607.651
496,26 Jul 2025 21:05:38.234,26 Jul 2025 21:16:33.724,655.490
497,27 Jul 2025 19:14:00.986,27 Jul 2025 19:22:46.907,525.922
498,27 Jul 2025 20:46:46.569,27 Jul 2025 20:58:09.789,683.220
499,27 Jul 2025 22:23:09.780,27 Jul 2025 22:27:28.894,259.113
500,28 Jul 2025 18:56:13.600,28 Jul 2025 19:02:44.705,391.105
501,28 Jul 2025 20:28:00.928,28 Jul 2025 20:39:34.151,693.223
502,28 Jul 2025 22:03:17.903,28 Jul 2025 22:10:30.504,432.601
503,29 Jul 2025 20:09:21.384,29 Jul 2025 20:20:46.873,685.490
504,29 Jul 2025 21:43:57.186,29 Jul 2025 21:52:54.159,536.972
505,30 Jul 2025 19:50:48.729,30 Jul 2025 20:01:47.203,658.474
506,30 Jul 2025 21:24:50.035,30 Jul 2025 21:34:57.793,607.758
507,31 Jul 2025 19:32:24.831,31 Jul 2025 19:42:33.234,608.403
508,31 Jul 2025 21:05:51.558,31 Jul 2025 21:16:46.611,655.054
509,1 Aug 2025 19:14:13.689,1 Aug 2025 19:23:00.812,527.123
510,1 Aug 2025 20:46:59.819,1 Aug 2025 20:58:22.817,682.998
511,1 Aug 2025 22:23:24.207,1 Aug 2025 22:27:40.374,256.167
512,2 Aug 2025 18:56:25.891,2 Aug 2025 19:02:59.092,393.201
513,2 Aug 2025 20:28:14.107,2 Aug 2025 20:39:47.315,693.207
514,2 Aug 2025 22:03:31.653,2 Aug 2025 22:10:42.742,431.089
515,3 Aug 2025 20:09:34.488,3 Aug 2025 20:21:00.176,685.688
516,3 Aug 2025 21:44:10.720,3 Aug 2025 21:53:06.690,535.969
517,4 Aug 2025 19:51:01.744,4 Aug 2025 20:02:00.656,658.912
518,4 Aug 2025 21:25:03.447,4 Aug 2025 21:35:10.521,607.073
519,5 Aug 2025 19:32:37.726,5 Aug 2025 19:42:46.876,609.150
520,5 Aug 2025 21:06:04.881,5 Aug 2025 21:16:59.496,654.615
521,6 Aug 2025 19:14:26.394,6 Aug 2025 19:23:14.712,528.318
522,6 Aug 2025 20:47:13.069,6 Aug 2025 20:58:35.843,682.774
523,6 Aug 2025 22:23:38.650,6 Aug 2025 22:27:51.834,253.184
524,7 Aug 2025 18:56:38.191,7 Aug 2025 19:03:13.469,395.278
525,7 Aug 2025 20:28:27.287,7 Aug 2025 20:40:00.476,693.189
526,7 Aug 2025 22:03:45.405,7 Aug 2025 22:10:54.976,429.570
527,8 Aug 2025 20:09:47.594,8 Aug 2025 20:21:13.478,685.884
528,8 Aug 2025 21:44:24.256,8 Aug 2025 21:53:19.219,534.963
529,9 Aug 2025 19:51:14.761,9 Aug 2025 20:02:14.111,659.350
530,9 Aug 2025 21:25:16.861,9 Aug 2025 21:35:23.247,606.385
531,10 Aug 2025 19:32:50.623,10 Aug 2025 19:43:00.516,609.893
532,10 Aug 2025 21:06:18.207,10 Aug 2025 21:17:12.381,654.174
533,11 Aug 2025 19:14:39.101,11 Aug 2025 19:23:28.608,529.507
534,11 Aug 2025 20:47:26.325,11 Aug 2025 20:58:48.865,682.540
535,11 Aug 2025 22:23:53.111,11 Aug 2025 22:28:03.275,250.164
536,12 Aug 2025 18:56:50.499,12 Aug 2025 19:03:27.839,397.340
537,12 Aug 2025 20:28:40.474,12 Aug 2025 20:40:13.637,693.163
538,12 Aug 2025 22:03:59.164,12 Aug 2025 22:11:07.205,428.041
539,13 Aug 2025 18:40:49.404,13 Aug 2025 18:41:33.211,43.807
540,13 Aug 2025 20:10:00.701,13 Aug 2025 20:21:26.780,686.079
541,13 Aug 2025 21:44:37.795,13 Aug 2025 21:53:31.746,533.951
542,14 Aug 2025 19:51:27.779,14 Aug 2025 20:02:27.565,659.786
543,14 Aug 2025 21:25:30.275,14 Aug 2025 21:35:35.971,605.695
544,15 Aug 2025 19:33:03.521,15 Aug 2025 19:43:14.155,610.633
545,15 Aug 2025 21:06:31.534,15 Aug 2025 21:17:25.263,653.730
546,16 Aug 2025 19:14:51.811,16 Aug 2025 19:23:42.502,530.691
547,16 Aug 2025 20:47:39.578,16 Aug 2025 20:59:01.888,682.311
548,16 Aug 2025 22:24:07.600,16 Aug 2025 22:28:14.691,247.091
549,17 Aug 2025 18:57:02.812,17 Aug 2025 19:03:42.200,399.388
550,17 Aug 2025 20:28:53.656,17 Aug 2025 20:40:26.796,693.140
551,17 Aug 2025 22:04:12.927,17 Aug 2025 22:11:19.428,426.502
552,18 Aug 2025 18:40:53.217,18 Aug 2025 18:41:56.151,62.933
553,18 Aug 2025 20:10:13.808,18 Aug 2025 20:21:40.078,686.270
554,18 Aug 2025 21:44:51.332,18 Aug 2025 21:53:44.269,532.937
555,19 Aug 2025 19:51:40.798,19 Aug 2025 20:02:41.016,660.219
556,19 Aug 2025 21:25:43.691,19 Aug 2025 21:35:48.691,605.000
557,20 Aug 2025 19:33:16.423,20 Aug 2025 19:43:27.790,611.366
558,20 Aug 2025 21:06:44.861,20 Aug 2025 21:17:38.143,653.283
559,21 Aug 2025 19:15:04.524,21 Aug 2025 19:23:56.391,531.867
560,21 Aug 2025 20:47:52.831,21 Aug 2025 20:59:14.910,682.079
561,21 Aug 2025 22:24:22.107,21 Aug 2025 22:28:26.086,243.979
562,22 Aug 2025 18:57:15.134,22 Aug 2025 19:03:56.553,401.418
563,22 Aug 2025 20:29:06.839,22 Aug 2025 20:40:39.954,693.115
564,22 Aug 2025 22:04:26.693,22 Aug 2025 22:11:31.648,424.955
565,23 Aug 2025 18:40:59.344,23 Aug 2025 18:42:16.778,77.434
566,23 Aug 2025 20:10:26.917,23 Aug 2025 20:21:53.373,686.456
567,23 Aug 2025 21:45:04.875,23 Aug 2025 21:53:56.790,531.915
568,24 Aug 2025 19:51:53.819,24 Aug 2025 20:02:54.467,660.648
569,24 Aug 2025 21:25:57.110,24 Aug 2025 21:36:01.412,604.302
570,25 Aug 2025 19:33:29.326,25 Aug 2025 19:43:41.424,612.098
571,25 Aug 2025 21:06:58.190,25 Aug 2025 21:17:51.023,652.833
572,26 Aug 2025 19:15:17.241,26 Aug 2025 19:24:10.279,533.038
573,26 Aug 2025 20:48:06.087,26 Aug 2025 20:59:27.932,681.845
574,26 Aug 2025 22:24:36.643,26 Aug 2025 22:28:37.457,240.814
575,27 Aug 2025 18:57:27.464,27 Aug 2025 19:04:10.900,403.436
576,27 Aug 2025 20:29:20.022,27 Aug 2025 20:40:53.112,693.090
577,27 Aug 2025 22:04:40.466,27 Aug 2025 22:11:43.862,423.397
578,28 Aug 2025 18:41:06.629,28 Aug 2025 18:42:36.242,89.612
579,28 Aug 2025 20:10:40.030,28 Aug 2025 20:22:06.670,686.640
580,28 Aug 2025 21:45:18.422,28 Aug 2025 21:54:09.308,530.886
581,29 Aug 2025 19:52:06.840,29 Aug 2025 20:03:07.916,661.075
582,29 Aug 2025 21:26:10.531,29 Aug 2025 21:36:14.130,603.599
583,30 Aug 2025 19:33:42.229,30 Aug 2025 19:43:55.056,612.828
584,30 Aug 2025 21:07:11.521,30 Aug 2025 21:18:03.901,652.379
585,31 Aug 2025 19:15:29.960,31 Aug 2025 19:24:24.163,534.203
586,31 Aug 2025 20:48:19.343,31 Aug 2025 20:59:40.951,681.608
587,31 Aug 2025 22:24:51.202,31 Aug 2025 22:28:48.802,237.599
588,1 Sep 2025 18:57:39.799,1 Sep 2025 19:04:25.238,405.439
589,1 Sep 2025 20:29:33.208,1 Sep 2025 20:41:06.267,693.059
590,1 Sep 2025 22:04:54.243,1 Sep 2025 22:11:56.071,421.828
591,2 Sep 2025 18:41:14.662,2 Sep 2025 18:42:54.961,100.299
592,2 Sep 2025 20:10:53.141,2 Sep 2025 20:22:19.964,686.824
593,2 Sep 2025 21:45:31.970,2 Sep 2025 21:54:21.823,529.854
594,3 Sep 2025 19:52:19.863,3 Sep 2025 20:03:21.362,661.499
595,3 Sep 2025 21:26:23.950,3 Sep 2025 21:36:26.846,602.895
596,4 Sep 2025 19:33:55.134,4 Sep 2025 19:44:08.685,613.552
597,4 Sep 2025 21:07:24.852,4 Sep 2025 21:18:16.776,651.924
598,5 Sep 2025 19:15:42.682,5 Sep 2025 19:24:38.043,535.360
599,5 Sep 2025 20:48:32.600,5 Sep 2025 20:59:53.969,681.369
600,5 Sep 2025 22:25:05.784,5 Sep 2025 22:29:00.123,234.340
601,6 Sep 2025 18:57:52.143,6 Sep 2025 19:04:39.567,407.424
602,6 Sep 2025 20:29:46.395,6 Sep 2025 20:41:19.421,693.025
603,6 Sep 2025 22:05:08.023,6 Sep 2025 22:12:08.280,420.257
604,7 Sep 2025 18:41:23.222,7 Sep 2025 18:43:13.149,109.927
605,7 Sep 2025 20:11:06.254,7 Sep 2025 20:22:33.259,687.005
606,7 Sep 2025 21:45:45.520,7 Sep 2025 21:54:34.337,528.817
607,8 Sep 2025 19:52:32.891,8 Sep 2025 20:03:34.807,661.916
608,8 Sep 2025 21:26:37.376,8 Sep 2025 21:36:39.561,602.185
609,9 Sep 2025 19:34:08.043,9 Sep 2025 19:44:22.314,614.272
610,9 Sep 2025 21:07:38.187,9 Sep 2025 21:18:29.652,651.465
611,10 Sep 2025 19:15:55.408,10 Sep 2025 19:24:51.921,536.513
612,10 Sep 2025 20:48:45.859,10 Sep 2025 21:00:06.987,681.127
613,10 Sep 2025 22:25:20.395,10 Sep 2025 22:29:11.418,231.023
614,11 Sep 2025 18:58:04.494,11 Sep 2025 19:04:53.892,409.398
615,11 Sep 2025 20:29:59.585,11 Sep 2025 20:41:32.574,692.989
616,11 Sep 2025 22:05:21.811,11 Sep 2025 22:12:20.480,418.669
617,12 Sep 2025 18:41:32.176,12 Sep 2025 18:43:30.945,118.768
618,12 Sep 2025 20:11:19.366,12 Sep 2025 20:22:46.549,687.184
619,12 Sep 2025 21:45:59.074,12 Sep 2025 21:54:46.847,527.773
620,13 Sep 2025 19:52:45.916,13 Sep 2025 20:03:48.251,662.335
621,13 Sep 2025 21:26:50.802,13 Sep 2025 21:36:52.273,601.471
622,14 Sep 2025 19:34:20.950,14 Sep 2025 19:44:35.940,614.989
623,14 Sep 2025 21:07:51.521,14 Sep 2025 21:18:42.525,651.003
624,15 Sep 2025 19:16:08.136,15 Sep 2025 19:25:05.793,537.657
625,15 Sep 2025 20:48:59.115,15 Sep 2025 21:00:20.006,680.891
626,15 Sep 2025 22:25:35.031,15 Sep 2025 22:29:22.682,227.651
627,16 Sep 2025 18:58:16.855,16 Sep 2025 19:05:08.207,411.352
628,16 Sep 2025 20:30:12.771,16 Sep 2025 20:41:45.725,692.955
629,16 Sep 2025 22:05:35.601,16 Sep 2025 22:12:32.673,417.072
630,17 Sep 2025 18:41:41.454,17 Sep 2025 18:43:48.419,126.965
631,17 Sep 2025 20:11:32.482,17 Sep 2025 20:22:59.840,687.358
632,17 Sep 2025 21:46:12.629,17 Sep 2025 21:54:59.354,526.725
633,18 Sep 2025 19:52:58.943,18 Sep 2025 20:04:01.693,662.750
634,18 Sep 2025 21:27:04.228,18 Sep 2025 21:37:04.983,600.755
635,19 Sep 2025 19:34:33.861,19 Sep 2025 19:44:49.563,615.702
636,19 Sep 2025 21:08:04.857,19 Sep 2025 21:18:55.396,650.539
637,20 Sep 2025 19:16:20.872,20 Sep 2025 19:25:19.667,538.794
638,20 Sep 2025 20:49:12.380,20 Sep 2025 21:00:33.016,680.636
639,20 Sep 2025 22:25:49.697,20 Sep 2025 22:29:33.922,224.224
640,21 Sep 2025 18:58:29.216,21 Sep 2025 19:05:22.516,413.299
641,21 Sep 2025 20:30:25.967,21 Sep 2025 20:41:58.876,692.910
642,21 Sep 2025 22:05:49.397,21 Sep 2025 22:12:44.864,415.466
643,22 Sep 2025 18:41:50.981,22 Sep 2025 18:44:05.638,134.657
644,22 Sep 2025 20:11:45.597,22 Sep 2025 20:23:13.132,687.534
645,22 Sep 2025 21:46:26.188,22 Sep 2025 21:55:11.860,525.672
646,23 Sep 2025 19:53:11.973,23 Sep 2025 20:04:15.136,663.163
647,23 Sep 2025 21:27:17.657,23 Sep 2025 21:37:17.693,600.035
648,24 Sep 2025 19:34:46.775,24 Sep 2025 19:45:03.186,616.412
649,24 Sep 2025 21:08:18.196,24 Sep 2025 21:19:08.268,650.071
650,25 Sep 2025 19:16:33.603,25 Sep 2025 19:25:33.533,539.930
651,25 Sep 2025 20:49:25.640,25 Sep 2025 21:00:46.035,680.395
652,25 Sep 2025 22:26:04.391,25 Sep 2025 22:29:45.128,220.737
653,26 Sep 2025 18:58:41.592,26 Sep 2025 19:05:36.819,415.227
654,26 Sep 2025 20:30:39.156,26 Sep 2025 20:42:12.027,692.870
655,26 Sep 2025 22:06:03.200,26 Sep 2025 22:12:57.048,413.847
656,27 Sep 2025 18:42:00.724,27 Sep 2025 18:44:22.645,141.921
657,27 Sep 2025 20:11:58.715,27 Sep 2025 20:23:26.421,687.706
658,27 Sep 2025 21:46:39.750,27 Sep 2025 21:55:24.363,524.612
659,28 Sep 2025 19:53:25.003,28 Sep 2025 20:04:28.576,663.573
660,28 Sep 2025 21:27:31.089,28 Sep 2025 21:37:30.400,599.311
661,29 Sep 2025 19:34:59.689,29 Sep 2025 19:45:16.807,617.118
662,29 Sep 2025 21:08:31.536,29 Sep 2025 21:19:21.137,649.601
663,30 Sep 2025 19:16:46.339,30 Sep 2025 19:25:47.398,541.059
664,30 Sep 2025 20:49:38.904,30 Sep 2025 21:00:59.046,680.143
665,30 Sep 2025 22:26:19.119,30 Sep 2025 22:29:56.303,217.185
666,1 Oct 2025 18:58:53.970,1 Oct 2025 19:05:51.113,417.143
667,1 Oct 2025 20:30:52.351,1 Oct 2025 20:42:25.175,692.824
668,1 Oct 2025 22:06:17.007,1 Oct 2025 22:13:09.227,412.220
669,2 Oct 2025 18:42:10.654,2 Oct 2025 18:44:39.463,148.809
670,2 Oct 2025 20:12:11.834,2 Oct 2025 20:23:39.708,687.874
671,2 Oct 2025 21:46:53.314,2 Oct 2025 21:55:36.862,523.549
672,3 Oct 2025 19:53:38.035,3 Oct 2025 20:04:42.015,663.979
673,3 Oct 2025 21:27:44.521,3 Oct 2025 21:37:43.106,598.585
674,4 Oct 2025 19:35:12.606,4 Oct 2025 19:45:30.425,617.819
675,4 Oct 2025 21:08:44.877,4 Oct 2025 21:19:34.004,649.128
676,5 Oct 2025 19:16:59.080,5 Oct 2025 19:26:01.260,542.180
677,5 Oct 2025 20:49:52.169,5 Oct 2025 21:01:12.058,679.889
678,5 Oct 2025 22:26:33.877,5 Oct 2025 22:30:07.444,213.567
679,6 Oct 2025 18:59:06.357,6 Oct 2025 19:06:05.401,419.044
680,6 Oct 2025 20:31:05.548,6 Oct 2025 20:42:38.322,692.775
681,6 Oct 2025 22:06:30.818,6 Oct 2025 22:13:21.402,410.584
682,7 Oct 2025 18:42:20.749,7 Oct 2025 18:44:56.123,155.374
683,7 Oct 2025 20:12:24.956,7 Oct 2025 20:23:52.995,688.039
684,7 Oct 2025 21:47:06.881,7 Oct 2025 21:55:49.361,522.480
685,8 Oct 2025 19:53:51.070,8 Oct 2025 20:04:55.451,664.381
686,8 Oct 2025 21:27:57.956,8 Oct 2025 21:37:55.810,597.854
687,9 Oct 2025 19:35:25.525,9 Oct 2025 19:45:44.043,618.517
688,9 Oct 2025 21:08:58.221,9 Oct 2025 21:19:46.872,648.651
689,10 Oct 2025 19:17:11.824,10 Oct 2025 19:26:15.120,543.297
690,10 Oct 2025 20:50:05.437,10 Oct 2025 21:01:25.068,679.631
691,10 Oct 2025 22:26:48.675,10 Oct 2025 22:30:18.551,209.876
692,11 Oct 2025 18:59:18.748,11 Oct 2025 19:06:19.683,420.935
693,11 Oct 2025 20:31:18.745,11 Oct 2025 20:42:51.469,692.724
694,11 Oct 2025 22:06:44.636,11 Oct 2025 22:13:33.571,408.935
695,12 Oct 2025 18:42:30.973,12 Oct 2025 18:45:12.645,161.672
696,12 Oct 2025 20:12:38.078,12 Oct 2025 20:24:06.277,688.200
697,12 Oct 2025 21:47:20.450,12 Oct 2025 21:56:01.856,521.405
698,13 Oct 2025 19:54:04.105,13 Oct 2025 20:05:08.887,664.782
699,13 Oct 2025 21:28:11.388,13 Oct 2025 21:38:08.512,597.124
700,14 Oct 2025 19:35:38.445,14 Oct 2025 19:45:57.657,619.212
701,14 Oct 2025 21:09:11.564,14 Oct 2025 21:19:59.736,648.172
702,15 Oct 2025 19:17:24.570,15 Oct 2025 19:26:28.976,544.406
703,15 Oct 2025 20:50:18.704,15 Oct 2025 21:01:38.076,679.372
704,15 Oct 2025 22:27:03.505,15 Oct 2025 22:30:29.624,206.119
705,16 Oct 2025 18:59:31.148,16 Oct 2025 19:06:33.957,422.809
706,16 Oct 2025 20:31:31.937,16 Oct 2025 20:43:04.613,692.676
707,16 Oct 2025 22:06:58.457,16 Oct 2025 22:13:45.735,407.278
708,17 Oct 2025 18:42:41.331,17 Oct 2025 18:45:29.037,167.706
709,17 Oct 2025 20:12:51.202,17 Oct 2025 20:24:19.563,688.362
710,17 Oct 2025 21:47:34.022,17 Oct 2025 21:56:14.348,520.327
711,18 Oct 2025 19:54:17.142,18 Oct 2025 20:05:22.322,665.180
712,18 Oct 2025 21:28:24.826,18 Oct 2025 21:38:21.213,596.387
713,19 Oct 2025 19:35:51.372,19 Oct 2025 19:46:11.271,619.899
714,19 Oct 2025 21:09:24.911,19 Oct 2025 21:20:12.601,647.690
715,20 Oct 2025 19:17:37.321,20 Oct 2025 19:26:42.831,545.510
716,20 Oct 2025 20:50:31.975,20 Oct 2025 21:01:51.085,679.110
717,20 Oct 2025 22:27:18.373,20 Oct 2025 22:30:40.662,202.289
718,21 Oct 2025 18:59:43.555,21 Oct 2025 19:06:48.222,424.667
719,21 Oct 2025 20:31:45.141,21 Oct 2025 20:43:17.763,692.621
720,21 Oct 2025 22:07:12.289,21 Oct 2025 22:13:57.891,405.603
721,22 Oct 2025 18:42:51.799,22 Oct 2025 18:45:45.322,173.522
722,22 Oct 2025 20:13:04.329,22 Oct 2025 20:24:32.847,688.518
723,22 Oct 2025 21:47:47.597,22 Oct 2025 21:56:26.840,519.242
724,23 Oct 2025 19:54:30.182,23 Oct 2025 20:05:35.758,665.576
725,23 Oct 2025 21:28:38.268,23 Oct 2025 21:38:33.913,595.645
726,24 Oct 2025 19:36:04.297,24 Oct 2025 19:46:24.884,620.586
727,24 Oct 2025 21:09:38.260,24 Oct 2025 21:20:25.465,647.205
728,25 Oct 2025 19:17:50.074,25 Oct 2025 19:26:56.683,546.609
729,25 Oct 2025 20:50:45.247,25 Oct 2025 21:02:04.092,678.845
730,25 Oct 2025 22:27:33.286,25 Oct 2025 22:30:51.655,198.369
731,26 Oct 2025 18:59:55.967,26 Oct 2025 19:07:02.485,426.518
732,26 Oct 2025 20:31:58.342,26 Oct 2025 20:43:30.906,692.564
733,26 Oct 2025 22:07:26.122,26 Oct 2025 22:14:10.045,403.923
734,27 Oct 2025 18:43:02.368,27 Oct 2025 18:46:01.506,179.137
735,27 Oct 2025 20:13:17.456,27 Oct 2025 20:24:46.129,688.673
736,27 Oct 2025 21:48:01.175,27 Oct 2025 21:56:39.328,518.152
737,28 Oct 2025 19:54:43.222,28 Oct 2025 20:05:49.190,665.968
738,28 Oct 2025 21:28:51.710,28 Oct 2025 21:38:46.610,594.901
739,29 Oct 2025 19:36:17.224,29 Oct 2025 19:46:38.493,621.269
740,29 Oct 2025 21:09:51.609,29 Oct 2025 21:20:38.326,646.717
741,30 Oct 2025 19:18:02.830,30 Oct 2025 19:27:10.531,547.700
742,30 Oct 2025 20:50:58.519,30 Oct 2025 21:02:17.097,678.578
743,30 Oct 2025 22:27:48.236,30 Oct 2025 22:31:02.607,194.371
744,31 Oct 2025 19:00:08.387,31 Oct 2025 19:07:16.740,428.353
745,31 Oct 2025 20:32:11.544,31 Oct 2025 20:43:44.048,692.504
746,31 Oct 2025 22:07:39.959,31 Oct 2025 22:14:22.194,402.235
747,1 Nov 2025 18:43:13.028,1 Nov 2025 18:46:17.594,184.567
748,1 Nov 2025 20:13:30.584,1 Nov 2025 20:24:59.409,688.825
749,1 Nov 2025 21:48:14.759,1 Nov 2025 21:56:51.815,517.057
750,2 Nov 2025 19:54:56.265,2 Nov 2025 20:06:02.620,666.355
751,2 Nov 2025 21:29:05.153,2 Nov 2025 21:38:59.306,594.153
752,3 Nov 2025 19:36:30.154,3 Nov 2025 19:46:52.101,621.948
753,3 Nov 2025 21:10:04.959,3 Nov 2025 21:20:51.187,646.228
754,4 Nov 2025 19:18:15.591,4 Nov 2025 19:27:24.377,548.786
755,4 Nov 2025 20:51:11.794,4 Nov 2025 21:02:30.103,678.309
756,4 Nov 2025 22:28:03.233,4 Nov 2025 22:31:13.515,190.282
757,5 Nov 2025 19:00:20.815,5 Nov 2025 19:07:30.989,430.174
758,5 Nov 2025 20:32:24.749,5 Nov 2025 20:43:57.190,692.442
759,5 Nov 2025 22:07:53.803,5 Nov 2025 22:14:34.340,400.536
760,6 Nov 2025 18:43:23.773,6 Nov 2025 18:46:33.604,189.831
761,6 Nov 2025 20:13:43.715,6 Nov 2025 20:25:12.689,688.974
762,6 Nov 2025 21:48:28.343,6 Nov 2025 21:57:04.299,515.956
763,7 Nov 2025 19:55:09.309,7 Nov 2025 20:06:16.051,666.741
764,7 Nov 2025 21:29:18.600,7 Nov 2025 21:39:12.001,593.401
765,8 Nov 2025 19:36:43.086,8 Nov 2025 19:47:05.709,622.623
766,8 Nov 2025 21:10:18.312,8 Nov 2025 21:21:04.046,645.734
767,9 Nov 2025 19:18:28.353,9 Nov 2025 19:27:38.220,549.867
768,9 Nov 2025 20:51:25.070,9 Nov 2025 21:02:43.106,678.036
769,9 Nov 2025 22:28:18.281,9 Nov 2025 22:31:24.372,186.090
770,10 Nov 2025 19:00:33.247,10 Nov 2025 19:07:45.233,431.986
771,10 Nov 2025 20:32:37.953,10 Nov 2025 20:44:10.330,692.377
772,10 Nov 2025 22:08:07.652,10 Nov 2025 22:14:46.478,398.826
773,11 Nov 2025 18:43:34.595,11 Nov 2025 18:46:49.533,194.938
774,11 Nov 2025 20:13:56.845,11 Nov 2025 20:25:25.967,689.121
775,11 Nov 2025 21:48:41.927,11 Nov 2025 21:57:16.779,514.852
776,12 Nov 2025 19:55:22.354,12 Nov 2025 20:06:29.478,667.124
777,12 Nov 2025 21:29:32.047,12 Nov 2025 21:39:24.694,592.646
778,13 Nov 2025 19:36:56.019,13 Nov 2025 19:47:19.313,623.294
779,13 Nov 2025 21:10:31.665,13 Nov 2025 21:21:16.904,645.239
780,14 Nov 2025 19:18:41.125,14 Nov 2025 19:27:52.059,550.935
781,14 Nov 2025 20:51:38.347,14 Nov 2025 21:02:56.109,677.762
782,14 Nov 2025 22:28:33.374,14 Nov 2025 22:31:35.182,181.807
783,15 Nov 2025 19:00:45.688,15 Nov 2025 19:07:59.467,433.779
784,15 Nov 2025 20:32:51.159,15 Nov 2025 20:44:23.469,692.309
785,15 Nov 2025 22:08:21.504,15 Nov 2025 22:14:58.612,397.108
786,16 Nov 2025 18:43:45.492,16 Nov 2025 18:47:05.390,199.897
787,16 Nov 2025 20:14:09.979,16 Nov 2025 20:25:39.244,689.265
788,16 Nov 2025 21:48:55.514,16 Nov 2025 21:57:29.258,513.743
789,17 Nov 2025 19:55:35.403,17 Nov 2025 20:06:42.906,667.504
790,17 Nov 2025 21:29:45.497,17 Nov 2025 21:39:37.386,591.889
791,18 Nov 2025 19:37:08.956,18 Nov 2025 19:47:32.916,623.960
792,18 Nov 2025 21:10:45.022,18 Nov 2025 21:21:29.762,644.740
793,19 Nov 2025 19:18:53.895,19 Nov 2025 19:28:05.898,552.002
794,19 Nov 2025 20:51:51.626,19 Nov 2025 21:03:09.111,677.485
795,19 Nov 2025 22:28:48.526,19 Nov 2025 22:31:45.936,177.411
796,20 Nov 2025 19:00:58.136,20 Nov 2025 19:08:13.700,435.564
797,20 Nov 2025 20:33:04.368,20 Nov 2025 20:44:36.608,692.240
798,20 Nov 2025 22:08:35.364,20 Nov 2025 22:15:10.746,395.382
799,21 Nov 2025 18:43:56.454,21 Nov 2025 18:47:21.183,204.729
800,21 Nov 2025 20:14:23.114,21 Nov 2025 20:25:52.521,689.407
801,21 Nov 2025 21:49:09.105,21 Nov 2025 21:57:41.734,512.629
802,22 Nov 2025 19:55:48.455,22 Nov 2025 20:06:56.333,667.878
803,22 Nov 2025 21:29:58.949,22 Nov 2025 21:39:50.075,591.126
804,23 Nov 2025 19:37:21.895,23 Nov 2025 19:47:46.518,624.623
805,23 Nov 2025 21:10:58.379,23 Nov 2025 21:21:42.618,644.239
806,24 Nov 2025 19:19:06.667,24 Nov 2025 19:28:19.732,553.065
807,24 Nov 2025 20:52:04.906,24 Nov 2025 21:03:22.111,677.205
808,24 Nov 2025 22:29:03.736,24 Nov 2025 22:31:56.630,172.895
809,25 Nov 2025 19:01:10.589,25 Nov 2025 19:08:27.925,437.336
810,25 Nov 2025 20:33:17.575,25 Nov 2025 20:44:49.745,692.170
811,25 Nov 2025 22:08:49.228,25 Nov 2025 22:15:22.869,393.642
812,26 Nov 2025 18:44:07.478,26 Nov 2025 18:47:36.912,209.433
813,26 Nov 2025 20:14:36.250,26 Nov 2025 20:26:05.796,689.546
814,26 Nov 2025 21:49:22.697,26 Nov 2025 21:57:54.207,511.510
815,27 Nov 2025 19:56:01.505,27 Nov 2025 20:07:09.757,668.252
816,27 Nov 2025 21:30:12.401,27 Nov 2025 21:40:02.762,590.361
817,28 Nov 2025 19:37:34.835,28 Nov 2025 19:48:00.117,625.281
818,28 Nov 2025 21:11:11.736,28 Nov 2025 21:21:55.471,643.735
819,29 Nov 2025 19:19:19.443,29 Nov 2025 19:28:33.563,554.121
820,29 Nov 2025 20:52:18.187,29 Nov 2025 21:03:35.110,676.924
821,29 Nov 2025 22:29:19.004,29 Nov 2025 22:32:07.264,168.260
822,30 Nov 2025 19:01:23.050,30 Nov 2025 19:08:42.143,439.093
823,30 Nov 2025 20:33:30.785,30 Nov 2025 20:45:02.876,692.091
824,30 Nov 2025 22:09:03.095,30 Nov 2025 22:15:34.988,391.894
825,1 Dec 2025 18:44:18.564,1 Dec 2025 18:47:52.582,214.018
826,1 Dec 2025 20:14:49.387,1 Dec 2025 20:26:19.070,689.682
827,1 Dec 2025 21:49:36.291,1 Dec 2025 21:58:06.679,510.388
828,2 Dec 2025 19:56:14.559,2 Dec 2025 20:07:23.181,668.622
829,2 Dec 2025 21:30:25.855,2 Dec 2025 21:40:15.449,589.593
830,3 Dec 2025 19:37:47.780,3 Dec 2025 19:48:13.715,625.935
831,3 Dec 2025 21:11:25.094,3 Dec 2025 21:22:08.325,643.232
832,4 Dec 2025 19:19:32.222,4 Dec 2025 19:28:47.393,555.171
833,4 Dec 2025 20:52:31.470,4 Dec 2025 21:03:48.109,676.639
834,4 Dec 2025 22:29:34.350,4 Dec 2025 22:32:17.828,163.478
835,5 Dec 2025 19:01:35.517,5 Dec 2025 19:08:56.357,440.839
836,5 Dec 2025 20:33:43.998,5 Dec 2025 20:45:16.015,692.017
837,5 Dec 2025 22:09:16.970,5 Dec 2025 22:15:47.102,390.132
838,6 Dec 2025 18:44:29.700,6 Dec 2025 18:48:08.202,218.502
839,6 Dec 2025 20:15:02.526,6 Dec 2025 20:26:32.343,689.816
840,6 Dec 2025 21:49:49.889,6 Dec 2025 21:58:19.148,509.258
841,7 Dec 2025 19:56:27.613,7 Dec 2025 20:07:36.602,668.989
842,7 Dec 2025 21:30:39.312,7 Dec 2025 21:40:28.133,588.821
843,8 Dec 2025 19:38:00.724,8 Dec 2025 19:48:27.310,626.586
844,8 Dec 2025 21:11:38.454,8 Dec 2025 21:22:21.176,642.722
845,9 Dec 2025 19:19:45.003,9 Dec 2025 19:29:01.218,556.216
846,9 Dec 2025 20:52:44.753,9 Dec 2025 21:04:01.105,676.352
847,9 Dec 2025 22:29:49.760,9 Dec 2025 22:32:28.316,158.555
848,10 Dec 2025 19:01:47.990,10 Dec 2025 19:09:10.557,442.567
849,10 Dec 2025 20:33:57.210,10 Dec 2025 20:45:29.148,691.938
850,10 Dec 2025 22:09:30.848,10 Dec 2025 22:15:59.209,388.361
851,11 Dec 2025 18:44:40.889,11 Dec 2025 18:48:23.766,222.876
852,11 Dec 2025 20:15:15.666,11 Dec 2025 20:26:45.613,689.947
853,11 Dec 2025 21:50:03.487,11 Dec 2025 21:58:31.613,508.126
854,12 Dec 2025 19:56:40.669,12 Dec 2025 20:07:50.017,669.348
855,12 Dec 2025 21:30:52.768,12 Dec 2025 21:40:40.815,588.047
856,13 Dec 2025 19:38:13.672,13 Dec 2025 19:48:40.903,627.231
857,13 Dec 2025 21:11:51.815,13 Dec 2025 21:22:34.023,642.208
858,14 Dec 2025 19:19:57.792,14 Dec 2025 19:29:15.043,557.251
859,14 Dec 2025 20:52:58.042,14 Dec 2025 21:04:14.101,676.059
860,14 Dec 2025 22:30:05.254,14 Dec 2025 22:32:38.725,153.471
861,15 Dec 2025 19:02:00.470,15 Dec 2025 19:09:24.760,444.290
862,15 Dec 2025 20:34:10.427,15 Dec 2025 20:45:42.281,691.854
863,15 Dec 2025 22:09:44.729,15 Dec 2025 22:16:11.312,386.583
864,16 Dec 2025 18:44:52.130,16 Dec 2025 18:48:39.282,227.153
865,16 Dec 2025 20:15:28.808,16 Dec 2025 20:26:58.884,690.076
866,16 Dec 2025 21:50:17.088,16 Dec 2025 21:58:44.078,506.990
867,17 Dec 2025 19:56:53.728,17 Dec 2025 20:08:03.440,669.712
868,17 Dec 2025 21:31:06.227,17 Dec 2025 21:40:53.497,587.269
869,18 Dec 2025 19:38:26.627,18 Dec 2025 19:48:54.496,627.869
870,18 Dec 2025 21:12:05.179,18 Dec 2025 21:22:46.872,641.694
871,19 Dec 2025 19:20:10.578,19 Dec 2025 19:29:28.862,558.284
872,19 Dec 2025 20:53:11.324,19 Dec 2025 21:04:27.096,675.772
873,19 Dec 2025 22:30:20.834,19 Dec 2025 22:32:49.046,148.212
874,20 Dec 2025 19:02:12.957,20 Dec 2025 19:09:38.949,445.992
875,20 Dec 2025 20:34:23.640,20 Dec 2025 20:45:55.413,691.773
876,20 Dec 2025 22:09:58.619,20 Dec 2025 22:16:23.409,384.790
877,21 Dec 2025 18:45:03.413,21 Dec 2025 18:48:54.754,231.341
878,21 Dec 2025 20:15:41.951,21 Dec 2025 20:27:12.153,690.201
879,21 Dec 2025 21:50:30.691,21 Dec 2025 21:58:56.539,505.848
880,22 Dec 2025 19:57:06.787,22 Dec 2025 20:08:16.857,670.070
881,22 Dec 2025 21:31:19.687,22 Dec 2025 21:41:06.176,586.489
882,23 Dec 2025 19:38:39.576,23 Dec 2025 19:49:08.085,628.509
883,23 Dec 2025 21:12:18.542,23 Dec 2025 21:22:59.719,641.177
884,24 Dec 2025 19:20:23.370,24 Dec 2025 19:29:42.678,559.308
885,24 Dec 2025 20:53:24.610,24 Dec 2025 21:04:40.088,675.478
886,24 Dec 2025 22:30:36.514,24 Dec 2025 22:32:59.265,142.751
887,25 Dec 2025 19:02:25.449,25 Dec 2025 19:09:53.135,447.686
888,25 Dec 2025 20:34:36.856,25 Dec 2025 20:46:08.542,691.687
889,25 Dec 2025 22:10:12.511,25 Dec 2025 22:16:35.500,382.989
890,26 Dec 2025 18:45:14.741,26 Dec 2025 18:49:10.180,235.439
891,26 Dec 2025 20:15:55.094,26 Dec 2025 20:27:25.416,690.321
892,26 Dec 2025 21:50:44.295,26 Dec 2025 21:59:08.997,504.702
893,27 Dec 2025 19:57:19.847,27 Dec 2025 20:08:30.271,670.424
894,27 Dec 2025 21:31:33.147,27 Dec 2025 21:41:18.853,585.706
895,28 Dec 2025 19:38:52.528,28 Dec 2025 19:49:21.672,629.144
896,28 Dec 2025 21:12:31.906,28 Dec 2025 21:23:12.564,640.658
897,29 Dec 2025 19:20:36.170,29 Dec 2025 19:29:56.491,560.321
898,29 Dec 2025 20:53:37.897,29 Dec 2025 21:04:53.080,675.182
899,29 Dec 2025 22:30:52.301,29 Dec 2025 22:33:09.377,137.076
900,30 Dec 2025 19:02:37.949,30 Dec 2025 19:10:07.315,449.366
901,30 Dec 2025 20:34:50.073,30 Dec 2025 20:46:21.671,691.597
902,30 Dec 2025 22:10:26.408,30 Dec 2025 22:16:47.587,381.178
903,31 Dec 2025 18:45:26.112,31 Dec 2025 18:49:25.566,239.454
904,31 Dec 2025 20:16:08.240,31 Dec 2025 20:27:38.682,690.442
905,31 Dec 2025 21:50:57.902,31 Dec 2025 21:59:21.454,503.552

Global Statistics
"Min Duration",539,13 Aug 2025 18:40:49.404,13 Aug 2025 18:41:33.211,43.807
"Max Duration",429,28 Jun 2025 20:26:41.871,28 Jun 2025 20:38:15.134,693.263
"Mean Duration",,,,547.715
"Total Duration",,,,495682.495


