3UCubedIntegratedSim/Reports & Plots/Comms/Past Comms Data/SSU/CSV/Sat1.csv

"Access","Start Time (UTCG)","Stop Time (UTCG)","Duration (sec)"
1,1 Jan 2025 19:17:10.506,1 Jan 2025 19:25:05.665,475.159
2,1 Jan 2025 20:48:33.917,1 Jan 2025 21:00:06.454,692.536
3,1 Jan 2025 22:26:05.317,1 Jan 2025 22:31:22.222,316.905
4,2 Jan 2025 18:59:54.116,2 Jan 2025 19:05:29.308,335.192
5,2 Jan 2025 20:29:54.126,2 Jan 2025 20:41:22.956,688.830
6,2 Jan 2025 22:05:45.049,2 Jan 2025 22:13:50.661,485.612
7,3 Jan 2025 20:11:25.926,3 Jan 2025 20:22:33.493,667.567
8,3 Jan 2025 21:46:03.717,3 Jan 2025 21:55:46.249,582.532
9,4 Jan 2025 19:53:09.886,4 Jan 2025 20:03:37.660,627.774
10,4 Jan 2025 21:26:43.568,4 Jan 2025 21:37:26.433,642.865
11,5 Jan 2025 19:35:07.635,5 Jan 2025 19:44:34.076,566.441
12,5 Jan 2025 21:07:38.888,5 Jan 2025 21:18:56.738,677.850
13,6 Jan 2025 19:17:22.876,6 Jan 2025 19:25:19.321,476.444
14,6 Jan 2025 20:48:47.136,6 Jan 2025 21:00:19.611,692.475
15,6 Jan 2025 22:26:20.099,6 Jan 2025 22:31:34.160,314.061
16,7 Jan 2025 19:00:06.017,7 Jan 2025 19:05:43.352,337.334
17,7 Jan 2025 20:30:07.209,7 Jan 2025 20:41:36.183,688.975
18,7 Jan 2025 22:05:59.092,7 Jan 2025 22:14:03.259,484.166
19,8 Jan 2025 20:11:38.870,8 Jan 2025 20:22:46.791,667.921
20,8 Jan 2025 21:46:17.450,8 Jan 2025 21:55:59.088,581.638
21,9 Jan 2025 19:53:22.681,9 Jan 2025 20:03:51.039,628.358
22,9 Jan 2025 21:26:57.094,9 Jan 2025 21:37:39.411,642.317
23,10 Jan 2025 19:35:20.251,10 Jan 2025 19:44:47.559,567.308
24,10 Jan 2025 21:07:52.251,10 Jan 2025 21:19:09.814,677.563
25,11 Jan 2025 19:17:35.249,11 Jan 2025 19:25:32.971,477.722
26,11 Jan 2025 20:49:00.355,11 Jan 2025 21:00:32.766,692.411
27,11 Jan 2025 22:26:34.892,11 Jan 2025 22:31:46.080,311.188
28,12 Jan 2025 19:00:17.926,12 Jan 2025 19:05:57.386,339.460
29,12 Jan 2025 20:30:20.291,12 Jan 2025 20:41:49.409,689.118
30,12 Jan 2025 22:06:13.139,12 Jan 2025 22:14:15.851,482.712
31,13 Jan 2025 20:11:51.815,13 Jan 2025 20:23:00.088,668.273
32,13 Jan 2025 21:46:31.185,13 Jan 2025 21:56:11.923,580.738
33,14 Jan 2025 19:53:35.476,14 Jan 2025 20:04:04.416,628.940
34,14 Jan 2025 21:27:10.622,14 Jan 2025 21:37:52.387,641.765
35,15 Jan 2025 19:35:32.872,15 Jan 2025 19:45:01.037,568.165
36,15 Jan 2025 21:08:05.616,15 Jan 2025 21:19:22.885,677.269
37,16 Jan 2025 19:17:47.628,16 Jan 2025 19:25:46.622,478.994
38,16 Jan 2025 20:49:13.577,16 Jan 2025 21:00:45.921,692.343
39,16 Jan 2025 22:26:49.701,16 Jan 2025 22:31:57.984,308.283
40,17 Jan 2025 19:00:29.844,17 Jan 2025 19:06:11.414,341.570
41,17 Jan 2025 20:30:33.377,17 Jan 2025 20:42:02.635,689.258
42,17 Jan 2025 22:06:27.193,17 Jan 2025 22:14:28.439,481.246
43,18 Jan 2025 20:12:04.763,18 Jan 2025 20:23:13.385,668.622
44,18 Jan 2025 21:46:44.924,18 Jan 2025 21:56:24.757,579.833
45,19 Jan 2025 19:53:48.275,19 Jan 2025 20:04:17.794,629.519
46,19 Jan 2025 21:27:24.153,19 Jan 2025 21:38:05.363,641.209
47,20 Jan 2025 19:35:45.494,20 Jan 2025 19:45:14.519,569.025
48,20 Jan 2025 21:08:18.983,20 Jan 2025 21:19:35.964,676.981
49,21 Jan 2025 19:18:00.010,21 Jan 2025 19:26:00.268,480.258
50,21 Jan 2025 20:49:26.801,21 Jan 2025 21:00:59.075,692.274
51,21 Jan 2025 22:27:04.531,21 Jan 2025 22:32:09.873,305.342
52,22 Jan 2025 19:00:41.772,22 Jan 2025 19:06:25.432,343.660
53,22 Jan 2025 20:30:46.464,22 Jan 2025 20:42:15.860,689.396
54,22 Jan 2025 22:06:41.250,22 Jan 2025 22:14:41.024,479.775
55,23 Jan 2025 20:12:17.713,23 Jan 2025 20:23:26.681,668.968
56,23 Jan 2025 21:46:58.665,23 Jan 2025 21:56:37.594,578.929
57,24 Jan 2025 19:54:01.075,24 Jan 2025 20:04:31.168,630.094
58,24 Jan 2025 21:27:37.685,24 Jan 2025 21:38:18.336,640.651
59,25 Jan 2025 19:35:58.118,25 Jan 2025 19:45:27.998,569.880
60,25 Jan 2025 21:08:32.350,25 Jan 2025 21:19:49.033,676.683
61,26 Jan 2025 19:18:12.394,26 Jan 2025 19:26:13.910,481.516
62,26 Jan 2025 20:49:40.024,26 Jan 2025 21:01:12.227,692.203
63,26 Jan 2025 22:27:19.377,26 Jan 2025 22:32:21.742,302.365
64,27 Jan 2025 19:00:53.707,27 Jan 2025 19:06:39.441,345.735
65,27 Jan 2025 20:30:59.551,27 Jan 2025 20:42:29.084,689.532
66,27 Jan 2025 22:06:55.311,27 Jan 2025 22:14:53.606,478.296
67,28 Jan 2025 20:12:30.662,28 Jan 2025 20:23:39.974,669.312
68,28 Jan 2025 21:47:12.409,28 Jan 2025 21:56:50.423,578.015
69,29 Jan 2025 19:54:13.876,29 Jan 2025 20:04:44.542,630.666
70,29 Jan 2025 21:27:51.220,29 Jan 2025 21:38:31.308,640.089
71,30 Jan 2025 19:36:10.744,30 Jan 2025 19:45:41.476,570.732
72,30 Jan 2025 21:08:45.720,30 Jan 2025 21:20:02.105,676.385
73,31 Jan 2025 19:18:24.782,31 Jan 2025 19:26:27.551,482.769
74,31 Jan 2025 20:49:53.250,31 Jan 2025 21:01:25.379,692.129
75,31 Jan 2025 22:27:34.245,31 Jan 2025 22:32:33.592,299.347
76,1 Feb 2025 19:01:05.648,1 Feb 2025 19:06:53.444,347.796
77,1 Feb 2025 20:31:12.642,1 Feb 2025 20:42:42.306,689.664
78,1 Feb 2025 22:07:09.383,1 Feb 2025 22:15:06.183,476.799
79,2 Feb 2025 20:12:43.615,2 Feb 2025 20:23:53.269,669.653
80,2 Feb 2025 21:47:26.156,2 Feb 2025 21:57:03.251,577.095
81,3 Feb 2025 19:54:26.680,3 Feb 2025 20:04:57.916,631.236
82,3 Feb 2025 21:28:04.757,3 Feb 2025 21:38:44.280,639.523
83,4 Feb 2025 19:36:23.372,4 Feb 2025 19:45:54.952,571.580
84,4 Feb 2025 21:08:59.092,4 Feb 2025 21:20:15.180,676.088
85,5 Feb 2025 19:18:37.174,5 Feb 2025 19:26:41.188,484.014
86,5 Feb 2025 20:50:06.478,5 Feb 2025 21:01:38.530,692.052
87,5 Feb 2025 22:27:49.131,5 Feb 2025 22:32:45.427,296.296
88,6 Feb 2025 19:01:17.601,6 Feb 2025 19:07:07.437,349.836
89,6 Feb 2025 20:31:25.733,6 Feb 2025 20:42:55.526,689.793
90,6 Feb 2025 22:07:23.454,6 Feb 2025 22:15:18.756,475.301
91,7 Feb 2025 20:12:56.569,7 Feb 2025 20:24:06.560,669.992
92,7 Feb 2025 21:47:39.904,7 Feb 2025 21:57:16.077,576.173
93,8 Feb 2025 19:54:39.485,8 Feb 2025 20:05:11.287,631.802
94,8 Feb 2025 21:28:18.294,8 Feb 2025 21:38:57.249,638.955
95,9 Feb 2025 19:36:36.002,9 Feb 2025 19:46:08.425,572.423
96,9 Feb 2025 21:09:12.465,9 Feb 2025 21:20:28.249,675.785
97,10 Feb 2025 19:18:49.568,10 Feb 2025 19:26:54.821,485.254
98,10 Feb 2025 20:50:19.705,10 Feb 2025 21:01:51.679,691.974
99,10 Feb 2025 22:28:04.037,10 Feb 2025 22:32:57.239,293.202
100,11 Feb 2025 19:01:29.562,11 Feb 2025 19:07:21.425,351.863
101,11 Feb 2025 20:31:38.825,11 Feb 2025 20:43:08.747,689.922
102,11 Feb 2025 22:07:37.530,11 Feb 2025 22:15:31.323,473.792
103,12 Feb 2025 20:13:09.524,12 Feb 2025 20:24:19.852,670.328
104,12 Feb 2025 21:47:53.656,12 Feb 2025 21:57:28.900,575.244
105,13 Feb 2025 19:54:52.292,13 Feb 2025 20:05:24.658,632.366
106,13 Feb 2025 21:28:31.835,13 Feb 2025 21:39:10.217,638.382
107,14 Feb 2025 19:36:48.635,14 Feb 2025 19:46:21.899,573.263
108,14 Feb 2025 21:09:25.840,14 Feb 2025 21:20:41.319,675.479
109,15 Feb 2025 19:19:01.967,15 Feb 2025 19:27:08.449,486.483
110,15 Feb 2025 20:50:32.937,15 Feb 2025 21:02:04.829,691.892
111,15 Feb 2025 22:28:18.965,15 Feb 2025 22:33:09.033,290.067
112,16 Feb 2025 19:01:41.532,16 Feb 2025 19:07:35.407,353.874
113,16 Feb 2025 20:31:51.920,16 Feb 2025 20:43:21.969,690.049
114,16 Feb 2025 22:07:51.613,16 Feb 2025 22:15:43.888,472.274
115,17 Feb 2025 20:13:22.482,17 Feb 2025 20:24:33.143,670.661
116,17 Feb 2025 21:48:07.412,17 Feb 2025 21:57:41.723,574.310
117,18 Feb 2025 19:55:05.102,18 Feb 2025 20:05:38.028,632.926
118,18 Feb 2025 21:28:45.379,18 Feb 2025 21:39:23.185,637.807
119,19 Feb 2025 19:37:01.271,19 Feb 2025 19:46:35.370,574.099
120,19 Feb 2025 21:09:39.217,19 Feb 2025 21:20:54.388,675.170
121,20 Feb 2025 19:19:14.369,20 Feb 2025 19:27:22.078,487.708
122,20 Feb 2025 20:50:46.169,20 Feb 2025 21:02:17.977,691.808
123,20 Feb 2025 22:28:33.913,20 Feb 2025 22:33:20.808,286.895
124,21 Feb 2025 19:01:53.511,21 Feb 2025 19:07:49.378,355.867
125,21 Feb 2025 20:32:05.016,21 Feb 2025 20:43:35.189,690.173
126,21 Feb 2025 22:08:05.699,21 Feb 2025 22:15:56.451,470.752
127,22 Feb 2025 20:13:35.443,22 Feb 2025 20:24:46.432,670.989
128,22 Feb 2025 21:48:21.172,22 Feb 2025 21:57:54.543,573.371
129,23 Feb 2025 19:55:17.912,23 Feb 2025 20:05:51.395,633.483
130,23 Feb 2025 21:28:58.923,23 Feb 2025 21:39:36.151,637.228
131,24 Feb 2025 19:37:13.909,24 Feb 2025 19:46:48.839,574.930
132,24 Feb 2025 21:09:52.595,24 Feb 2025 21:21:07.454,674.859
133,25 Feb 2025 19:19:26.773,25 Feb 2025 19:27:35.707,488.934
134,25 Feb 2025 20:50:59.406,25 Feb 2025 21:02:31.120,691.714
135,25 Feb 2025 22:28:48.883,25 Feb 2025 22:33:32.555,283.671
136,26 Feb 2025 19:02:05.501,26 Feb 2025 19:08:03.343,357.843
137,26 Feb 2025 20:32:18.112,26 Feb 2025 20:43:48.409,690.296
138,26 Feb 2025 22:08:19.789,26 Feb 2025 22:16:09.004,469.215
139,27 Feb 2025 20:13:48.400,27 Feb 2025 20:24:59.721,671.321
140,27 Feb 2025 21:48:34.931,27 Feb 2025 21:58:07.360,572.429
141,28 Feb 2025 19:55:30.725,28 Feb 2025 20:06:04.763,634.038
142,28 Feb 2025 21:29:12.470,28 Feb 2025 21:39:49.115,636.645
143,1 Mar 2025 19:37:26.549,1 Mar 2025 19:47:02.308,575.759
144,1 Mar 2025 21:10:05.976,1 Mar 2025 21:21:20.521,674.545
145,2 Mar 2025 19:19:39.182,2 Mar 2025 19:27:49.332,490.150
146,2 Mar 2025 20:51:12.642,2 Mar 2025 21:02:44.267,691.625
147,2 Mar 2025 22:29:03.879,2 Mar 2025 22:33:44.285,280.407
148,3 Mar 2025 19:02:17.494,3 Mar 2025 19:08:17.302,359.809
149,3 Mar 2025 20:32:31.212,3 Mar 2025 20:44:01.627,690.415
150,3 Mar 2025 22:08:33.889,3 Mar 2025 22:16:21.557,467.668
151,4 Mar 2025 18:46:41.100,4 Mar 2025 18:47:06.969,25.869
152,4 Mar 2025 20:14:01.366,4 Mar 2025 20:25:13.009,671.643
153,4 Mar 2025 21:48:48.692,4 Mar 2025 21:58:20.177,571.485
154,5 Mar 2025 19:55:43.540,5 Mar 2025 20:06:18.129,634.589
155,5 Mar 2025 21:29:26.021,5 Mar 2025 21:40:02.080,636.058
156,6 Mar 2025 19:37:39.192,6 Mar 2025 19:47:15.774,576.582
157,6 Mar 2025 21:10:19.358,6 Mar 2025 21:21:33.586,674.228
158,7 Mar 2025 19:19:51.594,7 Mar 2025 19:28:02.951,491.357
159,7 Mar 2025 20:51:25.878,7 Mar 2025 21:02:57.412,691.534
160,7 Mar 2025 22:29:18.895,7 Mar 2025 22:33:55.995,277.100
161,8 Mar 2025 19:02:29.492,8 Mar 2025 19:08:31.252,361.760
162,8 Mar 2025 20:32:44.313,8 Mar 2025 20:44:14.843,690.530
163,8 Mar 2025 22:08:47.986,8 Mar 2025 22:16:34.106,466.120
164,9 Mar 2025 18:46:43.119,9 Mar 2025 18:47:30.820,47.701
165,9 Mar 2025 20:14:14.330,9 Mar 2025 20:25:26.296,671.966
166,9 Mar 2025 21:49:02.458,9 Mar 2025 21:58:32.990,570.532
167,10 Mar 2025 19:55:56.357,10 Mar 2025 20:06:31.494,635.137
168,10 Mar 2025 21:29:39.574,10 Mar 2025 21:40:15.041,635.467
169,11 Mar 2025 19:37:51.836,11 Mar 2025 19:47:29.239,577.403
170,11 Mar 2025 21:10:32.741,11 Mar 2025 21:21:46.650,673.909
171,12 Mar 2025 19:20:04.010,12 Mar 2025 19:28:16.570,492.560
172,12 Mar 2025 20:51:39.117,12 Mar 2025 21:03:10.557,691.440
173,12 Mar 2025 22:29:33.937,12 Mar 2025 22:34:07.678,273.740
174,13 Mar 2025 19:02:41.501,13 Mar 2025 19:08:45.198,363.697
175,13 Mar 2025 20:32:57.415,13 Mar 2025 20:44:28.055,690.639
176,13 Mar 2025 22:09:02.095,13 Mar 2025 22:16:46.649,464.554
177,14 Mar 2025 18:46:48.751,14 Mar 2025 18:47:51.058,62.307
178,14 Mar 2025 20:14:27.296,14 Mar 2025 20:25:39.582,672.287
179,14 Mar 2025 21:49:16.228,14 Mar 2025 21:58:45.802,569.574
180,15 Mar 2025 19:56:09.176,15 Mar 2025 20:06:44.859,635.683
181,15 Mar 2025 21:29:53.124,15 Mar 2025 21:40:28.003,634.878
182,16 Mar 2025 19:38:04.484,16 Mar 2025 19:47:42.704,578.220
183,16 Mar 2025 21:10:46.128,16 Mar 2025 21:21:59.715,673.586
184,17 Mar 2025 19:20:16.430,17 Mar 2025 19:28:30.187,493.757
185,17 Mar 2025 20:51:52.359,17 Mar 2025 21:03:23.702,691.344
186,17 Mar 2025 22:29:49.007,17 Mar 2025 22:34:19.339,270.333
187,18 Mar 2025 19:02:53.520,18 Mar 2025 19:08:59.137,365.617
188,18 Mar 2025 20:33:10.520,18 Mar 2025 20:44:41.273,690.753
189,18 Mar 2025 22:09:16.210,18 Mar 2025 22:16:59.190,462.979
190,19 Mar 2025 18:46:55.820,19 Mar 2025 18:48:09.864,74.044
191,19 Mar 2025 20:14:40.264,19 Mar 2025 20:25:52.869,672.605
192,19 Mar 2025 21:49:30.002,19 Mar 2025 21:58:58.613,568.612
193,20 Mar 2025 19:56:21.997,20 Mar 2025 20:06:58.222,636.225
194,20 Mar 2025 21:30:06.681,20 Mar 2025 21:40:40.963,634.282
195,21 Mar 2025 19:38:17.134,21 Mar 2025 19:47:56.163,579.029
196,21 Mar 2025 21:10:59.516,21 Mar 2025 21:22:12.778,673.261
197,22 Mar 2025 19:20:28.853,22 Mar 2025 19:28:43.799,494.947
198,22 Mar 2025 20:52:05.601,22 Mar 2025 21:03:36.846,691.245
199,22 Mar 2025 22:30:04.100,22 Mar 2025 22:34:30.976,266.876
200,23 Mar 2025 19:03:05.544,23 Mar 2025 19:09:13.068,367.523
201,23 Mar 2025 20:33:23.626,23 Mar 2025 20:44:54.490,690.864
202,23 Mar 2025 22:09:30.330,23 Mar 2025 22:17:11.725,461.395
203,24 Mar 2025 18:47:03.702,24 Mar 2025 18:48:27.853,84.151
204,24 Mar 2025 20:14:53.233,24 Mar 2025 20:26:06.153,672.920
205,24 Mar 2025 21:49:43.777,24 Mar 2025 21:59:11.421,567.644
206,25 Mar 2025 19:56:34.820,25 Mar 2025 20:07:11.584,636.765
207,25 Mar 2025 21:30:20.239,25 Mar 2025 21:40:53.922,633.682
208,26 Mar 2025 19:38:29.786,26 Mar 2025 19:48:09.624,579.838
209,26 Mar 2025 21:11:12.906,26 Mar 2025 21:22:25.839,672.933
210,27 Mar 2025 19:20:41.278,27 Mar 2025 19:28:57.411,496.132
211,27 Mar 2025 20:52:18.845,27 Mar 2025 21:03:49.989,691.144
212,27 Mar 2025 22:30:19.223,27 Mar 2025 22:34:42.584,263.360
213,28 Mar 2025 19:03:17.576,28 Mar 2025 19:09:26.995,369.419
214,28 Mar 2025 20:33:36.734,28 Mar 2025 20:45:07.705,690.971
215,28 Mar 2025 22:09:44.457,28 Mar 2025 22:17:24.255,459.798
216,29 Mar 2025 18:47:12.131,29 Mar 2025 18:48:45.296,93.165
217,29 Mar 2025 20:15:06.204,29 Mar 2025 20:26:19.438,673.233
218,29 Mar 2025 21:49:57.557,29 Mar 2025 21:59:24.228,566.670
219,30 Mar 2025 19:56:47.645,30 Mar 2025 20:07:24.947,637.302
220,30 Mar 2025 21:30:33.801,30 Mar 2025 21:41:06.880,633.078
221,31 Mar 2025 19:38:42.441,31 Mar 2025 19:48:23.085,580.644
222,31 Mar 2025 21:11:26.295,31 Mar 2025 21:22:38.901,672.606
223,1 Apr 2025 19:20:53.709,1 Apr 2025 19:29:11.020,497.311
224,1 Apr 2025 20:52:32.092,1 Apr 2025 21:04:03.132,691.040
225,1 Apr 2025 22:30:34.375,1 Apr 2025 22:34:54.168,259.793
226,2 Apr 2025 19:03:29.617,2 Apr 2025 19:09:40.914,371.297
227,2 Apr 2025 20:33:49.844,2 Apr 2025 20:45:20.919,691.075
228,2 Apr 2025 22:09:58.586,2 Apr 2025 22:17:36.783,458.197
229,3 Apr 2025 18:47:20.976,3 Apr 2025 18:49:02.327,101.351
230,3 Apr 2025 20:15:19.178,3 Apr 2025 20:26:32.721,673.544
231,3 Apr 2025 21:50:11.340,3 Apr 2025 21:59:37.033,565.693
232,4 Apr 2025 19:57:00.472,4 Apr 2025 20:07:38.307,637.835
233,4 Apr 2025 21:30:47.365,4 Apr 2025 21:41:19.837,632.472
234,5 Apr 2025 19:38:55.099,5 Apr 2025 19:48:36.543,581.445
235,5 Apr 2025 21:11:39.689,5 Apr 2025 21:22:51.961,672.273
236,6 Apr 2025 19:21:06.142,6 Apr 2025 19:29:24.626,498.484
237,6 Apr 2025 20:52:45.339,6 Apr 2025 21:04:16.273,690.934
238,6 Apr 2025 22:30:49.555,6 Apr 2025 22:35:05.722,256.166
239,7 Apr 2025 19:03:41.667,7 Apr 2025 19:09:54.827,373.159
240,7 Apr 2025 20:34:02.954,7 Apr 2025 20:45:34.131,691.177
241,7 Apr 2025 22:10:12.724,7 Apr 2025 22:17:49.306,456.582
242,8 Apr 2025 18:47:30.128,8 Apr 2025 18:49:19.052,108.924
243,8 Apr 2025 20:15:32.152,8 Apr 2025 20:26:46.004,673.852
244,8 Apr 2025 21:50:25.126,8 Apr 2025 21:59:49.835,564.708
245,9 Apr 2025 19:57:13.301,9 Apr 2025 20:07:51.667,638.366
246,9 Apr 2025 21:31:00.931,9 Apr 2025 21:41:32.792,631.860
247,10 Apr 2025 19:39:07.754,10 Apr 2025 19:48:50.005,582.251
248,10 Apr 2025 21:11:53.084,10 Apr 2025 21:23:05.021,671.937
249,11 Apr 2025 19:21:18.579,11 Apr 2025 19:29:38.232,499.653
250,11 Apr 2025 20:52:58.589,11 Apr 2025 21:04:29.415,690.825
251,11 Apr 2025 22:31:04.770,11 Apr 2025 22:35:17.243,252.473
252,12 Apr 2025 19:03:53.721,12 Apr 2025 19:10:08.736,375.015
253,12 Apr 2025 20:34:16.068,12 Apr 2025 20:45:47.345,691.276
254,12 Apr 2025 22:10:26.868,12 Apr 2025 22:18:01.823,454.955
255,13 Apr 2025 18:47:39.532,13 Apr 2025 18:49:35.525,115.993
256,13 Apr 2025 20:15:45.130,13 Apr 2025 20:26:59.287,674.157
257,13 Apr 2025 21:50:38.917,13 Apr 2025 22:00:02.636,563.719
258,14 Apr 2025 19:57:26.133,14 Apr 2025 20:08:05.027,638.895
259,14 Apr 2025 21:31:14.502,14 Apr 2025 21:41:45.747,631.245
260,15 Apr 2025 19:39:20.417,15 Apr 2025 19:49:03.462,583.045
261,15 Apr 2025 21:12:06.484,15 Apr 2025 21:23:18.081,671.597
262,16 Apr 2025 19:21:31.021,16 Apr 2025 19:29:51.835,500.815
263,16 Apr 2025 20:53:11.842,16 Apr 2025 21:04:42.556,690.714
264,16 Apr 2025 22:31:20.017,16 Apr 2025 22:35:28.736,248.719
265,17 Apr 2025 19:04:05.783,17 Apr 2025 19:10:22.639,376.856
266,17 Apr 2025 20:34:29.184,17 Apr 2025 20:46:00.557,691.373
267,17 Apr 2025 22:10:41.017,17 Apr 2025 22:18:14.337,453.320
268,18 Apr 2025 18:47:49.147,18 Apr 2025 18:49:51.790,122.643
269,18 Apr 2025 20:15:58.109,18 Apr 2025 20:27:12.565,674.456
270,18 Apr 2025 21:50:52.712,18 Apr 2025 22:00:15.435,562.723
271,19 Apr 2025 19:57:38.966,19 Apr 2025 20:08:18.386,639.419
272,19 Apr 2025 21:31:28.070,19 Apr 2025 21:41:58.701,630.631
273,20 Apr 2025 19:39:33.081,20 Apr 2025 19:49:16.917,583.836
274,20 Apr 2025 21:12:19.884,20 Apr 2025 21:23:31.139,671.256
275,21 Apr 2025 19:21:43.464,21 Apr 2025 19:30:05.436,501.971
276,21 Apr 2025 20:53:25.095,21 Apr 2025 21:04:55.696,690.601
277,21 Apr 2025 22:31:35.297,21 Apr 2025 22:35:40.194,244.898
278,22 Apr 2025 19:04:17.850,22 Apr 2025 19:10:36.536,378.685
279,22 Apr 2025 20:34:42.301,22 Apr 2025 20:46:13.768,691.468
280,22 Apr 2025 22:10:55.171,22 Apr 2025 22:18:26.844,451.673
281,23 Apr 2025 18:47:58.936,23 Apr 2025 18:50:07.879,128.943
282,23 Apr 2025 20:16:11.089,23 Apr 2025 20:27:25.846,674.757
283,23 Apr 2025 21:51:06.508,23 Apr 2025 22:00:28.231,561.723
284,24 Apr 2025 19:57:51.801,24 Apr 2025 20:08:31.744,639.942
285,24 Apr 2025 21:31:41.644,24 Apr 2025 21:42:11.652,630.009
286,25 Apr 2025 19:39:45.748,25 Apr 2025 19:49:30.372,584.623
287,25 Apr 2025 21:12:33.286,25 Apr 2025 21:23:44.196,670.910
288,26 Apr 2025 19:21:55.912,26 Apr 2025 19:30:19.035,503.124
289,26 Apr 2025 20:53:38.351,26 Apr 2025 21:05:08.836,690.484
290,26 Apr 2025 22:31:50.615,26 Apr 2025 22:35:51.617,241.002
291,27 Apr 2025 19:04:29.920,27 Apr 2025 19:10:50.429,380.509
292,27 Apr 2025 20:34:55.420,27 Apr 2025 20:46:26.980,691.560
293,27 Apr 2025 22:11:09.333,27 Apr 2025 22:18:39.348,450.015
294,28 Apr 2025 18:48:08.879,28 Apr 2025 18:50:23.823,134.944
295,28 Apr 2025 20:16:24.072,28 Apr 2025 20:27:39.128,675.055
296,28 Apr 2025 21:51:20.307,28 Apr 2025 22:00:41.027,560.720
297,29 Apr 2025 19:58:04.640,29 Apr 2025 20:08:45.102,640.462
298,29 Apr 2025 21:31:55.221,29 Apr 2025 21:42:24.604,629.383
299,30 Apr 2025 19:39:58.419,30 Apr 2025 19:49:43.826,585.407
300,30 Apr 2025 21:12:46.692,30 Apr 2025 21:23:57.254,670.563
301,1 May 2025 19:22:08.363,1 May 2025 19:30:32.632,504.269
302,1 May 2025 20:53:51.609,1 May 2025 21:05:21.975,690.366
303,1 May 2025 22:32:05.969,1 May 2025 22:36:03.007,237.037
304,2 May 2025 19:04:42.007,2 May 2025 19:11:04.315,382.308
305,2 May 2025 20:35:08.541,2 May 2025 20:46:40.191,691.650
306,2 May 2025 22:11:23.500,2 May 2025 22:18:51.848,448.348
307,3 May 2025 18:48:18.958,3 May 2025 18:50:39.625,140.667
308,3 May 2025 20:16:37.057,3 May 2025 20:27:52.408,675.351
309,3 May 2025 21:51:34.109,3 May 2025 22:00:53.819,559.710
310,4 May 2025 19:58:17.479,4 May 2025 20:08:58.458,640.979
311,4 May 2025 21:32:08.800,4 May 2025 21:42:37.557,628.756
312,5 May 2025 19:40:11.091,5 May 2025 19:49:57.277,586.187
313,5 May 2025 21:13:00.098,5 May 2025 21:24:10.310,670.212
314,6 May 2025 19:22:20.816,6 May 2025 19:30:46.227,505.411
315,6 May 2025 20:54:04.868,6 May 2025 21:05:35.113,690.245
316,6 May 2025 22:32:21.364,6 May 2025 22:36:14.354,232.991
317,7 May 2025 19:04:54.093,7 May 2025 19:11:18.197,384.104
318,7 May 2025 20:35:21.664,7 May 2025 20:46:53.401,691.737
319,7 May 2025 22:11:37.674,7 May 2025 22:19:04.341,446.667
320,8 May 2025 18:48:29.147,8 May 2025 18:50:55.326,146.179
321,8 May 2025 20:16:50.043,8 May 2025 20:28:05.688,675.644
322,8 May 2025 21:51:47.916,8 May 2025 22:01:06.609,558.693
323,9 May 2025 19:58:30.321,9 May 2025 20:09:11.814,641.494
324,9 May 2025 21:32:22.380,9 May 2025 21:42:50.505,628.125
325,10 May 2025 19:40:23.766,10 May 2025 19:50:10.725,586.959
326,10 May 2025 21:13:13.507,10 May 2025 21:24:23.365,669.858
327,11 May 2025 19:22:33.274,11 May 2025 19:30:59.822,506.548
328,11 May 2025 20:54:18.131,11 May 2025 21:05:48.252,690.121
329,11 May 2025 22:32:36.803,11 May 2025 22:36:25.662,228.859
330,12 May 2025 19:05:06.186,12 May 2025 19:11:32.076,385.890
331,12 May 2025 20:35:34.789,12 May 2025 20:47:06.611,691.822
332,12 May 2025 22:11:51.856,12 May 2025 22:19:16.831,444.974
333,13 May 2025 18:48:39.444,13 May 2025 18:51:10.920,151.476
334,13 May 2025 20:17:03.033,13 May 2025 20:28:18.968,675.935
335,13 May 2025 21:52:01.728,13 May 2025 22:01:19.399,557.671
336,14 May 2025 19:58:43.165,14 May 2025 20:09:25.171,642.005
337,14 May 2025 21:32:35.965,14 May 2025 21:43:03.454,627.488
338,15 May 2025 19:40:36.443,15 May 2025 19:50:24.181,587.737
339,15 May 2025 21:13:26.919,15 May 2025 21:24:36.421,669.501
340,16 May 2025 19:22:45.736,16 May 2025 19:31:13.409,507.674
341,16 May 2025 20:54:31.395,16 May 2025 21:06:01.389,689.994
342,16 May 2025 22:32:52.284,16 May 2025 22:36:36.929,224.644
343,17 May 2025 19:05:18.286,17 May 2025 19:11:45.948,387.662
344,17 May 2025 20:35:47.916,17 May 2025 20:47:19.821,691.905
345,17 May 2025 22:12:06.043,17 May 2025 22:19:29.315,443.272
346,18 May 2025 18:48:49.835,18 May 2025 18:51:26.417,156.582
347,18 May 2025 20:17:16.023,18 May 2025 20:28:32.247,676.224
348,18 May 2025 21:52:15.541,18 May 2025 22:01:32.185,556.643
349,19 May 2025 19:58:56.011,19 May 2025 20:09:38.525,642.514
350,19 May 2025 21:32:49.552,19 May 2025 21:43:16.400,626.848
351,20 May 2025 19:40:49.122,20 May 2025 19:50:37.625,588.503
352,20 May 2025 21:13:40.332,20 May 2025 21:24:49.474,669.142
353,21 May 2025 19:22:58.199,21 May 2025 19:31:26.999,508.800
354,21 May 2025 20:54:44.660,21 May 2025 21:06:14.525,689.865
355,21 May 2025 22:33:07.813,21 May 2025 22:36:48.147,220.335
356,22 May 2025 19:05:30.391,22 May 2025 19:11:59.816,389.425
357,22 May 2025 20:36:01.044,22 May 2025 20:47:33.029,691.985
358,22 May 2025 22:12:20.237,22 May 2025 22:19:41.792,441.555
359,23 May 2025 18:49:00.304,23 May 2025 18:51:41.836,161.532
360,23 May 2025 20:17:29.015,23 May 2025 20:28:45.525,676.510
361,23 May 2025 21:52:29.359,23 May 2025 22:01:44.968,555.609
362,24 May 2025 19:59:08.858,24 May 2025 20:09:51.877,643.018
363,24 May 2025 21:33:03.142,24 May 2025 21:43:29.344,626.203
364,25 May 2025 19:41:01.805,25 May 2025 19:50:51.076,589.271
365,25 May 2025 21:13:53.748,25 May 2025 21:25:02.527,668.778
366,26 May 2025 19:23:10.667,26 May 2025 19:31:40.589,509.922
367,26 May 2025 20:54:57.929,26 May 2025 21:06:27.662,689.734
368,26 May 2025 22:33:23.393,26 May 2025 22:36:59.319,215.926
369,27 May 2025 19:05:42.505,27 May 2025 19:12:13.680,391.175
370,27 May 2025 20:36:14.175,27 May 2025 20:47:46.238,692.062
371,27 May 2025 22:12:34.439,27 May 2025 22:19:54.266,439.827
372,28 May 2025 18:49:10.858,28 May 2025 18:51:57.178,166.320
373,28 May 2025 20:17:42.010,28 May 2025 20:28:58.804,676.793
374,28 May 2025 21:52:43.181,28 May 2025 22:01:57.751,554.570
375,29 May 2025 19:59:21.709,29 May 2025 20:10:05.231,643.521
376,29 May 2025 21:33:16.734,29 May 2025 21:43:42.289,625.555
377,30 May 2025 19:41:14.489,30 May 2025 19:51:04.525,590.035
378,30 May 2025 21:14:07.166,30 May 2025 21:25:15.579,668.413
379,31 May 2025 19:23:23.137,31 May 2025 19:31:54.175,511.038
380,31 May 2025 20:55:11.198,31 May 2025 21:06:40.798,689.600
381,31 May 2025 22:33:39.023,31 May 2025 22:37:10.440,211.418
382,1 Jun 2025 19:05:54.624,1 Jun 2025 19:12:27.538,392.914
383,1 Jun 2025 20:36:27.307,1 Jun 2025 20:47:59.445,692.138
384,1 Jun 2025 22:12:48.641,1 Jun 2025 22:20:06.734,438.093
385,2 Jun 2025 18:49:21.479,2 Jun 2025 18:52:12.449,170.970
386,2 Jun 2025 20:17:55.006,2 Jun 2025 20:29:12.080,677.075
387,2 Jun 2025 21:52:57.005,2 Jun 2025 22:02:10.530,553.524
388,3 Jun 2025 19:59:34.560,3 Jun 2025 20:10:18.583,644.023
389,3 Jun 2025 21:33:30.326,3 Jun 2025 21:43:55.231,624.905
390,4 Jun 2025 19:41:27.175,4 Jun 2025 19:51:17.973,590.798
391,4 Jun 2025 21:14:20.586,4 Jun 2025 21:25:28.630,668.044
392,5 Jun 2025 19:23:35.610,5 Jun 2025 19:32:07.761,512.151
393,5 Jun 2025 20:55:24.468,5 Jun 2025 21:06:53.936,689.468
394,5 Jun 2025 22:33:54.715,5 Jun 2025 22:37:21.500,206.785
395,6 Jun 2025 19:06:06.748,6 Jun 2025 19:12:41.394,394.645
396,6 Jun 2025 20:36:40.441,6 Jun 2025 20:48:12.652,692.211
397,6 Jun 2025 22:13:02.856,6 Jun 2025 22:20:19.195,436.338
398,7 Jun 2025 18:49:32.163,7 Jun 2025 18:52:27.662,175.499
399,7 Jun 2025 20:18:08.004,7 Jun 2025 20:29:25.358,677.354
400,7 Jun 2025 21:53:10.834,7 Jun 2025 22:02:23.306,552.472
401,8 Jun 2025 19:59:47.415,8 Jun 2025 20:10:31.936,644.522
402,8 Jun 2025 21:33:43.924,8 Jun 2025 21:44:08.172,624.248
403,9 Jun 2025 19:41:39.864,9 Jun 2025 19:51:31.421,591.557
404,9 Jun 2025 21:14:34.009,9 Jun 2025 21:25:41.680,667.672
405,10 Jun 2025 19:23:48.087,10 Jun 2025 19:32:21.346,513.259
406,10 Jun 2025 20:55:37.742,10 Jun 2025 21:07:07.071,689.329
407,10 Jun 2025 22:34:10.464,10 Jun 2025 22:37:32.509,202.044
408,11 Jun 2025 19:06:18.879,11 Jun 2025 19:12:55.245,396.365
409,11 Jun 2025 20:36:53.578,11 Jun 2025 20:48:25.859,692.281
410,11 Jun 2025 22:13:17.079,11 Jun 2025 22:20:31.651,434.573
411,12 Jun 2025 18:49:42.907,12 Jun 2025 18:52:42.818,179.911
412,12 Jun 2025 20:18:21.004,12 Jun 2025 20:29:38.634,677.630
413,12 Jun 2025 21:53:24.667,12 Jun 2025 22:02:36.081,551.414
414,13 Jun 2025 20:00:00.271,13 Jun 2025 20:10:45.288,645.018
415,13 Jun 2025 21:33:57.524,13 Jun 2025 21:44:21.112,623.588
416,14 Jun 2025 19:41:52.556,14 Jun 2025 19:51:44.866,592.310
417,14 Jun 2025 21:14:47.433,14 Jun 2025 21:25:54.727,667.294
418,15 Jun 2025 19:24:00.567,15 Jun 2025 19:32:34.926,514.360
419,15 Jun 2025 20:55:51.014,15 Jun 2025 21:07:20.202,689.187
420,15 Jun 2025 22:34:26.276,15 Jun 2025 22:37:43.449,197.173
421,16 Jun 2025 19:06:31.016,16 Jun 2025 19:13:09.090,398.074
422,16 Jun 2025 20:37:06.715,16 Jun 2025 20:48:39.065,692.350
423,16 Jun 2025 22:13:31.306,16 Jun 2025 22:20:44.101,432.795
424,17 Jun 2025 18:49:53.708,17 Jun 2025 18:52:57.914,184.206
425,17 Jun 2025 20:18:34.005,17 Jun 2025 20:29:51.909,677.904
426,17 Jun 2025 21:53:38.502,17 Jun 2025 22:02:48.852,550.350
427,18 Jun 2025 20:00:13.128,18 Jun 2025 20:10:58.639,645.511
428,18 Jun 2025 21:34:11.125,18 Jun 2025 21:44:34.049,622.924
429,19 Jun 2025 19:42:05.248,19 Jun 2025 19:51:58.310,593.062
430,19 Jun 2025 21:15:00.859,19 Jun 2025 21:26:07.774,666.915
431,20 Jun 2025 19:24:13.049,20 Jun 2025 19:32:48.507,515.459
432,20 Jun 2025 20:56:04.291,20 Jun 2025 21:07:33.334,689.043
433,20 Jun 2025 22:34:42.158,20 Jun 2025 22:37:54.320,192.162
434,21 Jun 2025 19:06:43.157,21 Jun 2025 19:13:22.933,399.776
435,21 Jun 2025 20:37:19.855,21 Jun 2025 20:48:52.270,692.415
436,21 Jun 2025 22:13:45.543,21 Jun 2025 22:20:56.544,431.001
437,22 Jun 2025 18:50:04.559,22 Jun 2025 18:53:12.965,188.406
438,22 Jun 2025 20:18:47.009,22 Jun 2025 20:30:05.185,678.176
439,22 Jun 2025 21:53:52.339,22 Jun 2025 22:03:01.621,549.282
440,23 Jun 2025 20:00:25.988,23 Jun 2025 20:11:11.990,646.002
441,23 Jun 2025 21:34:24.731,23 Jun 2025 21:44:46.986,622.255
442,24 Jun 2025 19:42:17.945,24 Jun 2025 19:52:11.754,593.810
443,24 Jun 2025 21:15:14.288,24 Jun 2025 21:26:20.822,666.534
444,25 Jun 2025 19:24:25.535,25 Jun 2025 19:33:02.087,516.552
445,25 Jun 2025 20:56:17.571,25 Jun 2025 21:07:46.466,688.895
446,25 Jun 2025 22:34:58.115,25 Jun 2025 22:38:05.120,187.004
447,26 Jun 2025 19:06:55.305,26 Jun 2025 19:13:36.771,401.465
448,26 Jun 2025 20:37:32.996,26 Jun 2025 20:49:05.475,692.479
449,26 Jun 2025 22:13:59.786,26 Jun 2025 22:21:08.983,429.197
450,27 Jun 2025 18:50:15.463,27 Jun 2025 18:53:27.964,192.501
451,27 Jun 2025 20:19:00.014,27 Jun 2025 20:30:18.460,678.445
452,27 Jun 2025 21:54:06.182,27 Jun 2025 22:03:14.389,548.207
453,28 Jun 2025 20:00:38.849,28 Jun 2025 20:11:25.340,646.490
454,28 Jun 2025 21:34:38.338,28 Jun 2025 21:44:59.921,621.583
455,29 Jun 2025 19:42:30.642,29 Jun 2025 19:52:25.196,594.554
456,29 Jun 2025 21:15:27.718,29 Jun 2025 21:26:33.868,666.150
457,30 Jun 2025 19:24:38.023,30 Jun 2025 19:33:15.663,517.640
458,30 Jun 2025 20:56:30.851,30 Jun 2025 21:07:59.596,688.745
459,30 Jun 2025 22:35:14.152,30 Jun 2025 22:38:15.838,181.687
460,1 Jul 2025 19:07:07.457,1 Jul 2025 19:13:50.603,403.146
461,1 Jul 2025 20:37:46.138,1 Jul 2025 20:49:18.678,692.540
462,1 Jul 2025 22:14:14.035,1 Jul 2025 22:21:21.413,427.378
463,2 Jul 2025 18:50:26.408,2 Jul 2025 18:53:42.921,196.513
464,2 Jul 2025 20:19:13.020,2 Jul 2025 20:30:31.733,678.712
465,2 Jul 2025 21:54:20.028,2 Jul 2025 22:03:27.151,547.123
466,3 Jul 2025 20:00:51.712,3 Jul 2025 20:11:38.688,646.976
467,3 Jul 2025 21:34:51.947,3 Jul 2025 21:45:12.853,620.906
468,4 Jul 2025 19:42:43.341,4 Jul 2025 19:52:38.637,595.297
469,4 Jul 2025 21:15:41.150,4 Jul 2025 21:26:46.912,665.762
470,5 Jul 2025 19:24:50.513,5 Jul 2025 19:33:29.239,518.726
471,5 Jul 2025 20:56:44.134,5 Jul 2025 21:08:12.726,688.592
472,5 Jul 2025 22:35:30.281,5 Jul 2025 22:38:26.469,176.187
473,6 Jul 2025 19:07:19.615,6 Jul 2025 19:14:04.435,404.820
474,6 Jul 2025 20:37:59.283,6 Jul 2025 20:49:31.882,692.598
475,6 Jul 2025 22:14:28.294,6 Jul 2025 22:21:33.837,425.543
476,7 Jul 2025 18:50:37.395,7 Jul 2025 18:53:57.839,200.443
477,7 Jul 2025 20:19:26.029,7 Jul 2025 20:30:45.006,678.977
478,7 Jul 2025 21:54:33.879,7 Jul 2025 22:03:39.912,546.033
479,8 Jul 2025 20:01:04.578,8 Jul 2025 20:11:52.038,647.460
480,8 Jul 2025 21:35:05.560,8 Jul 2025 21:45:25.785,620.225
481,9 Jul 2025 19:42:56.043,9 Jul 2025 19:52:52.079,596.035
482,9 Jul 2025 21:15:54.585,9 Jul 2025 21:26:59.956,665.371
483,10 Jul 2025 19:25:03.008,10 Jul 2025 19:33:42.813,519.805
484,10 Jul 2025 20:56:57.418,10 Jul 2025 21:08:25.855,688.437
485,10 Jul 2025 22:35:46.507,10 Jul 2025 22:38:37.004,170.497
486,11 Jul 2025 19:07:31.779,11 Jul 2025 19:14:18.260,406.481
487,11 Jul 2025 20:38:12.430,11 Jul 2025 20:49:45.084,692.654
488,11 Jul 2025 22:14:42.559,11 Jul 2025 22:21:46.256,423.697
489,12 Jul 2025 18:50:48.426,12 Jul 2025 18:54:12.714,204.288
490,12 Jul 2025 20:19:39.039,12 Jul 2025 20:30:58.279,679.239
491,12 Jul 2025 21:54:47.732,12 Jul 2025 22:03:52.670,544.938
492,13 Jul 2025 20:01:17.444,13 Jul 2025 20:12:05.385,647.940
493,13 Jul 2025 21:35:19.174,13 Jul 2025 21:45:38.714,619.540
494,14 Jul 2025 19:43:08.746,14 Jul 2025 19:53:05.517,596.771
495,14 Jul 2025 21:16:08.021,14 Jul 2025 21:27:12.998,664.977
496,15 Jul 2025 19:25:15.504,15 Jul 2025 19:33:56.384,520.881
497,15 Jul 2025 20:57:10.703,15 Jul 2025 21:08:38.982,688.279
498,15 Jul 2025 22:36:02.841,15 Jul 2025 22:38:47.432,164.590
499,16 Jul 2025 19:07:43.946,16 Jul 2025 19:14:32.081,408.135
500,16 Jul 2025 20:38:25.577,16 Jul 2025 20:49:58.285,692.708
501,16 Jul 2025 22:14:56.830,16 Jul 2025 22:21:58.671,421.841
502,17 Jul 2025 18:50:59.491,17 Jul 2025 18:54:27.553,208.062
503,17 Jul 2025 20:19:52.047,17 Jul 2025 20:31:11.554,679.507
504,17 Jul 2025 21:55:01.589,17 Jul 2025 22:04:05.420,543.831
505,18 Jul 2025 20:01:30.312,18 Jul 2025 20:12:18.731,648.419
506,18 Jul 2025 21:35:32.790,18 Jul 2025 21:45:51.641,618.851
507,19 Jul 2025 19:43:21.452,19 Jul 2025 19:53:18.956,597.504
508,19 Jul 2025 21:16:21.459,19 Jul 2025 21:27:26.038,664.579
509,20 Jul 2025 19:25:28.000,20 Jul 2025 19:34:09.957,521.957
510,20 Jul 2025 20:57:23.991,20 Jul 2025 21:08:52.109,688.118
511,20 Jul 2025 22:36:19.292,20 Jul 2025 22:38:57.738,158.446
512,21 Jul 2025 19:07:56.120,21 Jul 2025 19:14:45.900,409.781
513,21 Jul 2025 20:38:38.726,21 Jul 2025 20:50:11.486,692.759
514,21 Jul 2025 22:15:11.111,21 Jul 2025 22:22:11.075,419.964
515,22 Jul 2025 18:51:10.594,22 Jul 2025 18:54:42.360,211.766
516,22 Jul 2025 20:20:05.061,22 Jul 2025 20:31:24.825,679.765
517,22 Jul 2025 21:55:15.451,22 Jul 2025 22:04:18.173,542.722
518,23 Jul 2025 20:01:43.183,23 Jul 2025 20:12:32.077,648.894
519,23 Jul 2025 21:35:46.411,23 Jul 2025 21:46:04.568,618.157
520,24 Jul 2025 19:43:34.160,24 Jul 2025 19:53:32.394,598.233
521,24 Jul 2025 21:16:34.899,24 Jul 2025 21:27:39.079,664.179
522,25 Jul 2025 19:25:40.502,25 Jul 2025 19:34:23.526,523.023
523,25 Jul 2025 20:57:37.281,25 Jul 2025 21:09:05.235,687.955
524,25 Jul 2025 22:36:35.876,25 Jul 2025 22:39:07.916,152.040
525,26 Jul 2025 19:08:08.298,26 Jul 2025 19:14:59.713,411.414
526,26 Jul 2025 20:38:51.877,26 Jul 2025 20:50:24.685,692.808
527,26 Jul 2025 22:15:25.398,26 Jul 2025 22:22:23.473,418.075
528,27 Jul 2025 18:51:21.733,27 Jul 2025 18:54:57.130,215.397
529,27 Jul 2025 20:20:18.075,27 Jul 2025 20:31:38.095,680.019
530,27 Jul 2025 21:55:29.315,27 Jul 2025 22:04:30.921,541.607
531,28 Jul 2025 20:01:56.054,28 Jul 2025 20:12:45.421,649.367
532,28 Jul 2025 21:36:00.032,28 Jul 2025 21:46:17.491,617.460
533,29 Jul 2025 19:43:46.869,29 Jul 2025 19:53:45.829,598.960
534,29 Jul 2025 21:16:48.340,29 Jul 2025 21:27:52.116,663.776
535,30 Jul 2025 19:25:53.006,30 Jul 2025 19:34:37.091,524.085
536,30 Jul 2025 20:57:50.570,30 Jul 2025 21:09:18.359,687.789
537,30 Jul 2025 22:36:52.612,30 Jul 2025 22:39:17.938,145.326
538,31 Jul 2025 19:08:20.481,31 Jul 2025 19:15:13.520,413.039
539,31 Jul 2025 20:39:05.032,31 Jul 2025 20:50:37.882,692.850
540,31 Jul 2025 22:15:39.696,31 Jul 2025 22:22:35.861,416.165
541,1 Aug 2025 18:51:32.901,1 Aug 2025 18:55:11.871,218.971
542,1 Aug 2025 20:20:31.091,1 Aug 2025 20:31:51.363,680.272
543,1 Aug 2025 21:55:43.183,1 Aug 2025 22:04:43.666,540.483
544,2 Aug 2025 20:02:08.927,2 Aug 2025 20:12:58.765,649.839
545,2 Aug 2025 21:36:13.655,2 Aug 2025 21:46:30.413,616.758
546,3 Aug 2025 19:43:59.580,3 Aug 2025 19:53:59.264,599.684
547,3 Aug 2025 21:17:01.784,3 Aug 2025 21:28:05.152,663.368
548,4 Aug 2025 19:26:05.512,4 Aug 2025 19:34:50.661,525.149
549,4 Aug 2025 20:58:03.863,4 Aug 2025 21:09:31.483,687.620
550,4 Aug 2025 22:37:09.524,4 Aug 2025 22:39:27.788,138.264
551,5 Aug 2025 19:08:32.671,5 Aug 2025 19:15:27.324,414.653
552,5 Aug 2025 20:39:18.185,5 Aug 2025 20:50:51.077,692.892
553,5 Aug 2025 22:15:53.995,5 Aug 2025 22:22:48.239,414.244
554,6 Aug 2025 18:51:44.101,6 Aug 2025 18:55:26.583,222.482
555,6 Aug 2025 20:20:44.109,6 Aug 2025 20:32:04.631,680.523
556,6 Aug 2025 21:55:57.054,6 Aug 2025 22:04:56.409,539.354
557,7 Aug 2025 20:02:21.802,7 Aug 2025 20:13:12.108,650.307
558,7 Aug 2025 21:36:27.282,7 Aug 2025 21:46:43.333,616.052
559,8 Aug 2025 19:44:12.293,8 Aug 2025 19:54:12.697,600.404
560,8 Aug 2025 21:17:15.230,8 Aug 2025 21:28:18.188,662.958
561,9 Aug 2025 19:26:18.022,9 Aug 2025 19:35:04.224,526.202
562,9 Aug 2025 20:58:17.157,9 Aug 2025 21:09:44.605,687.448
563,9 Aug 2025 22:37:26.633,9 Aug 2025 22:39:37.443,130.810
564,10 Aug 2025 19:08:44.865,10 Aug 2025 19:15:41.125,416.259
565,10 Aug 2025 20:39:31.340,10 Aug 2025 20:51:04.273,692.933
566,10 Aug 2025 22:16:08.305,10 Aug 2025 22:23:00.615,412.309
567,11 Aug 2025 18:51:55.331,11 Aug 2025 18:55:41.262,225.931
568,11 Aug 2025 20:20:57.127,11 Aug 2025 20:32:17.897,680.770
569,11 Aug 2025 21:56:10.928,11 Aug 2025 22:05:09.147,538.220
570,12 Aug 2025 20:02:34.677,12 Aug 2025 20:13:25.449,650.772
571,12 Aug 2025 21:36:40.909,12 Aug 2025 21:46:56.250,615.342
572,13 Aug 2025 19:44:25.007,13 Aug 2025 19:54:26.129,601.121
573,13 Aug 2025 21:17:28.676,13 Aug 2025 21:28:31.221,662.545
574,14 Aug 2025 19:26:30.533,14 Aug 2025 19:35:17.785,527.252
575,14 Aug 2025 20:58:30.451,14 Aug 2025 21:09:57.725,687.274
576,14 Aug 2025 22:37:43.981,14 Aug 2025 22:39:46.855,122.875
577,15 Aug 2025 19:08:57.061,15 Aug 2025 19:15:54.923,417.861
578,15 Aug 2025 20:39:44.495,15 Aug 2025 20:51:17.468,692.973
579,15 Aug 2025 22:16:22.624,15 Aug 2025 22:23:12.981,410.356
580,16 Aug 2025 18:52:06.587,16 Aug 2025 18:55:55.918,229.331
581,16 Aug 2025 20:21:10.147,16 Aug 2025 20:32:31.163,681.016
582,16 Aug 2025 21:56:24.806,16 Aug 2025 22:05:21.882,537.076
583,17 Aug 2025 20:02:47.555,17 Aug 2025 20:13:38.790,651.235
584,17 Aug 2025 21:36:54.540,17 Aug 2025 21:47:09.166,614.626
585,18 Aug 2025 19:44:37.724,18 Aug 2025 19:54:39.561,601.836
586,18 Aug 2025 21:17:42.125,18 Aug 2025 21:28:44.253,662.128
587,19 Aug 2025 19:26:43.047,19 Aug 2025 19:35:31.345,528.298
588,19 Aug 2025 20:58:43.748,19 Aug 2025 21:10:10.846,687.098
589,19 Aug 2025 22:38:01.620,19 Aug 2025 22:39:55.981,114.361
590,20 Aug 2025 19:09:09.263,20 Aug 2025 19:16:08.717,419.454
591,20 Aug 2025 20:39:57.654,20 Aug 2025 20:51:30.663,693.009
592,20 Aug 2025 22:16:36.950,20 Aug 2025 22:23:25.341,408.390
593,21 Aug 2025 18:52:17.873,21 Aug 2025 18:56:10.546,232.673
594,21 Aug 2025 20:21:23.169,21 Aug 2025 20:32:44.428,681.259
595,21 Aug 2025 21:56:38.688,21 Aug 2025 22:05:34.615,535.928
596,22 Aug 2025 20:03:00.434,22 Aug 2025 20:13:52.127,651.693
597,22 Aug 2025 21:37:08.172,22 Aug 2025 21:47:22.080,613.908
598,23 Aug 2025 19:44:50.443,23 Aug 2025 19:54:52.990,602.547
599,23 Aug 2025 21:17:55.575,23 Aug 2025 21:28:57.284,661.709
600,24 Aug 2025 19:26:55.563,24 Aug 2025 19:35:44.901,529.338
601,24 Aug 2025 20:58:57.045,24 Aug 2025 21:10:23.964,686.918
602,24 Aug 2025 22:38:19.607,24 Aug 2025 22:40:04.755,105.149
603,25 Aug 2025 19:09:21.468,25 Aug 2025 19:16:22.505,421.037
604,25 Aug 2025 20:40:10.814,25 Aug 2025 20:51:43.855,693.041
605,25 Aug 2025 22:16:51.284,25 Aug 2025 22:23:37.692,406.409
606,26 Aug 2025 18:52:29.184,26 Aug 2025 18:56:25.147,235.963
607,26 Aug 2025 20:21:36.191,26 Aug 2025 20:32:57.690,681.500
608,26 Aug 2025 21:56:52.575,26 Aug 2025 22:05:47.344,534.769
609,27 Aug 2025 20:03:13.313,27 Aug 2025 20:14:05.465,652.151
610,27 Aug 2025 21:37:21.806,27 Aug 2025 21:47:34.990,613.184
611,28 Aug 2025 19:45:03.162,28 Aug 2025 19:55:06.417,603.255
612,28 Aug 2025 21:18:09.026,28 Aug 2025 21:29:10.311,661.286
613,29 Aug 2025 19:27:08.081,29 Aug 2025 19:35:58.456,530.375
614,29 Aug 2025 20:59:10.344,29 Aug 2025 21:10:37.080,686.736
615,29 Aug 2025 22:38:38.062,29 Aug 2025 22:40:13.059,94.998
616,30 Aug 2025 19:09:33.676,30 Aug 2025 19:16:36.291,422.614
617,30 Aug 2025 20:40:23.973,30 Aug 2025 20:51:57.046,693.074
618,30 Aug 2025 22:17:05.624,30 Aug 2025 22:23:50.035,404.411
619,31 Aug 2025 18:52:40.517,31 Aug 2025 18:56:39.726,239.209
620,31 Aug 2025 20:21:49.214,31 Aug 2025 20:33:10.952,681.738
621,31 Aug 2025 21:57:06.463,31 Aug 2025 22:06:00.068,533.605
622,1 Sep 2025 20:03:26.195,1 Sep 2025 20:14:18.802,652.607
623,1 Sep 2025 21:37:35.443,1 Sep 2025 21:47:47.899,612.456
624,2 Sep 2025 19:45:15.884,2 Sep 2025 19:55:19.843,603.959
625,2 Sep 2025 21:18:22.480,2 Sep 2025 21:29:23.342,660.862
626,3 Sep 2025 19:27:20.603,3 Sep 2025 19:36:12.006,531.404
627,3 Sep 2025 20:59:23.645,3 Sep 2025 21:10:50.196,686.552
628,3 Sep 2025 22:38:57.142,3 Sep 2025 22:40:20.743,83.601
629,4 Sep 2025 19:09:45.892,4 Sep 2025 19:16:50.072,424.180
630,4 Sep 2025 20:40:37.133,4 Sep 2025 20:52:10.237,693.104
631,4 Sep 2025 22:17:19.975,4 Sep 2025 22:24:02.371,402.396
632,5 Sep 2025 18:52:51.878,5 Sep 2025 18:56:54.280,242.402
633,5 Sep 2025 20:22:02.240,5 Sep 2025 20:33:24.214,681.974
634,5 Sep 2025 21:57:20.355,5 Sep 2025 22:06:12.791,532.436
635,6 Sep 2025 20:03:39.078,6 Sep 2025 20:14:32.138,653.059
636,6 Sep 2025 21:37:49.077,6 Sep 2025 21:48:00.806,611.730
637,7 Sep 2025 19:45:28.607,7 Sep 2025 19:55:33.264,604.657
638,7 Sep 2025 21:18:35.934,7 Sep 2025 21:29:36.367,660.433
639,8 Sep 2025 19:27:33.126,8 Sep 2025 19:36:25.557,532.431
640,8 Sep 2025 20:59:36.946,8 Sep 2025 21:11:03.310,686.364
641,8 Sep 2025 22:39:17.144,8 Sep 2025 22:40:27.501,70.357
642,9 Sep 2025 19:09:58.110,9 Sep 2025 19:17:03.848,425.738
643,9 Sep 2025 20:40:50.296,9 Sep 2025 20:52:23.426,693.129
644,9 Sep 2025 22:17:34.331,9 Sep 2025 22:24:14.698,400.367
645,10 Sep 2025 18:53:03.260,10 Sep 2025 18:57:08.810,245.551
646,10 Sep 2025 20:22:15.265,10 Sep 2025 20:33:37.472,682.207
647,10 Sep 2025 21:57:34.248,10 Sep 2025 22:06:25.508,531.260
648,11 Sep 2025 20:03:51.962,11 Sep 2025 20:14:45.471,653.510
649,11 Sep 2025 21:38:02.716,11 Sep 2025 21:48:13.710,610.993
650,12 Sep 2025 19:45:41.331,12 Sep 2025 19:55:46.688,605.357
651,12 Sep 2025 21:18:49.390,12 Sep 2025 21:29:49.390,660.000
652,13 Sep 2025 19:27:45.650,13 Sep 2025 19:36:39.106,533.455
653,13 Sep 2025 20:59:50.248,13 Sep 2025 21:11:16.422,686.174
654,13 Sep 2025 22:39:38.762,13 Sep 2025 22:40:32.642,53.879
655,14 Sep 2025 19:10:10.332,14 Sep 2025 19:17:17.622,427.289
656,14 Sep 2025 20:41:03.459,14 Sep 2025 20:52:36.613,693.154
657,14 Sep 2025 22:17:48.696,14 Sep 2025 22:24:27.016,398.319
658,15 Sep 2025 18:53:14.663,15 Sep 2025 18:57:23.322,248.659
659,15 Sep 2025 20:22:28.293,15 Sep 2025 20:33:50.731,682.438
660,15 Sep 2025 21:57:48.147,15 Sep 2025 22:06:38.223,530.076
661,16 Sep 2025 20:04:04.851,16 Sep 2025 20:14:58.804,653.952
662,16 Sep 2025 21:38:16.364,16 Sep 2025 21:48:26.612,610.248
663,17 Sep 2025 19:45:54.061,17 Sep 2025 19:56:00.113,606.052
664,17 Sep 2025 21:19:02.848,17 Sep 2025 21:30:02.409,659.561
665,18 Sep 2025 19:27:58.179,18 Sep 2025 19:36:52.656,534.477
666,18 Sep 2025 21:00:03.553,18 Sep 2025 21:11:29.534,685.981
667,18 Sep 2025 22:40:04.475,18 Sep 2025 22:40:33.687,29.212
668,19 Sep 2025 19:10:22.561,19 Sep 2025 19:17:31.394,428.834
669,19 Sep 2025 20:41:16.620,19 Sep 2025 20:52:49.804,693.184
670,19 Sep 2025 22:18:03.065,19 Sep 2025 22:24:39.332,396.267
671,20 Sep 2025 18:53:26.090,20 Sep 2025 18:57:37.808,251.718
672,20 Sep 2025 20:22:41.321,20 Sep 2025 20:34:03.988,682.667
673,20 Sep 2025 21:58:02.048,20 Sep 2025 22:06:50.935,528.887
674,21 Sep 2025 20:04:17.734,21 Sep 2025 20:15:12.136,654.402
675,21 Sep 2025 21:38:30.004,21 Sep 2025 21:48:39.512,609.509
676,22 Sep 2025 19:46:06.785,22 Sep 2025 19:56:13.532,606.747
677,22 Sep 2025 21:19:16.306,22 Sep 2025 21:30:15.432,659.126
678,23 Sep 2025 19:28:10.708,23 Sep 2025 19:37:06.196,535.488
679,23 Sep 2025 21:00:16.857,23 Sep 2025 21:11:42.643,685.785
680,24 Sep 2025 19:10:34.792,24 Sep 2025 19:17:45.153,430.360
681,24 Sep 2025 20:41:29.784,24 Sep 2025 20:53:02.988,693.204
682,24 Sep 2025 22:18:17.445,24 Sep 2025 22:24:51.633,394.188
683,25 Sep 2025 18:53:37.535,25 Sep 2025 18:57:52.275,254.740
684,25 Sep 2025 20:22:54.349,25 Sep 2025 20:34:17.242,682.893
685,25 Sep 2025 21:58:15.951,25 Sep 2025 22:07:03.641,527.691
686,26 Sep 2025 20:04:30.625,26 Sep 2025 20:15:25.464,654.839
687,26 Sep 2025 21:38:43.649,26 Sep 2025 21:48:52.409,608.760
688,27 Sep 2025 19:46:19.517,27 Sep 2025 19:56:26.950,607.433
689,27 Sep 2025 21:19:29.766,27 Sep 2025 21:30:28.447,658.681
690,28 Sep 2025 19:28:23.239,28 Sep 2025 19:37:19.735,536.496
691,28 Sep 2025 21:00:30.163,28 Sep 2025 21:11:55.750,685.587
692,29 Sep 2025 19:10:47.031,29 Sep 2025 19:17:58.918,431.887
693,29 Sep 2025 20:41:42.952,29 Sep 2025 20:53:16.172,693.220
694,29 Sep 2025 22:18:31.835,29 Sep 2025 22:25:03.925,392.091
695,30 Sep 2025 18:53:49.001,30 Sep 2025 18:58:06.724,257.723
696,30 Sep 2025 20:23:07.380,30 Sep 2025 20:34:30.497,683.116
697,30 Sep 2025 21:58:29.858,30 Sep 2025 22:07:16.345,526.487
698,1 Oct 2025 20:04:43.514,1 Oct 2025 20:15:38.793,655.279
699,1 Oct 2025 21:38:57.298,1 Oct 2025 21:49:05.305,608.007
700,2 Oct 2025 19:46:32.248,2 Oct 2025 19:56:40.367,608.119
701,2 Oct 2025 21:19:43.228,2 Oct 2025 21:30:41.464,658.235
702,3 Oct 2025 19:28:35.774,3 Oct 2025 19:37:33.275,537.501
703,3 Oct 2025 21:00:43.471,3 Oct 2025 21:12:08.858,685.387
704,4 Oct 2025 19:10:59.273,4 Oct 2025 19:18:12.673,433.400
705,4 Oct 2025 20:41:56.120,4 Oct 2025 20:53:29.354,693.234
706,4 Oct 2025 22:18:46.232,4 Oct 2025 22:25:16.211,389.979
707,5 Oct 2025 18:54:00.488,5 Oct 2025 18:58:21.150,260.661
708,5 Oct 2025 20:23:20.412,5 Oct 2025 20:34:43.749,683.337
709,5 Oct 2025 21:58:43.768,5 Oct 2025 22:07:29.047,525.278
710,6 Oct 2025 20:04:56.404,6 Oct 2025 20:15:52.119,655.715
711,6 Oct 2025 21:39:10.947,6 Oct 2025 21:49:18.198,607.250
712,7 Oct 2025 19:46:44.980,7 Oct 2025 19:56:53.781,608.800
713,7 Oct 2025 21:19:56.695,7 Oct 2025 21:30:54.481,657.786
714,8 Oct 2025 19:28:48.312,8 Oct 2025 19:37:46.811,538.499
715,8 Oct 2025 21:00:56.778,8 Oct 2025 21:12:21.962,685.183
716,9 Oct 2025 19:11:11.515,9 Oct 2025 19:18:26.423,434.908
717,9 Oct 2025 20:42:09.287,9 Oct 2025 20:53:42.534,693.246
718,9 Oct 2025 22:19:00.638,9 Oct 2025 22:25:28.486,387.848
719,10 Oct 2025 18:54:11.992,10 Oct 2025 18:58:35.559,263.567
720,10 Oct 2025 20:23:33.444,10 Oct 2025 20:34:57.000,683.556
721,10 Oct 2025 21:58:57.681,10 Oct 2025 22:07:41.742,524.061
722,11 Oct 2025 20:05:09.295,11 Oct 2025 20:16:05.445,656.150
723,11 Oct 2025 21:39:24.599,11 Oct 2025 21:49:31.088,606.489
724,12 Oct 2025 19:46:57.713,12 Oct 2025 19:57:07.194,609.480
725,12 Oct 2025 21:20:10.155,12 Oct 2025 21:31:07.493,657.338
726,13 Oct 2025 19:29:00.851,13 Oct 2025 19:38:00.346,539.496
727,13 Oct 2025 21:01:10.088,13 Oct 2025 21:12:35.065,684.977
728,14 Oct 2025 19:11:23.762,14 Oct 2025 19:18:40.171,436.409
729,14 Oct 2025 20:42:22.458,14 Oct 2025 20:53:55.713,693.256
730,14 Oct 2025 22:19:15.054,14 Oct 2025 22:25:40.753,385.699
731,15 Oct 2025 18:54:23.516,15 Oct 2025 18:58:49.950,266.435
732,15 Oct 2025 20:23:46.478,15 Oct 2025 20:35:10.250,683.772
733,15 Oct 2025 21:59:11.598,15 Oct 2025 22:07:54.436,522.838
734,16 Oct 2025 20:05:22.188,16 Oct 2025 20:16:18.767,656.579
735,16 Oct 2025 21:39:38.253,16 Oct 2025 21:49:43.977,605.724
736,17 Oct 2025 19:47:10.449,17 Oct 2025 19:57:20.605,610.156
737,17 Oct 2025 21:20:23.621,17 Oct 2025 21:31:20.505,656.884
738,18 Oct 2025 19:29:13.392,18 Oct 2025 19:38:13.878,540.486
739,18 Oct 2025 21:01:23.399,18 Oct 2025 21:12:48.168,684.768
740,19 Oct 2025 19:11:36.015,19 Oct 2025 19:18:53.912,437.897
741,19 Oct 2025 20:42:35.628,19 Oct 2025 20:54:08.891,693.263
742,19 Oct 2025 22:19:29.476,19 Oct 2025 22:25:53.012,383.535
743,20 Oct 2025 18:54:35.058,20 Oct 2025 18:59:04.320,269.263
744,20 Oct 2025 20:23:59.512,20 Oct 2025 20:35:23.498,683.985
745,20 Oct 2025 21:59:25.517,20 Oct 2025 22:08:07.128,521.611
746,21 Oct 2025 20:05:35.081,21 Oct 2025 20:16:32.089,657.007
747,21 Oct 2025 21:39:51.908,21 Oct 2025 21:49:56.863,604.955
748,22 Oct 2025 19:47:23.185,22 Oct 2025 19:57:34.013,610.827
749,22 Oct 2025 21:20:37.088,22 Oct 2025 21:31:33.514,656.426
750,23 Oct 2025 19:29:25.934,23 Oct 2025 19:38:27.406,541.472
751,23 Oct 2025 21:01:36.710,23 Oct 2025 21:13:01.267,684.557
752,24 Oct 2025 19:11:48.271,24 Oct 2025 19:19:07.646,439.374
753,24 Oct 2025 20:42:48.802,24 Oct 2025 20:54:22.062,693.260
754,24 Oct 2025 22:19:43.912,24 Oct 2025 22:26:05.255,381.343
755,25 Oct 2025 18:54:46.615,25 Oct 2025 18:59:18.672,272.056
756,25 Oct 2025 20:24:12.546,25 Oct 2025 20:35:36.740,684.194
757,25 Oct 2025 21:59:39.437,25 Oct 2025 22:08:19.813,520.376
758,26 Oct 2025 20:05:47.972,26 Oct 2025 20:16:45.411,657.439
759,26 Oct 2025 21:40:05.565,26 Oct 2025 21:50:09.746,604.181
760,27 Oct 2025 19:47:35.923,27 Oct 2025 19:57:47.420,611.497
761,27 Oct 2025 21:20:50.557,27 Oct 2025 21:31:46.521,655.964
762,28 Oct 2025 19:29:38.479,28 Oct 2025 19:38:40.934,542.455
763,28 Oct 2025 21:01:50.023,28 Oct 2025 21:13:14.366,684.343
764,29 Oct 2025 19:12:00.533,29 Oct 2025 19:19:21.380,440.847
765,29 Oct 2025 20:43:01.975,29 Oct 2025 20:54:35.237,693.262
766,29 Oct 2025 22:19:58.354,29 Oct 2025 22:26:17.499,379.145
767,30 Oct 2025 18:54:58.191,30 Oct 2025 18:59:33.010,274.818
768,30 Oct 2025 20:24:25.584,30 Oct 2025 20:35:49.986,684.402
769,30 Oct 2025 21:59:53.364,30 Oct 2025 22:08:32.496,519.133
770,31 Oct 2025 20:06:00.869,31 Oct 2025 20:16:58.731,657.862
771,31 Oct 2025 21:40:19.225,31 Oct 2025 21:50:22.629,603.404
772,1 Nov 2025 19:47:48.664,1 Nov 2025 19:58:00.825,612.162
773,1 Nov 2025 21:21:04.028,1 Nov 2025 21:31:59.528,655.500
774,2 Nov 2025 19:29:51.027,2 Nov 2025 19:38:54.459,543.431
775,2 Nov 2025 21:02:03.337,2 Nov 2025 21:13:27.464,684.127
776,3 Nov 2025 19:12:12.799,3 Nov 2025 19:19:35.109,442.310
777,3 Nov 2025 20:43:15.149,3 Nov 2025 20:54:48.411,693.262
778,3 Nov 2025 22:20:12.803,3 Nov 2025 22:26:29.731,376.928
779,4 Nov 2025 18:55:09.784,4 Nov 2025 18:59:47.328,277.544
780,4 Nov 2025 20:24:38.621,4 Nov 2025 20:36:03.230,684.608
781,4 Nov 2025 22:00:07.292,4 Nov 2025 22:08:45.176,517.884
782,5 Nov 2025 20:06:13.766,5 Nov 2025 20:17:12.048,658.282
783,5 Nov 2025 21:40:32.885,5 Nov 2025 21:50:35.508,602.623
784,6 Nov 2025 19:48:01.404,6 Nov 2025 19:58:14.228,612.824
785,6 Nov 2025 21:21:17.499,6 Nov 2025 21:32:12.532,655.032
786,7 Nov 2025 19:30:03.576,7 Nov 2025 19:39:07.980,544.404
787,7 Nov 2025 21:02:16.651,7 Nov 2025 21:13:40.559,683.908
788,8 Nov 2025 19:12:25.068,8 Nov 2025 19:19:48.832,443.764
789,8 Nov 2025 20:43:28.321,8 Nov 2025 20:55:01.582,693.261
790,8 Nov 2025 22:20:27.262,8 Nov 2025 22:26:41.951,374.689
791,9 Nov 2025 18:55:21.391,9 Nov 2025 19:00:01.634,280.244
792,9 Nov 2025 20:24:51.660,9 Nov 2025 20:36:16.472,684.812
793,9 Nov 2025 22:00:21.225,9 Nov 2025 22:08:57.851,516.626
794,10 Nov 2025 20:06:26.669,10 Nov 2025 20:17:25.363,658.695
795,10 Nov 2025 21:40:46.549,10 Nov 2025 21:50:48.386,601.837
796,11 Nov 2025 19:48:14.148,11 Nov 2025 19:58:27.630,613.483
797,11 Nov 2025 21:21:30.974,11 Nov 2025 21:32:25.535,654.561
798,12 Nov 2025 19:30:16.129,12 Nov 2025 19:39:21.501,545.372
799,12 Nov 2025 21:02:29.969,12 Nov 2025 21:13:53.655,683.686
800,13 Nov 2025 19:12:37.342,13 Nov 2025 19:20:02.553,445.211
801,13 Nov 2025 20:43:41.498,13 Nov 2025 20:55:14.754,693.256
802,13 Nov 2025 22:20:41.732,13 Nov 2025 22:26:54.164,372.432
803,14 Nov 2025 18:55:33.016,14 Nov 2025 19:00:15.922,282.906
804,14 Nov 2025 20:25:04.701,14 Nov 2025 20:36:29.714,685.013
805,14 Nov 2025 22:00:35.162,14 Nov 2025 22:09:10.526,515.364
806,15 Nov 2025 20:06:39.569,15 Nov 2025 20:17:38.678,659.109
807,15 Nov 2025 21:41:00.214,15 Nov 2025 21:51:01.262,601.048
808,16 Nov 2025 19:48:26.892,16 Nov 2025 19:58:41.030,614.137
809,16 Nov 2025 21:21:44.446,16 Nov 2025 21:32:38.537,654.091
810,17 Nov 2025 19:30:28.683,17 Nov 2025 19:39:35.018,546.335
811,17 Nov 2025 21:02:43.286,17 Nov 2025 21:14:06.748,683.462
812,18 Nov 2025 19:12:49.620,18 Nov 2025 19:20:16.268,446.647
813,18 Nov 2025 20:43:54.676,18 Nov 2025 20:55:27.923,693.247
814,18 Nov 2025 22:20:56.209,18 Nov 2025 22:27:06.367,370.159
815,19 Nov 2025 18:55:44.655,19 Nov 2025 19:00:30.193,285.538
816,19 Nov 2025 20:25:17.742,19 Nov 2025 20:36:42.953,685.211
817,19 Nov 2025 22:00:49.100,19 Nov 2025 22:09:23.195,514.095
818,20 Nov 2025 20:06:52.470,20 Nov 2025 20:17:51.990,659.520
819,20 Nov 2025 21:41:13.881,20 Nov 2025 21:51:14.135,600.255
820,21 Nov 2025 19:48:39.638,21 Nov 2025 19:58:54.427,614.788
821,21 Nov 2025 21:21:57.921,21 Nov 2025 21:32:51.536,653.615
822,22 Nov 2025 19:30:41.240,22 Nov 2025 19:39:48.532,547.292
823,22 Nov 2025 21:02:56.604,22 Nov 2025 21:14:19.839,683.235
824,23 Nov 2025 19:13:01.902,23 Nov 2025 19:20:29.981,448.079
825,23 Nov 2025 20:44:07.853,23 Nov 2025 20:55:41.091,693.238
826,23 Nov 2025 22:21:10.696,23 Nov 2025 22:27:18.560,367.864
827,24 Nov 2025 18:55:56.309,24 Nov 2025 19:00:44.452,288.143
828,24 Nov 2025 20:25:30.784,24 Nov 2025 20:36:56.192,685.407
829,24 Nov 2025 22:01:03.043,24 Nov 2025 22:09:35.861,512.818
830,25 Nov 2025 20:07:05.373,25 Nov 2025 20:18:05.297,659.924
831,25 Nov 2025 21:41:27.550,25 Nov 2025 21:51:27.007,599.457
832,26 Nov 2025 19:48:52.387,26 Nov 2025 19:59:07.823,615.437
833,26 Nov 2025 21:22:11.400,26 Nov 2025 21:33:04.535,653.135
834,27 Nov 2025 19:30:53.800,27 Nov 2025 19:40:02.044,548.245
835,27 Nov 2025 21:03:09.926,27 Nov 2025 21:14:32.931,683.006
836,28 Nov 2025 19:13:14.189,28 Nov 2025 19:20:43.689,449.499
837,28 Nov 2025 20:44:21.033,28 Nov 2025 20:55:54.259,693.226
838,28 Nov 2025 22:21:25.195,28 Nov 2025 22:27:30.745,365.550
839,29 Nov 2025 18:56:07.980,29 Nov 2025 19:00:58.695,290.715
840,29 Nov 2025 20:25:43.829,29 Nov 2025 20:37:09.430,685.601
841,29 Nov 2025 22:01:16.990,29 Nov 2025 22:09:48.526,511.536
842,30 Nov 2025 20:07:18.278,30 Nov 2025 20:18:18.610,660.332
843,30 Nov 2025 21:41:41.222,30 Nov 2025 21:51:39.878,598.657
844,1 Dec 2025 19:49:05.137,1 Dec 2025 19:59:21.218,616.081
845,1 Dec 2025 21:22:24.877,1 Dec 2025 21:33:17.532,652.656
846,2 Dec 2025 19:31:06.361,2 Dec 2025 19:40:15.553,549.191
847,2 Dec 2025 21:03:23.247,2 Dec 2025 21:14:46.021,682.773
848,3 Dec 2025 19:13:26.483,3 Dec 2025 19:20:57.393,450.910
849,3 Dec 2025 20:44:34.211,3 Dec 2025 20:56:07.429,693.218
850,3 Dec 2025 22:21:39.698,3 Dec 2025 22:27:42.917,363.219
851,4 Dec 2025 18:56:19.668,4 Dec 2025 19:01:12.924,293.257
852,4 Dec 2025 20:25:56.877,4 Dec 2025 20:37:22.665,685.788
853,4 Dec 2025 22:01:30.941,4 Dec 2025 22:10:01.185,510.244
854,5 Dec 2025 20:07:31.182,5 Dec 2025 20:18:31.918,660.735
855,5 Dec 2025 21:41:54.894,5 Dec 2025 21:51:52.746,597.851
856,6 Dec 2025 19:49:17.888,6 Dec 2025 19:59:34.610,616.722
857,6 Dec 2025 21:22:38.357,6 Dec 2025 21:33:30.527,652.170
858,7 Dec 2025 19:31:18.925,7 Dec 2025 19:40:29.060,550.135
859,7 Dec 2025 21:03:36.570,7 Dec 2025 21:14:59.109,682.538
860,8 Dec 2025 19:13:38.778,8 Dec 2025 19:21:11.093,452.316
861,8 Dec 2025 20:44:47.393,8 Dec 2025 20:56:20.594,693.200
862,8 Dec 2025 22:21:54.217,8 Dec 2025 22:27:55.080,360.863
863,9 Dec 2025 18:56:31.365,9 Dec 2025 19:01:27.141,295.777
864,9 Dec 2025 20:26:09.924,9 Dec 2025 20:37:35.901,685.977
865,9 Dec 2025 22:01:44.896,9 Dec 2025 22:10:13.842,508.946
866,10 Dec 2025 20:07:44.091,10 Dec 2025 20:18:45.227,661.137
867,10 Dec 2025 21:42:08.571,10 Dec 2025 21:52:05.613,597.042
868,11 Dec 2025 19:49:30.642,11 Dec 2025 19:59:48.002,617.360
869,11 Dec 2025 21:22:51.841,11 Dec 2025 21:33:43.523,651.682
870,12 Dec 2025 19:31:31.493,12 Dec 2025 19:40:42.565,551.072
871,12 Dec 2025 21:03:49.896,12 Dec 2025 21:15:12.197,682.301
872,13 Dec 2025 19:13:51.078,13 Dec 2025 19:21:24.788,453.711
873,13 Dec 2025 20:45:00.577,13 Dec 2025 20:56:33.758,693.181
874,13 Dec 2025 22:22:08.747,13 Dec 2025 22:28:07.236,358.489
875,14 Dec 2025 18:56:43.078,14 Dec 2025 19:01:41.341,298.263
876,14 Dec 2025 20:26:22.972,14 Dec 2025 20:37:49.135,686.163
877,14 Dec 2025 22:01:58.853,14 Dec 2025 22:10:26.497,507.644
878,15 Dec 2025 20:07:57.000,15 Dec 2025 20:18:58.533,661.533
879,15 Dec 2025 21:42:22.249,15 Dec 2025 21:52:18.479,596.230
880,16 Dec 2025 19:49:43.398,16 Dec 2025 20:00:01.391,617.993
881,16 Dec 2025 21:23:05.322,16 Dec 2025 21:33:56.516,651.195
882,17 Dec 2025 19:31:44.062,17 Dec 2025 19:40:56.066,552.004
883,17 Dec 2025 21:04:03.223,17 Dec 2025 21:15:25.284,682.061
884,18 Dec 2025 19:14:03.381,18 Dec 2025 19:21:38.478,455.097
885,18 Dec 2025 20:45:13.762,18 Dec 2025 20:56:46.921,693.159
886,18 Dec 2025 22:22:23.286,18 Dec 2025 22:28:19.385,356.099
887,19 Dec 2025 18:56:54.802,19 Dec 2025 19:01:55.528,300.727
888,19 Dec 2025 20:26:36.021,19 Dec 2025 20:38:02.367,686.346
889,19 Dec 2025 22:02:12.813,19 Dec 2025 22:10:39.148,506.335
890,20 Dec 2025 20:08:09.910,20 Dec 2025 20:19:11.837,661.927
891,20 Dec 2025 21:42:35.929,20 Dec 2025 21:52:31.342,595.413
892,21 Dec 2025 19:49:56.155,21 Dec 2025 20:00:14.779,618.624
893,21 Dec 2025 21:23:18.807,21 Dec 2025 21:34:09.509,650.701
894,22 Dec 2025 19:31:56.634,22 Dec 2025 19:41:09.567,552.933
895,22 Dec 2025 21:04:16.551,22 Dec 2025 21:15:38.369,681.818
896,23 Dec 2025 19:14:15.689,23 Dec 2025 19:21:52.166,456.477
897,23 Dec 2025 20:45:26.949,23 Dec 2025 20:57:00.083,693.135
898,23 Dec 2025 22:22:37.838,23 Dec 2025 22:28:31.516,353.678
899,24 Dec 2025 18:57:06.539,24 Dec 2025 19:02:09.705,303.166
900,24 Dec 2025 20:26:49.073,24 Dec 2025 20:38:15.600,686.527
901,24 Dec 2025 22:02:26.778,24 Dec 2025 22:10:51.797,505.019
902,25 Dec 2025 20:08:22.823,25 Dec 2025 20:19:25.142,662.319
903,25 Dec 2025 21:42:49.613,25 Dec 2025 21:52:44.204,594.592
904,26 Dec 2025 19:50:08.915,26 Dec 2025 20:00:28.163,619.248
905,26 Dec 2025 21:23:32.296,26 Dec 2025 21:34:22.501,650.205
906,27 Dec 2025 19:32:09.210,27 Dec 2025 19:41:23.066,553.856
907,27 Dec 2025 21:04:29.879,27 Dec 2025 21:15:51.455,681.576
908,28 Dec 2025 19:14:28.003,28 Dec 2025 19:22:05.850,457.848
909,28 Dec 2025 20:45:40.137,28 Dec 2025 20:57:13.245,693.108
910,28 Dec 2025 22:22:52.401,28 Dec 2025 22:28:43.644,351.243
911,29 Dec 2025 18:57:18.290,29 Dec 2025 19:02:23.870,305.580
912,29 Dec 2025 20:27:02.122,29 Dec 2025 20:38:28.831,686.709
913,29 Dec 2025 22:02:40.748,29 Dec 2025 22:11:04.439,503.691
914,30 Dec 2025 20:08:35.733,30 Dec 2025 20:19:38.444,662.711
915,30 Dec 2025 21:43:03.298,30 Dec 2025 21:52:57.061,593.764
916,31 Dec 2025 19:50:21.677,31 Dec 2025 20:00:41.548,619.871
917,31 Dec 2025 21:23:45.785,31 Dec 2025 21:34:35.491,649.706

Global Statistics
"Min Duration",151,4 Mar 2025 18:46:41.100,4 Mar 2025 18:47:06.969,25.869
"Max Duration",741,19 Oct 2025 20:42:35.628,19 Oct 2025 20:54:08.891,693.263
"Mean Duration",,,,541.342
"Total Duration",,,,496410.173


