3UCubedIntegratedSim/Reports & Plots/Comms/Past Comms Data/SSU/CSV/Sat13.csv

"Access","Start Time (UTCG)","Stop Time (UTCG)","Duration (sec)"
1,1 Jan 2025 19:45:07.470,1 Jan 2025 19:48:59.765,232.295
2,1 Jan 2025 21:15:46.394,1 Jan 2025 21:27:16.616,690.223
3,1 Jan 2025 22:50:35.192,1 Jan 2025 22:59:00.797,505.605
4,2 Jan 2025 20:57:11.215,2 Jan 2025 21:08:21.364,670.149
5,2 Jan 2025 22:31:24.167,2 Jan 2025 22:41:10.484,586.317
6,3 Jan 2025 20:38:43.987,3 Jan 2025 20:49:12.638,628.652
7,3 Jan 2025 22:12:23.009,3 Jan 2025 22:23:04.067,641.059
8,4 Jan 2025 20:20:27.750,4 Jan 2025 20:29:47.291,559.541
9,4 Jan 2025 21:53:29.066,4 Jan 2025 22:04:44.474,675.408
10,4 Jan 2025 23:30:41.408,4 Jan 2025 23:33:03.063,141.655
11,5 Jan 2025 20:02:29.767,5 Jan 2025 20:09:57.839,448.072
12,5 Jan 2025 21:34:41.302,5 Jan 2025 21:46:12.964,691.662
13,5 Jan 2025 23:10:17.054,5 Jan 2025 23:16:39.674,382.620
14,6 Jan 2025 19:45:18.803,6 Jan 2025 19:49:15.173,236.371
15,6 Jan 2025 21:15:59.530,6 Jan 2025 21:27:29.875,690.344
16,6 Jan 2025 22:50:48.789,6 Jan 2025 22:59:13.248,504.459
17,7 Jan 2025 20:57:24.270,7 Jan 2025 21:08:34.770,670.500
18,7 Jan 2025 22:31:37.620,7 Jan 2025 22:41:23.154,585.534
19,8 Jan 2025 20:38:56.932,8 Jan 2025 20:49:26.217,629.284
20,8 Jan 2025 22:12:36.365,8 Jan 2025 22:23:16.908,640.542
21,9 Jan 2025 20:20:40.544,9 Jan 2025 20:30:01.095,560.551
22,9 Jan 2025 21:53:42.346,9 Jan 2025 22:04:57.459,675.112
23,9 Jan 2025 23:30:57.206,9 Jan 2025 23:33:13.147,135.941
24,10 Jan 2025 20:02:42.261,10 Jan 2025 20:10:12.010,449.749
25,10 Jan 2025 21:34:54.513,10 Jan 2025 21:46:26.085,691.573
26,10 Jan 2025 23:10:30.945,10 Jan 2025 23:16:51.753,380.808
27,11 Jan 2025 19:45:30.176,11 Jan 2025 19:49:30.541,240.366
28,11 Jan 2025 21:16:12.669,11 Jan 2025 21:27:43.134,690.464
29,11 Jan 2025 22:51:02.390,11 Jan 2025 22:59:25.702,503.313
30,12 Jan 2025 20:57:37.326,12 Jan 2025 21:08:48.176,670.850
31,12 Jan 2025 22:31:51.076,12 Jan 2025 22:41:35.823,584.747
32,13 Jan 2025 20:39:09.882,13 Jan 2025 20:49:39.794,629.912
33,13 Jan 2025 22:12:49.725,13 Jan 2025 22:23:29.748,640.023
34,14 Jan 2025 20:20:53.331,14 Jan 2025 20:30:14.896,561.565
35,14 Jan 2025 21:53:55.629,14 Jan 2025 22:05:10.442,674.813
36,14 Jan 2025 23:31:13.145,14 Jan 2025 23:33:23.095,129.950
37,15 Jan 2025 20:02:54.759,15 Jan 2025 20:10:26.175,451.416
38,15 Jan 2025 21:35:07.724,15 Jan 2025 21:46:39.204,691.480
39,15 Jan 2025 23:10:44.843,15 Jan 2025 23:17:03.824,378.981
40,16 Jan 2025 19:45:41.583,16 Jan 2025 19:49:45.870,244.287
41,16 Jan 2025 21:16:25.808,16 Jan 2025 21:27:56.390,690.582
42,16 Jan 2025 22:51:15.992,16 Jan 2025 22:59:38.148,502.155
43,17 Jan 2025 20:57:50.382,17 Jan 2025 21:09:01.579,671.197
44,17 Jan 2025 22:32:04.532,17 Jan 2025 22:41:48.489,583.956
45,18 Jan 2025 20:39:22.831,18 Jan 2025 20:49:53.368,630.537
46,18 Jan 2025 22:13:03.084,18 Jan 2025 22:23:42.583,639.499
47,19 Jan 2025 20:21:06.124,19 Jan 2025 20:30:28.693,562.569
48,19 Jan 2025 21:54:08.910,19 Jan 2025 22:05:23.422,674.512
49,19 Jan 2025 23:31:29.225,19 Jan 2025 23:33:32.897,123.673
50,20 Jan 2025 20:03:07.263,20 Jan 2025 20:10:40.332,453.069
51,20 Jan 2025 21:35:20.935,20 Jan 2025 21:46:52.321,691.386
52,20 Jan 2025 23:10:58.744,20 Jan 2025 23:17:15.890,377.146
53,21 Jan 2025 19:45:53.029,21 Jan 2025 19:50:01.160,248.131
54,21 Jan 2025 21:16:38.947,21 Jan 2025 21:28:09.644,690.696
55,21 Jan 2025 22:51:29.595,21 Jan 2025 22:59:50.590,500.995
56,22 Jan 2025 20:58:03.440,22 Jan 2025 21:09:14.980,671.541
57,22 Jan 2025 22:32:17.989,22 Jan 2025 22:42:01.158,583.169
58,23 Jan 2025 20:39:35.784,23 Jan 2025 20:50:06.941,631.156
59,23 Jan 2025 22:13:16.445,23 Jan 2025 22:23:55.417,638.972
60,24 Jan 2025 20:21:18.921,24 Jan 2025 20:30:42.489,563.567
61,24 Jan 2025 21:54:22.194,24 Jan 2025 22:05:36.402,674.208
62,24 Jan 2025 23:31:45.478,24 Jan 2025 23:33:42.527,117.048
63,25 Jan 2025 20:03:19.774,25 Jan 2025 20:10:54.486,454.712
64,25 Jan 2025 21:35:34.149,25 Jan 2025 21:47:05.438,691.289
65,25 Jan 2025 23:11:12.650,25 Jan 2025 23:17:27.950,375.300
66,26 Jan 2025 19:46:04.510,26 Jan 2025 19:50:16.417,251.908
67,26 Jan 2025 21:16:52.089,26 Jan 2025 21:28:22.898,690.808
68,26 Jan 2025 22:51:43.202,26 Jan 2025 23:00:03.031,499.829
69,27 Jan 2025 20:58:16.500,27 Jan 2025 21:09:28.381,671.882
70,27 Jan 2025 22:32:31.450,27 Jan 2025 22:42:13.821,582.372
71,28 Jan 2025 20:39:48.738,28 Jan 2025 20:50:20.509,631.771
72,28 Jan 2025 22:13:29.807,28 Jan 2025 22:24:08.249,638.442
73,29 Jan 2025 20:21:31.724,29 Jan 2025 20:30:56.280,564.555
74,29 Jan 2025 21:54:35.479,29 Jan 2025 22:05:49.376,673.897
75,29 Jan 2025 23:32:01.939,29 Jan 2025 23:33:51.947,110.008
76,30 Jan 2025 20:03:32.287,30 Jan 2025 20:11:08.633,456.345
77,30 Jan 2025 21:35:47.363,30 Jan 2025 21:47:18.551,691.188
78,30 Jan 2025 23:11:26.563,30 Jan 2025 23:17:40.002,373.439
79,31 Jan 2025 19:46:16.020,31 Jan 2025 19:50:31.642,255.622
80,31 Jan 2025 21:17:05.231,31 Jan 2025 21:28:36.149,690.918
81,31 Jan 2025 22:51:56.811,31 Jan 2025 23:00:15.467,498.656
82,1 Feb 2025 20:58:29.559,1 Feb 2025 21:09:41.779,672.220
83,1 Feb 2025 22:32:44.910,1 Feb 2025 22:42:26.481,581.571
84,2 Feb 2025 20:40:01.693,2 Feb 2025 20:50:34.076,632.384
85,2 Feb 2025 22:13:43.170,2 Feb 2025 22:24:21.079,637.909
86,3 Feb 2025 20:21:44.525,3 Feb 2025 20:31:10.068,565.542
87,3 Feb 2025 21:54:48.764,3 Feb 2025 22:06:02.352,673.588
88,3 Feb 2025 23:32:18.638,3 Feb 2025 23:34:01.129,102.491
89,4 Feb 2025 20:03:44.807,4 Feb 2025 20:11:22.773,457.966
90,4 Feb 2025 21:36:00.577,4 Feb 2025 21:47:31.664,691.087
91,4 Feb 2025 23:11:40.481,4 Feb 2025 23:17:52.049,371.567
92,5 Feb 2025 19:46:27.565,5 Feb 2025 19:50:46.833,259.268
93,5 Feb 2025 21:17:18.374,5 Feb 2025 21:28:49.399,691.025
94,5 Feb 2025 22:52:10.422,5 Feb 2025 23:00:27.902,497.480
95,6 Feb 2025 20:58:42.621,6 Feb 2025 21:09:55.176,672.555
96,6 Feb 2025 22:32:58.372,6 Feb 2025 22:42:39.140,580.768
97,7 Feb 2025 20:40:14.650,7 Feb 2025 20:50:47.643,632.993
98,7 Feb 2025 22:13:56.534,7 Feb 2025 22:24:33.908,637.374
99,8 Feb 2025 20:21:57.331,8 Feb 2025 20:31:23.855,566.524
100,8 Feb 2025 21:55:02.050,8 Feb 2025 22:06:15.328,673.277
101,8 Feb 2025 23:32:35.642,8 Feb 2025 23:34:10.010,94.368
102,9 Feb 2025 20:03:57.333,9 Feb 2025 20:11:36.913,459.580
103,9 Feb 2025 21:36:13.797,9 Feb 2025 21:47:44.775,690.978
104,9 Feb 2025 23:11:54.406,9 Feb 2025 23:18:04.089,369.683
105,10 Feb 2025 19:46:39.139,10 Feb 2025 19:51:01.996,262.858
106,10 Feb 2025 21:17:31.519,10 Feb 2025 21:29:02.649,691.130
107,10 Feb 2025 22:52:24.036,10 Feb 2025 23:00:40.333,496.297
108,11 Feb 2025 20:58:55.684,11 Feb 2025 21:10:08.571,672.887
109,11 Feb 2025 22:33:11.836,11 Feb 2025 22:42:51.797,579.961
110,12 Feb 2025 20:40:27.609,12 Feb 2025 20:51:01.207,633.599
111,12 Feb 2025 22:14:09.899,12 Feb 2025 22:24:46.735,636.836
112,13 Feb 2025 20:22:10.137,13 Feb 2025 20:31:37.638,567.501
113,13 Feb 2025 21:55:15.337,13 Feb 2025 22:06:28.301,672.964
114,13 Feb 2025 23:32:53.041,13 Feb 2025 23:34:18.489,85.449
115,14 Feb 2025 20:04:09.863,14 Feb 2025 20:11:51.043,461.180
116,14 Feb 2025 21:36:27.013,14 Feb 2025 21:47:57.884,690.872
117,14 Feb 2025 23:12:08.337,14 Feb 2025 23:18:16.121,367.784
118,15 Feb 2025 19:46:50.740,15 Feb 2025 19:51:17.128,266.388
119,15 Feb 2025 21:17:44.663,15 Feb 2025 21:29:15.895,691.232
120,15 Feb 2025 22:52:37.651,15 Feb 2025 23:00:52.760,495.109
121,16 Feb 2025 20:59:08.747,16 Feb 2025 21:10:21.963,673.216
122,16 Feb 2025 22:33:25.300,16 Feb 2025 22:43:04.450,579.151
123,17 Feb 2025 20:40:40.573,17 Feb 2025 20:51:14.768,634.195
124,17 Feb 2025 22:14:23.264,17 Feb 2025 22:24:59.559,636.296
125,18 Feb 2025 20:22:22.945,18 Feb 2025 20:31:51.416,568.471
126,18 Feb 2025 21:55:28.624,18 Feb 2025 22:06:41.272,672.648
127,18 Feb 2025 23:33:10.957,18 Feb 2025 23:34:26.449,75.493
128,19 Feb 2025 20:04:22.398,19 Feb 2025 20:12:05.166,462.767
129,19 Feb 2025 21:36:40.230,19 Feb 2025 21:48:10.993,690.763
130,19 Feb 2025 23:12:22.273,19 Feb 2025 23:18:28.148,365.875
131,20 Feb 2025 19:47:02.371,20 Feb 2025 19:51:32.233,269.862
132,20 Feb 2025 21:17:57.809,20 Feb 2025 21:29:29.140,691.331
133,20 Feb 2025 22:52:51.266,20 Feb 2025 23:01:05.185,493.919
134,21 Feb 2025 20:59:21.812,21 Feb 2025 21:10:35.354,673.542
135,21 Feb 2025 22:33:38.765,21 Feb 2025 22:43:17.103,578.338
136,22 Feb 2025 20:40:53.534,22 Feb 2025 20:51:28.328,634.794
137,22 Feb 2025 22:14:36.630,22 Feb 2025 22:25:12.383,635.753
138,23 Feb 2025 20:22:35.758,23 Feb 2025 20:32:05.194,569.436
139,23 Feb 2025 21:55:41.913,23 Feb 2025 22:06:54.243,672.330
140,23 Feb 2025 23:33:29.647,23 Feb 2025 23:34:33.633,63.985
141,24 Feb 2025 20:04:34.939,24 Feb 2025 20:12:19.280,464.341
142,24 Feb 2025 21:36:53.449,24 Feb 2025 21:48:24.101,690.653
143,24 Feb 2025 23:12:36.218,24 Feb 2025 23:18:40.167,363.949
144,25 Feb 2025 19:47:14.027,25 Feb 2025 19:51:47.309,273.281
145,25 Feb 2025 21:18:10.957,25 Feb 2025 21:29:42.384,691.428
146,25 Feb 2025 22:53:04.888,25 Feb 2025 23:01:17.607,492.720
147,26 Feb 2025 20:59:34.878,26 Feb 2025 21:10:48.744,673.866
148,26 Feb 2025 22:33:52.233,26 Feb 2025 22:43:29.753,577.520
149,27 Feb 2025 20:41:06.494,27 Feb 2025 20:51:41.885,635.392
150,27 Feb 2025 22:14:49.998,27 Feb 2025 22:25:25.205,635.206
151,28 Feb 2025 20:22:48.571,28 Feb 2025 20:32:18.968,570.396
152,28 Feb 2025 21:55:55.202,28 Feb 2025 22:07:07.213,672.011
153,28 Feb 2025 23:33:49.652,28 Feb 2025 23:34:39.505,49.853
154,1 Mar 2025 20:04:47.483,1 Mar 2025 20:12:33.392,465.909
155,1 Mar 2025 21:37:06.667,1 Mar 2025 21:48:37.206,690.539
156,1 Mar 2025 23:12:50.167,1 Mar 2025 23:18:52.178,362.012
157,2 Mar 2025 19:47:25.708,2 Mar 2025 19:52:02.363,276.655
158,2 Mar 2025 21:18:24.103,2 Mar 2025 21:29:55.625,691.522
159,2 Mar 2025 22:53:18.507,2 Mar 2025 23:01:30.025,491.517
160,3 Mar 2025 20:59:47.944,3 Mar 2025 21:11:02.130,674.186
161,3 Mar 2025 22:34:05.700,3 Mar 2025 22:43:42.400,576.700
162,4 Mar 2025 20:41:19.458,4 Mar 2025 20:51:55.439,635.981
163,4 Mar 2025 22:15:03.366,4 Mar 2025 22:25:38.024,634.658
164,5 Mar 2025 20:23:01.388,5 Mar 2025 20:32:32.737,571.350
165,5 Mar 2025 21:56:08.492,5 Mar 2025 22:07:20.180,671.688
166,5 Mar 2025 23:34:12.694,5 Mar 2025 23:34:42.343,29.649
167,6 Mar 2025 20:05:00.034,6 Mar 2025 20:12:47.499,467.465
168,6 Mar 2025 21:37:19.887,6 Mar 2025 21:48:50.310,690.423
169,6 Mar 2025 23:13:04.120,6 Mar 2025 23:19:04.184,360.065
170,7 Mar 2025 19:47:37.417,7 Mar 2025 19:52:17.388,279.971
171,7 Mar 2025 21:18:37.252,7 Mar 2025 21:30:08.866,691.614
172,7 Mar 2025 22:53:32.131,7 Mar 2025 23:01:42.441,490.310
173,8 Mar 2025 21:00:01.013,8 Mar 2025 21:11:15.517,674.503
174,8 Mar 2025 22:34:19.170,8 Mar 2025 22:43:55.046,575.876
175,9 Mar 2025 20:41:32.425,9 Mar 2025 20:52:08.993,636.568
176,9 Mar 2025 22:15:16.736,9 Mar 2025 22:25:50.842,634.107
177,10 Mar 2025 20:23:14.207,10 Mar 2025 20:32:46.506,572.299
178,10 Mar 2025 21:56:21.783,10 Mar 2025 22:07:33.148,671.365
179,11 Mar 2025 20:05:12.588,11 Mar 2025 20:13:01.601,469.013
180,11 Mar 2025 21:37:33.108,11 Mar 2025 21:49:03.412,690.304
181,11 Mar 2025 23:13:18.080,11 Mar 2025 23:19:16.181,358.101
182,12 Mar 2025 19:47:49.146,12 Mar 2025 19:52:32.389,283.244
183,12 Mar 2025 21:18:50.402,12 Mar 2025 21:30:22.105,691.703
184,12 Mar 2025 22:53:45.758,12 Mar 2025 23:01:54.853,489.095
185,13 Mar 2025 21:00:14.082,13 Mar 2025 21:11:28.900,674.818
186,13 Mar 2025 22:34:32.641,13 Mar 2025 22:44:07.689,575.048
187,14 Mar 2025 20:41:45.392,14 Mar 2025 20:52:22.543,637.151
188,14 Mar 2025 22:15:30.105,14 Mar 2025 22:26:03.658,633.553
189,15 Mar 2025 20:23:27.026,15 Mar 2025 20:33:00.269,573.243
190,15 Mar 2025 21:56:35.074,15 Mar 2025 22:07:46.111,671.037
191,16 Mar 2025 20:05:25.147,16 Mar 2025 20:13:15.696,470.549
192,16 Mar 2025 21:37:46.328,16 Mar 2025 21:49:16.512,690.184
193,16 Mar 2025 23:13:32.046,16 Mar 2025 23:19:28.171,356.125
194,17 Mar 2025 19:48:00.898,17 Mar 2025 19:52:47.364,286.466
195,17 Mar 2025 21:19:03.551,17 Mar 2025 21:30:35.341,691.789
196,17 Mar 2025 22:53:59.382,17 Mar 2025 23:02:07.260,487.878
197,18 Mar 2025 21:00:27.151,18 Mar 2025 21:11:42.281,675.129
198,18 Mar 2025 22:34:46.111,18 Mar 2025 22:44:20.329,574.218
199,19 Mar 2025 20:41:58.361,19 Mar 2025 20:52:36.090,637.729
200,19 Mar 2025 22:15:43.475,19 Mar 2025 22:26:16.471,632.996
201,20 Mar 2025 20:23:39.849,20 Mar 2025 20:33:14.029,574.180
202,20 Mar 2025 21:56:48.365,20 Mar 2025 22:07:59.072,670.706
203,21 Mar 2025 20:05:37.711,21 Mar 2025 20:13:29.785,472.074
204,21 Mar 2025 21:37:59.550,21 Mar 2025 21:49:29.611,690.061
205,21 Mar 2025 23:13:46.017,21 Mar 2025 23:19:40.154,354.136
206,22 Mar 2025 19:48:12.675,22 Mar 2025 19:53:02.317,289.643
207,22 Mar 2025 21:19:16.702,22 Mar 2025 21:30:48.576,691.873
208,22 Mar 2025 22:54:13.012,22 Mar 2025 23:02:19.666,486.655
209,23 Mar 2025 21:00:40.223,23 Mar 2025 21:11:55.661,675.438
210,23 Mar 2025 22:34:59.584,23 Mar 2025 22:44:32.968,573.384
211,24 Mar 2025 20:42:11.331,24 Mar 2025 20:52:49.636,638.305
212,24 Mar 2025 22:15:56.847,24 Mar 2025 22:26:29.284,632.437
213,25 Mar 2025 20:23:52.675,25 Mar 2025 20:33:27.788,575.113
214,25 Mar 2025 21:57:01.659,25 Mar 2025 22:08:12.032,670.374
215,26 Mar 2025 20:05:50.279,26 Mar 2025 20:13:43.871,473.592
216,26 Mar 2025 21:38:12.773,26 Mar 2025 21:49:42.708,689.935
217,26 Mar 2025 23:13:59.998,26 Mar 2025 23:19:52.128,352.130
218,27 Mar 2025 19:48:24.470,27 Mar 2025 19:53:17.250,292.780
219,27 Mar 2025 21:19:29.854,27 Mar 2025 21:31:01.809,691.955
220,27 Mar 2025 22:54:26.645,27 Mar 2025 23:02:32.068,485.423
221,28 Mar 2025 21:00:53.295,28 Mar 2025 21:12:09.038,675.744
222,28 Mar 2025 22:35:13.058,28 Mar 2025 22:44:45.604,572.546
223,29 Mar 2025 20:42:24.302,29 Mar 2025 20:53:03.179,638.877
224,29 Mar 2025 22:16:10.218,29 Mar 2025 22:26:42.093,631.875
225,30 Mar 2025 20:24:05.501,30 Mar 2025 20:33:41.541,576.040
226,30 Mar 2025 21:57:14.951,30 Mar 2025 22:08:24.990,670.038
227,31 Mar 2025 20:06:02.851,31 Mar 2025 20:13:57.949,475.098
228,31 Mar 2025 21:38:25.995,31 Mar 2025 21:49:55.802,689.808
229,31 Mar 2025 23:14:13.982,31 Mar 2025 23:20:04.094,350.112
230,1 Apr 2025 19:48:36.286,1 Apr 2025 19:53:32.158,295.871
231,1 Apr 2025 21:19:43.005,1 Apr 2025 21:31:15.039,692.034
232,1 Apr 2025 22:54:40.277,1 Apr 2025 23:02:44.466,484.189
233,2 Apr 2025 21:01:06.367,2 Apr 2025 21:12:22.413,676.046
234,2 Apr 2025 22:35:26.533,2 Apr 2025 22:44:58.237,571.704
235,3 Apr 2025 20:42:37.275,3 Apr 2025 20:53:16.719,639.444
236,3 Apr 2025 22:16:23.591,3 Apr 2025 22:26:54.901,631.311
237,4 Apr 2025 20:24:18.331,4 Apr 2025 20:33:55.293,576.962
238,4 Apr 2025 21:57:28.245,4 Apr 2025 22:08:37.946,669.701
239,5 Apr 2025 20:06:15.428,5 Apr 2025 20:14:12.023,476.594
240,5 Apr 2025 21:38:39.219,5 Apr 2025 21:50:08.896,689.678
241,5 Apr 2025 23:14:27.974,5 Apr 2025 23:20:16.054,348.080
242,6 Apr 2025 19:48:48.124,6 Apr 2025 19:53:47.047,298.923
243,6 Apr 2025 21:19:56.159,6 Apr 2025 21:31:28.269,692.110
244,6 Apr 2025 22:54:53.914,6 Apr 2025 23:02:56.861,482.948
245,7 Apr 2025 21:01:19.441,7 Apr 2025 21:12:35.787,676.346
246,7 Apr 2025 22:35:40.012,7 Apr 2025 22:45:10.869,570.857
247,8 Apr 2025 20:42:50.252,8 Apr 2025 20:53:30.256,640.004
248,8 Apr 2025 22:16:36.965,8 Apr 2025 22:27:07.707,630.743
249,9 Apr 2025 20:24:31.162,9 Apr 2025 20:34:09.041,577.879
250,9 Apr 2025 21:57:41.540,9 Apr 2025 22:08:50.901,669.361
251,10 Apr 2025 20:06:28.008,10 Apr 2025 20:14:26.092,478.083
252,10 Apr 2025 21:38:52.440,10 Apr 2025 21:50:21.988,689.548
253,10 Apr 2025 23:14:41.973,10 Apr 2025 23:20:28.003,346.030
254,11 Apr 2025 19:48:59.977,11 Apr 2025 19:54:01.915,301.938
255,11 Apr 2025 21:20:09.312,11 Apr 2025 21:31:41.496,692.185
256,11 Apr 2025 22:55:07.552,11 Apr 2025 23:03:09.252,481.700
257,12 Apr 2025 21:01:32.514,12 Apr 2025 21:12:49.158,676.643
258,12 Apr 2025 22:35:53.489,12 Apr 2025 22:45:23.497,570.007
259,13 Apr 2025 20:43:03.224,13 Apr 2025 20:53:43.793,640.569
260,13 Apr 2025 22:16:50.338,13 Apr 2025 22:27:20.510,630.172
261,14 Apr 2025 20:24:43.994,14 Apr 2025 20:34:22.785,578.791
262,14 Apr 2025 21:57:54.834,14 Apr 2025 22:09:03.852,669.018
263,15 Apr 2025 20:06:40.593,15 Apr 2025 20:14:40.153,479.561
264,15 Apr 2025 21:39:05.663,15 Apr 2025 21:50:35.076,689.413
265,15 Apr 2025 23:14:55.978,15 Apr 2025 23:20:39.945,343.967
266,16 Apr 2025 19:49:11.851,16 Apr 2025 19:54:16.762,304.911
267,16 Apr 2025 21:20:22.465,16 Apr 2025 21:31:54.721,692.256
268,16 Apr 2025 22:55:21.191,16 Apr 2025 23:03:21.639,480.448
269,17 Apr 2025 21:01:45.589,17 Apr 2025 21:13:02.526,676.937
270,17 Apr 2025 22:36:06.962,17 Apr 2025 22:45:36.122,569.161
271,18 Apr 2025 20:43:16.199,18 Apr 2025 20:53:57.326,641.127
272,18 Apr 2025 22:17:03.712,18 Apr 2025 22:27:33.311,629.598
273,19 Apr 2025 20:24:56.829,19 Apr 2025 20:34:36.526,579.697
274,19 Apr 2025 21:58:08.129,19 Apr 2025 22:09:16.802,668.673
275,20 Apr 2025 20:06:53.182,20 Apr 2025 20:14:54.211,481.029
276,20 Apr 2025 21:39:18.889,20 Apr 2025 21:50:48.164,689.276
277,20 Apr 2025 23:15:09.988,20 Apr 2025 23:20:51.878,341.890
278,21 Apr 2025 19:49:23.743,21 Apr 2025 19:54:31.592,307.850
279,21 Apr 2025 21:20:35.621,21 Apr 2025 21:32:07.945,692.325
280,21 Apr 2025 22:55:34.835,21 Apr 2025 23:03:34.024,479.188
281,22 Apr 2025 21:01:58.665,22 Apr 2025 21:13:15.894,677.229
282,22 Apr 2025 22:36:20.441,22 Apr 2025 22:45:48.746,568.305
283,23 Apr 2025 20:43:29.177,23 Apr 2025 20:54:10.856,641.679
284,23 Apr 2025 22:17:17.089,23 Apr 2025 22:27:46.112,629.023
285,24 Apr 2025 20:25:09.665,24 Apr 2025 20:34:50.263,580.597
286,24 Apr 2025 21:58:21.425,24 Apr 2025 22:09:29.751,668.326
287,25 Apr 2025 20:07:05.774,25 Apr 2025 20:15:08.263,482.489
288,25 Apr 2025 21:39:32.114,25 Apr 2025 21:51:01.250,689.136
289,25 Apr 2025 23:15:24.010,25 Apr 2025 23:21:03.800,339.790
290,26 Apr 2025 19:49:35.649,26 Apr 2025 19:54:46.403,310.754
291,26 Apr 2025 21:20:48.775,26 Apr 2025 21:32:21.167,692.392
292,26 Apr 2025 22:55:48.479,26 Apr 2025 23:03:46.403,477.924
293,27 Apr 2025 21:02:11.741,27 Apr 2025 21:13:29.258,677.517
294,27 Apr 2025 22:36:33.921,27 Apr 2025 22:46:01.366,567.445
295,28 Apr 2025 20:43:42.154,28 Apr 2025 20:54:24.383,642.229
296,28 Apr 2025 22:17:30.464,28 Apr 2025 22:27:58.904,628.440
297,29 Apr 2025 20:25:22.503,29 Apr 2025 20:35:03.997,581.494
298,29 Apr 2025 21:58:34.721,29 Apr 2025 22:09:42.697,667.976
299,30 Apr 2025 20:07:18.370,30 Apr 2025 20:15:22.308,483.938
300,30 Apr 2025 21:39:45.339,30 Apr 2025 21:51:14.334,688.994
301,30 Apr 2025 23:15:38.035,30 Apr 2025 23:21:15.714,337.679
302,1 May 2025 19:49:47.576,1 May 2025 19:55:01.194,313.618
303,1 May 2025 21:21:01.930,1 May 2025 21:32:34.386,692.455
304,1 May 2025 22:56:02.124,1 May 2025 23:03:58.780,476.655
305,2 May 2025 21:02:24.819,2 May 2025 21:13:42.621,677.803
306,2 May 2025 22:36:47.402,2 May 2025 22:46:13.985,566.583
307,3 May 2025 20:43:55.134,3 May 2025 20:54:37.910,642.775
308,3 May 2025 22:17:43.841,3 May 2025 22:28:11.699,627.859
309,4 May 2025 20:25:35.344,4 May 2025 20:35:17.729,582.385
310,4 May 2025 21:58:48.018,4 May 2025 22:09:55.642,667.624
311,5 May 2025 20:07:30.971,5 May 2025 20:15:36.351,485.380
312,5 May 2025 21:39:58.566,5 May 2025 21:51:27.416,688.850
313,5 May 2025 23:15:52.071,5 May 2025 23:21:27.620,335.549
314,6 May 2025 19:49:59.516,6 May 2025 19:55:15.970,316.454
315,6 May 2025 21:21:15.087,6 May 2025 21:32:47.604,692.517
316,6 May 2025 22:56:15.774,6 May 2025 23:04:11.152,475.378
317,7 May 2025 21:02:37.897,7 May 2025 21:13:55.978,678.082
318,7 May 2025 22:37:00.886,7 May 2025 22:46:26.601,565.715
319,8 May 2025 20:44:08.114,8 May 2025 20:54:51.434,643.320
320,8 May 2025 22:17:57.219,8 May 2025 22:28:24.492,627.274
321,9 May 2025 20:25:48.185,9 May 2025 20:35:31.458,583.273
322,9 May 2025 21:59:01.316,9 May 2025 22:10:08.584,667.269
323,10 May 2025 20:07:43.573,10 May 2025 20:15:50.386,486.813
324,10 May 2025 21:40:11.793,10 May 2025 21:51:40.496,688.703
325,10 May 2025 23:16:06.115,10 May 2025 23:21:39.519,333.404
326,11 May 2025 19:50:11.471,11 May 2025 19:55:30.727,319.256
327,11 May 2025 21:21:28.243,11 May 2025 21:33:00.819,692.576
328,11 May 2025 22:56:29.425,11 May 2025 23:04:23.520,474.095
329,12 May 2025 21:02:50.974,12 May 2025 21:14:09.336,678.362
330,12 May 2025 22:37:14.369,12 May 2025 22:46:39.213,564.844
331,13 May 2025 20:44:21.094,13 May 2025 20:55:04.954,643.860
332,13 May 2025 22:18:10.596,13 May 2025 22:28:37.287,626.691
333,14 May 2025 20:26:01.028,14 May 2025 20:35:45.183,584.155
334,14 May 2025 21:59:14.613,14 May 2025 22:10:21.524,666.911
335,15 May 2025 20:07:56.180,15 May 2025 20:16:04.417,488.236
336,15 May 2025 21:40:25.019,15 May 2025 21:51:53.574,688.554
337,15 May 2025 23:16:20.164,15 May 2025 23:21:51.405,331.240
338,16 May 2025 19:50:23.443,16 May 2025 19:55:45.467,322.024
339,16 May 2025 21:21:41.400,16 May 2025 21:33:14.033,692.633
340,16 May 2025 22:56:43.078,16 May 2025 23:04:35.885,472.806
341,17 May 2025 21:03:04.053,17 May 2025 21:14:22.693,678.640
342,17 May 2025 22:37:27.854,17 May 2025 22:46:51.823,563.970
343,18 May 2025 20:44:34.077,18 May 2025 20:55:18.473,644.396
344,18 May 2025 22:18:23.975,18 May 2025 22:28:50.076,626.101
345,19 May 2025 20:26:13.873,19 May 2025 20:35:58.906,585.032
346,19 May 2025 21:59:27.912,19 May 2025 22:10:34.463,666.551
347,20 May 2025 20:08:08.792,20 May 2025 20:16:18.444,489.652
348,20 May 2025 21:40:38.248,20 May 2025 21:52:06.651,688.403
349,20 May 2025 23:16:34.224,20 May 2025 23:22:03.282,329.057
350,21 May 2025 19:50:35.429,21 May 2025 19:56:00.193,324.765
351,21 May 2025 21:21:54.558,21 May 2025 21:33:27.245,692.687
352,21 May 2025 22:56:56.736,21 May 2025 23:04:48.246,471.510
353,22 May 2025 21:03:17.133,22 May 2025 21:14:36.048,678.915
354,22 May 2025 22:37:41.341,22 May 2025 22:47:04.431,563.090
355,23 May 2025 20:44:47.060,23 May 2025 20:55:31.990,644.930
356,23 May 2025 22:18:37.355,23 May 2025 22:29:02.862,625.507
357,24 May 2025 20:26:26.719,24 May 2025 20:36:12.625,585.906
358,24 May 2025 21:59:41.211,24 May 2025 22:10:47.400,666.189
359,25 May 2025 20:08:21.405,25 May 2025 20:16:32.464,491.059
360,25 May 2025 21:40:51.476,25 May 2025 21:52:19.724,688.249
361,25 May 2025 23:16:48.291,25 May 2025 23:22:15.147,326.856
362,26 May 2025 19:50:47.428,26 May 2025 19:56:14.901,327.473
363,26 May 2025 21:22:07.715,26 May 2025 21:33:40.454,692.739
364,26 May 2025 22:57:10.394,26 May 2025 23:05:00.602,470.208
365,27 May 2025 21:03:30.213,27 May 2025 21:14:49.399,679.187
366,27 May 2025 22:37:54.828,27 May 2025 22:47:17.035,562.207
367,28 May 2025 20:45:00.043,28 May 2025 20:55:45.503,645.460
368,28 May 2025 22:18:50.735,28 May 2025 22:29:15.646,624.911
369,29 May 2025 20:26:39.567,29 May 2025 20:36:26.341,586.773
370,29 May 2025 21:59:54.510,29 May 2025 22:11:00.334,665.824
371,30 May 2025 20:08:34.023,30 May 2025 20:16:46.479,492.456
372,30 May 2025 21:41:04.705,30 May 2025 21:52:32.797,688.092
373,30 May 2025 23:17:02.366,30 May 2025 23:22:27.005,324.639
374,31 May 2025 19:50:59.444,31 May 2025 19:56:29.595,330.151
375,31 May 2025 21:22:20.875,31 May 2025 21:33:53.663,692.788
376,31 May 2025 22:57:24.055,31 May 2025 23:05:12.955,468.900
377,1 Jun 2025 21:03:43.295,1 Jun 2025 21:15:02.750,679.456
378,1 Jun 2025 22:38:08.318,1 Jun 2025 22:47:29.638,561.320
379,2 Jun 2025 20:45:13.029,2 Jun 2025 20:55:59.015,645.986
380,2 Jun 2025 22:19:04.117,2 Jun 2025 22:29:28.428,624.311
381,3 Jun 2025 20:26:52.417,3 Jun 2025 20:36:40.055,587.637
382,3 Jun 2025 22:00:07.811,3 Jun 2025 22:11:13.267,665.456
383,4 Jun 2025 20:08:46.644,4 Jun 2025 20:17:00.492,493.848
384,4 Jun 2025 21:41:17.935,4 Jun 2025 21:52:45.868,687.934
385,4 Jun 2025 23:17:16.454,4 Jun 2025 23:22:38.852,322.398
386,5 Jun 2025 19:51:11.470,5 Jun 2025 19:56:44.275,332.804
387,5 Jun 2025 21:22:34.034,5 Jun 2025 21:34:06.869,692.835
388,5 Jun 2025 22:57:37.721,5 Jun 2025 23:05:25.302,467.581
389,6 Jun 2025 21:03:56.376,6 Jun 2025 21:15:16.099,679.723
390,6 Jun 2025 22:38:21.809,6 Jun 2025 22:47:42.237,560.428
391,7 Jun 2025 20:45:26.014,7 Jun 2025 20:56:12.525,646.510
392,7 Jun 2025 22:19:17.499,7 Jun 2025 22:29:41.208,623.708
393,8 Jun 2025 20:27:05.265,8 Jun 2025 20:36:53.768,588.503
394,8 Jun 2025 22:00:21.112,8 Jun 2025 22:11:26.195,665.083
395,9 Jun 2025 20:08:59.267,9 Jun 2025 20:17:14.497,495.231
396,9 Jun 2025 21:41:31.164,9 Jun 2025 21:52:58.936,687.772
397,9 Jun 2025 23:17:30.548,9 Jun 2025 23:22:50.686,320.138
398,10 Jun 2025 19:51:23.510,10 Jun 2025 19:56:58.938,335.428
399,10 Jun 2025 21:22:47.193,10 Jun 2025 21:34:20.073,692.880
400,10 Jun 2025 22:57:51.387,10 Jun 2025 23:05:37.643,466.256
401,11 Jun 2025 21:04:09.458,11 Jun 2025 21:15:29.445,679.987
402,11 Jun 2025 22:38:35.298,11 Jun 2025 22:47:54.833,559.536
403,12 Jun 2025 20:45:39.005,12 Jun 2025 20:56:26.034,647.028
404,12 Jun 2025 22:19:30.877,12 Jun 2025 22:29:53.985,623.108
405,13 Jun 2025 20:27:18.122,13 Jun 2025 20:37:07.474,589.352
406,13 Jun 2025 22:00:34.413,13 Jun 2025 22:11:39.122,664.709
407,14 Jun 2025 20:09:11.894,14 Jun 2025 20:17:28.499,496.605
408,14 Jun 2025 21:41:44.395,14 Jun 2025 21:53:12.003,687.609
409,14 Jun 2025 23:17:44.652,14 Jun 2025 23:23:02.512,317.860
410,15 Jun 2025 19:51:35.564,15 Jun 2025 19:57:13.588,338.025
411,15 Jun 2025 21:23:00.354,15 Jun 2025 21:34:33.276,692.922
412,15 Jun 2025 22:58:05.057,15 Jun 2025 23:05:49.987,464.930
413,16 Jun 2025 21:04:22.542,16 Jun 2025 21:15:42.790,680.248
414,16 Jun 2025 22:38:48.792,16 Jun 2025 22:48:07.428,558.637
415,17 Jun 2025 20:45:51.994,17 Jun 2025 20:56:39.540,647.546
416,17 Jun 2025 22:19:44.263,17 Jun 2025 22:30:06.762,622.499
417,18 Jun 2025 20:27:30.977,18 Jun 2025 20:37:21.180,590.202
418,18 Jun 2025 22:00:47.717,18 Jun 2025 22:11:52.049,664.333
419,19 Jun 2025 20:09:24.528,19 Jun 2025 20:17:42.497,497.970
420,19 Jun 2025 21:41:57.627,19 Jun 2025 21:53:25.069,687.443
421,19 Jun 2025 23:17:58.768,19 Jun 2025 23:23:14.326,315.558
422,20 Jun 2025 19:51:47.628,20 Jun 2025 19:57:28.226,340.598
423,20 Jun 2025 21:23:13.515,20 Jun 2025 21:34:46.477,692.962
424,20 Jun 2025 22:58:18.731,20 Jun 2025 23:06:02.323,463.593
425,21 Jun 2025 21:04:35.625,21 Jun 2025 21:15:56.132,680.507
426,21 Jun 2025 22:39:02.287,21 Jun 2025 22:48:20.019,557.732
427,22 Jun 2025 20:46:04.981,22 Jun 2025 20:56:53.042,648.060
428,22 Jun 2025 22:19:57.648,22 Jun 2025 22:30:19.534,621.887
429,23 Jun 2025 20:27:43.832,23 Jun 2025 20:37:34.880,591.048
430,23 Jun 2025 22:01:01.019,23 Jun 2025 22:12:04.973,663.954
431,24 Jun 2025 20:09:37.160,24 Jun 2025 20:17:56.489,499.329
432,24 Jun 2025 21:42:10.858,24 Jun 2025 21:53:38.132,687.274
433,24 Jun 2025 23:18:12.892,24 Jun 2025 23:23:26.127,313.236
434,25 Jun 2025 19:51:59.705,25 Jun 2025 19:57:42.847,343.143
435,25 Jun 2025 21:23:26.676,25 Jun 2025 21:34:59.676,692.999
436,25 Jun 2025 22:58:32.406,25 Jun 2025 23:06:14.656,462.250
437,26 Jun 2025 21:04:48.709,26 Jun 2025 21:16:09.472,680.763
438,26 Jun 2025 22:39:15.782,26 Jun 2025 22:48:32.608,556.826
439,27 Jun 2025 20:46:17.971,27 Jun 2025 20:57:06.542,648.571
440,27 Jun 2025 22:20:11.034,27 Jun 2025 22:30:32.306,621.272
441,28 Jun 2025 20:27:56.691,28 Jun 2025 20:37:48.579,591.889
442,28 Jun 2025 22:01:14.323,28 Jun 2025 22:12:17.897,663.574
443,29 Jun 2025 20:09:49.798,29 Jun 2025 20:18:10.482,500.685
444,29 Jun 2025 21:42:24.091,29 Jun 2025 21:53:51.194,687.103
445,29 Jun 2025 23:18:27.027,29 Jun 2025 23:23:37.920,310.893
446,30 Jun 2025 19:52:11.794,30 Jun 2025 19:57:57.458,345.664
447,30 Jun 2025 21:23:39.840,30 Jun 2025 21:35:12.874,693.034
448,30 Jun 2025 22:58:46.085,30 Jun 2025 23:06:26.984,460.899
449,1 Jul 2025 21:05:01.796,1 Jul 2025 21:16:22.812,681.017
450,1 Jul 2025 22:39:29.281,1 Jul 2025 22:48:45.194,555.913
451,2 Jul 2025 20:46:30.962,2 Jul 2025 20:57:20.041,649.079
452,2 Jul 2025 22:20:24.422,2 Jul 2025 22:30:45.076,620.653
453,3 Jul 2025 20:28:09.550,3 Jul 2025 20:38:02.271,592.722
454,3 Jul 2025 22:01:27.629,3 Jul 2025 22:12:30.819,663.190
455,4 Jul 2025 20:10:02.437,4 Jul 2025 20:18:24.467,502.030
456,4 Jul 2025 21:42:37.324,4 Jul 2025 21:54:04.255,686.930
457,4 Jul 2025 23:18:41.175,4 Jul 2025 23:23:49.697,308.522
458,5 Jul 2025 19:52:23.893,5 Jul 2025 19:58:12.056,348.163
459,5 Jul 2025 21:23:53.003,5 Jul 2025 21:35:26.070,693.067
460,5 Jul 2025 22:58:59.769,5 Jul 2025 23:06:39.307,459.538
461,6 Jul 2025 21:05:14.881,6 Jul 2025 21:16:36.149,681.268
462,6 Jul 2025 22:39:42.782,6 Jul 2025 22:48:57.777,554.995
463,7 Jul 2025 20:46:43.953,7 Jul 2025 20:57:33.537,649.584
464,7 Jul 2025 22:20:37.811,7 Jul 2025 22:30:57.842,620.031
465,8 Jul 2025 20:28:22.410,8 Jul 2025 20:38:15.964,593.555
466,8 Jul 2025 22:01:40.934,8 Jul 2025 22:12:43.738,662.803
467,9 Jul 2025 20:10:15.079,9 Jul 2025 20:18:38.446,503.367
468,9 Jul 2025 21:42:50.558,9 Jul 2025 21:54:17.312,686.754
469,9 Jul 2025 23:18:55.332,9 Jul 2025 23:24:01.464,306.132
470,10 Jul 2025 19:52:36.004,10 Jul 2025 19:58:26.640,350.636
471,10 Jul 2025 21:24:06.166,10 Jul 2025 21:35:39.263,693.097
472,10 Jul 2025 22:59:13.454,10 Jul 2025 23:06:51.626,458.172
473,11 Jul 2025 21:05:27.968,11 Jul 2025 21:16:49.484,681.516
474,11 Jul 2025 22:39:56.280,11 Jul 2025 22:49:10.358,554.077
475,12 Jul 2025 20:46:56.946,12 Jul 2025 20:57:47.031,650.085
476,12 Jul 2025 22:20:51.200,12 Jul 2025 22:31:10.607,619.407
477,13 Jul 2025 20:28:35.273,13 Jul 2025 20:38:29.656,594.383
478,13 Jul 2025 22:01:54.242,13 Jul 2025 22:12:56.656,662.414
479,14 Jul 2025 20:10:27.727,14 Jul 2025 20:18:52.422,504.696
480,14 Jul 2025 21:43:03.794,14 Jul 2025 21:54:30.370,686.576
481,14 Jul 2025 23:19:09.501,14 Jul 2025 23:24:13.219,303.718
482,15 Jul 2025 19:52:48.127,15 Jul 2025 19:58:41.214,353.086
483,15 Jul 2025 21:24:19.332,15 Jul 2025 21:35:52.457,693.125
484,15 Jul 2025 22:59:27.144,15 Jul 2025 23:07:03.942,456.798
485,16 Jul 2025 21:05:41.057,16 Jul 2025 21:17:02.819,681.762
486,16 Jul 2025 22:40:09.785,16 Jul 2025 22:49:22.937,553.152
487,17 Jul 2025 20:47:09.940,17 Jul 2025 20:58:00.524,650.584
488,17 Jul 2025 22:21:04.593,17 Jul 2025 22:31:23.371,618.778
489,18 Jul 2025 20:28:48.137,18 Jul 2025 20:38:43.346,595.209
490,18 Jul 2025 22:02:07.550,18 Jul 2025 22:13:09.572,662.022
491,19 Jul 2025 20:10:40.375,19 Jul 2025 20:19:06.394,506.019
492,19 Jul 2025 21:43:17.030,19 Jul 2025 21:54:43.425,686.395
493,19 Jul 2025 23:19:23.684,19 Jul 2025 23:24:24.960,301.276
494,20 Jul 2025 19:53:00.255,20 Jul 2025 19:58:55.775,355.521
495,20 Jul 2025 21:24:32.497,20 Jul 2025 21:36:05.646,693.150
496,20 Jul 2025 22:59:40.837,20 Jul 2025 23:07:16.250,455.413
497,21 Jul 2025 21:05:54.145,21 Jul 2025 21:17:16.150,682.005
498,21 Jul 2025 22:40:23.290,21 Jul 2025 22:49:35.511,552.221
499,22 Jul 2025 20:47:22.934,22 Jul 2025 20:58:14.013,651.080
500,22 Jul 2025 22:21:17.985,22 Jul 2025 22:31:36.131,618.147
501,23 Jul 2025 20:29:01.002,23 Jul 2025 20:38:57.032,596.030
502,23 Jul 2025 22:02:20.858,23 Jul 2025 22:13:22.486,661.628
503,24 Jul 2025 20:10:53.028,24 Jul 2025 20:19:20.360,507.333
504,24 Jul 2025 21:43:30.266,24 Jul 2025 21:54:56.478,686.212
505,24 Jul 2025 23:19:37.876,24 Jul 2025 23:24:36.689,298.813
506,25 Jul 2025 19:53:12.403,25 Jul 2025 19:59:10.324,357.921
507,25 Jul 2025 21:24:45.663,25 Jul 2025 21:36:18.835,693.172
508,25 Jul 2025 22:59:54.533,25 Jul 2025 23:07:28.557,454.024
509,26 Jul 2025 21:06:07.235,26 Jul 2025 21:17:29.481,682.245
510,26 Jul 2025 22:40:36.797,26 Jul 2025 22:49:48.085,551.288
511,27 Jul 2025 20:47:35.931,27 Jul 2025 20:58:27.502,651.572
512,27 Jul 2025 22:21:31.379,27 Jul 2025 22:31:48.891,617.512
513,28 Jul 2025 20:29:13.870,28 Jul 2025 20:39:10.717,596.847
514,28 Jul 2025 22:02:34.169,28 Jul 2025 22:13:35.400,661.231
515,29 Jul 2025 20:11:05.684,29 Jul 2025 20:19:34.325,508.641
516,29 Jul 2025 21:43:43.505,29 Jul 2025 21:55:09.531,686.026
517,29 Jul 2025 23:19:52.084,29 Jul 2025 23:24:48.405,296.322
518,30 Jul 2025 19:53:24.557,30 Jul 2025 19:59:24.863,360.307
519,30 Jul 2025 21:24:58.832,30 Jul 2025 21:36:32.024,693.192
520,30 Jul 2025 23:00:08.234,30 Jul 2025 23:07:40.859,452.625
521,31 Jul 2025 21:06:20.327,31 Jul 2025 21:17:42.810,682.483
522,31 Jul 2025 22:40:50.308,31 Jul 2025 22:50:00.655,550.348
523,1 Aug 2025 20:47:48.928,1 Aug 2025 20:58:40.990,652.062
524,1 Aug 2025 22:21:44.775,1 Aug 2025 22:32:01.649,616.874
525,2 Aug 2025 20:29:26.739,2 Aug 2025 20:39:24.399,597.660
526,2 Aug 2025 22:02:47.481,2 Aug 2025 22:13:48.311,660.830
527,3 Aug 2025 20:11:18.343,3 Aug 2025 20:19:48.285,509.942
528,3 Aug 2025 21:43:56.744,3 Aug 2025 21:55:22.582,685.838
529,3 Aug 2025 23:20:06.303,3 Aug 2025 23:25:00.108,293.805
530,4 Aug 2025 19:53:36.718,4 Aug 2025 19:59:39.391,362.673
531,4 Aug 2025 21:25:12.000,4 Aug 2025 21:36:45.210,693.210
532,4 Aug 2025 23:00:21.938,4 Aug 2025 23:07:53.157,451.219
533,5 Aug 2025 21:06:33.418,5 Aug 2025 21:17:56.138,682.719
534,5 Aug 2025 22:41:03.819,5 Aug 2025 22:50:13.223,549.403
535,6 Aug 2025 20:48:01.926,6 Aug 2025 20:58:54.474,652.548
536,6 Aug 2025 22:21:58.174,6 Aug 2025 22:32:14.404,616.230
537,7 Aug 2025 20:29:39.609,7 Aug 2025 20:39:38.077,598.468
538,7 Aug 2025 22:03:00.793,7 Aug 2025 22:14:01.221,660.428
539,8 Aug 2025 20:11:31.004,8 Aug 2025 20:20:02.236,511.233
540,8 Aug 2025 21:44:09.988,8 Aug 2025 21:55:35.633,685.646
541,8 Aug 2025 23:20:20.532,8 Aug 2025 23:25:11.792,291.260
542,9 Aug 2025 19:53:48.892,9 Aug 2025 19:59:53.907,365.015
543,9 Aug 2025 21:25:25.170,9 Aug 2025 21:36:58.395,693.225
544,9 Aug 2025 23:00:35.646,9 Aug 2025 23:08:05.453,449.807
545,10 Aug 2025 21:06:46.512,10 Aug 2025 21:18:09.464,682.952
546,10 Aug 2025 22:41:17.333,10 Aug 2025 22:50:25.789,548.456
547,11 Aug 2025 20:48:14.927,11 Aug 2025 20:59:07.958,653.031
548,11 Aug 2025 22:22:11.575,11 Aug 2025 22:32:27.158,615.584
549,12 Aug 2025 20:29:52.483,12 Aug 2025 20:39:51.754,599.271
550,12 Aug 2025 22:03:14.107,12 Aug 2025 22:14:14.130,660.022
551,13 Aug 2025 20:11:43.670,13 Aug 2025 20:20:16.190,512.520
552,13 Aug 2025 21:44:23.230,13 Aug 2025 21:55:48.682,685.452
553,13 Aug 2025 23:20:34.780,13 Aug 2025 23:25:23.466,288.687
554,14 Aug 2025 19:54:01.075,14 Aug 2025 20:00:08.414,367.339
555,14 Aug 2025 21:25:38.342,14 Aug 2025 21:37:11.580,693.238
556,14 Aug 2025 23:00:49.359,14 Aug 2025 23:08:17.743,448.384
557,15 Aug 2025 21:06:59.607,15 Aug 2025 21:18:22.790,683.183
558,15 Aug 2025 22:41:30.850,15 Aug 2025 22:50:38.352,547.501
559,16 Aug 2025 20:48:27.928,16 Aug 2025 20:59:21.440,653.512
560,16 Aug 2025 22:22:24.976,16 Aug 2025 22:32:39.910,614.934
561,17 Aug 2025 20:30:05.357,17 Aug 2025 20:40:05.428,600.072
562,17 Aug 2025 22:03:27.423,17 Aug 2025 22:14:27.036,659.614
563,18 Aug 2025 20:11:56.337,18 Aug 2025 20:20:30.138,513.801
564,18 Aug 2025 21:44:36.472,18 Aug 2025 21:56:01.727,685.255
565,18 Aug 2025 23:20:49.041,18 Aug 2025 23:25:35.124,286.082
566,19 Aug 2025 19:54:13.266,19 Aug 2025 20:00:22.909,369.643
567,19 Aug 2025 21:25:51.513,19 Aug 2025 21:37:24.761,693.248
568,19 Aug 2025 23:01:03.074,19 Aug 2025 23:08:30.028,446.953
569,20 Aug 2025 21:07:12.701,20 Aug 2025 21:18:36.112,683.411
570,20 Aug 2025 22:41:44.368,20 Aug 2025 22:50:50.912,546.544
571,21 Aug 2025 20:48:40.930,21 Aug 2025 20:59:34.919,653.989
572,21 Aug 2025 22:22:38.373,21 Aug 2025 22:32:52.659,614.287
573,22 Aug 2025 20:30:18.233,22 Aug 2025 20:40:19.100,600.867
574,22 Aug 2025 22:03:40.739,22 Aug 2025 22:14:39.941,659.203
575,23 Aug 2025 20:12:09.009,23 Aug 2025 20:20:44.083,515.073
576,23 Aug 2025 21:44:49.715,23 Aug 2025 21:56:14.771,685.056
577,23 Aug 2025 23:21:03.316,23 Aug 2025 23:25:46.770,283.454
578,24 Aug 2025 19:54:25.470,24 Aug 2025 20:00:37.395,371.926
579,24 Aug 2025 21:26:04.687,24 Aug 2025 21:37:37.943,693.256
580,24 Aug 2025 23:01:16.794,24 Aug 2025 23:08:42.310,445.516
581,25 Aug 2025 21:07:25.799,25 Aug 2025 21:18:49.435,683.636
582,25 Aug 2025 22:41:57.889,25 Aug 2025 22:51:03.471,545.582
583,26 Aug 2025 20:48:53.936,26 Aug 2025 20:59:48.398,654.463
584,26 Aug 2025 22:22:51.777,26 Aug 2025 22:33:05.409,613.632
585,27 Aug 2025 20:30:31.113,27 Aug 2025 20:40:32.771,601.658
586,27 Aug 2025 22:03:54.057,27 Aug 2025 22:14:52.846,658.789
587,28 Aug 2025 20:12:21.684,28 Aug 2025 20:20:58.025,516.341
588,28 Aug 2025 21:45:02.961,28 Aug 2025 21:56:27.818,684.857
589,28 Aug 2025 23:21:17.609,28 Aug 2025 23:25:58.399,280.790
590,29 Aug 2025 19:54:37.682,29 Aug 2025 20:00:51.873,374.191
591,29 Aug 2025 21:26:17.862,29 Aug 2025 21:37:51.123,693.261
592,29 Aug 2025 23:01:30.519,29 Aug 2025 23:08:54.587,444.067
593,30 Aug 2025 21:07:38.897,30 Aug 2025 21:19:02.759,683.862
594,30 Aug 2025 22:42:11.409,30 Aug 2025 22:51:16.026,544.617
595,31 Aug 2025 20:49:06.946,31 Aug 2025 21:00:01.873,654.927
596,31 Aug 2025 22:23:05.188,31 Aug 2025 22:33:18.155,612.968
597,1 Sep 2025 20:30:43.993,1 Sep 2025 20:40:46.439,602.446
598,1 Sep 2025 22:04:07.377,1 Sep 2025 22:15:05.748,658.372
599,2 Sep 2025 20:12:34.362,2 Sep 2025 20:21:11.967,517.606
600,2 Sep 2025 21:45:16.207,2 Sep 2025 21:56:40.860,684.653
601,2 Sep 2025 23:21:31.916,2 Sep 2025 23:26:10.012,278.095
602,3 Sep 2025 19:54:49.903,3 Sep 2025 20:01:06.339,376.436
603,3 Sep 2025 21:26:31.037,3 Sep 2025 21:38:04.302,693.265
604,3 Sep 2025 23:01:44.247,3 Sep 2025 23:09:06.859,442.612
605,4 Sep 2025 21:07:51.996,4 Sep 2025 21:19:16.078,684.082
606,4 Sep 2025 22:42:24.934,4 Sep 2025 22:51:28.579,543.646
607,5 Sep 2025 20:49:19.953,5 Sep 2025 21:00:15.348,655.395
608,5 Sep 2025 22:23:18.594,5 Sep 2025 22:33:30.900,612.306
609,6 Sep 2025 20:30:56.876,6 Sep 2025 20:41:00.104,603.229
610,6 Sep 2025 22:04:20.697,6 Sep 2025 22:15:18.650,657.952
611,7 Sep 2025 20:12:47.044,7 Sep 2025 20:21:25.898,518.853
612,7 Sep 2025 21:45:29.454,7 Sep 2025 21:56:53.901,684.447
613,7 Sep 2025 23:21:46.238,7 Sep 2025 23:26:21.611,275.373
614,8 Sep 2025 19:55:02.136,8 Sep 2025 20:01:20.796,378.660
615,8 Sep 2025 21:26:44.214,8 Sep 2025 21:38:17.480,693.265
616,8 Sep 2025 23:01:57.980,8 Sep 2025 23:09:19.129,441.149
617,9 Sep 2025 21:08:05.098,9 Sep 2025 21:19:29.397,684.299
618,9 Sep 2025 22:42:38.462,9 Sep 2025 22:51:41.131,542.669
619,10 Sep 2025 20:49:32.963,10 Sep 2025 21:00:28.823,655.860
620,10 Sep 2025 22:23:32.004,10 Sep 2025 22:33:43.644,611.641
621,11 Sep 2025 20:31:09.761,11 Sep 2025 20:41:13.769,604.008
622,11 Sep 2025 22:04:34.020,11 Sep 2025 22:15:31.550,657.530
623,12 Sep 2025 20:12:59.729,12 Sep 2025 20:21:39.830,520.101
624,12 Sep 2025 21:45:42.704,12 Sep 2025 21:57:06.941,684.238
625,12 Sep 2025 23:22:00.579,12 Sep 2025 23:26:33.192,272.613
626,13 Sep 2025 19:55:14.375,13 Sep 2025 20:01:35.245,380.870
627,13 Sep 2025 21:26:57.393,13 Sep 2025 21:38:30.656,693.264
628,13 Sep 2025 23:02:11.718,13 Sep 2025 23:09:31.393,439.675
629,14 Sep 2025 21:08:18.199,14 Sep 2025 21:19:42.713,684.514
630,14 Sep 2025 22:42:51.993,14 Sep 2025 22:51:53.680,541.687
631,15 Sep 2025 20:49:45.973,15 Sep 2025 21:00:42.293,656.320
632,15 Sep 2025 22:23:45.414,15 Sep 2025 22:33:56.385,610.971
633,16 Sep 2025 20:31:22.647,16 Sep 2025 20:41:27.431,604.783
634,16 Sep 2025 22:04:47.343,16 Sep 2025 22:15:44.452,657.109
635,17 Sep 2025 20:13:12.416,17 Sep 2025 20:21:53.760,521.343
636,17 Sep 2025 21:45:55.949,17 Sep 2025 21:57:19.980,684.031
637,17 Sep 2025 23:22:14.939,17 Sep 2025 23:26:44.756,269.818
638,18 Sep 2025 19:55:26.625,18 Sep 2025 20:01:49.683,383.058
639,18 Sep 2025 21:27:10.572,18 Sep 2025 21:38:43.831,693.260
640,18 Sep 2025 23:02:25.458,18 Sep 2025 23:09:43.654,438.196
641,19 Sep 2025 21:08:31.303,19 Sep 2025 21:19:56.029,684.726
642,19 Sep 2025 22:43:05.525,19 Sep 2025 22:52:06.226,540.702
643,20 Sep 2025 20:49:58.986,20 Sep 2025 21:00:55.766,656.780
644,20 Sep 2025 22:23:58.826,20 Sep 2025 22:34:09.126,610.300
645,21 Sep 2025 20:31:35.537,21 Sep 2025 20:41:41.091,605.554
646,21 Sep 2025 22:05:00.669,21 Sep 2025 22:15:57.350,656.681
647,22 Sep 2025 20:13:25.110,22 Sep 2025 20:22:07.685,522.575
648,22 Sep 2025 21:46:09.201,22 Sep 2025 21:57:33.019,683.818
649,22 Sep 2025 23:22:29.312,22 Sep 2025 23:26:56.304,266.993
650,23 Sep 2025 19:55:38.885,23 Sep 2025 20:02:04.113,385.229
651,23 Sep 2025 21:27:23.754,23 Sep 2025 21:38:57.006,693.253
652,23 Sep 2025 23:02:39.204,23 Sep 2025 23:09:55.911,436.707
653,24 Sep 2025 21:08:44.409,24 Sep 2025 21:20:09.344,684.935
654,24 Sep 2025 22:43:19.061,24 Sep 2025 22:52:18.771,539.710
655,25 Sep 2025 20:50:12.001,25 Sep 2025 21:01:09.235,657.234
656,25 Sep 2025 22:24:12.242,25 Sep 2025 22:34:21.865,609.624
657,26 Sep 2025 20:31:48.428,26 Sep 2025 20:41:54.750,606.321
658,26 Sep 2025 22:05:13.997,26 Sep 2025 22:16:10.247,656.250
659,27 Sep 2025 20:13:37.806,27 Sep 2025 20:22:21.607,523.802
660,27 Sep 2025 21:46:22.455,27 Sep 2025 21:57:46.057,683.602
661,27 Sep 2025 23:22:43.705,27 Sep 2025 23:27:07.833,264.128
662,28 Sep 2025 19:55:51.152,28 Sep 2025 20:02:18.536,387.384
663,28 Sep 2025 21:27:36.932,28 Sep 2025 21:39:10.181,693.249
664,28 Sep 2025 23:02:52.955,28 Sep 2025 23:10:08.163,435.208
665,29 Sep 2025 21:08:57.514,29 Sep 2025 21:20:22.653,685.139
666,29 Sep 2025 22:43:32.604,29 Sep 2025 22:52:31.311,538.707
667,30 Sep 2025 20:50:25.016,30 Sep 2025 21:01:22.708,657.691
668,30 Sep 2025 22:24:25.656,30 Sep 2025 22:34:34.602,608.947
669,1 Oct 2025 20:32:01.321,1 Oct 2025 20:42:08.406,607.085
670,1 Oct 2025 22:05:27.325,1 Oct 2025 22:16:23.141,655.817
671,2 Oct 2025 20:13:50.508,2 Oct 2025 20:22:35.523,525.015
672,2 Oct 2025 21:46:35.709,2 Oct 2025 21:57:59.096,683.387
673,2 Oct 2025 23:22:58.114,2 Oct 2025 23:27:19.343,261.230
674,3 Oct 2025 19:56:03.429,3 Oct 2025 20:02:32.947,389.519
675,3 Oct 2025 21:27:50.115,3 Oct 2025 21:39:23.352,693.237
676,3 Oct 2025 23:03:06.708,3 Oct 2025 23:10:20.411,433.703
677,4 Oct 2025 21:09:10.622,4 Oct 2025 21:20:35.965,685.343
678,4 Oct 2025 22:43:46.141,4 Oct 2025 22:52:43.850,537.710
679,5 Oct 2025 20:50:38.034,5 Oct 2025 21:01:36.174,658.141
680,5 Oct 2025 22:24:39.074,5 Oct 2025 22:34:47.338,608.264
681,6 Oct 2025 20:32:14.217,6 Oct 2025 20:42:22.060,607.843
682,6 Oct 2025 22:05:40.655,6 Oct 2025 22:16:36.035,655.381
683,7 Oct 2025 20:14:03.212,7 Oct 2025 20:22:49.438,526.226
684,7 Oct 2025 21:46:48.965,7 Oct 2025 21:58:12.132,683.167
685,7 Oct 2025 23:23:12.542,7 Oct 2025 23:27:30.837,258.295
686,8 Oct 2025 19:56:15.715,8 Oct 2025 20:02:47.352,391.637
687,8 Oct 2025 21:28:03.301,8 Oct 2025 21:39:36.524,693.223
688,8 Oct 2025 23:03:20.467,8 Oct 2025 23:10:32.656,432.189
689,9 Oct 2025 21:09:23.733,9 Oct 2025 21:20:49.277,685.545
690,9 Oct 2025 22:43:59.684,9 Oct 2025 22:52:56.389,536.704
691,10 Oct 2025 20:50:51.050,10 Oct 2025 21:01:49.641,658.591
692,10 Oct 2025 22:24:52.494,10 Oct 2025 22:35:00.073,607.578
693,11 Oct 2025 20:32:27.115,11 Oct 2025 20:42:35.713,608.598
694,11 Oct 2025 22:05:53.987,11 Oct 2025 22:16:48.928,654.941
695,12 Oct 2025 20:14:15.918,12 Oct 2025 20:23:03.352,527.434
696,12 Oct 2025 21:47:02.223,12 Oct 2025 21:58:25.166,682.943
697,12 Oct 2025 23:23:26.992,12 Oct 2025 23:27:42.308,255.316
698,13 Oct 2025 19:56:28.008,13 Oct 2025 20:03:01.748,393.740
699,13 Oct 2025 21:28:16.487,13 Oct 2025 21:39:49.694,693.207
700,13 Oct 2025 23:03:34.231,13 Oct 2025 23:10:44.895,430.665
701,14 Oct 2025 21:09:36.843,14 Oct 2025 21:21:02.587,685.744
702,14 Oct 2025 22:44:13.229,14 Oct 2025 22:53:08.923,535.694
703,15 Oct 2025 20:51:04.070,15 Oct 2025 21:02:03.101,659.031
704,15 Oct 2025 22:25:05.916,15 Oct 2025 22:35:12.804,606.889
705,16 Oct 2025 20:32:40.015,16 Oct 2025 20:42:49.363,609.348
706,16 Oct 2025 22:06:07.319,16 Oct 2025 22:17:01.819,654.500
707,17 Oct 2025 20:14:28.628,17 Oct 2025 20:23:17.260,528.632
708,17 Oct 2025 21:47:15.481,17 Oct 2025 21:58:38.199,682.718
709,17 Oct 2025 23:23:41.458,17 Oct 2025 23:27:53.761,252.303
710,18 Oct 2025 19:56:40.312,18 Oct 2025 20:03:16.135,395.823
711,18 Oct 2025 21:28:29.675,18 Oct 2025 21:40:02.863,693.188
712,18 Oct 2025 23:03:47.997,18 Oct 2025 23:10:57.131,429.135
713,19 Oct 2025 19:40:50.167,19 Oct 2025 19:41:10.485,20.318
714,19 Oct 2025 21:09:49.957,19 Oct 2025 21:21:15.897,685.940
715,19 Oct 2025 22:44:26.776,19 Oct 2025 22:53:21.457,534.681
716,20 Oct 2025 20:51:17.094,20 Oct 2025 21:02:16.565,659.470
717,20 Oct 2025 22:25:19.340,20 Oct 2025 22:35:25.536,606.196
718,21 Oct 2025 20:32:52.919,21 Oct 2025 20:43:03.013,610.094
719,21 Oct 2025 22:06:20.654,21 Oct 2025 22:17:14.710,654.056
720,22 Oct 2025 20:14:41.340,22 Oct 2025 20:23:31.166,529.826
721,22 Oct 2025 21:47:28.746,22 Oct 2025 21:58:51.228,682.482
722,22 Oct 2025 23:23:55.943,22 Oct 2025 23:28:05.194,249.252
723,23 Oct 2025 19:56:52.624,23 Oct 2025 20:03:30.515,397.891
724,23 Oct 2025 21:28:42.870,23 Oct 2025 21:40:16.032,693.162
725,23 Oct 2025 23:04:01.769,23 Oct 2025 23:11:09.364,427.594
726,24 Oct 2025 19:40:48.878,24 Oct 2025 19:41:38.543,49.665
727,24 Oct 2025 21:10:03.071,24 Oct 2025 21:21:29.206,686.135
728,24 Oct 2025 22:44:40.327,24 Oct 2025 22:53:33.989,533.662
729,25 Oct 2025 20:51:30.120,25 Oct 2025 21:02:30.027,659.907
730,25 Oct 2025 22:25:32.764,25 Oct 2025 22:35:38.267,605.502
731,26 Oct 2025 20:33:05.824,26 Oct 2025 20:43:16.660,610.836
732,26 Oct 2025 22:06:33.991,26 Oct 2025 22:17:27.599,653.609
733,27 Oct 2025 20:14:54.056,27 Oct 2025 20:23:45.069,531.013
734,27 Oct 2025 21:47:42.008,27 Oct 2025 21:59:04.259,682.251
735,27 Oct 2025 23:24:10.454,27 Oct 2025 23:28:16.605,246.151
736,28 Oct 2025 19:57:04.944,28 Oct 2025 20:03:44.886,399.943
737,28 Oct 2025 21:28:56.061,28 Oct 2025 21:40:29.199,693.138
738,28 Oct 2025 23:04:15.545,28 Oct 2025 23:11:21.591,426.045
739,29 Oct 2025 19:40:53.499,29 Oct 2025 19:42:00.692,67.193
740,29 Oct 2025 21:10:16.187,29 Oct 2025 21:21:42.513,686.326
741,29 Oct 2025 22:44:53.876,29 Oct 2025 22:53:46.518,532.642
742,30 Oct 2025 20:51:43.146,30 Oct 2025 21:02:43.487,660.341
743,30 Oct 2025 22:25:46.191,30 Oct 2025 22:35:50.994,604.803
744,31 Oct 2025 20:33:18.733,31 Oct 2025 20:43:30.304,611.571
745,31 Oct 2025 22:06:47.327,31 Oct 2025 22:17:40.487,653.159
746,1 Nov 2025 20:15:06.776,1 Nov 2025 20:23:58.968,532.191
747,1 Nov 2025 21:47:55.270,1 Nov 2025 21:59:17.288,682.018
748,1 Nov 2025 23:24:24.985,1 Nov 2025 23:28:27.995,243.010
749,2 Nov 2025 19:57:17.273,2 Nov 2025 20:03:59.249,401.975
750,2 Nov 2025 21:29:09.253,2 Nov 2025 21:40:42.365,693.112
751,2 Nov 2025 23:04:29.324,2 Nov 2025 23:11:33.814,424.490
752,3 Nov 2025 19:40:59.996,3 Nov 2025 19:42:20.966,80.970
753,3 Nov 2025 21:10:29.304,3 Nov 2025 21:21:55.817,686.512
754,3 Nov 2025 22:45:07.429,3 Nov 2025 22:53:59.045,531.616
755,4 Nov 2025 20:51:56.175,4 Nov 2025 21:02:56.946,660.771
756,4 Nov 2025 22:25:59.620,4 Nov 2025 22:36:03.721,604.102
757,5 Nov 2025 20:33:31.644,5 Nov 2025 20:43:43.948,612.304
758,5 Nov 2025 22:07:00.667,5 Nov 2025 22:17:53.374,652.707
759,6 Nov 2025 20:15:19.501,6 Nov 2025 20:24:12.865,533.364
760,6 Nov 2025 21:48:08.536,6 Nov 2025 21:59:30.318,681.783
761,6 Nov 2025 23:24:39.541,6 Nov 2025 23:28:39.361,239.821
762,7 Nov 2025 19:57:29.611,7 Nov 2025 20:04:13.605,403.995
763,7 Nov 2025 21:29:22.445,7 Nov 2025 21:40:55.531,693.086
764,7 Nov 2025 23:04:43.110,7 Nov 2025 23:11:46.033,422.923
765,8 Nov 2025 19:41:07.510,8 Nov 2025 19:42:40.221,92.711
766,8 Nov 2025 21:10:42.426,8 Nov 2025 21:22:09.122,686.697
767,8 Nov 2025 22:45:20.987,8 Nov 2025 22:54:11.569,530.582
768,9 Nov 2025 20:52:09.205,9 Nov 2025 21:03:10.404,661.198
769,9 Nov 2025 22:26:13.051,9 Nov 2025 22:36:16.447,603.396
770,10 Nov 2025 20:33:44.555,10 Nov 2025 20:43:57.589,613.034
771,10 Nov 2025 22:07:14.007,10 Nov 2025 22:18:06.259,652.252
772,11 Nov 2025 20:15:32.229,11 Nov 2025 20:24:26.758,534.530
773,11 Nov 2025 21:48:21.801,11 Nov 2025 21:59:43.345,681.545
774,11 Nov 2025 23:24:54.119,11 Nov 2025 23:28:50.703,236.584
775,12 Nov 2025 19:57:41.955,12 Nov 2025 20:04:27.952,405.996
776,12 Nov 2025 21:29:35.640,12 Nov 2025 21:41:08.694,693.054
777,12 Nov 2025 23:04:56.898,12 Nov 2025 23:11:58.247,421.350
778,13 Nov 2025 19:41:15.705,13 Nov 2025 19:42:58.791,103.087
779,13 Nov 2025 21:10:55.546,13 Nov 2025 21:22:22.425,686.880
780,13 Nov 2025 22:45:34.544,13 Nov 2025 22:54:24.091,529.546
781,14 Nov 2025 20:52:22.237,14 Nov 2025 21:03:23.859,661.622
782,14 Nov 2025 22:26:26.479,14 Nov 2025 22:36:29.170,602.691
783,15 Nov 2025 20:33:57.469,15 Nov 2025 20:44:11.227,613.758
784,15 Nov 2025 22:07:27.348,15 Nov 2025 22:18:19.143,651.795
785,16 Nov 2025 20:15:44.961,16 Nov 2025 20:24:40.648,535.687
786,16 Nov 2025 21:48:35.067,16 Nov 2025 21:59:56.372,681.305
787,16 Nov 2025 23:25:08.719,16 Nov 2025 23:29:02.023,233.304
788,17 Nov 2025 19:57:54.310,17 Nov 2025 20:04:42.291,407.981
789,17 Nov 2025 21:29:48.837,17 Nov 2025 21:41:21.857,693.020
790,17 Nov 2025 23:05:10.689,17 Nov 2025 23:12:10.463,419.774
791,18 Nov 2025 19:41:24.397,18 Nov 2025 19:43:16.874,112.477
792,18 Nov 2025 21:11:08.666,18 Nov 2025 21:22:35.729,687.063
793,18 Nov 2025 22:45:48.105,18 Nov 2025 22:54:36.612,528.507
794,19 Nov 2025 20:52:35.275,19 Nov 2025 21:03:37.314,662.039
795,19 Nov 2025 22:26:39.915,19 Nov 2025 22:36:41.893,601.978
796,20 Nov 2025 20:34:10.388,20 Nov 2025 20:44:24.865,614.478
797,20 Nov 2025 22:07:40.692,20 Nov 2025 22:18:32.027,651.335
798,21 Nov 2025 20:15:57.697,21 Nov 2025 20:24:54.536,536.838
799,21 Nov 2025 21:48:48.336,21 Nov 2025 22:00:09.398,681.062
800,21 Nov 2025 23:25:23.347,21 Nov 2025 23:29:13.317,229.969
801,22 Nov 2025 19:58:06.672,22 Nov 2025 20:04:56.623,409.951
802,22 Nov 2025 21:30:02.036,22 Nov 2025 21:41:35.019,692.983
803,22 Nov 2025 23:05:24.487,22 Nov 2025 23:12:22.669,418.182
804,23 Nov 2025 19:41:33.454,23 Nov 2025 19:43:34.584,121.131
805,23 Nov 2025 21:11:21.790,23 Nov 2025 21:22:49.029,687.239
806,23 Nov 2025 22:46:01.669,23 Nov 2025 22:54:49.130,527.461
807,24 Nov 2025 20:52:48.311,24 Nov 2025 21:03:50.767,662.457
808,24 Nov 2025 22:26:53.349,24 Nov 2025 22:36:54.613,601.264
809,25 Nov 2025 20:34:23.306,25 Nov 2025 20:44:38.500,615.194
810,25 Nov 2025 22:07:54.036,25 Nov 2025 22:18:44.908,650.873
811,26 Nov 2025 20:16:10.436,26 Nov 2025 20:25:08.416,537.980
812,26 Nov 2025 21:49:01.601,26 Nov 2025 22:00:22.426,680.825
813,26 Nov 2025 23:25:37.998,26 Nov 2025 23:29:24.583,226.585
814,27 Nov 2025 19:58:19.046,27 Nov 2025 20:05:10.946,411.900
815,27 Nov 2025 21:30:15.231,27 Nov 2025 21:41:48.179,692.948
816,27 Nov 2025 23:05:38.286,27 Nov 2025 23:12:34.870,416.584
817,28 Nov 2025 19:41:42.819,28 Nov 2025 19:43:51.991,129.171
818,28 Nov 2025 21:11:34.914,28 Nov 2025 21:23:02.328,687.414
819,28 Nov 2025 22:46:15.232,28 Nov 2025 22:55:01.645,526.413
820,29 Nov 2025 20:53:01.347,29 Nov 2025 21:04:04.218,662.871
821,29 Nov 2025 22:27:06.784,29 Nov 2025 22:37:07.332,600.548
822,30 Nov 2025 20:34:36.228,30 Nov 2025 20:44:52.132,615.905
823,30 Nov 2025 22:08:07.380,30 Nov 2025 22:18:57.788,650.408
824,1 Dec 2025 20:16:23.184,1 Dec 2025 20:25:22.298,539.115
825,1 Dec 2025 21:49:14.875,1 Dec 2025 22:00:35.445,680.569
826,1 Dec 2025 23:25:52.678,1 Dec 2025 23:29:35.824,223.146
827,2 Dec 2025 19:58:31.420,2 Dec 2025 20:05:25.262,413.842
828,2 Dec 2025 21:30:28.437,2 Dec 2025 21:42:01.339,692.902
829,2 Dec 2025 23:05:52.090,2 Dec 2025 23:12:47.068,414.978
830,3 Dec 2025 19:41:52.427,3 Dec 2025 19:44:09.151,136.724
831,3 Dec 2025 21:11:48.041,3 Dec 2025 21:23:15.628,687.587
832,3 Dec 2025 22:46:28.799,3 Dec 2025 22:55:14.159,525.360
833,4 Dec 2025 20:53:14.388,4 Dec 2025 21:04:17.669,663.282
834,4 Dec 2025 22:27:20.222,4 Dec 2025 22:37:20.050,599.828
835,5 Dec 2025 20:34:49.152,5 Dec 2025 20:45:05.764,616.612
836,5 Dec 2025 22:08:20.728,5 Dec 2025 22:19:10.668,649.940
837,6 Dec 2025 20:16:35.925,6 Dec 2025 20:25:36.173,540.247
838,6 Dec 2025 21:49:28.144,6 Dec 2025 22:00:48.471,680.327
839,6 Dec 2025 23:26:07.383,6 Dec 2025 23:29:47.031,219.648
840,7 Dec 2025 19:58:43.810,7 Dec 2025 20:05:39.571,415.762
841,7 Dec 2025 21:30:41.636,7 Dec 2025 21:42:14.497,692.861
842,7 Dec 2025 23:06:05.899,7 Dec 2025 23:12:59.260,413.361
843,8 Dec 2025 19:42:02.242,8 Dec 2025 19:44:26.107,143.865
844,8 Dec 2025 21:12:01.168,8 Dec 2025 21:23:28.925,687.757
845,8 Dec 2025 22:46:42.367,8 Dec 2025 22:55:26.670,524.302
846,9 Dec 2025 20:53:27.427,9 Dec 2025 21:04:31.117,663.690
847,9 Dec 2025 22:27:33.660,9 Dec 2025 22:37:32.764,599.105
848,10 Dec 2025 20:35:02.076,10 Dec 2025 20:45:19.392,617.315
849,10 Dec 2025 22:08:34.074,10 Dec 2025 22:19:23.544,649.470
850,11 Dec 2025 20:16:48.674,11 Dec 2025 20:25:50.044,541.370
851,11 Dec 2025 21:49:41.415,11 Dec 2025 22:01:01.490,680.075
852,11 Dec 2025 23:26:22.118,11 Dec 2025 23:29:58.210,216.092
853,12 Dec 2025 19:58:56.203,12 Dec 2025 20:05:53.870,417.668
854,12 Dec 2025 21:30:54.839,12 Dec 2025 21:42:27.652,692.814
855,12 Dec 2025 23:06:19.710,12 Dec 2025 23:13:11.448,411.739
856,13 Dec 2025 19:42:12.241,13 Dec 2025 19:44:42.878,150.637
857,13 Dec 2025 21:12:14.297,13 Dec 2025 21:23:42.220,687.924
858,13 Dec 2025 22:46:55.936,13 Dec 2025 22:55:39.178,523.242
859,14 Dec 2025 20:53:40.470,14 Dec 2025 21:04:44.564,664.094
860,14 Dec 2025 22:27:47.098,14 Dec 2025 22:37:45.478,598.380
861,15 Dec 2025 20:35:15.005,15 Dec 2025 20:45:33.018,618.013
862,15 Dec 2025 22:08:47.423,15 Dec 2025 22:19:36.420,648.998
863,16 Dec 2025 20:17:01.428,16 Dec 2025 20:26:03.914,542.486
864,16 Dec 2025 21:49:54.689,16 Dec 2025 22:01:14.510,679.821
865,16 Dec 2025 23:26:36.884,16 Dec 2025 23:30:09.360,212.476
866,17 Dec 2025 19:59:08.605,17 Dec 2025 20:06:08.164,419.559
867,17 Dec 2025 21:31:08.044,17 Dec 2025 21:42:40.808,692.764
868,17 Dec 2025 23:06:33.525,17 Dec 2025 23:13:23.633,410.108
869,18 Dec 2025 19:42:22.393,18 Dec 2025 19:44:59.496,157.103
870,18 Dec 2025 21:12:27.427,18 Dec 2025 21:23:55.510,688.083
871,18 Dec 2025 22:47:09.508,18 Dec 2025 22:55:51.685,522.177
872,19 Dec 2025 20:53:53.514,19 Dec 2025 21:04:58.007,664.493
873,19 Dec 2025 22:28:00.539,19 Dec 2025 22:37:58.191,597.652
874,20 Dec 2025 20:35:27.935,20 Dec 2025 20:45:46.642,618.707
875,20 Dec 2025 22:09:00.773,20 Dec 2025 22:19:49.295,648.522
876,21 Dec 2025 20:17:14.184,21 Dec 2025 20:26:17.780,543.596
877,21 Dec 2025 21:50:07.963,21 Dec 2025 22:01:27.527,679.564
878,21 Dec 2025 23:26:51.684,21 Dec 2025 23:30:20.475,208.791
879,22 Dec 2025 19:59:21.012,22 Dec 2025 20:06:22.449,421.437
880,22 Dec 2025 21:31:21.243,22 Dec 2025 21:42:53.961,692.718
881,22 Dec 2025 23:06:47.345,22 Dec 2025 23:13:35.811,408.466
882,23 Dec 2025 19:42:32.681,23 Dec 2025 19:45:15.978,163.296
883,23 Dec 2025 21:12:40.558,23 Dec 2025 21:24:08.805,688.247
884,23 Dec 2025 22:47:23.081,23 Dec 2025 22:56:04.188,521.107
885,24 Dec 2025 20:54:06.558,24 Dec 2025 21:05:11.449,664.891
886,24 Dec 2025 22:28:13.975,24 Dec 2025 22:38:10.900,596.925
887,25 Dec 2025 20:35:40.866,25 Dec 2025 20:46:00.262,619.396
888,25 Dec 2025 22:09:14.122,25 Dec 2025 22:20:02.167,648.045
889,26 Dec 2025 20:17:26.942,26 Dec 2025 20:26:31.640,544.698
890,26 Dec 2025 21:50:21.237,26 Dec 2025 22:01:40.542,679.305
891,26 Dec 2025 23:27:06.515,26 Dec 2025 23:30:31.559,205.045
892,27 Dec 2025 19:59:33.427,27 Dec 2025 20:06:36.720,423.293
893,27 Dec 2025 21:31:34.452,27 Dec 2025 21:43:07.116,692.665
894,27 Dec 2025 23:07:01.169,27 Dec 2025 23:13:47.980,406.811
895,28 Dec 2025 19:42:43.095,28 Dec 2025 19:45:32.333,169.238
896,28 Dec 2025 21:12:53.690,28 Dec 2025 21:24:22.096,688.405
897,28 Dec 2025 22:47:36.654,28 Dec 2025 22:56:16.689,520.035
898,29 Dec 2025 20:54:19.605,29 Dec 2025 21:05:24.891,665.286
899,29 Dec 2025 22:28:27.417,29 Dec 2025 22:38:23.608,596.191
900,30 Dec 2025 20:35:53.803,30 Dec 2025 20:46:13.881,620.078
901,30 Dec 2025 22:09:27.473,30 Dec 2025 22:20:15.038,647.565
902,31 Dec 2025 20:17:39.706,31 Dec 2025 20:26:45.499,545.793
903,31 Dec 2025 21:50:34.513,31 Dec 2025 22:01:53.557,679.044
904,31 Dec 2025 23:27:21.381,31 Dec 2025 23:30:42.605,201.224

Global Statistics
"Min Duration",713,19 Oct 2025 19:40:50.167,19 Oct 2025 19:41:10.485,20.318
"Max Duration",615,8 Sep 2025 21:26:44.214,8 Sep 2025 21:38:17.480,693.265
"Mean Duration",,,,547.493
"Total Duration",,,,494934.054


