3UCubedIntegratedSim/Reports & Plots/Comms/Past Comms Data/SSU/CSV/Sat2.csv

"Access","Start Time (UTCG)","Stop Time (UTCG)","Duration (sec)"
1,1 Jan 2025 20:50:00.513,1 Jan 2025 21:00:19.286,618.772
2,1 Jan 2025 22:23:23.374,1 Jan 2025 22:34:13.958,650.584
3,2 Jan 2025 20:32:00.946,2 Jan 2025 20:41:14.092,553.146
4,2 Jan 2025 22:04:21.071,2 Jan 2025 22:15:42.836,681.765
5,3 Jan 2025 20:14:19.940,3 Jan 2025 20:21:56.725,456.785
6,3 Jan 2025 21:45:31.430,3 Jan 2025 21:57:04.563,693.133
7,3 Jan 2025 23:22:42.694,3 Jan 2025 23:28:35.780,353.086
8,4 Jan 2025 19:57:10.664,4 Jan 2025 20:02:14.358,303.694
9,4 Jan 2025 21:26:53.513,4 Jan 2025 21:38:20.091,686.578
10,4 Jan 2025 23:02:31.483,4 Jan 2025 23:10:56.175,504.692
11,5 Jan 2025 21:08:27.225,5 Jan 2025 21:19:29.644,662.419
12,5 Jan 2025 22:42:54.241,5 Jan 2025 22:52:48.629,594.388
13,6 Jan 2025 20:50:13.280,6 Jan 2025 21:00:32.678,619.398
14,6 Jan 2025 22:23:36.870,6 Jan 2025 22:34:26.956,650.086
15,7 Jan 2025 20:32:13.528,7 Jan 2025 20:41:27.600,554.072
16,7 Jan 2025 22:04:34.409,7 Jan 2025 22:15:55.928,681.519
17,8 Jan 2025 20:14:32.258,8 Jan 2025 20:22:10.418,458.160
18,8 Jan 2025 21:45:44.626,8 Jan 2025 21:57:17.731,693.105
19,8 Jan 2025 23:22:57.271,8 Jan 2025 23:28:47.905,350.634
20,9 Jan 2025 19:57:22.421,9 Jan 2025 20:02:28.533,306.111
21,9 Jan 2025 21:27:06.573,9 Jan 2025 21:38:33.329,686.756
22,9 Jan 2025 23:02:45.462,9 Jan 2025 23:11:08.824,503.362
23,10 Jan 2025 21:08:40.145,10 Jan 2025 21:19:42.953,662.808
24,10 Jan 2025 22:43:07.934,10 Jan 2025 22:53:01.494,593.560
25,11 Jan 2025 20:50:26.047,11 Jan 2025 21:00:46.071,620.023
26,11 Jan 2025 22:23:50.367,11 Jan 2025 22:34:39.951,649.584
27,12 Jan 2025 20:32:26.110,12 Jan 2025 20:41:41.104,554.993
28,12 Jan 2025 22:04:47.747,12 Jan 2025 22:16:09.017,681.270
29,13 Jan 2025 20:14:44.579,13 Jan 2025 20:22:24.107,459.528
30,13 Jan 2025 21:45:57.822,13 Jan 2025 21:57:30.897,693.075
31,13 Jan 2025 23:23:11.859,13 Jan 2025 23:29:00.016,348.156
32,14 Jan 2025 19:57:34.188,14 Jan 2025 20:02:42.696,308.508
33,14 Jan 2025 21:27:19.633,14 Jan 2025 21:38:46.565,686.932
34,14 Jan 2025 23:02:59.445,14 Jan 2025 23:11:21.473,502.028
35,15 Jan 2025 21:08:53.067,15 Jan 2025 21:19:56.262,663.195
36,15 Jan 2025 22:43:21.631,15 Jan 2025 22:53:14.357,592.725
37,16 Jan 2025 20:50:38.817,16 Jan 2025 21:00:59.463,620.646
38,16 Jan 2025 22:24:03.867,16 Jan 2025 22:34:52.946,649.078
39,17 Jan 2025 20:32:38.696,17 Jan 2025 20:41:54.608,555.912
40,17 Jan 2025 22:05:01.088,17 Jan 2025 22:16:22.106,681.018
41,18 Jan 2025 20:14:56.905,18 Jan 2025 20:22:37.794,460.890
42,18 Jan 2025 21:46:11.021,18 Jan 2025 21:57:44.064,693.043
43,18 Jan 2025 23:23:26.462,18 Jan 2025 23:29:12.116,345.654
44,19 Jan 2025 19:57:45.969,19 Jan 2025 20:02:56.844,310.875
45,19 Jan 2025 21:27:32.697,19 Jan 2025 21:38:59.803,687.106
46,19 Jan 2025 23:03:13.434,19 Jan 2025 23:11:34.116,500.682
47,20 Jan 2025 21:09:05.992,20 Jan 2025 21:20:09.571,663.579
48,20 Jan 2025 22:43:35.331,20 Jan 2025 22:53:27.219,591.887
49,21 Jan 2025 20:50:51.585,21 Jan 2025 21:01:12.858,621.273
50,21 Jan 2025 22:24:17.365,21 Jan 2025 22:35:05.937,648.572
51,22 Jan 2025 20:32:51.284,22 Jan 2025 20:42:08.109,556.825
52,22 Jan 2025 22:05:14.430,22 Jan 2025 22:16:35.195,680.765
53,23 Jan 2025 20:15:09.235,23 Jan 2025 20:22:51.477,462.242
54,23 Jan 2025 21:46:24.222,23 Jan 2025 21:57:57.230,693.008
55,23 Jan 2025 23:23:41.076,23 Jan 2025 23:29:24.207,343.131
56,24 Jan 2025 19:57:57.762,24 Jan 2025 20:03:10.983,313.221
57,24 Jan 2025 21:27:45.761,24 Jan 2025 21:39:13.038,687.277
58,24 Jan 2025 23:03:27.425,24 Jan 2025 23:11:46.755,499.329
59,25 Jan 2025 21:09:18.917,25 Jan 2025 21:20:22.878,663.961
60,25 Jan 2025 22:43:49.033,25 Jan 2025 22:53:40.078,591.046
61,26 Jan 2025 20:51:04.358,26 Jan 2025 21:01:26.242,621.884
62,26 Jan 2025 22:24:30.868,26 Jan 2025 22:35:18.929,648.061
63,27 Jan 2025 20:33:03.877,27 Jan 2025 20:42:21.608,557.731
64,27 Jan 2025 22:05:27.773,27 Jan 2025 22:16:48.281,680.508
65,28 Jan 2025 20:15:21.567,28 Jan 2025 20:23:05.156,463.589
66,28 Jan 2025 21:46:37.422,28 Jan 2025 21:58:10.393,692.971
67,28 Jan 2025 23:23:55.703,28 Jan 2025 23:29:36.283,340.580
68,29 Jan 2025 19:58:09.564,29 Jan 2025 20:03:25.113,315.549
69,29 Jan 2025 21:27:58.827,29 Jan 2025 21:39:26.272,687.446
70,29 Jan 2025 23:03:41.421,29 Jan 2025 23:11:59.388,497.967
71,30 Jan 2025 21:09:31.844,30 Jan 2025 21:20:36.184,664.340
72,30 Jan 2025 22:44:02.737,30 Jan 2025 22:53:52.935,590.198
73,31 Jan 2025 20:51:17.133,31 Jan 2025 21:01:39.632,622.498
74,31 Jan 2025 22:24:44.374,31 Jan 2025 22:35:31.919,647.546
75,1 Feb 2025 20:33:16.469,1 Feb 2025 20:42:35.107,558.637
76,1 Feb 2025 22:05:41.119,1 Feb 2025 22:17:01.368,680.249
77,2 Feb 2025 20:15:33.905,2 Feb 2025 20:23:18.834,464.929
78,2 Feb 2025 21:46:50.626,2 Feb 2025 21:58:23.557,692.931
79,2 Feb 2025 23:24:10.345,2 Feb 2025 23:29:48.348,338.003
80,3 Feb 2025 19:58:21.379,3 Feb 2025 20:03:39.234,317.855
81,3 Feb 2025 21:28:11.895,3 Feb 2025 21:39:39.507,687.612
82,3 Feb 2025 23:03:55.423,3 Feb 2025 23:12:12.020,496.598
83,4 Feb 2025 21:09:44.774,4 Feb 2025 21:20:49.490,664.716
84,4 Feb 2025 22:44:16.445,4 Feb 2025 22:54:05.792,589.347
85,5 Feb 2025 20:51:29.911,5 Feb 2025 21:01:53.021,623.110
86,5 Feb 2025 22:24:57.881,5 Feb 2025 22:35:44.909,647.028
87,6 Feb 2025 20:33:29.065,6 Feb 2025 20:42:48.602,559.537
88,6 Feb 2025 22:05:54.466,6 Feb 2025 22:17:14.457,679.990
89,7 Feb 2025 20:15:46.246,7 Feb 2025 20:23:32.507,466.260
90,7 Feb 2025 21:47:03.831,7 Feb 2025 21:58:36.719,692.889
91,7 Feb 2025 23:24:24.998,7 Feb 2025 23:30:00.401,335.403
92,8 Feb 2025 19:58:33.205,8 Feb 2025 20:03:53.342,320.137
93,8 Feb 2025 21:28:24.963,8 Feb 2025 21:39:52.740,687.776
94,8 Feb 2025 23:04:09.426,8 Feb 2025 23:12:24.648,495.222
95,9 Feb 2025 21:09:57.704,9 Feb 2025 21:21:02.793,665.089
96,9 Feb 2025 22:44:30.154,9 Feb 2025 22:54:18.645,588.491
97,10 Feb 2025 20:51:42.690,10 Feb 2025 21:02:06.408,623.718
98,10 Feb 2025 22:25:11.390,10 Feb 2025 22:35:57.897,646.507
99,11 Feb 2025 20:33:41.662,11 Feb 2025 20:43:02.096,560.434
100,11 Feb 2025 22:06:07.815,11 Feb 2025 22:17:27.540,679.725
101,12 Feb 2025 20:15:58.591,12 Feb 2025 20:23:46.177,467.587
102,12 Feb 2025 21:47:17.037,12 Feb 2025 21:58:49.881,692.844
103,12 Feb 2025 23:24:39.666,12 Feb 2025 23:30:12.439,332.773
104,13 Feb 2025 19:58:45.040,13 Feb 2025 20:04:07.444,322.404
105,13 Feb 2025 21:28:38.034,13 Feb 2025 21:40:05.972,687.938
106,13 Feb 2025 23:04:23.436,13 Feb 2025 23:12:37.272,493.836
107,14 Feb 2025 21:10:10.637,14 Feb 2025 21:21:16.097,665.460
108,14 Feb 2025 22:44:43.867,14 Feb 2025 22:54:31.498,587.630
109,15 Feb 2025 20:51:55.472,15 Feb 2025 21:02:19.793,624.322
110,15 Feb 2025 22:25:24.902,15 Feb 2025 22:36:10.884,645.982
111,16 Feb 2025 20:33:54.263,16 Feb 2025 20:43:15.590,561.327
112,16 Feb 2025 22:06:21.164,16 Feb 2025 22:17:40.624,679.460
113,17 Feb 2025 20:16:10.941,17 Feb 2025 20:23:59.846,468.905
114,17 Feb 2025 21:47:30.246,17 Feb 2025 21:59:03.043,692.797
115,17 Feb 2025 23:24:54.350,17 Feb 2025 23:30:24.466,330.116
116,18 Feb 2025 19:58:56.888,18 Feb 2025 20:04:21.535,324.647
117,18 Feb 2025 21:28:51.107,18 Feb 2025 21:40:19.205,688.097
118,18 Feb 2025 23:04:37.451,18 Feb 2025 23:12:49.894,492.443
119,19 Feb 2025 21:10:23.571,19 Feb 2025 21:21:29.400,665.828
120,19 Feb 2025 22:44:57.583,19 Feb 2025 22:54:44.349,586.766
121,20 Feb 2025 20:52:08.256,20 Feb 2025 21:02:33.177,624.922
122,20 Feb 2025 22:25:38.416,20 Feb 2025 22:36:23.871,645.455
123,21 Feb 2025 20:34:06.866,21 Feb 2025 20:43:29.081,562.214
124,21 Feb 2025 22:06:34.516,21 Feb 2025 22:17:53.707,679.190
125,22 Feb 2025 20:16:23.294,22 Feb 2025 20:24:13.510,470.215
126,22 Feb 2025 21:47:43.455,22 Feb 2025 21:59:16.203,692.748
127,22 Feb 2025 23:25:09.046,22 Feb 2025 23:30:36.480,327.433
128,23 Feb 2025 19:59:08.745,23 Feb 2025 20:04:35.614,326.869
129,23 Feb 2025 21:29:04.181,23 Feb 2025 21:40:32.435,688.254
130,23 Feb 2025 23:04:51.469,23 Feb 2025 23:13:02.511,491.042
131,24 Feb 2025 21:10:36.507,24 Feb 2025 21:21:42.701,666.194
132,24 Feb 2025 22:45:11.302,24 Feb 2025 22:54:57.198,585.896
133,25 Feb 2025 20:52:21.040,25 Feb 2025 21:02:46.559,625.519
134,25 Feb 2025 22:25:51.931,25 Feb 2025 22:36:36.855,644.924
135,26 Feb 2025 20:34:19.471,26 Feb 2025 20:43:42.570,563.099
136,26 Feb 2025 22:06:47.870,26 Feb 2025 22:18:06.788,678.917
137,27 Feb 2025 20:16:35.650,27 Feb 2025 20:24:27.171,471.521
138,27 Feb 2025 21:47:56.666,27 Feb 2025 21:59:29.362,692.696
139,27 Feb 2025 23:25:23.759,27 Feb 2025 23:30:48.477,324.718
140,28 Feb 2025 19:59:20.611,28 Feb 2025 20:04:49.687,329.076
141,28 Feb 2025 21:29:17.256,28 Feb 2025 21:40:45.663,688.407
142,28 Feb 2025 23:05:05.492,28 Feb 2025 23:13:15.124,489.632
143,1 Mar 2025 21:10:49.445,1 Mar 2025 21:21:56.002,666.557
144,1 Mar 2025 22:45:25.025,1 Mar 2025 22:55:10.044,585.019
145,2 Mar 2025 20:52:33.828,2 Mar 2025 21:02:59.942,626.114
146,2 Mar 2025 22:26:05.449,2 Mar 2025 22:36:49.839,644.390
147,3 Mar 2025 20:34:32.080,3 Mar 2025 20:43:56.059,563.979
148,3 Mar 2025 22:07:01.227,3 Mar 2025 22:18:19.869,678.642
149,4 Mar 2025 20:16:48.015,4 Mar 2025 20:24:40.830,472.815
150,4 Mar 2025 21:48:09.881,4 Mar 2025 21:59:42.517,692.636
151,4 Mar 2025 23:25:38.489,4 Mar 2025 23:31:00.467,321.978
152,5 Mar 2025 19:59:32.486,5 Mar 2025 20:05:03.744,331.257
153,5 Mar 2025 21:29:30.335,5 Mar 2025 21:40:58.893,688.557
154,5 Mar 2025 23:05:19.524,5 Mar 2025 23:13:27.735,488.211
155,6 Mar 2025 21:11:02.385,6 Mar 2025 21:22:09.302,666.917
156,6 Mar 2025 22:45:38.750,6 Mar 2025 22:55:22.891,584.141
157,7 Mar 2025 20:52:46.618,7 Mar 2025 21:03:13.322,626.704
158,7 Mar 2025 22:26:18.969,7 Mar 2025 22:37:02.822,643.853
159,8 Mar 2025 20:34:44.690,8 Mar 2025 20:44:09.545,564.854
160,8 Mar 2025 22:07:14.585,8 Mar 2025 22:18:32.949,678.364
161,9 Mar 2025 20:17:00.377,9 Mar 2025 20:24:54.481,474.105
162,9 Mar 2025 21:48:23.094,9 Mar 2025 21:59:55.679,692.585
163,9 Mar 2025 23:25:53.232,9 Mar 2025 23:31:12.433,319.201
164,10 Mar 2025 19:59:44.376,10 Mar 2025 20:05:17.801,333.425
165,10 Mar 2025 21:29:43.413,10 Mar 2025 21:41:12.122,688.709
166,10 Mar 2025 23:05:33.553,10 Mar 2025 23:13:40.342,486.789
167,11 Mar 2025 21:11:15.326,11 Mar 2025 21:22:22.601,667.275
168,11 Mar 2025 22:45:52.477,11 Mar 2025 22:55:35.734,583.256
169,12 Mar 2025 20:52:59.409,12 Mar 2025 21:03:26.702,627.293
170,12 Mar 2025 22:26:32.491,12 Mar 2025 22:37:15.803,643.312
171,13 Mar 2025 20:34:57.303,13 Mar 2025 20:44:23.030,565.727
172,13 Mar 2025 22:07:27.945,13 Mar 2025 22:18:46.028,678.083
173,14 Mar 2025 20:17:12.745,14 Mar 2025 20:25:08.136,475.391
174,14 Mar 2025 21:48:36.311,14 Mar 2025 22:00:08.837,692.526
175,14 Mar 2025 23:26:07.995,14 Mar 2025 23:31:24.387,316.393
176,15 Mar 2025 19:59:56.272,15 Mar 2025 20:05:31.848,335.576
177,15 Mar 2025 21:29:56.495,15 Mar 2025 21:41:25.350,688.855
178,15 Mar 2025 23:05:47.591,15 Mar 2025 23:13:52.945,485.353
179,16 Mar 2025 21:11:28.270,16 Mar 2025 21:22:35.900,667.631
180,16 Mar 2025 22:46:06.203,16 Mar 2025 22:55:48.576,582.373
181,17 Mar 2025 20:53:12.203,17 Mar 2025 21:03:40.081,627.878
182,17 Mar 2025 22:26:46.017,17 Mar 2025 22:37:28.785,642.768
183,18 Mar 2025 20:35:09.920,18 Mar 2025 20:44:36.515,566.595
184,18 Mar 2025 22:07:41.308,18 Mar 2025 22:18:59.107,677.799
185,19 Mar 2025 20:17:25.119,19 Mar 2025 20:25:21.788,476.669
186,19 Mar 2025 21:48:49.530,19 Mar 2025 22:00:21.995,692.464
187,19 Mar 2025 23:26:22.773,19 Mar 2025 23:31:36.328,313.556
188,20 Mar 2025 20:00:08.179,20 Mar 2025 20:05:45.885,337.706
189,20 Mar 2025 21:30:09.578,20 Mar 2025 21:41:38.579,689.000
190,20 Mar 2025 23:06:01.635,20 Mar 2025 23:14:05.546,483.911
191,21 Mar 2025 21:11:41.215,21 Mar 2025 21:22:49.199,667.983
192,21 Mar 2025 22:46:19.937,21 Mar 2025 22:56:01.417,581.481
193,22 Mar 2025 20:53:25.000,22 Mar 2025 21:03:53.459,628.460
194,22 Mar 2025 22:26:59.544,22 Mar 2025 22:37:41.765,642.221
195,23 Mar 2025 20:35:22.539,23 Mar 2025 20:44:49.997,567.458
196,23 Mar 2025 22:07:54.672,23 Mar 2025 22:19:12.185,677.513
197,24 Mar 2025 20:17:37.496,24 Mar 2025 20:25:35.436,477.941
198,24 Mar 2025 21:49:02.750,24 Mar 2025 22:00:35.150,692.400
199,24 Mar 2025 23:26:37.567,24 Mar 2025 23:31:48.253,310.686
200,25 Mar 2025 20:00:20.094,25 Mar 2025 20:05:59.913,339.819
201,25 Mar 2025 21:30:22.662,25 Mar 2025 21:41:51.805,689.143
202,25 Mar 2025 23:06:15.682,25 Mar 2025 23:14:18.141,482.459
203,26 Mar 2025 21:11:54.162,26 Mar 2025 21:23:02.495,668.333
204,26 Mar 2025 22:46:33.672,26 Mar 2025 22:56:14.255,580.583
205,27 Mar 2025 20:53:37.797,27 Mar 2025 21:04:06.836,629.039
206,27 Mar 2025 22:27:13.073,27 Mar 2025 22:37:54.743,641.670
207,28 Mar 2025 20:35:35.162,28 Mar 2025 20:45:03.474,568.311
208,28 Mar 2025 22:08:08.037,28 Mar 2025 22:19:25.261,677.224
209,29 Mar 2025 20:17:49.878,29 Mar 2025 20:25:49.084,479.207
210,29 Mar 2025 21:49:15.974,29 Mar 2025 22:00:48.306,692.333
211,29 Mar 2025 23:26:52.377,29 Mar 2025 23:32:00.160,307.783
212,30 Mar 2025 20:00:32.018,30 Mar 2025 20:06:13.936,341.918
213,30 Mar 2025 21:30:35.750,30 Mar 2025 21:42:05.032,689.282
214,30 Mar 2025 23:06:29.736,30 Mar 2025 23:14:30.733,480.997
215,31 Mar 2025 21:12:07.112,31 Mar 2025 21:23:15.793,668.681
216,31 Mar 2025 22:46:47.413,31 Mar 2025 22:56:27.097,579.685
217,1 Apr 2025 20:53:50.598,1 Apr 2025 21:04:20.213,629.615
218,1 Apr 2025 22:27:26.605,1 Apr 2025 22:38:07.721,641.116
219,2 Apr 2025 20:35:47.787,2 Apr 2025 20:45:16.954,569.167
220,2 Apr 2025 22:08:21.406,2 Apr 2025 22:19:38.338,676.932
221,3 Apr 2025 20:18:02.263,3 Apr 2025 20:26:02.728,480.465
222,3 Apr 2025 21:49:29.198,3 Apr 2025 22:01:01.462,692.264
223,3 Apr 2025 23:27:07.207,3 Apr 2025 23:32:12.053,304.846
224,4 Apr 2025 20:00:43.951,4 Apr 2025 20:06:27.948,343.997
225,4 Apr 2025 21:30:48.838,4 Apr 2025 21:42:18.258,689.420
226,4 Apr 2025 23:06:43.794,4 Apr 2025 23:14:43.322,479.528
227,5 Apr 2025 21:12:20.063,5 Apr 2025 21:23:29.089,669.026
228,5 Apr 2025 22:47:01.155,5 Apr 2025 22:56:39.933,578.778
229,6 Apr 2025 20:54:03.400,6 Apr 2025 21:04:33.588,630.188
230,6 Apr 2025 22:27:40.139,6 Apr 2025 22:38:20.698,640.559
231,7 Apr 2025 20:36:00.413,7 Apr 2025 20:45:30.432,570.019
232,7 Apr 2025 22:08:34.775,7 Apr 2025 22:19:51.410,676.634
233,8 Apr 2025 20:18:14.651,8 Apr 2025 20:26:16.369,481.718
234,8 Apr 2025 21:49:42.424,8 Apr 2025 22:01:14.616,692.192
235,8 Apr 2025 23:27:22.057,8 Apr 2025 23:32:23.925,301.869
236,9 Apr 2025 20:00:55.892,9 Apr 2025 20:06:41.955,346.063
237,9 Apr 2025 21:31:01.928,9 Apr 2025 21:42:31.483,689.555
238,9 Apr 2025 23:06:57.857,9 Apr 2025 23:14:55.908,478.051
239,10 Apr 2025 21:12:33.015,10 Apr 2025 21:23:42.384,669.369
240,10 Apr 2025 22:47:14.901,10 Apr 2025 22:56:52.765,577.865
241,11 Apr 2025 20:54:16.204,11 Apr 2025 21:04:46.963,630.759
242,11 Apr 2025 22:27:53.676,11 Apr 2025 22:38:33.673,639.997
243,12 Apr 2025 20:36:13.043,12 Apr 2025 20:45:43.911,570.868
244,12 Apr 2025 22:08:48.148,12 Apr 2025 22:20:04.489,676.341
245,13 Apr 2025 20:18:27.043,13 Apr 2025 20:26:30.009,482.966
246,13 Apr 2025 21:49:55.653,13 Apr 2025 22:01:27.771,692.118
247,13 Apr 2025 23:27:36.928,13 Apr 2025 23:32:35.781,298.853
248,14 Apr 2025 20:01:07.841,14 Apr 2025 20:06:55.954,348.113
249,14 Apr 2025 21:31:15.021,14 Apr 2025 21:42:44.708,689.687
250,14 Apr 2025 23:07:11.932,14 Apr 2025 23:15:08.489,476.557
251,15 Apr 2025 21:12:45.971,15 Apr 2025 21:23:55.680,669.709
252,15 Apr 2025 22:47:28.651,15 Apr 2025 22:57:05.598,576.947
253,16 Apr 2025 20:54:29.012,16 Apr 2025 21:05:00.338,631.327
254,16 Apr 2025 22:28:07.216,16 Apr 2025 22:38:46.648,639.433
255,17 Apr 2025 20:36:25.675,17 Apr 2025 20:45:57.388,571.713
256,17 Apr 2025 22:09:01.523,17 Apr 2025 22:20:17.564,676.041
257,18 Apr 2025 20:18:39.439,18 Apr 2025 20:26:43.646,484.207
258,18 Apr 2025 21:50:08.883,18 Apr 2025 22:01:40.925,692.041
259,18 Apr 2025 23:27:51.818,18 Apr 2025 23:32:47.619,295.801
260,19 Apr 2025 20:01:19.801,19 Apr 2025 20:07:09.946,350.145
261,19 Apr 2025 21:31:28.116,19 Apr 2025 21:42:57.931,689.815
262,19 Apr 2025 23:07:26.007,19 Apr 2025 23:15:21.067,475.060
263,20 Apr 2025 21:12:58.928,20 Apr 2025 21:24:08.974,670.046
264,20 Apr 2025 22:47:42.402,20 Apr 2025 22:57:18.428,576.026
265,21 Apr 2025 20:54:41.820,21 Apr 2025 21:05:13.711,631.891
266,21 Apr 2025 22:28:20.757,21 Apr 2025 22:38:59.622,638.865
267,22 Apr 2025 20:36:38.309,22 Apr 2025 20:46:10.863,572.554
268,22 Apr 2025 22:09:14.899,22 Apr 2025 22:20:30.637,675.738
269,23 Apr 2025 20:18:51.838,23 Apr 2025 20:26:57.281,485.442
270,23 Apr 2025 21:50:22.115,23 Apr 2025 22:01:54.077,691.962
271,23 Apr 2025 23:28:06.728,23 Apr 2025 23:32:59.435,292.707
272,24 Apr 2025 20:01:31.768,24 Apr 2025 20:07:23.933,352.165
273,24 Apr 2025 21:31:41.211,24 Apr 2025 21:43:11.155,689.944
274,24 Apr 2025 23:07:40.086,24 Apr 2025 23:15:33.639,473.553
275,25 Apr 2025 21:13:11.887,25 Apr 2025 21:24:22.268,670.381
276,25 Apr 2025 22:47:56.158,25 Apr 2025 22:57:31.255,575.097
277,26 Apr 2025 20:54:54.631,26 Apr 2025 21:05:27.084,632.454
278,26 Apr 2025 22:28:34.301,26 Apr 2025 22:39:12.594,638.293
279,27 Apr 2025 20:36:50.946,27 Apr 2025 20:46:24.339,573.392
280,27 Apr 2025 22:09:28.278,27 Apr 2025 22:20:43.710,675.432
281,28 Apr 2025 20:19:04.242,28 Apr 2025 20:27:10.910,486.668
282,28 Apr 2025 21:50:35.350,28 Apr 2025 22:02:07.230,691.881
283,28 Apr 2025 23:28:21.662,28 Apr 2025 23:33:11.232,289.570
284,29 Apr 2025 20:01:43.744,29 Apr 2025 20:07:37.914,354.170
285,29 Apr 2025 21:31:54.310,29 Apr 2025 21:43:24.380,690.070
286,29 Apr 2025 23:07:54.173,29 Apr 2025 23:15:46.208,472.036
287,30 Apr 2025 21:13:24.849,30 Apr 2025 21:24:35.563,670.714
288,30 Apr 2025 22:48:09.918,30 Apr 2025 22:57:44.083,574.165
289,1 May 2025 20:55:07.445,1 May 2025 21:05:40.457,633.012
290,1 May 2025 22:28:47.848,1 May 2025 22:39:25.566,637.718
291,2 May 2025 20:37:03.586,2 May 2025 20:46:37.812,574.225
292,2 May 2025 22:09:41.659,2 May 2025 22:20:56.782,675.124
293,3 May 2025 20:19:16.648,3 May 2025 20:27:24.544,487.896
294,3 May 2025 21:50:48.589,3 May 2025 22:02:20.378,691.789
295,3 May 2025 23:28:36.616,3 May 2025 23:33:23.006,286.390
296,4 May 2025 20:01:55.733,4 May 2025 20:07:51.886,356.153
297,4 May 2025 21:32:07.409,4 May 2025 21:43:37.605,690.196
298,4 May 2025 23:08:08.260,4 May 2025 23:15:58.774,470.514
299,5 May 2025 21:13:37.811,5 May 2025 21:24:48.855,671.044
300,5 May 2025 22:48:23.680,5 May 2025 22:57:56.906,573.227
301,6 May 2025 20:55:20.259,6 May 2025 21:05:53.828,633.569
302,6 May 2025 22:29:01.397,6 May 2025 22:39:38.535,637.139
303,7 May 2025 20:37:16.228,7 May 2025 20:46:51.284,575.056
304,7 May 2025 22:09:55.041,7 May 2025 22:21:09.853,674.812
305,8 May 2025 20:19:29.057,8 May 2025 20:27:38.172,489.116
306,8 May 2025 21:51:01.827,8 May 2025 22:02:33.529,691.702
307,8 May 2025 23:28:51.595,8 May 2025 23:33:34.759,283.164
308,9 May 2025 20:02:07.724,9 May 2025 20:08:05.854,358.130
309,9 May 2025 21:32:20.510,9 May 2025 21:43:50.827,690.317
310,9 May 2025 23:08:22.359,9 May 2025 23:16:11.334,468.975
311,10 May 2025 21:13:50.779,10 May 2025 21:25:02.148,671.369
312,10 May 2025 22:48:37.443,10 May 2025 22:58:09.728,572.286
313,11 May 2025 20:55:33.076,11 May 2025 21:06:07.200,634.123
314,11 May 2025 22:29:14.949,11 May 2025 22:39:51.505,636.556
315,12 May 2025 20:37:28.873,12 May 2025 20:47:04.757,575.884
316,12 May 2025 22:10:08.426,12 May 2025 22:21:22.924,674.498
317,13 May 2025 20:19:41.471,13 May 2025 20:27:51.800,490.329
318,13 May 2025 21:51:15.068,13 May 2025 22:02:46.681,691.613
319,13 May 2025 23:29:06.598,13 May 2025 23:33:46.491,279.893
320,14 May 2025 20:02:19.722,14 May 2025 20:08:19.815,360.093
321,14 May 2025 21:32:33.615,14 May 2025 21:44:04.050,690.435
322,14 May 2025 23:08:36.464,14 May 2025 23:16:23.890,467.427
323,15 May 2025 19:46:41.420,15 May 2025 19:47:11.376,29.956
324,15 May 2025 21:14:03.746,15 May 2025 21:25:15.441,671.694
325,15 May 2025 22:48:51.212,15 May 2025 22:58:22.549,571.337
326,16 May 2025 20:55:45.896,16 May 2025 21:06:20.570,634.674
327,16 May 2025 22:29:28.506,16 May 2025 22:40:04.473,635.968
328,17 May 2025 20:37:41.520,17 May 2025 20:47:18.227,576.707
329,17 May 2025 22:10:21.814,17 May 2025 22:21:35.994,674.180
330,18 May 2025 20:19:53.888,18 May 2025 20:28:05.424,491.537
331,18 May 2025 21:51:28.309,18 May 2025 22:02:59.831,691.521
332,18 May 2025 23:29:21.624,18 May 2025 23:33:58.201,276.577
333,19 May 2025 20:02:31.726,19 May 2025 20:08:33.769,362.043
334,19 May 2025 21:32:46.720,19 May 2025 21:44:17.270,690.550
335,19 May 2025 23:08:50.567,19 May 2025 23:16:36.444,465.876
336,20 May 2025 19:46:44.314,20 May 2025 19:47:34.355,50.041
337,20 May 2025 21:14:16.714,20 May 2025 21:25:28.731,672.017
338,20 May 2025 22:49:04.983,20 May 2025 22:58:35.367,570.384
339,21 May 2025 20:55:58.717,21 May 2025 21:06:33.939,635.222
340,21 May 2025 22:29:42.064,21 May 2025 22:40:17.439,635.375
341,22 May 2025 20:37:54.169,22 May 2025 20:47:31.696,577.528
342,22 May 2025 22:10:35.202,22 May 2025 22:21:49.062,673.860
343,23 May 2025 20:20:06.307,23 May 2025 20:28:19.047,492.740
344,23 May 2025 21:51:41.553,23 May 2025 22:03:12.980,691.427
345,23 May 2025 23:29:36.677,23 May 2025 23:34:09.883,273.207
346,24 May 2025 20:02:43.739,24 May 2025 20:08:47.719,363.980
347,24 May 2025 21:32:59.828,24 May 2025 21:44:30.486,690.659
348,24 May 2025 23:09:04.683,24 May 2025 23:16:48.990,464.307
349,25 May 2025 19:46:50.214,25 May 2025 19:47:54.334,64.120
350,25 May 2025 21:14:29.685,25 May 2025 21:25:42.023,672.338
351,25 May 2025 22:49:18.760,25 May 2025 22:58:48.183,569.423
352,26 May 2025 20:56:11.541,26 May 2025 21:06:47.309,635.768
353,26 May 2025 22:29:55.619,26 May 2025 22:40:30.405,634.786
354,27 May 2025 20:38:06.821,27 May 2025 20:47:45.166,578.345
355,27 May 2025 22:10:48.594,27 May 2025 22:22:02.131,673.537
356,28 May 2025 20:20:18.732,28 May 2025 20:28:32.669,493.937
357,28 May 2025 21:51:54.799,28 May 2025 22:03:26.129,691.330
358,28 May 2025 23:29:51.757,28 May 2025 23:34:21.544,269.787
359,29 May 2025 20:02:55.762,29 May 2025 20:09:01.662,365.900
360,29 May 2025 21:33:12.937,29 May 2025 21:44:43.709,690.772
361,29 May 2025 23:09:18.804,29 May 2025 23:17:01.533,462.729
362,30 May 2025 19:46:57.422,30 May 2025 19:48:13.013,75.591
363,30 May 2025 21:14:42.657,30 May 2025 21:25:55.313,672.656
364,30 May 2025 22:49:32.539,30 May 2025 22:59:00.998,568.459
365,31 May 2025 20:56:24.366,31 May 2025 21:07:00.677,636.311
366,31 May 2025 22:30:09.181,31 May 2025 22:40:43.369,634.188
367,1 Jun 2025 20:38:19.475,1 Jun 2025 20:47:58.630,579.155
368,1 Jun 2025 22:11:01.987,1 Jun 2025 22:22:15.198,673.211
369,2 Jun 2025 20:20:31.158,2 Jun 2025 20:28:46.286,495.128
370,2 Jun 2025 21:52:08.046,2 Jun 2025 22:03:39.277,691.231
371,2 Jun 2025 23:30:06.862,2 Jun 2025 23:34:33.177,266.315
372,3 Jun 2025 20:03:07.789,3 Jun 2025 20:09:15.599,367.809
373,3 Jun 2025 21:33:26.047,3 Jun 2025 21:44:56.931,690.883
374,3 Jun 2025 23:09:32.931,3 Jun 2025 23:17:14.070,461.139
375,4 Jun 2025 19:47:05.386,4 Jun 2025 19:48:30.929,85.542
376,4 Jun 2025 21:14:55.631,4 Jun 2025 21:26:08.602,672.972
377,4 Jun 2025 22:49:46.320,4 Jun 2025 22:59:13.808,567.488
378,5 Jun 2025 20:56:37.193,5 Jun 2025 21:07:14.044,636.851
379,5 Jun 2025 22:30:22.745,5 Jun 2025 22:40:56.331,633.586
380,6 Jun 2025 20:38:32.131,6 Jun 2025 20:48:12.097,579.966
381,6 Jun 2025 22:11:15.382,6 Jun 2025 22:22:28.263,672.882
382,7 Jun 2025 20:20:43.588,7 Jun 2025 20:28:59.904,496.317
383,7 Jun 2025 21:52:21.295,7 Jun 2025 22:03:52.424,691.129
384,7 Jun 2025 23:30:21.999,7 Jun 2025 23:34:44.781,262.782
385,8 Jun 2025 20:03:19.824,8 Jun 2025 20:09:29.533,369.708
386,8 Jun 2025 21:33:39.160,8 Jun 2025 21:45:10.150,690.989
387,8 Jun 2025 23:09:47.065,8 Jun 2025 23:17:26.602,459.536
388,9 Jun 2025 19:47:13.875,9 Jun 2025 19:48:48.324,94.449
389,9 Jun 2025 21:15:08.607,9 Jun 2025 21:26:21.892,673.285
390,9 Jun 2025 22:50:00.107,9 Jun 2025 22:59:26.617,566.511
391,10 Jun 2025 20:56:50.023,10 Jun 2025 21:07:27.412,637.389
392,10 Jun 2025 22:30:36.312,10 Jun 2025 22:41:09.293,632.980
393,11 Jun 2025 20:38:44.790,11 Jun 2025 20:48:25.564,580.773
394,11 Jun 2025 22:11:28.776,11 Jun 2025 22:22:41.329,672.553
395,12 Jun 2025 20:20:56.022,12 Jun 2025 20:29:13.520,497.499
396,12 Jun 2025 21:52:34.547,12 Jun 2025 22:04:05.571,691.025
397,12 Jun 2025 23:30:37.165,12 Jun 2025 23:34:56.358,259.193
398,13 Jun 2025 20:03:31.867,13 Jun 2025 20:09:43.459,371.592
399,13 Jun 2025 21:33:52.275,13 Jun 2025 21:45:23.368,691.093
400,13 Jun 2025 23:10:01.202,13 Jun 2025 23:17:39.130,457.928
401,14 Jun 2025 19:47:22.759,14 Jun 2025 19:49:05.324,102.564
402,14 Jun 2025 21:15:21.584,14 Jun 2025 21:26:35.181,673.596
403,14 Jun 2025 22:50:13.895,14 Jun 2025 22:59:39.425,565.529
404,15 Jun 2025 20:57:02.853,15 Jun 2025 21:07:40.777,637.924
405,15 Jun 2025 22:30:49.881,15 Jun 2025 22:41:22.252,632.371
406,16 Jun 2025 20:38:57.451,16 Jun 2025 20:48:39.028,581.577
407,16 Jun 2025 22:11:42.175,16 Jun 2025 22:22:54.393,672.218
408,17 Jun 2025 20:21:08.457,17 Jun 2025 20:29:27.132,498.675
409,17 Jun 2025 21:52:47.799,17 Jun 2025 22:04:18.716,690.918
410,17 Jun 2025 23:30:52.360,17 Jun 2025 23:35:07.905,255.545
411,18 Jun 2025 20:03:43.920,18 Jun 2025 20:09:57.379,373.460
412,18 Jun 2025 21:34:05.389,18 Jun 2025 21:45:36.585,691.195
413,18 Jun 2025 23:10:15.347,18 Jun 2025 23:17:51.653,456.307
414,19 Jun 2025 19:47:31.943,19 Jun 2025 19:49:22.021,110.078
415,19 Jun 2025 21:15:34.563,19 Jun 2025 21:26:48.467,673.905
416,19 Jun 2025 22:50:27.687,19 Jun 2025 22:59:52.228,564.541
417,20 Jun 2025 20:57:15.686,20 Jun 2025 21:07:54.142,638.456
418,20 Jun 2025 22:31:03.453,20 Jun 2025 22:41:35.209,631.756
419,21 Jun 2025 20:39:10.109,21 Jun 2025 20:48:52.494,582.386
420,21 Jun 2025 22:11:55.575,21 Jun 2025 22:23:07.455,671.880
421,22 Jun 2025 20:21:20.897,22 Jun 2025 20:29:40.745,499.848
422,22 Jun 2025 21:53:01.053,22 Jun 2025 22:04:31.861,690.808
423,22 Jun 2025 23:31:07.590,22 Jun 2025 23:35:19.417,251.827
424,23 Jun 2025 20:03:55.975,23 Jun 2025 20:10:11.297,375.322
425,23 Jun 2025 21:34:18.508,23 Jun 2025 21:45:49.802,691.295
426,23 Jun 2025 23:10:29.498,23 Jun 2025 23:18:04.170,454.672
427,24 Jun 2025 19:47:41.370,24 Jun 2025 19:49:38.482,117.112
428,24 Jun 2025 21:15:47.544,24 Jun 2025 21:27:01.756,674.211
429,24 Jun 2025 22:50:41.484,24 Jun 2025 23:00:05.031,563.546
430,25 Jun 2025 20:57:28.521,25 Jun 2025 21:08:07.507,638.986
431,25 Jun 2025 22:31:17.029,25 Jun 2025 22:41:48.167,631.138
432,26 Jun 2025 20:39:22.775,26 Jun 2025 20:49:05.957,583.182
433,26 Jun 2025 22:12:08.979,26 Jun 2025 22:23:20.518,671.539
434,27 Jun 2025 20:21:33.340,27 Jun 2025 20:29:54.354,501.014
435,27 Jun 2025 21:53:14.310,27 Jun 2025 22:04:45.006,690.696
436,27 Jun 2025 23:31:22.852,27 Jun 2025 23:35:30.900,248.048
437,28 Jun 2025 20:04:08.037,28 Jun 2025 20:10:25.207,377.170
438,28 Jun 2025 21:34:31.627,28 Jun 2025 21:46:03.018,691.391
439,28 Jun 2025 23:10:43.654,28 Jun 2025 23:18:16.682,453.029
440,29 Jun 2025 19:47:51.003,29 Jun 2025 19:49:54.738,123.735
441,29 Jun 2025 21:16:00.526,29 Jun 2025 21:27:15.037,674.511
442,29 Jun 2025 22:50:55.284,29 Jun 2025 23:00:17.830,562.546
443,30 Jun 2025 20:57:41.357,30 Jun 2025 21:08:20.870,639.513
444,30 Jun 2025 22:31:30.601,30 Jun 2025 22:42:01.121,630.520
445,1 Jul 2025 20:39:35.442,1 Jul 2025 20:49:19.418,583.976
446,1 Jul 2025 22:12:22.383,1 Jul 2025 22:23:33.577,671.195
447,2 Jul 2025 20:21:45.785,2 Jul 2025 20:30:07.961,502.176
448,2 Jul 2025 21:53:27.567,2 Jul 2025 22:04:58.148,690.581
449,2 Jul 2025 23:31:38.149,2 Jul 2025 23:35:42.345,244.196
450,3 Jul 2025 20:04:20.103,3 Jul 2025 20:10:39.112,379.009
451,3 Jul 2025 21:34:44.747,3 Jul 2025 21:46:16.233,691.486
452,3 Jul 2025 23:10:57.815,3 Jul 2025 23:18:29.187,451.372
453,4 Jul 2025 19:48:00.804,4 Jul 2025 19:50:10.826,130.023
454,4 Jul 2025 21:16:13.510,4 Jul 2025 21:27:28.322,674.812
455,4 Jul 2025 22:51:09.083,4 Jul 2025 23:00:30.625,561.542
456,5 Jul 2025 20:57:54.195,5 Jul 2025 21:08:34.233,640.038
457,5 Jul 2025 22:31:44.180,5 Jul 2025 22:42:14.074,629.894
458,6 Jul 2025 20:39:48.111,6 Jul 2025 20:49:32.878,584.767
459,6 Jul 2025 22:12:35.790,6 Jul 2025 22:23:46.637,670.847
460,7 Jul 2025 20:21:58.233,7 Jul 2025 20:30:21.568,503.334
461,7 Jul 2025 21:53:40.827,7 Jul 2025 22:05:11.290,690.463
462,7 Jul 2025 23:31:53.485,7 Jul 2025 23:35:53.754,240.268
463,8 Jul 2025 20:04:32.174,8 Jul 2025 20:10:53.014,380.841
464,8 Jul 2025 21:34:57.870,8 Jul 2025 21:46:29.447,691.578
465,8 Jul 2025 23:11:11.984,8 Jul 2025 23:18:41.688,449.703
466,9 Jul 2025 19:48:10.755,9 Jul 2025 19:50:26.769,136.014
467,9 Jul 2025 21:16:26.496,9 Jul 2025 21:27:41.607,675.112
468,9 Jul 2025 22:51:22.889,9 Jul 2025 23:00:43.420,560.530
469,10 Jul 2025 20:58:07.035,10 Jul 2025 21:08:47.595,640.560
470,10 Jul 2025 22:31:57.761,10 Jul 2025 22:42:27.026,629.265
471,11 Jul 2025 20:40:00.783,11 Jul 2025 20:49:46.337,585.554
472,11 Jul 2025 22:12:49.198,11 Jul 2025 22:23:59.695,670.497
473,12 Jul 2025 20:22:10.685,12 Jul 2025 20:30:35.171,504.486
474,12 Jul 2025 21:53:54.088,12 Jul 2025 22:05:24.431,690.343
475,12 Jul 2025 23:32:08.858,12 Jul 2025 23:36:05.127,236.269
476,13 Jul 2025 20:04:44.259,13 Jul 2025 20:11:06.908,382.650
477,13 Jul 2025 21:35:10.993,13 Jul 2025 21:46:42.660,691.667
478,13 Jul 2025 23:11:26.158,13 Jul 2025 23:18:54.184,448.025
479,14 Jul 2025 19:48:20.840,14 Jul 2025 19:50:42.573,141.733
480,14 Jul 2025 21:16:39.482,14 Jul 2025 21:27:54.890,675.408
481,14 Jul 2025 22:51:36.696,14 Jul 2025 23:00:56.211,559.514
482,15 Jul 2025 20:58:19.876,15 Jul 2025 21:09:00.955,641.079
483,15 Jul 2025 22:32:11.344,15 Jul 2025 22:42:39.978,628.634
484,16 Jul 2025 20:40:13.455,16 Jul 2025 20:49:59.793,586.338
485,16 Jul 2025 22:13:02.608,16 Jul 2025 22:24:12.751,670.143
486,17 Jul 2025 20:22:23.138,17 Jul 2025 20:30:48.772,505.633
487,17 Jul 2025 21:54:07.349,17 Jul 2025 22:05:37.570,690.221
488,17 Jul 2025 23:32:24.271,17 Jul 2025 23:36:16.457,232.186
489,18 Jul 2025 20:04:56.343,18 Jul 2025 20:11:20.799,384.456
490,18 Jul 2025 21:35:24.118,18 Jul 2025 21:46:55.872,691.754
491,18 Jul 2025 23:11:40.338,18 Jul 2025 23:19:06.672,446.333
492,19 Jul 2025 19:48:31.033,19 Jul 2025 19:50:58.275,147.242
493,19 Jul 2025 21:16:52.470,19 Jul 2025 21:28:08.173,675.702
494,19 Jul 2025 22:51:50.508,19 Jul 2025 23:01:08.998,558.490
495,20 Jul 2025 20:58:32.719,20 Jul 2025 21:09:14.315,641.596
496,20 Jul 2025 22:32:24.927,20 Jul 2025 22:42:52.925,627.998
497,21 Jul 2025 20:40:26.131,21 Jul 2025 20:50:13.246,587.115
498,21 Jul 2025 22:13:16.020,21 Jul 2025 22:24:25.807,669.786
499,22 Jul 2025 20:22:35.596,22 Jul 2025 20:31:02.372,506.777
500,22 Jul 2025 21:54:20.614,22 Jul 2025 22:05:50.710,690.095
501,22 Jul 2025 23:32:39.730,22 Jul 2025 23:36:27.745,228.015
502,23 Jul 2025 20:05:08.434,23 Jul 2025 20:11:34.685,386.251
503,23 Jul 2025 21:35:37.245,23 Jul 2025 21:47:09.084,691.839
504,23 Jul 2025 23:11:54.526,23 Jul 2025 23:19:19.156,444.630
505,24 Jul 2025 19:48:41.334,24 Jul 2025 19:51:13.870,152.537
506,24 Jul 2025 21:17:05.461,24 Jul 2025 21:28:21.455,675.994
507,24 Jul 2025 22:52:04.323,24 Jul 2025 23:01:21.784,557.462
508,25 Jul 2025 20:58:45.564,25 Jul 2025 21:09:27.674,642.110
509,25 Jul 2025 22:32:38.515,25 Jul 2025 22:43:05.872,627.357
510,26 Jul 2025 20:40:38.808,26 Jul 2025 20:50:26.705,587.897
511,26 Jul 2025 22:13:29.434,26 Jul 2025 22:24:38.861,669.427
512,27 Jul 2025 20:22:48.056,27 Jul 2025 20:31:15.964,507.909
513,27 Jul 2025 21:54:33.879,27 Jul 2025 22:06:03.847,689.968
514,27 Jul 2025 23:32:55.230,27 Jul 2025 23:36:38.991,223.760
515,28 Jul 2025 20:05:20.530,28 Jul 2025 20:11:48.563,388.033
516,28 Jul 2025 21:35:50.372,28 Jul 2025 21:47:22.294,691.921
517,28 Jul 2025 23:12:08.718,28 Jul 2025 23:19:31.633,442.915
518,29 Jul 2025 19:48:51.725,29 Jul 2025 19:51:29.372,157.647
519,29 Jul 2025 21:17:18.452,29 Jul 2025 21:28:34.735,676.283
520,29 Jul 2025 22:52:18.139,29 Jul 2025 23:01:34.566,556.427
521,30 Jul 2025 20:58:58.409,30 Jul 2025 21:09:41.031,642.621
522,30 Jul 2025 22:32:52.103,30 Jul 2025 22:43:18.815,626.712
523,31 Jul 2025 20:40:51.486,31 Jul 2025 20:50:40.153,588.667
524,31 Jul 2025 22:13:42.848,31 Jul 2025 22:24:51.912,669.064
525,1 Aug 2025 20:23:00.517,1 Aug 2025 20:31:29.559,509.042
526,1 Aug 2025 21:54:47.145,1 Aug 2025 22:06:16.982,689.837
527,1 Aug 2025 23:33:10.780,1 Aug 2025 23:36:50.185,219.405
528,2 Aug 2025 20:05:32.632,2 Aug 2025 20:12:02.439,389.807
529,2 Aug 2025 21:36:03.501,2 Aug 2025 21:47:35.502,692.001
530,2 Aug 2025 23:12:22.917,2 Aug 2025 23:19:44.103,441.186
531,3 Aug 2025 19:49:02.193,3 Aug 2025 19:51:44.795,162.602
532,3 Aug 2025 21:17:31.444,3 Aug 2025 21:28:48.015,676.571
533,3 Aug 2025 22:52:31.959,3 Aug 2025 23:01:47.345,555.385
534,4 Aug 2025 20:59:11.257,4 Aug 2025 21:09:54.384,643.127
535,4 Aug 2025 22:33:05.694,4 Aug 2025 22:43:31.757,626.062
536,5 Aug 2025 20:41:04.167,5 Aug 2025 20:50:53.606,589.439
537,5 Aug 2025 22:13:56.265,5 Aug 2025 22:25:04.963,668.698
538,6 Aug 2025 20:23:12.982,6 Aug 2025 20:31:43.153,510.171
539,6 Aug 2025 21:55:00.414,6 Aug 2025 22:06:30.118,689.704
540,6 Aug 2025 23:33:26.381,6 Aug 2025 23:37:01.331,214.949
541,7 Aug 2025 20:05:44.741,7 Aug 2025 20:12:16.309,391.568
542,7 Aug 2025 21:36:16.632,7 Aug 2025 21:47:48.711,692.078
543,7 Aug 2025 23:12:37.118,7 Aug 2025 23:19:56.568,439.451
544,8 Aug 2025 19:49:12.745,8 Aug 2025 19:52:00.141,167.396
545,8 Aug 2025 21:17:44.438,8 Aug 2025 21:29:01.293,676.855
546,8 Aug 2025 22:52:45.783,8 Aug 2025 23:02:00.122,554.339
547,9 Aug 2025 20:59:24.106,9 Aug 2025 21:10:07.739,643.633
548,9 Aug 2025 22:33:19.288,9 Aug 2025 22:43:44.697,625.409
549,10 Aug 2025 20:41:16.850,10 Aug 2025 20:51:07.058,590.208
550,10 Aug 2025 22:14:09.683,10 Aug 2025 22:25:18.013,668.330
551,11 Aug 2025 20:23:25.450,11 Aug 2025 20:31:56.743,511.293
552,11 Aug 2025 21:55:13.683,11 Aug 2025 22:06:43.251,689.568
553,11 Aug 2025 23:33:42.032,11 Aug 2025 23:37:12.425,210.392
554,12 Aug 2025 20:05:56.856,12 Aug 2025 20:12:30.172,393.316
555,12 Aug 2025 21:36:29.763,12 Aug 2025 21:48:01.917,692.153
556,12 Aug 2025 23:12:51.328,12 Aug 2025 23:20:09.027,437.699
557,13 Aug 2025 19:49:23.364,13 Aug 2025 19:52:15.415,172.050
558,13 Aug 2025 21:17:57.433,13 Aug 2025 21:29:14.570,677.137
559,13 Aug 2025 22:52:59.608,13 Aug 2025 23:02:12.895,553.286
560,14 Aug 2025 20:59:36.956,14 Aug 2025 21:10:21.092,644.137
561,14 Aug 2025 22:33:32.879,14 Aug 2025 22:43:57.634,624.755
562,15 Aug 2025 20:41:29.534,15 Aug 2025 20:51:20.508,590.974
563,15 Aug 2025 22:14:23.102,15 Aug 2025 22:25:31.060,667.958
564,16 Aug 2025 20:23:37.920,16 Aug 2025 20:32:10.332,512.412
565,16 Aug 2025 21:55:26.953,16 Aug 2025 22:06:56.387,689.435
566,16 Aug 2025 23:33:57.745,16 Aug 2025 23:37:23.455,205.710
567,17 Aug 2025 20:06:08.975,17 Aug 2025 20:12:44.033,395.058
568,17 Aug 2025 21:36:42.896,17 Aug 2025 21:48:15.122,692.226
569,17 Aug 2025 23:13:05.546,17 Aug 2025 23:20:21.478,435.932
570,18 Aug 2025 19:49:34.045,18 Aug 2025 19:52:30.630,176.585
571,18 Aug 2025 21:18:10.429,18 Aug 2025 21:29:27.846,677.417
572,18 Aug 2025 22:53:13.438,18 Aug 2025 23:02:25.665,552.226
573,19 Aug 2025 20:59:49.808,19 Aug 2025 21:10:34.446,644.638
574,19 Aug 2025 22:33:46.477,19 Aug 2025 22:44:10.570,624.094
575,20 Aug 2025 20:41:42.220,20 Aug 2025 20:51:33.956,591.736
576,20 Aug 2025 22:14:36.524,20 Aug 2025 22:25:44.107,667.583
577,21 Aug 2025 20:23:50.393,21 Aug 2025 20:32:23.918,513.526
578,21 Aug 2025 21:55:40.225,21 Aug 2025 22:07:09.519,689.294
579,21 Aug 2025 23:34:13.518,21 Aug 2025 23:37:34.433,200.916
580,22 Aug 2025 20:06:21.101,22 Aug 2025 20:12:57.888,396.786
581,22 Aug 2025 21:36:56.031,22 Aug 2025 21:48:28.327,692.296
582,22 Aug 2025 23:13:19.770,22 Aug 2025 23:20:33.925,434.155
583,23 Aug 2025 19:49:44.788,23 Aug 2025 19:52:45.787,180.999
584,23 Aug 2025 21:18:23.427,23 Aug 2025 21:29:41.121,677.694
585,23 Aug 2025 22:53:27.270,23 Aug 2025 23:02:38.433,551.162
586,24 Aug 2025 21:00:02.661,24 Aug 2025 21:10:47.797,645.135
587,24 Aug 2025 22:34:00.075,24 Aug 2025 22:44:23.504,623.429
588,25 Aug 2025 20:41:54.908,25 Aug 2025 20:51:47.401,592.493
589,25 Aug 2025 22:14:49.946,25 Aug 2025 22:25:57.148,667.202
590,26 Aug 2025 20:24:02.868,26 Aug 2025 20:32:37.500,514.632
591,26 Aug 2025 21:55:53.495,26 Aug 2025 22:07:22.645,689.151
592,26 Aug 2025 23:34:29.352,26 Aug 2025 23:37:45.340,195.988
593,27 Aug 2025 20:06:33.231,27 Aug 2025 20:13:11.736,398.505
594,27 Aug 2025 21:37:09.165,27 Aug 2025 21:48:41.529,692.364
595,27 Aug 2025 23:13:33.999,27 Aug 2025 23:20:46.364,432.365
596,28 Aug 2025 19:49:55.585,28 Aug 2025 19:53:00.885,185.300
597,28 Aug 2025 21:18:36.425,28 Aug 2025 21:29:54.394,677.969
598,28 Aug 2025 22:53:41.104,28 Aug 2025 23:02:51.195,550.091
599,29 Aug 2025 21:00:15.515,29 Aug 2025 21:11:01.146,645.631
600,29 Aug 2025 22:34:13.675,29 Aug 2025 22:44:36.435,622.760
601,30 Aug 2025 20:42:07.596,30 Aug 2025 20:52:00.844,593.248
602,30 Aug 2025 22:15:03.369,30 Aug 2025 22:26:10.190,666.820
603,31 Aug 2025 20:24:15.345,31 Aug 2025 20:32:51.081,515.736
604,31 Aug 2025 21:56:06.769,31 Aug 2025 22:07:35.773,689.004
605,31 Aug 2025 23:34:45.258,31 Aug 2025 23:37:56.176,190.918
606,1 Sep 2025 20:06:45.366,1 Sep 2025 20:13:25.581,400.214
607,1 Sep 2025 21:37:22.302,1 Sep 2025 21:48:54.730,692.429
608,1 Sep 2025 23:13:48.236,1 Sep 2025 23:20:58.796,430.560
609,2 Sep 2025 19:50:06.433,2 Sep 2025 19:53:15.934,189.501
610,2 Sep 2025 21:18:49.425,2 Sep 2025 21:30:07.666,678.241
611,2 Sep 2025 22:53:54.939,2 Sep 2025 23:03:03.956,549.017
612,3 Sep 2025 21:00:28.371,3 Sep 2025 21:11:14.494,646.124
613,3 Sep 2025 22:34:27.278,3 Sep 2025 22:44:49.365,622.087
614,4 Sep 2025 20:42:20.288,4 Sep 2025 20:52:14.287,593.999
615,4 Sep 2025 22:15:16.795,4 Sep 2025 22:26:23.231,666.436
616,5 Sep 2025 20:24:27.826,5 Sep 2025 20:33:04.660,516.834
617,5 Sep 2025 21:56:20.045,5 Sep 2025 22:07:48.900,688.855
618,5 Sep 2025 23:35:01.240,5 Sep 2025 23:38:06.939,185.699
619,6 Sep 2025 20:06:57.508,6 Sep 2025 20:13:39.419,401.911
620,6 Sep 2025 21:37:35.439,6 Sep 2025 21:49:07.931,692.492
621,6 Sep 2025 23:14:02.479,6 Sep 2025 23:21:11.223,428.744
622,7 Sep 2025 19:50:17.333,7 Sep 2025 19:53:30.931,193.598
623,7 Sep 2025 21:19:02.426,7 Sep 2025 21:30:20.937,678.511
624,7 Sep 2025 22:54:08.780,7 Sep 2025 23:03:16.715,547.935
625,8 Sep 2025 21:00:41.228,8 Sep 2025 21:11:27.841,646.613
626,8 Sep 2025 22:34:40.881,8 Sep 2025 22:45:02.292,621.411
627,9 Sep 2025 20:42:32.980,9 Sep 2025 20:52:27.726,594.746
628,9 Sep 2025 22:15:30.221,9 Sep 2025 22:26:36.270,666.049
629,10 Sep 2025 20:24:40.308,10 Sep 2025 20:33:18.235,517.926
630,10 Sep 2025 21:56:33.321,10 Sep 2025 22:08:02.024,688.704
631,10 Sep 2025 23:35:17.301,10 Sep 2025 23:38:17.621,180.320
632,11 Sep 2025 20:07:09.654,11 Sep 2025 20:13:53.252,403.599
633,11 Sep 2025 21:37:48.577,11 Sep 2025 21:49:21.129,692.552
634,11 Sep 2025 23:14:16.727,11 Sep 2025 23:21:23.642,426.914
635,12 Sep 2025 19:50:28.275,12 Sep 2025 19:53:45.885,197.610
636,12 Sep 2025 21:19:15.428,12 Sep 2025 21:30:34.206,678.778
637,12 Sep 2025 22:54:22.623,12 Sep 2025 23:03:29.468,546.845
638,13 Sep 2025 21:00:54.086,13 Sep 2025 21:11:41.186,647.100
639,13 Sep 2025 22:34:54.487,13 Sep 2025 22:45:15.217,620.730
640,14 Sep 2025 20:42:45.674,14 Sep 2025 20:52:41.165,595.491
641,14 Sep 2025 22:15:43.649,14 Sep 2025 22:26:49.308,665.659
642,15 Sep 2025 20:24:52.793,15 Sep 2025 20:33:31.809,519.016
643,15 Sep 2025 21:56:46.599,15 Sep 2025 22:08:15.148,688.549
644,15 Sep 2025 23:35:33.458,15 Sep 2025 23:38:28.208,174.750
645,16 Sep 2025 20:07:21.805,16 Sep 2025 20:14:07.082,405.278
646,16 Sep 2025 21:38:01.717,16 Sep 2025 21:49:34.327,692.610
647,16 Sep 2025 23:14:30.984,16 Sep 2025 23:21:36.054,425.070
648,17 Sep 2025 19:50:39.263,17 Sep 2025 19:54:00.797,201.534
649,17 Sep 2025 21:19:28.432,17 Sep 2025 21:30:47.474,679.043
650,17 Sep 2025 22:54:36.470,17 Sep 2025 23:03:42.220,545.750
651,18 Sep 2025 21:01:06.946,18 Sep 2025 21:11:54.531,647.585
652,18 Sep 2025 22:35:08.095,18 Sep 2025 22:45:28.141,620.046
653,19 Sep 2025 20:42:58.371,19 Sep 2025 20:52:54.602,596.231
654,19 Sep 2025 22:15:57.079,19 Sep 2025 22:27:02.345,665.266
655,20 Sep 2025 20:25:05.281,20 Sep 2025 20:33:45.380,520.098
656,20 Sep 2025 21:56:59.878,20 Sep 2025 22:08:28.270,688.392
657,20 Sep 2025 23:35:49.709,20 Sep 2025 23:38:38.702,168.993
658,21 Sep 2025 20:07:33.962,21 Sep 2025 20:14:20.905,406.943
659,21 Sep 2025 21:38:14.858,21 Sep 2025 21:49:47.523,692.665
660,21 Sep 2025 23:14:45.245,21 Sep 2025 23:21:48.461,423.215
661,22 Sep 2025 19:50:50.292,22 Sep 2025 19:54:15.665,205.373
662,22 Sep 2025 21:19:41.435,22 Sep 2025 21:31:00.741,679.305
663,22 Sep 2025 22:54:50.318,22 Sep 2025 23:03:54.968,544.650
664,23 Sep 2025 21:01:19.806,23 Sep 2025 21:12:07.872,648.066
665,23 Sep 2025 22:35:21.703,23 Sep 2025 22:45:41.061,619.358
666,24 Sep 2025 20:43:11.068,24 Sep 2025 20:53:08.036,596.968
667,24 Sep 2025 22:16:10.508,24 Sep 2025 22:27:15.378,664.870
668,25 Sep 2025 20:25:17.768,25 Sep 2025 20:33:58.947,521.179
669,25 Sep 2025 21:57:13.157,25 Sep 2025 22:08:41.390,688.233
670,25 Sep 2025 23:36:06.071,25 Sep 2025 23:38:49.083,163.013
671,26 Sep 2025 20:07:46.122,26 Sep 2025 20:14:34.722,408.600
672,26 Sep 2025 21:38:27.998,26 Sep 2025 21:50:00.717,692.718
673,26 Sep 2025 23:14:59.513,26 Sep 2025 23:22:00.863,421.350
674,27 Sep 2025 19:51:01.352,27 Sep 2025 19:54:30.496,209.144
675,27 Sep 2025 21:19:54.437,27 Sep 2025 21:31:14.010,679.572
676,27 Sep 2025 22:55:04.169,27 Sep 2025 23:04:07.708,543.539
677,28 Sep 2025 21:01:32.668,28 Sep 2025 21:12:21.212,648.545
678,28 Sep 2025 22:35:35.313,28 Sep 2025 22:45:53.979,618.666
679,29 Sep 2025 20:43:23.767,29 Sep 2025 20:53:21.469,597.702
680,29 Sep 2025 22:16:23.940,29 Sep 2025 22:27:28.411,664.470
681,30 Sep 2025 20:25:30.260,30 Sep 2025 20:34:12.514,522.253
682,30 Sep 2025 21:57:26.438,30 Sep 2025 22:08:54.509,688.071
683,30 Sep 2025 23:36:22.554,30 Sep 2025 23:38:59.342,156.788
684,1 Oct 2025 20:07:58.289,1 Oct 2025 20:14:48.536,410.247
685,1 Oct 2025 21:38:41.142,1 Oct 2025 21:50:13.910,692.769
686,1 Oct 2025 23:15:13.789,1 Oct 2025 23:22:13.256,419.467
687,2 Oct 2025 19:51:12.454,2 Oct 2025 19:54:45.292,212.838
688,2 Oct 2025 21:20:07.444,2 Oct 2025 21:31:27.274,679.830
689,2 Oct 2025 22:55:18.025,2 Oct 2025 23:04:20.451,542.426
690,3 Oct 2025 21:01:45.532,3 Oct 2025 21:12:34.552,649.020
691,3 Oct 2025 22:35:48.927,3 Oct 2025 22:46:06.897,617.970
692,4 Oct 2025 20:43:36.468,4 Oct 2025 20:53:34.900,598.432
693,4 Oct 2025 22:16:37.374,4 Oct 2025 22:27:41.442,664.069
694,5 Oct 2025 20:25:42.756,5 Oct 2025 20:34:26.077,523.321
695,5 Oct 2025 21:57:39.721,5 Oct 2025 22:09:07.627,687.907
696,5 Oct 2025 23:36:39.172,5 Oct 2025 23:39:09.470,150.298
697,6 Oct 2025 20:08:10.461,6 Oct 2025 20:15:02.343,411.882
698,6 Oct 2025 21:38:54.285,6 Oct 2025 21:50:27.102,692.817
699,6 Oct 2025 23:15:28.070,6 Oct 2025 23:22:25.642,417.572
700,7 Oct 2025 19:51:23.592,7 Oct 2025 19:55:00.050,216.457
701,7 Oct 2025 21:20:20.451,7 Oct 2025 21:31:40.536,680.084
702,7 Oct 2025 22:55:31.882,7 Oct 2025 23:04:33.189,541.308
703,8 Oct 2025 21:01:58.396,8 Oct 2025 21:12:47.889,649.493
704,8 Oct 2025 22:36:02.540,8 Oct 2025 22:46:19.811,617.271
705,9 Oct 2025 20:43:49.170,9 Oct 2025 20:53:48.328,599.158
706,9 Oct 2025 22:16:50.807,9 Oct 2025 22:27:54.471,663.664
707,10 Oct 2025 20:25:55.252,10 Oct 2025 20:34:39.635,524.383
708,10 Oct 2025 21:57:53.003,10 Oct 2025 22:09:20.742,687.739
709,10 Oct 2025 23:36:55.945,10 Oct 2025 23:39:19.436,143.491
710,11 Oct 2025 20:08:22.637,11 Oct 2025 20:15:16.143,413.506
711,11 Oct 2025 21:39:07.433,11 Oct 2025 21:50:40.292,692.859
712,11 Oct 2025 23:15:42.363,11 Oct 2025 23:22:38.019,415.656
713,12 Oct 2025 19:51:34.760,12 Oct 2025 19:55:14.778,220.018
714,12 Oct 2025 21:20:33.460,12 Oct 2025 21:31:53.796,680.336
715,12 Oct 2025 22:55:45.742,12 Oct 2025 23:04:45.924,540.182
716,13 Oct 2025 21:02:11.261,13 Oct 2025 21:13:01.225,649.964
717,13 Oct 2025 22:36:16.156,13 Oct 2025 22:46:32.723,616.567
718,14 Oct 2025 20:44:01.874,14 Oct 2025 20:54:01.756,599.882
719,14 Oct 2025 22:17:04.244,14 Oct 2025 22:28:07.499,663.255
720,15 Oct 2025 20:26:07.752,15 Oct 2025 20:34:53.198,525.445
721,15 Oct 2025 21:58:06.288,15 Oct 2025 22:09:33.858,687.570
722,15 Oct 2025 23:37:12.898,15 Oct 2025 23:39:29.228,136.330
723,16 Oct 2025 20:08:34.822,16 Oct 2025 20:15:29.939,415.117
724,16 Oct 2025 21:39:20.579,16 Oct 2025 21:50:53.478,692.899
725,16 Oct 2025 23:15:56.655,16 Oct 2025 23:22:50.386,413.731
726,17 Oct 2025 19:51:45.962,17 Oct 2025 19:55:29.473,223.511
727,17 Oct 2025 21:20:46.470,17 Oct 2025 21:32:07.056,680.586
728,17 Oct 2025 22:55:59.606,17 Oct 2025 23:04:58.658,539.052
729,18 Oct 2025 21:02:24.129,18 Oct 2025 21:13:14.560,650.431
730,18 Oct 2025 22:36:29.775,18 Oct 2025 22:46:45.635,615.860
731,19 Oct 2025 20:44:14.580,19 Oct 2025 20:54:15.181,600.600
732,19 Oct 2025 22:17:17.681,19 Oct 2025 22:28:20.526,662.845
733,20 Oct 2025 20:26:20.255,20 Oct 2025 20:35:06.751,526.496
734,20 Oct 2025 21:58:19.573,20 Oct 2025 22:09:46.971,687.398
735,20 Oct 2025 23:37:30.054,20 Oct 2025 23:39:38.818,128.763
736,21 Oct 2025 20:08:47.009,21 Oct 2025 20:15:43.730,416.720
737,21 Oct 2025 21:39:33.725,21 Oct 2025 21:51:06.665,692.940
738,21 Oct 2025 23:16:10.957,21 Oct 2025 23:23:02.751,411.794
739,22 Oct 2025 19:51:57.195,22 Oct 2025 19:55:44.135,226.941
740,22 Oct 2025 21:20:59.481,22 Oct 2025 21:32:20.313,680.833
741,22 Oct 2025 22:56:13.471,22 Oct 2025 23:05:11.387,537.916
742,23 Oct 2025 21:02:36.997,23 Oct 2025 21:13:27.892,650.895
743,23 Oct 2025 22:36:43.393,23 Oct 2025 22:46:58.543,615.150
744,24 Oct 2025 20:44:27.287,24 Oct 2025 20:54:28.603,601.316
745,24 Oct 2025 22:17:31.118,24 Oct 2025 22:28:33.549,662.431
746,25 Oct 2025 20:26:32.759,25 Oct 2025 20:35:20.302,527.544
747,25 Oct 2025 21:58:32.859,25 Oct 2025 22:10:00.083,687.223
748,25 Oct 2025 23:37:47.456,25 Oct 2025 23:39:48.157,120.701
749,26 Oct 2025 20:08:59.200,26 Oct 2025 20:15:57.517,418.317
750,26 Oct 2025 21:39:46.872,26 Oct 2025 21:51:19.850,692.978
751,26 Oct 2025 23:16:25.268,26 Oct 2025 23:23:15.108,409.840
752,27 Oct 2025 19:52:08.454,27 Oct 2025 19:55:58.772,230.318
753,27 Oct 2025 21:21:12.492,27 Oct 2025 21:32:33.570,681.077
754,27 Oct 2025 22:56:27.339,27 Oct 2025 23:05:24.113,536.774
755,28 Oct 2025 21:02:49.867,28 Oct 2025 21:13:41.223,651.356
756,28 Oct 2025 22:36:57.015,28 Oct 2025 22:47:11.450,614.435
757,29 Oct 2025 20:44:39.996,29 Oct 2025 20:54:42.025,602.028
758,29 Oct 2025 22:17:44.558,29 Oct 2025 22:28:46.573,662.014
759,30 Oct 2025 20:26:45.267,30 Oct 2025 20:35:33.852,528.586
760,30 Oct 2025 21:58:46.148,30 Oct 2025 22:10:13.194,687.046
761,30 Oct 2025 23:38:05.162,30 Oct 2025 23:39:57.199,112.037
762,31 Oct 2025 20:09:11.396,31 Oct 2025 20:16:11.300,419.903
763,31 Oct 2025 21:40:00.022,31 Oct 2025 21:51:33.036,693.014
764,31 Oct 2025 23:16:39.584,31 Oct 2025 23:23:27.460,407.875
765,1 Nov 2025 19:52:19.744,1 Nov 2025 19:56:13.379,233.635
766,1 Nov 2025 21:21:25.507,1 Nov 2025 21:32:46.826,681.319
767,1 Nov 2025 22:56:41.212,1 Nov 2025 23:05:36.838,535.626
768,2 Nov 2025 21:03:02.738,2 Nov 2025 21:13:54.551,651.812
769,2 Nov 2025 22:37:10.638,2 Nov 2025 22:47:24.355,613.717
770,3 Nov 2025 20:44:52.708,3 Nov 2025 20:54:55.444,602.736
771,3 Nov 2025 22:17:58.000,3 Nov 2025 22:28:59.595,661.595
772,4 Nov 2025 20:26:57.777,4 Nov 2025 20:35:47.398,529.621
773,4 Nov 2025 21:58:59.436,4 Nov 2025 22:10:26.303,686.867
774,4 Nov 2025 23:38:23.232,4 Nov 2025 23:40:05.870,102.638
775,5 Nov 2025 20:09:23.596,5 Nov 2025 20:16:25.075,421.479
776,5 Nov 2025 21:40:13.174,5 Nov 2025 21:51:46.219,693.045
777,5 Nov 2025 23:16:53.908,5 Nov 2025 23:23:39.803,405.895
778,6 Nov 2025 19:52:31.059,6 Nov 2025 19:56:27.958,236.899
779,6 Nov 2025 21:21:38.520,6 Nov 2025 21:33:00.078,681.558
780,6 Nov 2025 22:56:55.088,6 Nov 2025 23:05:49.558,534.470
781,7 Nov 2025 21:03:15.610,7 Nov 2025 21:14:07.878,652.268
782,7 Nov 2025 22:37:24.262,7 Nov 2025 22:47:37.257,612.995
783,8 Nov 2025 20:45:05.420,8 Nov 2025 20:55:08.861,603.441
784,8 Nov 2025 22:18:11.442,8 Nov 2025 22:29:12.614,661.173
785,9 Nov 2025 20:27:10.288,9 Nov 2025 20:36:00.942,530.654
786,9 Nov 2025 21:59:12.726,9 Nov 2025 22:10:39.411,686.685
787,9 Nov 2025 23:38:41.802,9 Nov 2025 23:40:14.045,92.242
788,10 Nov 2025 20:09:35.801,10 Nov 2025 20:16:38.848,423.047
789,10 Nov 2025 21:40:26.325,10 Nov 2025 21:51:59.402,693.077
790,10 Nov 2025 23:17:08.238,10 Nov 2025 23:23:52.139,403.901
791,11 Nov 2025 19:52:42.398,11 Nov 2025 19:56:42.515,240.117
792,11 Nov 2025 21:21:51.536,11 Nov 2025 21:33:13.332,681.795
793,11 Nov 2025 22:57:08.967,11 Nov 2025 23:06:02.276,533.309
794,12 Nov 2025 21:03:28.485,12 Nov 2025 21:14:21.206,652.721
795,12 Nov 2025 22:37:37.890,12 Nov 2025 22:47:50.159,612.269
796,13 Nov 2025 20:45:18.136,13 Nov 2025 20:55:22.273,604.137
797,13 Nov 2025 22:18:24.887,13 Nov 2025 22:29:25.638,660.751
798,14 Nov 2025 20:27:22.804,14 Nov 2025 20:36:14.480,531.676
799,14 Nov 2025 21:59:26.019,14 Nov 2025 22:10:52.519,686.501
800,14 Nov 2025 23:39:01.044,14 Nov 2025 23:40:21.552,80.507
801,15 Nov 2025 20:09:48.013,15 Nov 2025 20:16:52.615,424.602
802,15 Nov 2025 21:40:39.477,15 Nov 2025 21:52:12.584,693.107
803,15 Nov 2025 23:17:22.578,15 Nov 2025 23:24:04.470,401.892
804,16 Nov 2025 19:52:53.766,16 Nov 2025 19:56:57.044,243.277
805,16 Nov 2025 21:22:04.554,16 Nov 2025 21:33:26.583,682.029
806,16 Nov 2025 22:57:22.850,16 Nov 2025 23:06:14.993,532.143
807,17 Nov 2025 21:03:41.361,17 Nov 2025 21:14:34.532,653.171
808,17 Nov 2025 22:37:51.515,17 Nov 2025 22:48:03.060,611.545
809,18 Nov 2025 20:45:30.852,18 Nov 2025 20:55:35.686,604.834
810,18 Nov 2025 22:18:38.332,18 Nov 2025 22:29:38.655,660.323
811,19 Nov 2025 20:27:35.322,19 Nov 2025 20:36:28.018,532.696
812,19 Nov 2025 21:59:39.311,19 Nov 2025 22:11:05.625,686.314
813,19 Nov 2025 23:39:21.311,19 Nov 2025 23:40:28.029,66.718
814,20 Nov 2025 20:10:00.228,20 Nov 2025 20:17:06.376,426.148
815,20 Nov 2025 21:40:52.630,20 Nov 2025 21:52:25.764,693.134
816,20 Nov 2025 23:17:36.923,20 Nov 2025 23:24:16.793,399.870
817,21 Nov 2025 19:53:05.156,21 Nov 2025 19:57:11.548,246.393
818,21 Nov 2025 21:22:17.572,21 Nov 2025 21:33:39.833,682.261
819,21 Nov 2025 22:57:36.733,21 Nov 2025 23:06:27.705,530.971
820,22 Nov 2025 21:03:54.237,22 Nov 2025 21:14:47.855,653.618
821,22 Nov 2025 22:38:05.145,22 Nov 2025 22:48:15.957,610.812
822,23 Nov 2025 20:45:43.570,23 Nov 2025 20:55:49.100,605.530
823,23 Nov 2025 22:18:51.779,23 Nov 2025 22:29:51.671,659.892
824,24 Nov 2025 20:27:47.843,24 Nov 2025 20:36:41.555,533.712
825,24 Nov 2025 21:59:52.605,24 Nov 2025 22:11:18.729,686.124
826,24 Nov 2025 23:39:43.469,24 Nov 2025 23:40:32.614,49.145
827,25 Nov 2025 20:10:12.449,25 Nov 2025 20:17:20.134,427.685
828,25 Nov 2025 21:41:05.788,25 Nov 2025 21:52:38.943,693.155
829,25 Nov 2025 23:17:51.277,25 Nov 2025 23:24:29.108,397.831
830,26 Nov 2025 19:53:16.569,26 Nov 2025 19:57:26.033,249.465
831,26 Nov 2025 21:22:30.592,26 Nov 2025 21:33:53.082,682.490
832,26 Nov 2025 22:57:50.621,26 Nov 2025 23:06:40.415,529.794
833,27 Nov 2025 21:04:07.120,27 Nov 2025 21:15:01.178,654.057
834,27 Nov 2025 22:38:18.784,27 Nov 2025 22:48:28.854,610.071
835,28 Nov 2025 20:45:56.295,28 Nov 2025 20:56:02.514,606.218
836,28 Nov 2025 22:19:05.228,28 Nov 2025 22:30:04.684,659.456
837,29 Nov 2025 20:28:00.367,29 Nov 2025 20:36:55.089,534.723
838,29 Nov 2025 22:00:05.902,29 Nov 2025 22:11:31.834,685.932
839,29 Nov 2025 23:40:11.709,29 Nov 2025 23:40:31.128,19.419
840,30 Nov 2025 20:10:24.677,30 Nov 2025 20:17:33.892,429.215
841,30 Nov 2025 21:41:18.941,30 Nov 2025 21:52:52.126,693.185
842,30 Nov 2025 23:18:05.634,30 Nov 2025 23:24:41.422,395.788
843,1 Dec 2025 19:53:28.006,1 Dec 2025 19:57:40.493,252.487
844,1 Dec 2025 21:22:43.614,1 Dec 2025 21:34:06.330,682.717
845,1 Dec 2025 22:58:04.513,1 Dec 2025 23:06:53.124,528.611
846,2 Dec 2025 21:04:19.997,2 Dec 2025 21:15:14.500,654.503
847,2 Dec 2025 22:38:32.414,2 Dec 2025 22:48:41.750,609.336
848,3 Dec 2025 20:46:09.014,3 Dec 2025 20:56:15.922,606.908
849,3 Dec 2025 22:19:18.679,3 Dec 2025 22:30:17.701,659.023
850,4 Dec 2025 20:28:12.893,4 Dec 2025 20:37:08.620,535.727
851,4 Dec 2025 22:00:19.198,4 Dec 2025 22:11:44.936,685.737
852,5 Dec 2025 20:10:36.907,5 Dec 2025 20:17:47.634,430.727
853,5 Dec 2025 21:41:32.098,5 Dec 2025 21:53:05.302,693.204
854,5 Dec 2025 23:18:20.003,5 Dec 2025 23:24:53.723,393.720
855,6 Dec 2025 19:53:39.461,6 Dec 2025 19:57:54.933,255.471
856,6 Dec 2025 21:22:56.636,6 Dec 2025 21:34:19.576,682.941
857,6 Dec 2025 22:58:18.406,6 Dec 2025 23:07:05.828,527.422
858,7 Dec 2025 21:04:32.882,7 Dec 2025 21:15:27.819,654.937
859,7 Dec 2025 22:38:46.051,7 Dec 2025 22:48:54.643,608.591
860,8 Dec 2025 20:46:21.742,8 Dec 2025 20:56:29.329,607.588
861,8 Dec 2025 22:19:32.131,8 Dec 2025 22:30:30.711,658.580
862,9 Dec 2025 20:28:25.421,9 Dec 2025 20:37:22.147,536.726
863,9 Dec 2025 22:00:32.498,9 Dec 2025 22:11:58.039,685.541
864,10 Dec 2025 20:10:49.147,10 Dec 2025 20:18:01.384,432.237
865,10 Dec 2025 21:41:45.260,10 Dec 2025 21:53:18.480,693.220
866,10 Dec 2025 23:18:34.382,10 Dec 2025 23:25:06.017,391.635
867,11 Dec 2025 19:53:50.940,11 Dec 2025 19:58:09.354,258.414
868,11 Dec 2025 21:23:09.661,11 Dec 2025 21:34:32.823,683.162
869,11 Dec 2025 22:58:32.305,11 Dec 2025 23:07:18.531,526.227
870,12 Dec 2025 21:04:45.767,12 Dec 2025 21:15:41.139,655.372
871,12 Dec 2025 22:38:59.692,12 Dec 2025 22:49:07.536,607.844
872,13 Dec 2025 20:46:34.469,13 Dec 2025 20:56:42.735,608.266
873,13 Dec 2025 22:19:45.587,13 Dec 2025 22:30:43.724,658.137
874,14 Dec 2025 20:28:37.954,14 Dec 2025 20:37:35.674,537.719
875,14 Dec 2025 22:00:45.799,14 Dec 2025 22:12:11.140,685.341
876,15 Dec 2025 20:11:01.389,15 Dec 2025 20:18:15.122,433.733
877,15 Dec 2025 21:41:58.421,15 Dec 2025 21:53:31.656,693.235
878,15 Dec 2025 23:18:48.768,15 Dec 2025 23:25:18.305,389.537
879,16 Dec 2025 19:54:02.440,16 Dec 2025 19:58:23.751,261.311
880,16 Dec 2025 21:23:22.688,16 Dec 2025 21:34:46.068,683.381
881,16 Dec 2025 22:58:46.205,16 Dec 2025 23:07:31.232,525.027
882,17 Dec 2025 21:04:58.653,17 Dec 2025 21:15:54.457,655.804
883,17 Dec 2025 22:39:13.334,17 Dec 2025 22:49:20.427,607.093
884,18 Dec 2025 20:46:47.198,18 Dec 2025 20:56:56.139,608.941
885,18 Dec 2025 22:19:59.046,18 Dec 2025 22:30:56.738,657.692
886,19 Dec 2025 20:28:50.491,19 Dec 2025 20:37:49.197,538.706
887,19 Dec 2025 22:00:59.101,19 Dec 2025 22:12:24.240,685.140
888,20 Dec 2025 20:11:13.634,20 Dec 2025 20:18:28.857,435.223
889,20 Dec 2025 21:42:11.584,20 Dec 2025 21:53:44.830,693.246
890,20 Dec 2025 23:19:03.163,20 Dec 2025 23:25:30.585,387.422
891,21 Dec 2025 19:54:13.958,21 Dec 2025 19:58:38.132,264.174
892,21 Dec 2025 21:23:35.715,21 Dec 2025 21:34:59.312,683.597
893,21 Dec 2025 22:59:00.110,21 Dec 2025 23:07:43.930,523.820
894,22 Dec 2025 21:05:11.540,22 Dec 2025 21:16:07.772,656.232
895,22 Dec 2025 22:39:26.979,22 Dec 2025 22:49:33.317,606.338
896,23 Dec 2025 20:46:59.929,23 Dec 2025 20:57:09.542,609.613
897,23 Dec 2025 22:20:12.500,23 Dec 2025 22:31:09.749,657.249
898,24 Dec 2025 20:29:03.029,24 Dec 2025 20:38:02.721,539.692
899,24 Dec 2025 22:01:12.405,24 Dec 2025 22:12:37.341,684.935
900,25 Dec 2025 20:11:25.885,25 Dec 2025 20:18:42.589,436.704
901,25 Dec 2025 21:42:24.750,25 Dec 2025 21:53:58.005,693.256
902,25 Dec 2025 23:19:17.569,25 Dec 2025 23:25:42.857,385.289
903,26 Dec 2025 19:54:25.497,26 Dec 2025 19:58:52.497,267.000
904,26 Dec 2025 21:23:48.746,26 Dec 2025 21:35:12.557,683.811
905,26 Dec 2025 22:59:14.020,26 Dec 2025 23:07:56.626,522.606
906,27 Dec 2025 21:05:24.431,27 Dec 2025 21:16:21.089,656.659
907,27 Dec 2025 22:39:40.627,27 Dec 2025 22:49:46.206,605.579
908,28 Dec 2025 20:47:12.663,28 Dec 2025 20:57:22.945,610.281
909,28 Dec 2025 22:20:25.961,28 Dec 2025 22:31:22.760,656.798
910,29 Dec 2025 20:29:15.571,29 Dec 2025 20:38:16.242,540.671
911,29 Dec 2025 22:01:25.712,29 Dec 2025 22:12:50.441,684.729
912,30 Dec 2025 20:11:38.142,30 Dec 2025 20:18:56.311,438.169
913,30 Dec 2025 21:42:37.916,30 Dec 2025 21:54:11.175,693.259
914,30 Dec 2025 23:19:31.986,30 Dec 2025 23:25:55.119,383.133
915,31 Dec 2025 19:54:37.055,31 Dec 2025 19:59:06.837,269.782
916,31 Dec 2025 21:24:01.776,31 Dec 2025 21:35:25.796,684.020
917,31 Dec 2025 22:59:27.929,31 Dec 2025 23:08:09.321,521.392

Global Statistics
"Min Duration",839,29 Nov 2025 23:40:11.709,29 Nov 2025 23:40:31.128,19.419
"Max Duration",913,30 Dec 2025 21:42:37.916,30 Dec 2025 21:54:11.175,693.259
"Mean Duration",,,,541.408
"Total Duration",,,,496471.208


