3UCubedIntegratedSim/Reports & Plots/Comms/Past Comms Data/SSU/CSV/Sat23.csv

"Access","Start Time (UTCG)","Stop Time (UTCG)","Duration (sec)"
1,1 Jan 2025 17:40:57.178,1 Jan 2025 17:50:46.189,589.012
2,1 Jan 2025 19:13:48.860,1 Jan 2025 19:24:57.761,668.901
3,2 Jan 2025 17:23:06.113,2 Jan 2025 17:31:35.660,509.548
4,2 Jan 2025 18:54:53.093,2 Jan 2025 19:06:22.870,689.777
5,2 Jan 2025 20:33:17.747,2 Jan 2025 20:36:55.188,217.441
6,3 Jan 2025 17:05:38.068,3 Jan 2025 17:12:08.666,390.598
7,3 Jan 2025 18:36:09.389,3 Jan 2025 18:47:41.424,692.035
8,3 Jan 2025 20:12:29.272,3 Jan 2025 20:19:49.688,440.416
9,4 Jan 2025 16:49:06.922,4 Jan 2025 16:51:51.695,164.773
10,4 Jan 2025 18:17:37.272,4 Jan 2025 18:28:53.968,676.696
11,4 Jan 2025 19:52:38.147,4 Jan 2025 20:01:53.069,554.922
12,5 Jan 2025 17:59:17.021,5 Jan 2025 18:10:00.373,643.352
13,5 Jan 2025 19:33:11.781,5 Jan 2025 19:43:37.555,625.773
14,6 Jan 2025 17:41:09.858,6 Jan 2025 17:50:59.638,589.780
15,6 Jan 2025 19:14:02.275,6 Jan 2025 19:25:10.810,668.535
16,7 Jan 2025 17:23:18.578,7 Jan 2025 17:31:49.247,510.669
17,7 Jan 2025 18:55:06.359,7 Jan 2025 19:06:36.003,689.643
18,7 Jan 2025 20:33:33.362,7 Jan 2025 20:37:06.317,212.955
19,8 Jan 2025 17:05:50.180,8 Jan 2025 17:12:22.526,392.346
20,8 Jan 2025 18:36:22.517,8 Jan 2025 18:47:54.628,692.111
21,8 Jan 2025 20:12:43.470,8 Jan 2025 20:20:02.152,438.681
22,9 Jan 2025 16:49:17.511,9 Jan 2025 16:52:06.995,169.484
23,9 Jan 2025 18:17:50.264,9 Jan 2025 18:29:07.243,676.979
24,9 Jan 2025 19:52:51.967,9 Jan 2025 20:02:05.844,553.877
25,10 Jan 2025 17:59:29.868,10 Jan 2025 18:10:13.723,643.855
26,10 Jan 2025 19:33:25.369,10 Jan 2025 19:43:50.492,625.123
27,11 Jan 2025 17:41:22.539,11 Jan 2025 17:51:13.085,590.546
28,11 Jan 2025 19:14:15.690,11 Jan 2025 19:25:23.856,668.166
29,12 Jan 2025 17:23:31.045,12 Jan 2025 17:32:02.832,511.787
30,12 Jan 2025 18:55:19.626,12 Jan 2025 19:06:49.133,689.507
31,12 Jan 2025 20:33:49.031,12 Jan 2025 20:37:17.388,208.357
32,13 Jan 2025 17:06:02.296,13 Jan 2025 17:12:36.383,394.086
33,13 Jan 2025 18:36:35.647,13 Jan 2025 18:48:07.831,692.185
34,13 Jan 2025 20:12:57.680,13 Jan 2025 20:20:14.607,436.927
35,14 Jan 2025 16:49:28.163,14 Jan 2025 16:52:22.232,174.069
36,14 Jan 2025 18:18:03.257,14 Jan 2025 18:29:20.517,677.259
37,14 Jan 2025 19:53:05.792,14 Jan 2025 20:02:18.615,552.823
38,15 Jan 2025 17:59:42.718,15 Jan 2025 18:10:27.073,644.356
39,15 Jan 2025 19:33:38.962,15 Jan 2025 19:44:03.428,624.466
40,16 Jan 2025 17:41:35.224,16 Jan 2025 17:51:26.531,591.308
41,16 Jan 2025 19:14:29.109,16 Jan 2025 19:25:36.903,667.794
42,17 Jan 2025 17:23:43.517,17 Jan 2025 17:32:16.416,512.899
43,17 Jan 2025 18:55:32.895,17 Jan 2025 19:07:02.268,689.373
44,17 Jan 2025 20:34:04.763,17 Jan 2025 20:37:28.404,203.641
45,18 Jan 2025 17:06:14.420,18 Jan 2025 17:12:50.235,395.815
46,18 Jan 2025 18:36:48.779,18 Jan 2025 18:48:21.035,692.256
47,18 Jan 2025 20:13:11.897,18 Jan 2025 20:20:27.059,435.162
48,19 Jan 2025 16:49:38.882,19 Jan 2025 16:52:37.410,178.528
49,19 Jan 2025 18:18:16.253,19 Jan 2025 18:29:33.790,677.537
50,19 Jan 2025 19:53:19.620,19 Jan 2025 20:02:31.385,551.766
51,20 Jan 2025 17:59:55.569,20 Jan 2025 18:10:40.423,644.853
52,20 Jan 2025 19:33:52.557,20 Jan 2025 19:44:16.363,623.806
53,21 Jan 2025 17:41:47.910,21 Jan 2025 17:51:39.973,592.064
54,21 Jan 2025 19:14:42.528,21 Jan 2025 19:25:49.945,667.417
55,22 Jan 2025 17:23:55.991,22 Jan 2025 17:32:29.995,514.004
56,22 Jan 2025 18:55:46.162,22 Jan 2025 19:07:15.395,689.232
57,22 Jan 2025 20:34:20.551,22 Jan 2025 20:37:39.358,198.807
58,23 Jan 2025 17:06:26.550,23 Jan 2025 17:13:04.079,397.530
59,23 Jan 2025 18:37:01.911,23 Jan 2025 18:48:34.236,692.325
60,23 Jan 2025 20:13:26.118,23 Jan 2025 20:20:39.505,433.386
61,24 Jan 2025 16:49:49.655,24 Jan 2025 16:52:52.523,182.868
62,24 Jan 2025 18:18:29.249,24 Jan 2025 18:29:47.061,677.812
63,24 Jan 2025 19:53:33.449,24 Jan 2025 20:02:44.152,550.703
64,25 Jan 2025 18:00:08.421,25 Jan 2025 18:10:53.769,645.348
65,25 Jan 2025 19:34:06.153,25 Jan 2025 19:44:29.296,623.143
66,26 Jan 2025 17:42:00.597,26 Jan 2025 17:51:53.414,592.817
67,26 Jan 2025 19:14:55.948,26 Jan 2025 19:26:02.987,667.039
68,27 Jan 2025 17:24:08.467,27 Jan 2025 17:32:43.572,515.105
69,27 Jan 2025 18:55:59.433,27 Jan 2025 19:07:28.522,689.088
70,27 Jan 2025 20:34:36.405,27 Jan 2025 20:37:50.244,193.839
71,28 Jan 2025 17:06:38.683,28 Jan 2025 17:13:17.920,399.237
72,28 Jan 2025 18:37:15.045,28 Jan 2025 18:48:47.437,692.392
73,28 Jan 2025 20:13:40.347,28 Jan 2025 20:20:51.943,431.596
74,29 Jan 2025 16:50:00.483,29 Jan 2025 16:53:07.588,187.106
75,29 Jan 2025 18:18:42.247,29 Jan 2025 18:30:00.332,678.085
76,29 Jan 2025 19:53:47.279,29 Jan 2025 20:02:56.915,549.636
77,30 Jan 2025 18:00:21.275,30 Jan 2025 18:11:07.116,645.841
78,30 Jan 2025 19:34:19.753,30 Jan 2025 19:44:42.227,622.474
79,31 Jan 2025 17:42:13.287,31 Jan 2025 17:52:06.854,593.567
80,31 Jan 2025 19:15:09.372,31 Jan 2025 19:26:16.029,666.658
81,1 Feb 2025 17:24:20.947,1 Feb 2025 17:32:57.148,516.202
82,1 Feb 2025 18:56:12.707,1 Feb 2025 19:07:41.649,688.941
83,1 Feb 2025 20:34:52.334,1 Feb 2025 20:38:01.060,188.726
84,2 Feb 2025 17:06:50.824,2 Feb 2025 17:13:31.757,400.932
85,2 Feb 2025 18:37:28.182,2 Feb 2025 18:49:00.637,692.456
86,2 Feb 2025 20:13:54.584,2 Feb 2025 20:21:04.377,429.794
87,3 Feb 2025 16:50:11.364,3 Feb 2025 16:53:22.601,191.237
88,3 Feb 2025 18:18:55.247,3 Feb 2025 18:30:13.602,678.355
89,3 Feb 2025 19:54:01.116,3 Feb 2025 20:03:09.677,548.561
90,4 Feb 2025 18:00:34.132,4 Feb 2025 18:11:20.461,646.330
91,4 Feb 2025 19:34:33.354,4 Feb 2025 19:44:55.157,621.803
92,5 Feb 2025 17:42:25.979,5 Feb 2025 17:52:20.292,594.313
93,5 Feb 2025 19:15:22.796,5 Feb 2025 19:26:29.070,666.274
94,6 Feb 2025 17:24:33.429,6 Feb 2025 17:33:10.720,517.291
95,6 Feb 2025 18:56:25.982,6 Feb 2025 19:07:54.774,688.792
96,6 Feb 2025 20:35:08.336,6 Feb 2025 20:38:11.801,183.465
97,7 Feb 2025 17:07:02.970,7 Feb 2025 17:13:45.586,402.616
98,7 Feb 2025 18:37:41.318,7 Feb 2025 18:49:13.835,692.517
99,7 Feb 2025 20:14:08.824,7 Feb 2025 20:21:16.804,427.980
100,8 Feb 2025 16:50:22.291,8 Feb 2025 16:53:37.565,195.274
101,8 Feb 2025 18:19:08.247,8 Feb 2025 18:30:26.870,678.623
102,8 Feb 2025 19:54:14.954,8 Feb 2025 20:03:22.435,547.481
103,9 Feb 2025 18:00:46.988,9 Feb 2025 18:11:33.805,646.816
104,9 Feb 2025 19:34:46.956,9 Feb 2025 19:45:08.084,621.128
105,10 Feb 2025 17:42:38.672,10 Feb 2025 17:52:33.728,595.056
106,10 Feb 2025 19:15:36.221,10 Feb 2025 19:26:42.109,665.888
107,11 Feb 2025 17:24:45.913,11 Feb 2025 17:33:24.291,518.378
108,11 Feb 2025 18:56:39.258,11 Feb 2025 19:08:07.898,688.640
109,11 Feb 2025 20:35:24.427,11 Feb 2025 20:38:22.457,178.030
110,12 Feb 2025 17:07:15.121,12 Feb 2025 17:13:59.412,404.291
111,12 Feb 2025 18:37:54.456,12 Feb 2025 18:49:27.033,692.577
112,12 Feb 2025 20:14:23.073,12 Feb 2025 20:21:29.225,426.152
113,13 Feb 2025 16:50:33.261,13 Feb 2025 16:53:52.489,199.228
114,13 Feb 2025 18:19:21.250,13 Feb 2025 18:30:40.138,678.888
115,13 Feb 2025 19:54:28.798,13 Feb 2025 20:03:35.191,546.393
116,14 Feb 2025 18:00:59.848,14 Feb 2025 18:11:47.148,647.300
117,14 Feb 2025 19:35:00.562,14 Feb 2025 19:45:21.011,620.449
118,15 Feb 2025 17:42:51.369,15 Feb 2025 17:52:47.163,595.795
119,15 Feb 2025 19:15:49.650,15 Feb 2025 19:26:55.148,665.498
120,16 Feb 2025 17:24:58.402,16 Feb 2025 17:33:37.860,519.458
121,16 Feb 2025 18:56:52.536,16 Feb 2025 19:08:21.022,688.486
122,16 Feb 2025 20:35:40.610,16 Feb 2025 20:38:33.022,172.412
123,17 Feb 2025 17:07:27.279,17 Feb 2025 17:14:13.232,405.953
124,17 Feb 2025 18:38:07.597,17 Feb 2025 18:49:40.230,692.634
125,17 Feb 2025 20:14:37.329,17 Feb 2025 20:21:41.641,424.313
126,18 Feb 2025 16:50:44.278,18 Feb 2025 16:54:07.368,203.090
127,18 Feb 2025 18:19:34.254,18 Feb 2025 18:30:53.405,679.151
128,18 Feb 2025 19:54:42.644,18 Feb 2025 20:03:47.946,545.302
129,19 Feb 2025 18:01:12.709,19 Feb 2025 18:12:00.490,647.781
130,19 Feb 2025 19:35:14.169,19 Feb 2025 19:45:33.936,619.767
131,20 Feb 2025 17:43:04.067,20 Feb 2025 17:53:00.596,596.529
132,20 Feb 2025 19:16:03.079,20 Feb 2025 19:27:08.185,665.106
133,21 Feb 2025 17:25:10.890,21 Feb 2025 17:33:51.425,520.534
134,21 Feb 2025 18:57:05.815,21 Feb 2025 19:08:34.144,688.329
135,21 Feb 2025 20:35:56.894,21 Feb 2025 20:38:43.487,166.593
136,22 Feb 2025 17:07:39.441,22 Feb 2025 17:14:27.047,407.605
137,22 Feb 2025 18:38:20.737,22 Feb 2025 18:49:53.425,692.688
138,22 Feb 2025 20:14:51.590,22 Feb 2025 20:21:54.051,422.461
139,23 Feb 2025 16:50:55.331,23 Feb 2025 16:54:22.207,206.876
140,23 Feb 2025 18:19:47.256,23 Feb 2025 18:31:06.674,679.419
141,23 Feb 2025 19:54:56.492,23 Feb 2025 20:04:00.692,544.200
142,24 Feb 2025 18:01:25.571,24 Feb 2025 18:12:13.829,648.259
143,24 Feb 2025 19:35:27.778,24 Feb 2025 19:45:46.858,619.081
144,25 Feb 2025 17:43:16.766,25 Feb 2025 17:53:14.028,597.262
145,25 Feb 2025 19:16:16.509,25 Feb 2025 19:27:21.220,664.711
146,26 Feb 2025 17:25:23.384,26 Feb 2025 17:34:04.989,521.605
147,26 Feb 2025 18:57:19.096,26 Feb 2025 19:08:47.265,688.170
148,26 Feb 2025 20:36:13.290,26 Feb 2025 20:38:53.836,160.546
149,27 Feb 2025 17:07:51.609,27 Feb 2025 17:14:40.858,409.250
150,27 Feb 2025 18:38:33.880,27 Feb 2025 18:50:06.620,692.740
151,27 Feb 2025 20:15:05.860,27 Feb 2025 20:22:06.457,420.598
152,28 Feb 2025 16:51:06.421,28 Feb 2025 16:54:37.014,210.592
153,28 Feb 2025 18:20:00.263,28 Feb 2025 18:31:19.939,679.676
154,28 Feb 2025 19:55:10.345,28 Feb 2025 20:04:13.441,543.096
155,1 Mar 2025 18:01:38.435,1 Mar 2025 18:12:27.170,648.734
156,1 Mar 2025 19:35:41.390,1 Mar 2025 19:45:59.781,618.390
157,2 Mar 2025 17:43:29.469,2 Mar 2025 17:53:27.459,597.990
158,2 Mar 2025 19:16:29.943,2 Mar 2025 19:27:34.256,664.313
159,3 Mar 2025 17:25:35.881,3 Mar 2025 17:34:18.553,522.672
160,3 Mar 2025 18:57:32.379,3 Mar 2025 19:09:00.386,688.008
161,3 Mar 2025 20:36:29.814,3 Mar 2025 20:39:04.065,154.251
162,4 Mar 2025 17:08:03.783,4 Mar 2025 17:14:54.664,410.880
163,4 Mar 2025 18:38:47.025,4 Mar 2025 18:50:19.814,692.790
164,4 Mar 2025 20:15:20.135,4 Mar 2025 20:22:18.855,418.720
165,5 Mar 2025 16:51:17.551,5 Mar 2025 16:54:51.780,214.229
166,5 Mar 2025 18:20:13.271,5 Mar 2025 18:31:33.203,679.931
167,5 Mar 2025 19:55:24.200,5 Mar 2025 20:04:26.187,541.987
168,6 Mar 2025 18:01:51.301,6 Mar 2025 18:12:40.507,649.206
169,6 Mar 2025 19:35:55.004,6 Mar 2025 19:46:12.701,617.697
170,7 Mar 2025 17:43:42.172,7 Mar 2025 17:53:40.887,598.714
171,7 Mar 2025 19:16:43.377,7 Mar 2025 19:27:47.289,663.912
172,8 Mar 2025 17:25:48.380,8 Mar 2025 17:34:32.111,523.731
173,8 Mar 2025 18:57:45.662,8 Mar 2025 19:09:13.505,687.843
174,8 Mar 2025 20:36:46.477,8 Mar 2025 20:39:14.148,147.671
175,9 Mar 2025 17:08:15.963,9 Mar 2025 17:15:08.462,412.499
176,9 Mar 2025 18:39:00.173,9 Mar 2025 18:50:33.006,692.833
177,9 Mar 2025 20:15:34.422,9 Mar 2025 20:22:31.245,416.823
178,10 Mar 2025 16:51:28.712,10 Mar 2025 16:55:06.516,217.803
179,10 Mar 2025 18:20:26.281,10 Mar 2025 18:31:46.465,680.184
180,10 Mar 2025 19:55:38.059,10 Mar 2025 20:04:38.930,540.870
181,11 Mar 2025 18:02:04.168,11 Mar 2025 18:12:53.844,649.676
182,11 Mar 2025 19:36:08.619,11 Mar 2025 19:46:25.619,616.999
183,12 Mar 2025 17:43:54.879,12 Mar 2025 17:53:54.315,599.436
184,12 Mar 2025 19:16:56.814,12 Mar 2025 19:28:00.321,663.508
185,13 Mar 2025 17:26:00.882,13 Mar 2025 17:34:45.670,524.788
186,13 Mar 2025 18:57:58.948,13 Mar 2025 19:09:26.624,687.676
187,13 Mar 2025 20:37:03.307,13 Mar 2025 20:39:24.071,140.764
188,14 Mar 2025 17:08:28.146,14 Mar 2025 17:15:22.257,414.111
189,14 Mar 2025 18:39:13.321,14 Mar 2025 18:50:46.195,692.875
190,14 Mar 2025 20:15:48.709,14 Mar 2025 20:22:43.625,414.915
191,15 Mar 2025 16:51:39.906,15 Mar 2025 16:55:21.221,221.314
192,15 Mar 2025 18:20:39.294,15 Mar 2025 18:31:59.728,680.434
193,15 Mar 2025 19:55:51.922,15 Mar 2025 20:04:51.672,539.749
194,16 Mar 2025 18:02:17.038,16 Mar 2025 18:13:07.181,650.143
195,16 Mar 2025 19:36:22.239,16 Mar 2025 19:46:38.537,616.298
196,17 Mar 2025 17:44:07.588,17 Mar 2025 17:54:07.742,600.154
197,17 Mar 2025 19:17:10.253,17 Mar 2025 19:28:13.354,663.101
198,18 Mar 2025 17:26:13.388,18 Mar 2025 17:34:59.226,525.838
199,18 Mar 2025 18:58:12.236,18 Mar 2025 19:09:39.743,687.507
200,18 Mar 2025 20:37:20.320,18 Mar 2025 20:39:33.814,133.494
201,19 Mar 2025 17:08:40.341,19 Mar 2025 17:15:36.049,415.707
202,19 Mar 2025 18:39:26.470,19 Mar 2025 18:50:59.387,692.917
203,19 Mar 2025 20:16:03.008,19 Mar 2025 20:22:56.004,412.996
204,20 Mar 2025 16:51:51.134,20 Mar 2025 16:55:35.892,224.758
205,20 Mar 2025 18:20:52.307,20 Mar 2025 18:32:12.989,680.681
206,20 Mar 2025 19:56:05.788,20 Mar 2025 20:05:04.411,538.623
207,21 Mar 2025 18:02:29.909,21 Mar 2025 18:13:20.516,650.607
208,21 Mar 2025 19:36:35.859,21 Mar 2025 19:46:51.453,615.594
209,22 Mar 2025 17:44:20.298,22 Mar 2025 17:54:21.166,600.868
210,22 Mar 2025 19:17:23.693,22 Mar 2025 19:28:26.384,662.691
211,23 Mar 2025 17:26:25.896,23 Mar 2025 17:35:12.778,526.882
212,23 Mar 2025 18:58:25.524,23 Mar 2025 19:09:52.859,687.335
213,23 Mar 2025 20:37:37.555,23 Mar 2025 20:39:43.336,125.780
214,24 Mar 2025 17:08:52.536,24 Mar 2025 17:15:49.836,417.300
215,24 Mar 2025 18:39:39.620,24 Mar 2025 18:51:12.577,692.957
216,24 Mar 2025 20:16:17.314,24 Mar 2025 20:23:08.375,411.061
217,25 Mar 2025 16:52:02.388,25 Mar 2025 16:55:50.537,228.150
218,25 Mar 2025 18:21:05.322,25 Mar 2025 18:32:26.248,680.927
219,25 Mar 2025 19:56:19.657,25 Mar 2025 20:05:17.146,537.489
220,26 Mar 2025 18:02:42.782,26 Mar 2025 18:13:33.850,651.068
221,26 Mar 2025 19:36:49.482,26 Mar 2025 19:47:04.367,614.884
222,27 Mar 2025 17:44:33.011,27 Mar 2025 17:54:34.590,601.579
223,27 Mar 2025 19:17:37.135,27 Mar 2025 19:28:39.413,662.278
224,28 Mar 2025 17:26:38.407,28 Mar 2025 17:35:26.330,527.923
225,28 Mar 2025 18:58:38.815,28 Mar 2025 19:10:05.976,687.161
226,28 Mar 2025 20:37:55.053,28 Mar 2025 20:39:52.592,117.540
227,29 Mar 2025 17:09:04.736,29 Mar 2025 17:16:03.620,418.885
228,29 Mar 2025 18:39:52.773,29 Mar 2025 18:51:25.768,692.995
229,29 Mar 2025 20:16:31.631,29 Mar 2025 20:23:20.740,409.109
230,30 Mar 2025 16:52:13.671,30 Mar 2025 16:56:05.156,231.485
231,30 Mar 2025 18:21:18.339,30 Mar 2025 18:32:39.509,681.169
232,30 Mar 2025 19:56:33.531,30 Mar 2025 20:05:29.880,536.349
233,31 Mar 2025 18:02:55.658,31 Mar 2025 18:13:47.182,651.524
234,31 Mar 2025 19:37:03.109,31 Mar 2025 19:47:17.280,614.172
235,1 Apr 2025 17:44:45.726,1 Apr 2025 17:54:48.012,602.286
236,1 Apr 2025 19:17:50.580,1 Apr 2025 19:28:52.443,661.863
237,2 Apr 2025 17:26:50.922,2 Apr 2025 17:35:39.878,528.956
238,2 Apr 2025 18:58:52.108,2 Apr 2025 19:10:19.092,686.984
239,2 Apr 2025 20:38:12.867,2 Apr 2025 20:40:01.536,108.668
240,3 Apr 2025 17:09:16.941,3 Apr 2025 17:16:17.398,420.457
241,3 Apr 2025 18:40:05.929,3 Apr 2025 18:51:38.957,693.028
242,3 Apr 2025 20:16:45.950,3 Apr 2025 20:23:33.099,407.149
243,4 Apr 2025 16:52:24.983,4 Apr 2025 16:56:19.745,234.761
244,4 Apr 2025 18:21:31.357,4 Apr 2025 18:32:52.767,681.409
245,4 Apr 2025 19:56:47.408,4 Apr 2025 20:05:42.612,535.203
246,5 Apr 2025 18:03:08.534,5 Apr 2025 18:14:00.513,651.980
247,5 Apr 2025 19:37:16.736,5 Apr 2025 19:47:30.191,613.456
248,6 Apr 2025 17:44:58.443,6 Apr 2025 17:55:01.433,602.990
249,6 Apr 2025 19:18:04.025,6 Apr 2025 19:29:05.470,661.445
250,7 Apr 2025 17:27:03.438,7 Apr 2025 17:35:53.425,529.986
251,7 Apr 2025 18:59:05.402,7 Apr 2025 19:10:32.206,686.805
252,7 Apr 2025 20:38:31.097,7 Apr 2025 20:40:10.064,98.967
253,8 Apr 2025 17:09:29.150,8 Apr 2025 17:16:31.173,422.023
254,8 Apr 2025 18:40:19.084,8 Apr 2025 18:51:52.145,693.061
255,8 Apr 2025 20:17:00.281,8 Apr 2025 20:23:45.450,405.169
256,9 Apr 2025 16:52:36.318,9 Apr 2025 16:56:34.313,237.994
257,9 Apr 2025 18:21:44.378,9 Apr 2025 18:33:06.025,681.647
258,9 Apr 2025 19:57:01.289,9 Apr 2025 20:05:55.340,534.051
259,10 Apr 2025 18:03:21.413,10 Apr 2025 18:14:13.846,652.433
260,10 Apr 2025 19:37:30.367,10 Apr 2025 19:47:43.102,612.735
261,11 Apr 2025 17:45:11.163,11 Apr 2025 17:55:14.854,603.690
262,11 Apr 2025 19:18:17.475,11 Apr 2025 19:29:18.500,661.026
263,12 Apr 2025 17:27:15.959,12 Apr 2025 17:36:06.967,531.008
264,12 Apr 2025 18:59:18.699,12 Apr 2025 19:10:45.322,686.623
265,12 Apr 2025 20:38:49.872,12 Apr 2025 20:40:18.051,88.179
266,13 Apr 2025 17:09:41.367,13 Apr 2025 17:16:44.945,423.578
267,13 Apr 2025 18:40:32.241,13 Apr 2025 18:52:05.334,693.093
268,13 Apr 2025 20:17:14.619,13 Apr 2025 20:23:57.796,403.177
269,14 Apr 2025 16:52:47.681,14 Apr 2025 16:56:48.856,241.174
270,14 Apr 2025 18:21:57.401,14 Apr 2025 18:33:19.283,681.882
271,14 Apr 2025 19:57:15.175,14 Apr 2025 20:06:08.067,532.892
272,15 Apr 2025 18:03:34.294,15 Apr 2025 18:14:27.178,652.883
273,15 Apr 2025 19:37:44.001,15 Apr 2025 19:47:56.012,612.011
274,16 Apr 2025 17:45:23.886,16 Apr 2025 17:55:28.268,604.382
275,16 Apr 2025 19:18:30.926,16 Apr 2025 19:29:31.527,660.602
276,17 Apr 2025 17:27:28.483,17 Apr 2025 17:36:20.511,532.028
277,17 Apr 2025 18:59:31.997,17 Apr 2025 19:10:58.435,686.438
278,17 Apr 2025 20:39:09.418,17 Apr 2025 20:40:25.267,75.849
279,18 Apr 2025 17:09:53.588,18 Apr 2025 17:16:58.711,425.124
280,18 Apr 2025 18:40:45.400,18 Apr 2025 18:52:18.521,693.121
281,18 Apr 2025 20:17:28.964,18 Apr 2025 20:24:10.135,401.171
282,19 Apr 2025 16:52:59.068,19 Apr 2025 16:57:03.374,244.305
283,19 Apr 2025 18:22:10.424,19 Apr 2025 18:33:32.539,682.115
284,19 Apr 2025 19:57:29.063,19 Apr 2025 20:06:20.791,531.728
285,20 Apr 2025 18:03:47.177,20 Apr 2025 18:14:40.507,653.331
286,20 Apr 2025 19:37:57.632,20 Apr 2025 19:48:08.919,611.287
287,21 Apr 2025 17:45:36.609,21 Apr 2025 17:55:41.687,605.077
288,21 Apr 2025 19:18:44.378,21 Apr 2025 19:29:44.552,660.174
289,22 Apr 2025 17:27:41.009,22 Apr 2025 17:36:34.052,533.044
290,22 Apr 2025 18:59:45.297,22 Apr 2025 19:11:11.547,686.251
291,22 Apr 2025 20:39:30.206,22 Apr 2025 20:40:31.244,61.038
292,23 Apr 2025 17:10:05.812,23 Apr 2025 17:17:12.475,426.663
293,23 Apr 2025 18:40:58.563,23 Apr 2025 18:52:31.707,693.145
294,23 Apr 2025 20:17:43.318,23 Apr 2025 20:24:22.465,399.146
295,24 Apr 2025 16:53:10.476,24 Apr 2025 16:57:17.873,247.397
296,24 Apr 2025 18:22:23.450,24 Apr 2025 18:33:45.795,682.345
297,24 Apr 2025 19:57:42.956,24 Apr 2025 20:06:33.512,530.555
298,25 Apr 2025 18:04:00.062,25 Apr 2025 18:14:53.838,653.776
299,25 Apr 2025 19:38:11.271,25 Apr 2025 19:48:21.825,610.554
300,26 Apr 2025 17:45:49.336,26 Apr 2025 17:55:55.106,605.770
301,26 Apr 2025 19:18:57.833,26 Apr 2025 19:29:57.576,659.743
302,27 Apr 2025 17:27:53.538,27 Apr 2025 17:36:47.594,534.055
303,27 Apr 2025 18:59:58.599,27 Apr 2025 19:11:24.660,686.061
304,27 Apr 2025 20:39:53.532,27 Apr 2025 20:40:34.681,41.149
305,28 Apr 2025 17:10:18.045,28 Apr 2025 17:17:26.235,428.190
306,28 Apr 2025 18:41:11.722,28 Apr 2025 18:52:44.899,693.176
307,28 Apr 2025 20:17:57.678,28 Apr 2025 20:24:34.794,397.117
308,29 Apr 2025 16:53:21.909,29 Apr 2025 16:57:32.349,250.440
309,29 Apr 2025 18:22:36.478,29 Apr 2025 18:33:59.052,682.573
310,29 Apr 2025 19:57:56.853,29 Apr 2025 20:06:46.232,529.379
311,30 Apr 2025 18:04:12.949,30 Apr 2025 18:15:07.167,654.218
312,30 Apr 2025 19:38:24.912,30 Apr 2025 19:48:34.731,609.819
313,1 May 2025 17:46:02.065,1 May 2025 17:56:08.523,606.458
314,1 May 2025 19:19:11.290,1 May 2025 19:30:10.600,659.310
315,2 May 2025 17:28:06.071,2 May 2025 17:37:01.131,535.061
316,2 May 2025 19:00:11.903,2 May 2025 19:11:37.771,685.869
317,3 May 2025 17:10:30.281,3 May 2025 17:17:39.990,429.709
318,3 May 2025 18:41:24.886,3 May 2025 18:52:58.083,693.197
319,3 May 2025 20:18:12.048,3 May 2025 20:24:47.111,395.063
320,4 May 2025 16:53:33.362,4 May 2025 16:57:46.805,253.443
321,4 May 2025 18:22:49.507,4 May 2025 18:34:12.306,682.799
322,4 May 2025 19:58:10.752,4 May 2025 20:06:58.948,528.196
323,5 May 2025 18:04:25.837,5 May 2025 18:15:20.492,654.655
324,5 May 2025 19:38:38.556,5 May 2025 19:48:47.634,609.078
325,6 May 2025 17:46:14.795,6 May 2025 17:56:21.938,607.143
326,6 May 2025 19:19:24.749,6 May 2025 19:30:23.622,658.873
327,7 May 2025 17:28:18.605,7 May 2025 17:37:14.669,536.064
328,7 May 2025 19:00:25.209,7 May 2025 19:11:50.882,685.674
329,8 May 2025 17:10:42.527,8 May 2025 17:17:53.743,431.217
330,8 May 2025 18:41:38.054,8 May 2025 18:53:11.269,693.215
331,8 May 2025 20:18:26.430,8 May 2025 20:24:59.419,392.989
332,9 May 2025 16:53:44.834,9 May 2025 16:58:01.245,256.411
333,9 May 2025 18:23:02.539,9 May 2025 18:34:25.561,683.022
334,9 May 2025 19:58:24.657,9 May 2025 20:07:11.662,527.005
335,10 May 2025 18:04:38.732,10 May 2025 18:15:33.822,655.090
336,10 May 2025 19:38:52.204,10 May 2025 19:49:00.537,608.333
337,11 May 2025 17:46:27.533,11 May 2025 17:56:35.353,607.820
338,11 May 2025 19:19:38.211,11 May 2025 19:30:36.641,658.430
339,12 May 2025 17:28:31.144,12 May 2025 17:37:28.202,537.058
340,12 May 2025 19:00:38.518,12 May 2025 19:12:03.994,685.476
341,13 May 2025 17:10:54.774,13 May 2025 17:18:07.498,432.724
342,13 May 2025 18:41:51.224,13 May 2025 18:53:24.455,693.230
343,13 May 2025 20:18:40.821,13 May 2025 20:25:11.722,390.901
344,14 May 2025 16:53:56.329,14 May 2025 16:58:15.664,259.334
345,14 May 2025 18:23:15.573,14 May 2025 18:34:38.816,683.242
346,14 May 2025 19:58:38.565,14 May 2025 20:07:24.374,525.809
347,15 May 2025 18:04:51.625,15 May 2025 18:15:47.149,655.524
348,15 May 2025 19:39:05.854,15 May 2025 19:49:13.439,607.585
349,16 May 2025 17:46:40.269,16 May 2025 17:56:48.767,608.498
350,16 May 2025 19:19:51.678,16 May 2025 19:30:49.666,657.988
351,17 May 2025 17:28:43.685,17 May 2025 17:37:41.736,538.051
352,17 May 2025 19:00:51.827,17 May 2025 19:12:17.104,685.276
353,18 May 2025 17:11:07.023,18 May 2025 17:18:21.243,434.220
354,18 May 2025 18:42:04.394,18 May 2025 18:53:37.638,693.244
355,18 May 2025 20:18:55.220,18 May 2025 20:25:24.016,388.796
356,19 May 2025 16:54:07.842,19 May 2025 16:58:30.065,262.222
357,19 May 2025 18:23:28.608,19 May 2025 18:34:52.069,683.461
358,19 May 2025 19:58:52.476,19 May 2025 20:07:37.082,524.605
359,20 May 2025 18:05:04.519,20 May 2025 18:16:00.475,655.956
360,20 May 2025 19:39:19.506,20 May 2025 19:49:26.338,606.832
361,21 May 2025 17:46:53.006,21 May 2025 17:57:02.179,609.173
362,21 May 2025 19:20:05.145,21 May 2025 19:31:02.685,657.540
363,22 May 2025 17:28:56.231,22 May 2025 17:37:55.269,539.038
364,22 May 2025 19:01:05.139,22 May 2025 19:12:30.213,685.073
365,23 May 2025 17:11:19.277,23 May 2025 17:18:34.987,435.710
366,23 May 2025 18:42:17.567,23 May 2025 18:53:50.822,693.255
367,23 May 2025 20:19:09.630,23 May 2025 20:25:36.300,386.671
368,24 May 2025 16:54:19.373,24 May 2025 16:58:44.451,265.078
369,24 May 2025 18:23:41.646,24 May 2025 18:35:05.322,683.677
370,24 May 2025 19:59:06.394,24 May 2025 20:07:49.788,523.394
371,25 May 2025 18:05:17.417,25 May 2025 18:16:13.800,656.383
372,25 May 2025 19:39:33.162,25 May 2025 19:49:39.237,606.074
373,26 May 2025 17:47:05.747,26 May 2025 17:57:15.592,609.844
374,26 May 2025 19:20:18.610,26 May 2025 19:31:15.705,657.095
375,27 May 2025 17:29:08.779,27 May 2025 17:38:08.801,540.022
376,27 May 2025 19:01:18.454,27 May 2025 19:12:43.322,684.868
377,28 May 2025 17:11:31.538,28 May 2025 17:18:48.726,437.188
378,28 May 2025 18:42:30.742,28 May 2025 18:54:04.006,693.264
379,28 May 2025 20:19:24.048,28 May 2025 20:25:48.580,384.531
380,29 May 2025 16:54:30.925,29 May 2025 16:58:58.817,267.892
381,29 May 2025 18:23:54.685,29 May 2025 18:35:18.575,683.890
382,29 May 2025 19:59:20.314,29 May 2025 20:08:02.494,522.180
383,30 May 2025 18:05:30.315,30 May 2025 18:16:27.125,656.810
384,30 May 2025 19:39:46.820,30 May 2025 19:49:52.134,605.313
385,31 May 2025 17:47:18.489,31 May 2025 17:57:29.002,610.512
386,31 May 2025 19:20:32.081,31 May 2025 19:31:28.723,656.642
387,1 Jun 2025 17:29:21.328,1 Jun 2025 17:38:22.330,541.002
388,1 Jun 2025 19:01:31.769,1 Jun 2025 19:12:56.429,684.660
389,2 Jun 2025 17:11:43.802,2 Jun 2025 17:19:02.458,438.656
390,2 Jun 2025 18:42:43.921,2 Jun 2025 18:54:17.184,693.263
391,2 Jun 2025 20:19:38.481,2 Jun 2025 20:26:00.843,382.363
392,3 Jun 2025 16:54:42.491,3 Jun 2025 16:59:13.168,270.676
393,3 Jun 2025 18:24:07.725,3 Jun 2025 18:35:31.823,684.098
394,3 Jun 2025 19:59:34.236,3 Jun 2025 20:08:15.192,520.956
395,4 Jun 2025 18:05:43.212,4 Jun 2025 18:16:40.453,657.240
396,4 Jun 2025 19:40:00.481,4 Jun 2025 19:50:05.028,604.547
397,5 Jun 2025 17:47:31.234,5 Jun 2025 17:57:42.412,611.178
398,5 Jun 2025 19:20:45.555,5 Jun 2025 19:31:41.740,656.185
399,6 Jun 2025 17:29:33.881,6 Jun 2025 17:38:35.860,541.979
400,6 Jun 2025 19:01:45.088,6 Jun 2025 19:13:09.537,684.449
401,7 Jun 2025 17:11:56.072,7 Jun 2025 17:19:16.193,440.121
402,7 Jun 2025 18:42:57.100,7 Jun 2025 18:54:30.367,693.267
403,7 Jun 2025 20:19:52.921,7 Jun 2025 20:26:13.104,380.183
404,8 Jun 2025 16:54:54.076,8 Jun 2025 16:59:27.506,273.431
405,8 Jun 2025 18:24:20.769,8 Jun 2025 18:35:45.076,684.307
406,8 Jun 2025 19:59:48.167,8 Jun 2025 20:08:27.890,519.724
407,9 Jun 2025 18:05:56.116,9 Jun 2025 18:16:53.778,657.662
408,9 Jun 2025 19:40:14.147,9 Jun 2025 19:50:17.923,603.776
409,10 Jun 2025 17:47:43.982,10 Jun 2025 17:57:55.823,611.841
410,10 Jun 2025 19:20:59.032,10 Jun 2025 19:31:54.758,655.726
411,11 Jun 2025 17:29:46.437,11 Jun 2025 17:38:49.388,542.951
412,11 Jun 2025 19:01:58.409,11 Jun 2025 19:13:22.645,684.236
413,12 Jun 2025 17:12:08.348,12 Jun 2025 17:19:29.924,441.577
414,12 Jun 2025 18:43:10.281,12 Jun 2025 18:54:43.549,693.268
415,12 Jun 2025 20:20:07.370,12 Jun 2025 20:26:25.361,377.990
416,13 Jun 2025 16:55:05.677,13 Jun 2025 16:59:41.828,276.151
417,13 Jun 2025 18:24:33.814,13 Jun 2025 18:35:58.327,684.513
418,13 Jun 2025 20:00:02.100,13 Jun 2025 20:08:40.585,518.485
419,14 Jun 2025 18:06:09.021,14 Jun 2025 18:17:07.102,658.081
420,14 Jun 2025 19:40:27.814,14 Jun 2025 19:50:30.816,603.002
421,15 Jun 2025 17:47:56.731,15 Jun 2025 17:58:09.231,612.500
422,15 Jun 2025 19:21:12.510,15 Jun 2025 19:32:07.773,655.263
423,16 Jun 2025 17:29:58.994,16 Jun 2025 17:39:02.914,543.919
424,16 Jun 2025 19:02:11.731,16 Jun 2025 19:13:35.750,684.019
425,17 Jun 2025 17:12:20.626,17 Jun 2025 17:19:43.652,443.026
426,17 Jun 2025 18:43:23.463,17 Jun 2025 18:54:56.729,693.266
427,17 Jun 2025 20:20:21.829,17 Jun 2025 20:26:37.602,375.773
428,18 Jun 2025 16:55:17.292,18 Jun 2025 16:59:56.136,278.844
429,18 Jun 2025 18:24:46.860,18 Jun 2025 18:36:11.577,684.717
430,18 Jun 2025 20:00:16.038,18 Jun 2025 20:08:53.276,517.238
431,19 Jun 2025 18:06:21.931,19 Jun 2025 18:17:20.424,658.493
432,19 Jun 2025 19:40:41.483,19 Jun 2025 19:50:43.706,602.222
433,20 Jun 2025 17:48:09.482,20 Jun 2025 17:58:22.640,613.157
434,20 Jun 2025 19:21:25.992,20 Jun 2025 19:32:20.788,654.796
435,21 Jun 2025 17:30:11.556,21 Jun 2025 17:39:16.440,544.885
436,21 Jun 2025 19:02:25.056,21 Jun 2025 19:13:48.856,683.800
437,22 Jun 2025 17:12:32.910,22 Jun 2025 17:19:57.377,444.467
438,22 Jun 2025 18:43:36.648,22 Jun 2025 18:55:09.911,693.263
439,22 Jun 2025 20:20:36.301,22 Jun 2025 20:26:49.836,373.534
440,23 Jun 2025 16:55:28.924,23 Jun 2025 17:00:10.432,281.508
441,23 Jun 2025 18:24:59.910,23 Jun 2025 18:36:24.829,684.919
442,23 Jun 2025 20:00:29.982,23 Jun 2025 20:09:05.965,515.984
443,24 Jun 2025 18:06:34.841,24 Jun 2025 18:17:33.748,658.907
444,24 Jun 2025 19:40:55.158,24 Jun 2025 19:50:56.596,601.439
445,25 Jun 2025 17:48:22.237,25 Jun 2025 17:58:36.048,613.811
446,25 Jun 2025 19:21:39.474,25 Jun 2025 19:32:33.802,654.329
447,26 Jun 2025 17:30:24.120,26 Jun 2025 17:39:29.965,545.845
448,26 Jun 2025 19:02:38.382,26 Jun 2025 19:14:01.961,683.579
449,27 Jun 2025 17:12:45.201,27 Jun 2025 17:20:11.102,445.902
450,27 Jun 2025 18:43:49.831,27 Jun 2025 18:55:23.095,693.264
451,27 Jun 2025 20:20:50.778,27 Jun 2025 20:27:02.061,371.284
452,28 Jun 2025 16:55:40.575,28 Jun 2025 17:00:24.715,284.139
453,28 Jun 2025 18:25:12.963,28 Jun 2025 18:36:38.082,685.118
454,28 Jun 2025 20:00:43.930,28 Jun 2025 20:09:18.651,514.720
455,29 Jun 2025 18:06:47.751,29 Jun 2025 18:17:47.069,659.318
456,29 Jun 2025 19:41:08.833,29 Jun 2025 19:51:09.483,600.650
457,30 Jun 2025 17:48:34.992,30 Jun 2025 17:58:49.453,614.462
458,30 Jun 2025 19:21:52.958,30 Jun 2025 19:32:46.814,653.856
459,1 Jul 2025 17:30:36.686,1 Jul 2025 17:39:43.487,546.802
460,1 Jul 2025 19:02:51.710,1 Jul 2025 19:14:15.064,683.354
461,2 Jul 2025 17:12:57.489,2 Jul 2025 17:20:24.819,447.330
462,2 Jul 2025 18:44:03.021,2 Jul 2025 18:55:36.270,693.250
463,2 Jul 2025 20:21:05.274,2 Jul 2025 20:27:14.273,368.999
464,3 Jul 2025 16:55:52.231,3 Jul 2025 17:00:38.982,286.751
465,3 Jul 2025 18:25:26.012,3 Jul 2025 18:36:51.327,685.315
466,3 Jul 2025 20:00:57.880,3 Jul 2025 20:09:31.332,513.452
467,4 Jul 2025 18:07:00.664,4 Jul 2025 18:18:00.392,659.728
468,4 Jul 2025 19:41:22.512,4 Jul 2025 19:51:22.369,599.857
469,5 Jul 2025 17:48:47.750,5 Jul 2025 17:59:02.860,615.110
470,5 Jul 2025 19:22:06.447,5 Jul 2025 19:32:59.826,653.379
471,6 Jul 2025 17:30:49.255,6 Jul 2025 17:39:57.010,547.755
472,6 Jul 2025 19:03:05.042,6 Jul 2025 19:14:28.168,683.127
473,7 Jul 2025 17:13:09.785,7 Jul 2025 17:20:38.538,448.752
474,7 Jul 2025 18:44:16.211,7 Jul 2025 18:55:49.450,693.239
475,7 Jul 2025 20:21:19.779,7 Jul 2025 20:27:26.478,366.698
476,8 Jul 2025 16:56:03.907,8 Jul 2025 17:00:53.239,289.332
477,8 Jul 2025 18:25:39.067,8 Jul 2025 18:37:04.577,685.510
478,8 Jul 2025 20:01:11.837,8 Jul 2025 20:09:44.012,512.175
479,9 Jul 2025 18:07:13.579,9 Jul 2025 18:18:13.709,660.130
480,9 Jul 2025 19:41:36.195,9 Jul 2025 19:51:35.254,599.059
481,10 Jul 2025 17:49:00.511,10 Jul 2025 17:59:16.266,615.755
482,10 Jul 2025 19:22:19.935,10 Jul 2025 19:33:12.837,652.901
483,11 Jul 2025 17:31:01.828,11 Jul 2025 17:40:10.530,548.702
484,11 Jul 2025 19:03:18.375,11 Jul 2025 19:14:41.271,682.896
485,12 Jul 2025 17:13:22.086,12 Jul 2025 17:20:52.252,450.166
486,12 Jul 2025 18:44:29.402,12 Jul 2025 18:56:02.628,693.226
487,12 Jul 2025 20:21:34.294,12 Jul 2025 20:27:38.672,364.378
488,13 Jul 2025 16:56:15.596,13 Jul 2025 17:01:07.482,291.886
489,13 Jul 2025 18:25:52.123,13 Jul 2025 18:37:17.825,685.702
490,13 Jul 2025 20:01:25.796,13 Jul 2025 20:09:56.687,510.890
491,14 Jul 2025 18:07:26.495,14 Jul 2025 18:18:27.033,660.538
492,14 Jul 2025 19:41:49.879,14 Jul 2025 19:51:48.135,598.257
493,15 Jul 2025 17:49:13.272,15 Jul 2025 17:59:29.670,616.398
494,15 Jul 2025 19:22:33.427,15 Jul 2025 19:33:25.845,652.418
495,16 Jul 2025 17:31:14.401,16 Jul 2025 17:40:24.048,549.647
496,16 Jul 2025 19:03:31.709,16 Jul 2025 19:14:54.372,682.663
497,17 Jul 2025 17:13:34.392,17 Jul 2025 17:21:05.966,451.574
498,17 Jul 2025 18:44:42.594,17 Jul 2025 18:56:15.810,693.216
499,17 Jul 2025 20:21:48.816,17 Jul 2025 20:27:50.850,362.034
500,18 Jul 2025 16:56:27.301,18 Jul 2025 17:01:21.718,294.417
501,18 Jul 2025 18:26:05.184,18 Jul 2025 18:37:31.073,685.889
502,18 Jul 2025 20:01:39.764,18 Jul 2025 20:10:09.357,509.593
503,19 Jul 2025 18:07:39.414,19 Jul 2025 18:18:40.353,660.940
504,19 Jul 2025 19:42:03.567,19 Jul 2025 19:52:01.016,597.449
505,20 Jul 2025 17:49:26.037,20 Jul 2025 17:59:43.075,617.038
506,20 Jul 2025 19:22:46.922,20 Jul 2025 19:33:38.853,651.931
507,21 Jul 2025 17:31:26.979,21 Jul 2025 17:40:37.567,550.588
508,21 Jul 2025 19:03:45.047,21 Jul 2025 19:15:07.473,682.427
509,22 Jul 2025 17:13:46.701,22 Jul 2025 17:21:19.676,452.975
510,22 Jul 2025 18:44:55.790,22 Jul 2025 18:56:28.988,693.198
511,22 Jul 2025 20:22:03.356,22 Jul 2025 20:28:03.023,359.666
512,23 Jul 2025 16:56:39.017,23 Jul 2025 17:01:35.939,296.922
513,23 Jul 2025 18:26:18.244,23 Jul 2025 18:37:44.320,686.076
514,23 Jul 2025 20:01:53.735,23 Jul 2025 20:10:22.027,508.292
515,24 Jul 2025 18:07:52.334,24 Jul 2025 18:18:53.673,661.339
516,24 Jul 2025 19:42:17.258,24 Jul 2025 19:52:13.895,596.637
517,25 Jul 2025 17:49:38.803,25 Jul 2025 17:59:56.477,617.674
518,25 Jul 2025 19:23:00.417,25 Jul 2025 19:33:51.860,651.444
519,26 Jul 2025 17:31:39.558,26 Jul 2025 17:40:51.083,551.525
520,26 Jul 2025 19:03:58.385,26 Jul 2025 19:15:20.573,682.188
521,27 Jul 2025 17:13:59.012,27 Jul 2025 17:21:33.382,454.369
522,27 Jul 2025 18:45:08.986,27 Jul 2025 18:56:42.163,693.177
523,27 Jul 2025 20:22:17.906,27 Jul 2025 20:28:15.188,357.282
524,28 Jul 2025 16:56:50.744,28 Jul 2025 17:01:50.148,299.404
525,28 Jul 2025 18:26:31.304,28 Jul 2025 18:37:57.566,686.261
526,28 Jul 2025 20:02:07.708,28 Jul 2025 20:10:34.690,506.983
527,29 Jul 2025 18:08:05.255,29 Jul 2025 18:19:06.990,661.735
528,29 Jul 2025 19:42:30.950,29 Jul 2025 19:52:26.770,595.820
529,30 Jul 2025 17:49:51.571,30 Jul 2025 18:00:09.879,618.308
530,30 Jul 2025 19:23:13.915,30 Jul 2025 19:34:04.865,650.950
531,31 Jul 2025 17:31:52.139,31 Jul 2025 17:41:04.598,552.459
532,31 Jul 2025 19:04:11.726,31 Jul 2025 19:15:33.671,681.945
533,1 Aug 2025 17:14:11.328,1 Aug 2025 17:21:47.087,455.759
534,1 Aug 2025 18:45:22.185,1 Aug 2025 18:56:55.339,693.154
535,1 Aug 2025 20:22:32.470,1 Aug 2025 20:28:27.333,354.864
536,2 Aug 2025 16:57:02.482,2 Aug 2025 17:02:04.349,301.867
537,2 Aug 2025 18:26:44.368,2 Aug 2025 18:38:10.812,686.444
538,2 Aug 2025 20:02:21.687,2 Aug 2025 20:10:47.351,505.664
539,3 Aug 2025 18:08:18.179,3 Aug 2025 18:19:20.309,662.130
540,3 Aug 2025 19:42:44.647,3 Aug 2025 19:52:39.645,594.997
541,4 Aug 2025 17:50:04.341,4 Aug 2025 18:00:23.282,618.940
542,4 Aug 2025 19:23:27.416,4 Aug 2025 19:34:17.869,650.453
543,5 Aug 2025 17:32:04.724,5 Aug 2025 17:41:18.113,553.389
544,5 Aug 2025 19:04:25.069,5 Aug 2025 19:15:46.769,681.700
545,6 Aug 2025 17:14:23.648,6 Aug 2025 17:22:00.789,457.141
546,6 Aug 2025 18:45:35.386,6 Aug 2025 18:57:08.514,693.128
547,6 Aug 2025 20:22:47.046,6 Aug 2025 20:28:39.471,352.425
548,7 Aug 2025 16:57:14.229,7 Aug 2025 17:02:18.538,304.309
549,7 Aug 2025 18:26:57.429,7 Aug 2025 18:38:24.057,686.628
550,7 Aug 2025 20:02:35.670,7 Aug 2025 20:11:00.004,504.334
551,8 Aug 2025 18:08:31.101,8 Aug 2025 18:19:33.626,662.525
552,8 Aug 2025 19:42:58.346,8 Aug 2025 19:52:52.513,594.166
553,9 Aug 2025 17:50:17.113,9 Aug 2025 18:00:36.679,619.565
554,9 Aug 2025 19:23:40.919,9 Aug 2025 19:34:30.872,649.953
555,10 Aug 2025 17:32:17.310,10 Aug 2025 17:41:31.625,554.315
556,10 Aug 2025 19:04:38.411,10 Aug 2025 19:15:59.866,681.455
557,11 Aug 2025 17:14:35.971,11 Aug 2025 17:22:14.486,458.515
558,11 Aug 2025 18:45:48.587,11 Aug 2025 18:57:21.687,693.100
559,11 Aug 2025 20:23:01.633,11 Aug 2025 20:28:51.596,349.963
560,12 Aug 2025 16:57:25.992,12 Aug 2025 17:02:32.717,306.726
561,12 Aug 2025 18:27:10.494,12 Aug 2025 18:38:37.300,686.806
562,12 Aug 2025 20:02:49.656,12 Aug 2025 20:11:12.661,503.004
563,13 Aug 2025 18:08:44.027,13 Aug 2025 18:19:46.941,662.914
564,13 Aug 2025 19:43:12.047,13 Aug 2025 19:53:05.382,593.335
565,14 Aug 2025 17:50:29.886,14 Aug 2025 18:00:50.078,620.192
566,14 Aug 2025 19:23:54.424,14 Aug 2025 19:34:43.872,649.449
567,15 Aug 2025 17:32:29.899,15 Aug 2025 17:41:45.137,555.238
568,15 Aug 2025 19:04:51.757,15 Aug 2025 19:16:12.961,681.204
569,16 Aug 2025 17:14:48.298,16 Aug 2025 17:22:28.184,459.886
570,16 Aug 2025 18:46:01.790,16 Aug 2025 18:57:34.860,693.069
571,16 Aug 2025 20:23:16.235,16 Aug 2025 20:29:03.707,347.472
572,17 Aug 2025 16:57:37.765,17 Aug 2025 17:02:46.888,309.123
573,17 Aug 2025 18:27:23.562,17 Aug 2025 18:38:50.544,686.982
574,17 Aug 2025 20:03:03.650,17 Aug 2025 20:11:25.310,501.660
575,18 Aug 2025 18:08:56.956,18 Aug 2025 18:20:00.258,663.302
576,18 Aug 2025 19:43:25.753,18 Aug 2025 19:53:18.250,592.497
577,19 Aug 2025 17:50:42.658,19 Aug 2025 18:01:03.480,620.822
578,19 Aug 2025 19:24:07.927,19 Aug 2025 19:34:56.868,648.940
579,20 Aug 2025 17:32:42.490,20 Aug 2025 17:41:58.647,556.157
580,20 Aug 2025 19:05:05.104,20 Aug 2025 19:16:26.056,680.952
581,21 Aug 2025 17:15:00.629,21 Aug 2025 17:22:41.877,461.248
582,21 Aug 2025 18:46:14.996,21 Aug 2025 18:57:48.032,693.036
583,21 Aug 2025 20:23:30.849,21 Aug 2025 20:29:15.809,344.960
584,22 Aug 2025 16:57:49.552,22 Aug 2025 17:03:01.041,311.489
585,22 Aug 2025 18:27:36.631,22 Aug 2025 18:39:03.787,687.155
586,22 Aug 2025 20:03:17.646,22 Aug 2025 20:11:37.955,500.309
587,23 Aug 2025 18:09:09.886,23 Aug 2025 18:20:13.571,663.686
588,23 Aug 2025 19:43:39.460,23 Aug 2025 19:53:31.116,591.656
589,24 Aug 2025 17:50:55.435,24 Aug 2025 18:01:16.877,621.442
590,24 Aug 2025 19:24:21.435,24 Aug 2025 19:35:09.867,648.432
591,25 Aug 2025 17:32:55.082,25 Aug 2025 17:42:12.155,557.072
592,25 Aug 2025 19:05:18.452,25 Aug 2025 19:16:39.148,680.697
593,26 Aug 2025 17:15:12.962,26 Aug 2025 17:22:55.567,462.605
594,26 Aug 2025 18:46:28.201,26 Aug 2025 18:58:01.202,693.000
595,26 Aug 2025 20:23:45.476,26 Aug 2025 20:29:27.895,342.419
596,27 Aug 2025 16:58:01.347,27 Aug 2025 17:03:15.189,313.842
597,27 Aug 2025 18:27:49.701,27 Aug 2025 18:39:17.027,687.326
598,27 Aug 2025 20:03:31.646,27 Aug 2025 20:11:50.594,498.948
599,28 Aug 2025 18:09:22.816,28 Aug 2025 18:20:26.884,664.068
600,28 Aug 2025 19:43:53.169,28 Aug 2025 19:53:43.978,590.809
601,29 Aug 2025 17:51:08.213,29 Aug 2025 18:01:30.269,622.056
602,29 Aug 2025 19:24:34.945,29 Aug 2025 19:35:22.863,647.918
603,30 Aug 2025 17:33:07.680,30 Aug 2025 17:42:25.663,557.983
604,30 Aug 2025 19:05:31.803,30 Aug 2025 19:16:52.240,680.438
605,31 Aug 2025 17:15:25.299,31 Aug 2025 17:23:09.257,463.957
606,31 Aug 2025 18:46:41.410,31 Aug 2025 18:58:14.372,692.962
607,31 Aug 2025 20:24:00.118,31 Aug 2025 20:29:39.968,339.850
608,1 Sep 2025 16:58:13.154,1 Sep 2025 17:03:29.330,316.176
609,1 Sep 2025 18:28:02.773,1 Sep 2025 18:39:30.268,687.495
610,1 Sep 2025 20:03:45.652,1 Sep 2025 20:12:03.231,497.578
611,2 Sep 2025 18:09:35.750,2 Sep 2025 18:20:40.198,664.448
612,2 Sep 2025 19:44:06.882,2 Sep 2025 19:53:56.839,589.957
613,3 Sep 2025 17:51:20.994,3 Sep 2025 18:01:43.666,622.672
614,3 Sep 2025 19:24:48.458,3 Sep 2025 19:35:35.858,647.400
615,4 Sep 2025 17:33:20.277,4 Sep 2025 17:42:39.168,558.891
616,4 Sep 2025 19:05:45.155,4 Sep 2025 19:17:05.335,680.180
617,5 Sep 2025 17:15:37.641,5 Sep 2025 17:23:22.942,465.301
618,5 Sep 2025 18:46:54.619,5 Sep 2025 18:58:27.540,692.921
619,5 Sep 2025 20:24:14.773,5 Sep 2025 20:29:52.029,337.256
620,6 Sep 2025 16:58:24.971,6 Sep 2025 17:03:43.458,318.487
621,6 Sep 2025 18:28:15.846,6 Sep 2025 18:39:43.508,687.662
622,6 Sep 2025 20:03:59.661,6 Sep 2025 20:12:15.863,496.202
623,7 Sep 2025 18:09:48.684,7 Sep 2025 18:20:53.508,664.825
624,7 Sep 2025 19:44:20.596,7 Sep 2025 19:54:09.697,589.101
625,8 Sep 2025 17:51:33.776,8 Sep 2025 18:01:57.062,623.286
626,8 Sep 2025 19:25:01.972,8 Sep 2025 19:35:48.850,646.879
627,9 Sep 2025 17:33:32.876,9 Sep 2025 17:42:52.671,559.795
628,9 Sep 2025 19:05:58.508,9 Sep 2025 19:17:18.423,679.915
629,10 Sep 2025 17:15:49.984,10 Sep 2025 17:23:36.624,466.640
630,10 Sep 2025 18:47:07.829,10 Sep 2025 18:58:40.707,692.878
631,10 Sep 2025 20:24:29.441,10 Sep 2025 20:30:04.074,334.633
632,11 Sep 2025 16:58:36.797,11 Sep 2025 17:03:57.579,320.782
633,11 Sep 2025 18:28:28.920,11 Sep 2025 18:39:56.746,687.826
634,11 Sep 2025 20:04:13.675,11 Sep 2025 20:12:28.489,494.814
635,12 Sep 2025 18:10:01.619,12 Sep 2025 18:21:06.819,665.200
636,12 Sep 2025 19:44:34.314,12 Sep 2025 19:54:22.552,588.238
637,13 Sep 2025 17:51:46.560,13 Sep 2025 18:02:10.456,623.896
638,13 Sep 2025 19:25:15.488,13 Sep 2025 19:36:01.841,646.353
639,14 Sep 2025 17:33:45.478,14 Sep 2025 17:43:06.175,560.697
640,14 Sep 2025 19:06:11.864,14 Sep 2025 19:17:31.511,679.647
641,15 Sep 2025 17:16:02.332,15 Sep 2025 17:23:50.305,467.973
642,15 Sep 2025 18:47:21.042,15 Sep 2025 18:58:53.874,692.832
643,15 Sep 2025 20:24:44.126,15 Sep 2025 20:30:16.106,331.980
644,16 Sep 2025 16:58:48.634,16 Sep 2025 17:04:11.692,323.059
645,16 Sep 2025 18:28:41.997,16 Sep 2025 18:40:09.985,687.988
646,16 Sep 2025 20:04:27.695,16 Sep 2025 20:12:41.113,493.418
647,17 Sep 2025 18:10:14.557,17 Sep 2025 18:21:20.129,665.572
648,17 Sep 2025 19:44:48.034,17 Sep 2025 19:54:35.406,587.371
649,18 Sep 2025 17:51:59.345,18 Sep 2025 18:02:23.848,624.502
650,18 Sep 2025 19:25:29.006,18 Sep 2025 19:36:14.831,645.824
651,19 Sep 2025 17:33:58.081,19 Sep 2025 17:43:19.675,561.593
652,19 Sep 2025 19:06:25.218,19 Sep 2025 19:17:44.598,679.380
653,20 Sep 2025 17:16:14.683,20 Sep 2025 17:24:03.981,469.298
654,20 Sep 2025 18:47:34.255,20 Sep 2025 18:59:07.038,692.784
655,20 Sep 2025 20:24:58.823,20 Sep 2025 20:30:28.123,329.300
656,21 Sep 2025 16:59:00.480,21 Sep 2025 17:04:25.793,325.312
657,21 Sep 2025 18:28:55.073,21 Sep 2025 18:40:23.220,688.147
658,21 Sep 2025 20:04:41.717,21 Sep 2025 20:12:53.731,492.015
659,22 Sep 2025 18:10:27.494,22 Sep 2025 18:21:33.436,665.941
660,22 Sep 2025 19:45:01.756,22 Sep 2025 19:54:48.255,586.500
661,23 Sep 2025 17:52:12.131,23 Sep 2025 18:02:37.237,625.106
662,23 Sep 2025 19:25:42.525,23 Sep 2025 19:36:27.817,645.292
663,24 Sep 2025 17:34:10.686,24 Sep 2025 17:43:33.173,562.487
664,24 Sep 2025 19:06:38.575,24 Sep 2025 19:17:57.681,679.107
665,25 Sep 2025 17:16:27.036,25 Sep 2025 17:24:17.655,470.619
666,25 Sep 2025 18:47:47.468,25 Sep 2025 18:59:20.201,692.733
667,25 Sep 2025 20:25:13.536,25 Sep 2025 20:30:40.124,326.588
668,26 Sep 2025 16:59:12.334,26 Sep 2025 17:04:39.886,327.552
669,26 Sep 2025 18:29:08.151,26 Sep 2025 18:40:36.453,688.302
670,26 Sep 2025 20:04:55.744,26 Sep 2025 20:13:06.344,490.601
671,27 Sep 2025 18:10:40.433,27 Sep 2025 18:21:46.742,666.309
672,27 Sep 2025 19:45:15.482,27 Sep 2025 19:55:01.102,585.620
673,28 Sep 2025 17:52:24.919,28 Sep 2025 18:02:50.626,625.707
674,28 Sep 2025 19:25:56.046,28 Sep 2025 19:36:40.802,644.756
675,29 Sep 2025 17:34:23.293,29 Sep 2025 17:43:46.671,563.378
676,29 Sep 2025 19:06:51.934,29 Sep 2025 19:18:10.765,678.831
677,30 Sep 2025 17:16:39.393,30 Sep 2025 17:24:31.326,471.933
678,30 Sep 2025 18:48:00.684,30 Sep 2025 18:59:33.363,692.679
679,30 Sep 2025 20:25:28.265,30 Sep 2025 20:30:52.110,323.845
680,1 Oct 2025 16:59:24.199,1 Oct 2025 17:04:53.970,329.771
681,1 Oct 2025 18:29:21.231,1 Oct 2025 18:40:49.687,688.456
682,1 Oct 2025 20:05:09.776,1 Oct 2025 20:13:18.954,489.178
683,2 Oct 2025 18:10:53.374,2 Oct 2025 18:22:00.048,666.674
684,2 Oct 2025 19:45:29.211,2 Oct 2025 19:55:13.948,584.737
685,3 Oct 2025 17:52:37.709,3 Oct 2025 18:03:04.014,626.305
686,3 Oct 2025 19:26:09.569,3 Oct 2025 19:36:53.786,644.217
687,4 Oct 2025 17:34:35.902,4 Oct 2025 17:44:00.165,564.263
688,4 Oct 2025 19:07:05.294,4 Oct 2025 19:18:23.846,678.552
689,5 Oct 2025 17:16:51.757,5 Oct 2025 17:24:44.993,473.236
690,5 Oct 2025 18:48:13.902,5 Oct 2025 18:59:46.520,692.618
691,5 Oct 2025 20:25:43.009,5 Oct 2025 20:31:04.085,321.076
692,6 Oct 2025 16:59:36.070,6 Oct 2025 17:05:08.038,331.969
693,6 Oct 2025 18:29:34.311,6 Oct 2025 18:41:02.918,688.607
694,6 Oct 2025 20:05:23.813,6 Oct 2025 20:13:31.558,487.744
695,7 Oct 2025 18:11:06.316,7 Oct 2025 18:22:13.351,667.036
696,7 Oct 2025 19:45:42.940,7 Oct 2025 19:55:26.790,583.849
697,8 Oct 2025 17:52:50.499,8 Oct 2025 18:03:17.399,626.900
698,8 Oct 2025 19:26:23.093,8 Oct 2025 19:37:06.767,643.674
699,9 Oct 2025 17:34:48.512,9 Oct 2025 17:44:13.658,565.146
700,9 Oct 2025 19:07:18.655,9 Oct 2025 19:18:36.926,678.270
701,10 Oct 2025 17:17:04.117,10 Oct 2025 17:24:58.654,474.538
702,10 Oct 2025 18:48:27.117,10 Oct 2025 18:59:59.683,692.565
703,10 Oct 2025 20:25:57.770,10 Oct 2025 20:31:16.033,318.263
704,11 Oct 2025 16:59:47.955,11 Oct 2025 17:05:22.110,334.155
705,11 Oct 2025 18:29:47.392,11 Oct 2025 18:41:16.149,688.757
706,11 Oct 2025 20:05:37.851,11 Oct 2025 20:13:44.158,486.306
707,12 Oct 2025 18:11:19.259,12 Oct 2025 18:22:26.654,667.396
708,12 Oct 2025 19:45:56.670,12 Oct 2025 19:55:39.630,582.960
709,13 Oct 2025 17:53:03.292,13 Oct 2025 18:03:30.784,627.492
710,13 Oct 2025 19:26:36.619,13 Oct 2025 19:37:19.747,643.127
711,14 Oct 2025 17:35:01.126,14 Oct 2025 17:44:27.151,566.024
712,14 Oct 2025 19:07:32.019,14 Oct 2025 19:18:50.005,677.986
713,15 Oct 2025 17:17:16.484,15 Oct 2025 17:25:12.317,475.833
714,15 Oct 2025 18:48:40.337,15 Oct 2025 19:00:12.841,692.504
715,15 Oct 2025 20:26:12.547,15 Oct 2025 20:31:27.972,315.424
716,16 Oct 2025 16:59:59.847,16 Oct 2025 17:05:36.166,336.319
717,16 Oct 2025 18:30:00.475,16 Oct 2025 18:41:29.380,688.905
718,16 Oct 2025 20:05:51.896,16 Oct 2025 20:13:56.754,484.858
719,17 Oct 2025 18:11:32.203,17 Oct 2025 18:22:39.956,667.752
720,17 Oct 2025 19:46:10.403,17 Oct 2025 19:55:52.467,582.065
721,18 Oct 2025 17:53:16.086,18 Oct 2025 18:03:44.166,628.081
722,18 Oct 2025 19:26:50.146,18 Oct 2025 19:37:32.724,642.578
723,19 Oct 2025 17:35:13.741,19 Oct 2025 17:44:40.639,566.898
724,19 Oct 2025 19:07:45.382,19 Oct 2025 19:19:03.081,677.699
725,20 Oct 2025 17:17:28.854,20 Oct 2025 17:25:25.975,477.121
726,20 Oct 2025 18:48:53.556,20 Oct 2025 19:00:25.997,692.441
727,20 Oct 2025 20:26:27.339,20 Oct 2025 20:31:39.892,312.554
728,21 Oct 2025 17:00:11.747,21 Oct 2025 17:05:50.213,338.466
729,21 Oct 2025 18:30:13.558,21 Oct 2025 18:41:42.608,689.050
730,21 Oct 2025 20:06:05.943,21 Oct 2025 20:14:09.343,483.400
731,22 Oct 2025 18:11:45.148,22 Oct 2025 18:22:53.254,668.107
732,22 Oct 2025 19:46:24.138,22 Oct 2025 19:56:05.301,581.163
733,23 Oct 2025 17:53:28.880,23 Oct 2025 18:03:57.547,628.667
734,23 Oct 2025 19:27:03.675,23 Oct 2025 19:37:45.699,642.024
735,24 Oct 2025 17:35:26.356,24 Oct 2025 17:44:54.126,567.769
736,24 Oct 2025 19:07:58.747,24 Oct 2025 19:19:16.155,677.408
737,25 Oct 2025 17:17:41.226,25 Oct 2025 17:25:39.630,478.404
738,25 Oct 2025 18:49:06.777,25 Oct 2025 19:00:39.151,692.375
739,25 Oct 2025 20:26:42.149,25 Oct 2025 20:31:51.794,309.646
740,26 Oct 2025 17:00:23.655,26 Oct 2025 17:06:04.253,340.598
741,26 Oct 2025 18:30:26.642,26 Oct 2025 18:41:55.835,689.193
742,26 Oct 2025 20:06:19.996,26 Oct 2025 20:14:21.928,481.932
743,27 Oct 2025 18:11:58.094,27 Oct 2025 18:23:06.553,668.459
744,27 Oct 2025 19:46:37.877,27 Oct 2025 19:56:18.132,580.255
745,28 Oct 2025 17:53:41.676,28 Oct 2025 18:04:10.927,629.250
746,28 Oct 2025 19:27:17.205,28 Oct 2025 19:37:58.673,641.467
747,29 Oct 2025 17:35:38.978,29 Oct 2025 17:45:07.607,568.629
748,29 Oct 2025 19:08:12.113,29 Oct 2025 19:19:29.229,677.116
749,30 Oct 2025 17:17:53.604,30 Oct 2025 17:25:53.284,479.679
750,30 Oct 2025 18:49:20.000,30 Oct 2025 19:00:52.305,692.306
751,30 Oct 2025 20:26:56.972,30 Oct 2025 20:32:03.681,306.710
752,31 Oct 2025 17:00:35.573,31 Oct 2025 17:06:18.283,342.711
753,31 Oct 2025 18:30:39.728,31 Oct 2025 18:42:09.059,689.331
754,31 Oct 2025 20:06:34.053,31 Oct 2025 20:14:34.510,480.456
755,1 Nov 2025 18:12:11.042,1 Nov 2025 18:23:19.850,668.808
756,1 Nov 2025 19:46:51.618,1 Nov 2025 19:56:30.966,579.348
757,2 Nov 2025 17:53:54.474,2 Nov 2025 18:04:24.304,629.830
758,2 Nov 2025 19:27:30.737,2 Nov 2025 19:38:11.644,640.907
759,3 Nov 2025 17:35:51.598,3 Nov 2025 17:45:21.089,569.491
760,3 Nov 2025 19:08:25.480,3 Nov 2025 19:19:42.297,676.817
761,4 Nov 2025 17:18:05.983,4 Nov 2025 17:26:06.931,480.948
762,4 Nov 2025 18:49:33.222,4 Nov 2025 19:01:05.457,692.235
763,4 Nov 2025 20:27:11.815,4 Nov 2025 20:32:15.549,303.734
764,5 Nov 2025 17:00:47.497,5 Nov 2025 17:06:32.304,344.807
765,5 Nov 2025 18:30:52.814,5 Nov 2025 18:42:22.283,689.469
766,5 Nov 2025 20:06:48.114,5 Nov 2025 20:14:47.085,478.971
767,6 Nov 2025 18:12:23.989,6 Nov 2025 18:23:33.144,669.155
768,6 Nov 2025 19:47:05.360,6 Nov 2025 19:56:43.791,578.431
769,7 Nov 2025 17:54:07.272,7 Nov 2025 18:04:37.679,630.407
770,7 Nov 2025 19:27:44.270,7 Nov 2025 19:38:24.613,640.343
771,8 Nov 2025 17:36:04.220,8 Nov 2025 17:45:34.570,570.350
772,8 Nov 2025 19:08:38.848,8 Nov 2025 19:19:55.367,676.518
773,9 Nov 2025 17:18:18.365,9 Nov 2025 17:26:20.578,482.213
774,9 Nov 2025 18:49:46.446,9 Nov 2025 19:01:18.607,692.161
775,9 Nov 2025 20:27:26.679,9 Nov 2025 20:32:27.397,300.718
776,10 Nov 2025 17:00:59.426,10 Nov 2025 17:06:46.317,346.891
777,10 Nov 2025 18:31:05.902,10 Nov 2025 18:42:35.505,689.603
778,10 Nov 2025 20:07:02.185,10 Nov 2025 20:14:59.658,477.473
779,11 Nov 2025 18:12:36.940,11 Nov 2025 18:23:46.439,669.499
780,11 Nov 2025 19:47:19.107,11 Nov 2025 19:56:56.615,577.509
781,12 Nov 2025 17:54:20.073,12 Nov 2025 18:04:51.054,630.981
782,12 Nov 2025 19:27:57.806,12 Nov 2025 19:38:37.582,639.776
783,13 Nov 2025 17:36:16.845,13 Nov 2025 17:45:48.049,571.204
784,13 Nov 2025 19:08:52.219,13 Nov 2025 19:20:08.439,676.221
785,14 Nov 2025 17:18:30.751,14 Nov 2025 17:26:34.219,483.468
786,14 Nov 2025 18:49:59.672,14 Nov 2025 19:01:31.756,692.085
787,14 Nov 2025 20:27:41.560,14 Nov 2025 20:32:39.228,297.668
788,15 Nov 2025 17:01:11.369,15 Nov 2025 17:07:00.321,348.952
789,15 Nov 2025 18:31:18.991,15 Nov 2025 18:42:48.724,689.733
790,15 Nov 2025 20:07:16.254,15 Nov 2025 20:15:12.226,475.971
791,16 Nov 2025 18:12:49.890,16 Nov 2025 18:23:59.730,669.840
792,16 Nov 2025 19:47:32.853,16 Nov 2025 19:57:09.437,576.583
793,17 Nov 2025 17:54:32.874,17 Nov 2025 18:05:04.426,631.552
794,17 Nov 2025 19:28:11.341,17 Nov 2025 19:38:50.547,639.206
795,18 Nov 2025 17:36:29.470,18 Nov 2025 17:46:01.524,572.054
796,18 Nov 2025 19:09:05.588,18 Nov 2025 19:20:21.506,675.917
797,19 Nov 2025 17:18:43.139,19 Nov 2025 17:26:47.857,484.718
798,19 Nov 2025 18:50:12.897,19 Nov 2025 19:01:44.903,692.006
799,19 Nov 2025 20:27:56.460,19 Nov 2025 20:32:51.037,294.577
800,20 Nov 2025 17:01:23.318,20 Nov 2025 17:07:14.317,351.000
801,20 Nov 2025 18:31:32.079,20 Nov 2025 18:43:01.943,689.864
802,20 Nov 2025 20:07:30.328,20 Nov 2025 20:15:24.787,474.459
803,21 Nov 2025 18:13:02.841,21 Nov 2025 18:24:13.020,670.179
804,21 Nov 2025 19:47:46.602,21 Nov 2025 19:57:22.254,575.652
805,22 Nov 2025 17:54:45.677,22 Nov 2025 18:05:17.796,632.120
806,22 Nov 2025 19:28:24.878,22 Nov 2025 19:39:03.510,638.632
807,23 Nov 2025 17:36:42.097,23 Nov 2025 17:46:14.999,572.901
808,23 Nov 2025 19:09:18.960,23 Nov 2025 19:20:34.571,675.611
809,24 Nov 2025 17:18:55.530,24 Nov 2025 17:27:01.493,485.962
810,24 Nov 2025 18:50:26.124,24 Nov 2025 19:01:58.049,691.925
811,24 Nov 2025 20:28:11.381,24 Nov 2025 20:33:02.826,291.445
812,25 Nov 2025 17:01:35.276,25 Nov 2025 17:07:28.307,353.032
813,25 Nov 2025 18:31:45.170,25 Nov 2025 18:43:15.162,689.992
814,25 Nov 2025 20:07:44.407,25 Nov 2025 20:15:37.345,472.938
815,26 Nov 2025 18:13:15.795,26 Nov 2025 18:24:26.310,670.515
816,26 Nov 2025 19:48:00.354,26 Nov 2025 19:57:35.070,574.716
817,27 Nov 2025 17:54:58.482,27 Nov 2025 18:05:31.166,632.684
818,27 Nov 2025 19:28:38.418,27 Nov 2025 19:39:16.473,638.055
819,28 Nov 2025 17:36:54.728,28 Nov 2025 17:46:28.471,573.743
820,28 Nov 2025 19:09:32.333,28 Nov 2025 19:20:47.635,675.302
821,29 Nov 2025 17:19:07.926,29 Nov 2025 17:27:15.119,487.194
822,29 Nov 2025 18:50:39.352,29 Nov 2025 19:02:11.194,691.842
823,29 Nov 2025 20:28:26.322,29 Nov 2025 20:33:14.597,288.275
824,30 Nov 2025 17:01:47.243,30 Nov 2025 17:07:42.287,355.044
825,30 Nov 2025 18:31:58.262,30 Nov 2025 18:43:28.379,690.117
826,30 Nov 2025 20:07:58.490,30 Nov 2025 20:15:49.898,471.409
827,1 Dec 2025 18:13:28.748,1 Dec 2025 18:24:39.597,670.848
828,1 Dec 2025 19:48:14.108,1 Dec 2025 19:57:47.884,573.776
829,2 Dec 2025 17:55:11.287,2 Dec 2025 18:05:44.532,633.245
830,2 Dec 2025 19:28:51.958,2 Dec 2025 19:39:29.433,637.475
831,3 Dec 2025 17:37:07.359,3 Dec 2025 17:46:41.939,574.581
832,3 Dec 2025 19:09:45.707,3 Dec 2025 19:21:00.696,674.990
833,4 Dec 2025 17:19:20.321,4 Dec 2025 17:27:28.750,488.429
834,4 Dec 2025 18:50:52.584,4 Dec 2025 19:02:24.332,691.748
835,4 Dec 2025 20:28:41.284,4 Dec 2025 20:33:26.340,285.056
836,5 Dec 2025 17:01:59.220,5 Dec 2025 17:07:56.258,357.039
837,5 Dec 2025 18:32:11.353,5 Dec 2025 18:43:41.595,690.242
838,5 Dec 2025 20:08:12.574,5 Dec 2025 20:16:02.447,469.872
839,6 Dec 2025 18:13:41.703,6 Dec 2025 18:24:52.883,671.179
840,6 Dec 2025 19:48:27.865,6 Dec 2025 19:58:00.694,572.829
841,7 Dec 2025 17:55:24.094,7 Dec 2025 18:05:57.898,633.804
842,7 Dec 2025 19:29:05.500,7 Dec 2025 19:39:42.391,636.891
843,8 Dec 2025 17:37:19.992,8 Dec 2025 17:46:55.408,575.415
844,8 Dec 2025 19:09:59.083,8 Dec 2025 19:21:13.758,674.675
845,9 Dec 2025 17:19:32.722,9 Dec 2025 17:27:42.376,489.654
846,9 Dec 2025 18:51:05.815,9 Dec 2025 19:02:37.474,691.659
847,9 Dec 2025 20:28:56.270,9 Dec 2025 20:33:38.066,281.796
848,10 Dec 2025 17:02:11.202,10 Dec 2025 17:08:10.223,359.021
849,10 Dec 2025 18:32:24.448,10 Dec 2025 18:43:54.810,690.362
850,10 Dec 2025 20:08:26.669,10 Dec 2025 20:16:14.991,468.323
851,11 Dec 2025 16:46:44.303,11 Dec 2025 16:46:50.442,6.139
852,11 Dec 2025 18:13:54.664,11 Dec 2025 18:25:06.168,671.504
853,11 Dec 2025 19:48:41.621,11 Dec 2025 19:58:13.504,571.883
854,12 Dec 2025 17:55:36.903,12 Dec 2025 18:06:11.262,634.359
855,12 Dec 2025 19:29:19.045,12 Dec 2025 19:39:55.349,636.304
856,13 Dec 2025 17:37:32.628,13 Dec 2025 17:47:08.873,576.244
857,13 Dec 2025 19:10:12.459,13 Dec 2025 19:21:26.817,674.358
858,14 Dec 2025 17:19:45.126,14 Dec 2025 17:27:55.996,490.870
859,14 Dec 2025 18:51:19.046,14 Dec 2025 19:02:50.615,691.568
860,14 Dec 2025 20:29:11.275,14 Dec 2025 20:33:49.771,278.496
861,15 Dec 2025 17:02:23.187,15 Dec 2025 17:08:24.178,360.990
862,15 Dec 2025 18:32:37.543,15 Dec 2025 18:44:08.021,690.478
863,15 Dec 2025 20:08:40.761,15 Dec 2025 20:16:27.533,466.772
864,16 Dec 2025 16:46:39.963,16 Dec 2025 16:47:20.639,40.676
865,16 Dec 2025 18:14:07.621,16 Dec 2025 18:25:19.450,671.829
866,16 Dec 2025 19:48:55.380,16 Dec 2025 19:58:26.310,570.929
867,17 Dec 2025 17:55:49.713,17 Dec 2025 18:06:24.623,634.910
868,17 Dec 2025 19:29:32.593,17 Dec 2025 19:40:08.303,635.711
869,18 Dec 2025 17:37:45.265,18 Dec 2025 17:47:22.335,577.070
870,18 Dec 2025 19:10:25.836,18 Dec 2025 19:21:39.874,674.038
871,19 Dec 2025 17:19:57.533,19 Dec 2025 17:28:09.613,492.081
872,19 Dec 2025 18:51:32.278,19 Dec 2025 19:03:03.753,691.475
873,19 Dec 2025 20:29:26.305,19 Dec 2025 20:34:01.451,275.146
874,20 Dec 2025 17:02:35.184,20 Dec 2025 17:08:38.126,362.942
875,20 Dec 2025 18:32:50.638,20 Dec 2025 18:44:21.232,690.593
876,20 Dec 2025 20:08:54.862,20 Dec 2025 20:16:40.067,465.205
877,21 Dec 2025 16:46:44.639,21 Dec 2025 16:47:41.824,57.185
878,21 Dec 2025 18:14:20.580,21 Dec 2025 18:25:32.732,672.152
879,21 Dec 2025 19:49:09.143,21 Dec 2025 19:58:39.113,569.970
880,22 Dec 2025 17:56:02.524,22 Dec 2025 18:06:37.983,635.459
881,22 Dec 2025 19:29:46.136,22 Dec 2025 19:40:21.257,635.120
882,23 Dec 2025 17:37:57.905,23 Dec 2025 17:47:35.796,577.891
883,23 Dec 2025 19:10:39.216,23 Dec 2025 19:21:52.932,673.715
884,24 Dec 2025 17:20:09.944,24 Dec 2025 17:28:23.229,493.285
885,24 Dec 2025 18:51:45.513,24 Dec 2025 19:03:16.892,691.379
886,24 Dec 2025 20:29:41.360,24 Dec 2025 20:34:13.109,271.748
887,25 Dec 2025 17:02:47.190,25 Dec 2025 17:08:52.066,364.877
888,25 Dec 2025 18:33:03.736,25 Dec 2025 18:44:34.438,690.702
889,25 Dec 2025 20:09:08.969,25 Dec 2025 20:16:52.599,463.629
890,26 Dec 2025 16:46:51.237,26 Dec 2025 16:48:01.091,69.854
891,26 Dec 2025 18:14:33.541,26 Dec 2025 18:25:46.013,672.472
892,26 Dec 2025 19:49:22.910,26 Dec 2025 19:58:51.916,569.006
893,27 Dec 2025 17:56:15.338,27 Dec 2025 18:06:51.342,636.004
894,27 Dec 2025 19:29:59.686,27 Dec 2025 19:40:34.210,634.524
895,28 Dec 2025 17:38:10.547,28 Dec 2025 17:47:49.252,578.705
896,28 Dec 2025 19:10:52.597,28 Dec 2025 19:22:05.988,673.391
897,29 Dec 2025 17:20:22.358,29 Dec 2025 17:28:36.839,494.481
898,29 Dec 2025 18:51:58.747,29 Dec 2025 19:03:30.029,691.281
899,29 Dec 2025 20:29:56.439,29 Dec 2025 20:34:24.743,268.304
900,30 Dec 2025 17:02:59.203,30 Dec 2025 17:09:05.997,366.795
901,30 Dec 2025 18:33:16.834,30 Dec 2025 18:44:47.645,690.811
902,30 Dec 2025 20:09:23.080,30 Dec 2025 20:17:05.125,462.045
903,31 Dec 2025 16:46:58.826,31 Dec 2025 16:48:19.361,80.535
904,31 Dec 2025 18:14:46.502,31 Dec 2025 18:25:59.291,672.789
905,31 Dec 2025 19:49:36.677,31 Dec 2025 19:59:04.715,568.038

Global Statistics
"Min Duration",851,11 Dec 2025 16:46:44.303,11 Dec 2025 16:46:50.442,6.139
"Max Duration",414,12 Jun 2025 18:43:10.281,12 Jun 2025 18:54:43.549,693.268
"Mean Duration",,,,547.319
"Total Duration",,,,495323.753


