idealorbit/Cubesat_Sun.csv

"Start Time (UTCG)","Stop Time (UTCG)","Duration (sec)"
1 Oct 2024 17:18:00.082,1 Oct 2024 18:22:47.971,3887.888
1 Oct 2024 18:54:49.685,1 Oct 2024 19:59:37.164,3887.479
1 Oct 2024 20:31:39.285,1 Oct 2024 21:36:26.355,3887.070
1 Oct 2024 22:08:28.888,1 Oct 2024 23:13:15.548,3886.661
1 Oct 2024 23:45:18.488,2 Oct 2024 00:50:04.741,3886.253
2 Oct 2024 01:22:08.088,2 Oct 2024 02:26:53.936,3885.848
2 Oct 2024 02:58:57.686,2 Oct 2024 04:03:43.129,3885.443
2 Oct 2024 04:35:47.284,2 Oct 2024 05:40:32.321,3885.037
2 Oct 2024 06:12:36.882,2 Oct 2024 07:17:21.514,3884.631
2 Oct 2024 07:49:26.480,2 Oct 2024 08:54:10.706,3884.226
2 Oct 2024 09:26:16.076,2 Oct 2024 10:30:59.898,3883.822
2 Oct 2024 11:03:05.673,2 Oct 2024 12:07:49.088,3883.416
2 Oct 2024 12:39:55.270,2 Oct 2024 13:44:38.282,3883.012
2 Oct 2024 14:16:44.865,2 Oct 2024 15:21:27.474,3882.609
2 Oct 2024 15:53:34.459,2 Oct 2024 16:58:16.663,3882.204
2 Oct 2024 17:30:24.051,2 Oct 2024 18:35:05.857,3881.806
2 Oct 2024 19:07:13.646,2 Oct 2024 19:40:10.097,1976.452
2 Oct 2024 19:59:24.131,2 Oct 2024 20:11:55.046,750.915
2 Oct 2024 20:44:03.238,2 Oct 2024 21:48:44.237,3880.999
2 Oct 2024 22:20:52.828,2 Oct 2024 23:25:33.430,3880.602
2 Oct 2024 23:57:42.419,3 Oct 2024 01:02:22.619,3880.200
3 Oct 2024 01:34:32.011,3 Oct 2024 02:39:11.811,3879.800
3 Oct 2024 03:11:21.599,3 Oct 2024 04:16:01.002,3879.403
3 Oct 2024 04:48:11.189,3 Oct 2024 05:52:50.190,3879.001
3 Oct 2024 06:25:00.777,3 Oct 2024 07:29:39.382,3878.605
3 Oct 2024 08:01:50.365,3 Oct 2024 09:06:28.572,3878.208
3 Oct 2024 09:38:39.953,3 Oct 2024 10:43:17.762,3877.810
3 Oct 2024 11:15:29.539,3 Oct 2024 12:20:06.952,3877.413
3 Oct 2024 12:52:19.127,3 Oct 2024 13:56:56.139,3877.012
3 Oct 2024 14:29:08.712,3 Oct 2024 15:33:45.331,3876.619
3 Oct 2024 16:05:58.296,3 Oct 2024 17:10:34.520,3876.225
3 Oct 2024 17:42:47.880,3 Oct 2024 18:47:23.709,3875.830
3 Oct 2024 19:19:37.463,3 Oct 2024 20:24:12.896,3875.433
3 Oct 2024 20:56:27.046,3 Oct 2024 22:01:02.087,3875.041
3 Oct 2024 22:33:16.628,3 Oct 2024 23:37:51.274,3874.645
4 Oct 2024 00:10:06.210,4 Oct 2024 01:14:40.464,3874.254
4 Oct 2024 01:46:55.791,4 Oct 2024 02:51:29.653,3873.862
4 Oct 2024 03:23:45.372,4 Oct 2024 04:28:18.841,3873.470
4 Oct 2024 05:00:34.951,4 Oct 2024 06:05:08.029,3873.078
4 Oct 2024 06:37:24.530,4 Oct 2024 07:41:57.217,3872.687
4 Oct 2024 08:14:14.109,4 Oct 2024 09:18:46.405,3872.296
4 Oct 2024 09:51:03.687,4 Oct 2024 10:55:35.591,3871.904
4 Oct 2024 11:27:53.265,4 Oct 2024 12:32:24.779,3871.513
4 Oct 2024 13:04:42.840,4 Oct 2024 14:09:13.966,3871.126
4 Oct 2024 14:41:32.417,4 Oct 2024 15:46:03.155,3870.738
4 Oct 2024 16:18:21.995,4 Oct 2024 17:22:52.340,3870.346
4 Oct 2024 17:55:11.569,4 Oct 2024 18:59:41.527,3869.958
4 Oct 2024 19:32:01.141,4 Oct 2024 20:36:30.714,3869.573
4 Oct 2024 21:08:50.715,4 Oct 2024 22:13:19.900,3869.186
4 Oct 2024 22:45:40.288,4 Oct 2024 23:50:09.087,3868.799
5 Oct 2024 00:22:29.860,5 Oct 2024 01:26:58.273,3868.413
5 Oct 2024 01:59:19.432,5 Oct 2024 03:03:47.459,3868.028
5 Oct 2024 03:36:09.003,5 Oct 2024 04:40:36.645,3867.642
5 Oct 2024 05:12:58.574,5 Oct 2024 06:17:25.831,3867.257
5 Oct 2024 06:49:48.142,5 Oct 2024 07:54:15.017,3866.875
5 Oct 2024 08:26:37.713,5 Oct 2024 09:31:04.203,3866.490
5 Oct 2024 10:03:27.282,5 Oct 2024 11:07:53.389,3866.107
5 Oct 2024 11:40:16.848,5 Oct 2024 12:44:42.574,3865.726
5 Oct 2024 13:17:06.417,5 Oct 2024 14:21:31.757,3865.339
5 Oct 2024 14:53:55.983,5 Oct 2024 15:58:20.944,3864.961
5 Oct 2024 16:30:45.549,5 Oct 2024 17:35:10.126,3864.578
5 Oct 2024 18:07:35.114,5 Oct 2024 19:11:59.311,3864.197
5 Oct 2024 19:44:24.679,5 Oct 2024 20:48:48.495,3863.816
5 Oct 2024 21:21:14.243,5 Oct 2024 22:25:37.682,3863.439
5 Oct 2024 22:58:03.807,6 Oct 2024 00:02:26.866,3863.059
6 Oct 2024 00:34:53.370,6 Oct 2024 01:39:16.050,3862.680
6 Oct 2024 02:11:42.932,6 Oct 2024 03:16:05.234,3862.302
6 Oct 2024 03:48:32.494,6 Oct 2024 04:52:54.415,3861.921
6 Oct 2024 05:25:22.055,6 Oct 2024 06:29:43.601,3861.546
6 Oct 2024 07:02:11.615,6 Oct 2024 08:06:32.784,3861.169
6 Oct 2024 08:39:01.175,6 Oct 2024 09:43:21.965,3860.790
6 Oct 2024 10:15:50.734,6 Oct 2024 11:20:11.148,3860.414
6 Oct 2024 11:52:40.294,6 Oct 2024 12:57:00.331,3860.037
6 Oct 2024 13:29:29.852,6 Oct 2024 14:33:49.514,3859.661
6 Oct 2024 15:06:19.407,6 Oct 2024 16:10:38.696,3859.289
6 Oct 2024 16:43:08.964,6 Oct 2024 17:47:27.881,3858.917
6 Oct 2024 18:19:58.520,6 Oct 2024 19:24:17.061,3858.541
6 Oct 2024 19:56:48.076,6 Oct 2024 21:01:06.243,3858.167
6 Oct 2024 21:33:37.633,6 Oct 2024 22:37:55.427,3857.794
6 Oct 2024 23:10:27.187,7 Oct 2024 00:14:44.608,3857.421
7 Oct 2024 00:47:16.741,7 Oct 2024 01:51:33.790,3857.049
7 Oct 2024 02:24:06.292,7 Oct 2024 03:28:22.969,3856.677
7 Oct 2024 04:00:55.846,7 Oct 2024 05:05:12.153,3856.306
7 Oct 2024 05:37:45.398,7 Oct 2024 06:42:01.334,3855.936
7 Oct 2024 07:14:34.948,7 Oct 2024 08:18:50.515,3855.567
7 Oct 2024 08:51:24.500,7 Oct 2024 09:55:39.693,3855.193
7 Oct 2024 10:28:14.047,7 Oct 2024 11:32:28.876,3854.829
7 Oct 2024 12:05:03.596,7 Oct 2024 13:09:18.054,3854.458
7 Oct 2024 13:41:53.146,7 Oct 2024 14:46:07.235,3854.088
7 Oct 2024 15:18:42.694,7 Oct 2024 16:22:56.417,3853.723
7 Oct 2024 16:55:32.242,7 Oct 2024 17:59:45.597,3853.355
7 Oct 2024 18:32:21.789,7 Oct 2024 19:36:34.777,3852.988
7 Oct 2024 20:09:11.335,7 Oct 2024 21:13:23.956,3852.622
7 Oct 2024 21:46:00.881,7 Oct 2024 22:50:13.134,3852.253
7 Oct 2024 23:22:50.426,8 Oct 2024 00:27:02.315,3851.890
8 Oct 2024 00:59:39.970,8 Oct 2024 02:03:51.492,3851.522
8 Oct 2024 02:36:29.514,8 Oct 2024 03:40:40.673,3851.160
8 Oct 2024 04:13:19.057,8 Oct 2024 05:17:29.850,3850.793
8 Oct 2024 05:50:08.599,8 Oct 2024 06:54:19.031,3850.432
8 Oct 2024 07:26:58.141,8 Oct 2024 08:31:08.209,3850.068
8 Oct 2024 09:03:47.684,8 Oct 2024 10:07:57.388,3849.704
8 Oct 2024 10:40:37.223,8 Oct 2024 11:44:46.565,3849.342
8 Oct 2024 12:17:26.763,8 Oct 2024 13:21:35.743,3848.980
8 Oct 2024 13:54:16.303,8 Oct 2024 14:58:24.921,3848.618
8 Oct 2024 15:31:05.841,8 Oct 2024 16:35:14.098,3848.257
8 Oct 2024 17:07:55.380,8 Oct 2024 18:12:03.277,3847.898
8 Oct 2024 18:44:44.917,8 Oct 2024 19:48:52.455,3847.537
8 Oct 2024 20:21:34.454,8 Oct 2024 21:25:41.631,3847.176
8 Oct 2024 21:58:23.990,8 Oct 2024 23:02:30.808,3846.817
8 Oct 2024 23:35:13.526,9 Oct 2024 00:39:19.985,3846.458
9 Oct 2024 01:12:03.061,9 Oct 2024 02:16:09.161,3846.100
9 Oct 2024 02:48:52.597,9 Oct 2024 03:52:58.338,3845.741
9 Oct 2024 04:25:42.131,9 Oct 2024 05:29:47.514,3845.383
9 Oct 2024 06:02:31.662,9 Oct 2024 07:06:36.690,3845.029
9 Oct 2024 07:39:21.195,9 Oct 2024 08:43:25.867,3844.672
9 Oct 2024 09:16:10.727,9 Oct 2024 10:20:15.043,3844.316
9 Oct 2024 10:53:00.258,9 Oct 2024 11:57:04.218,3843.960
9 Oct 2024 12:29:49.789,9 Oct 2024 13:33:53.395,3843.606
9 Oct 2024 14:06:39.321,9 Oct 2024 15:10:42.570,3843.249
9 Oct 2024 15:43:28.849,9 Oct 2024 16:47:31.746,3842.897
9 Oct 2024 17:20:18.380,9 Oct 2024 18:24:20.921,3842.541
9 Oct 2024 18:57:07.906,9 Oct 2024 20:01:10.093,3842.188
9 Oct 2024 20:33:57.434,9 Oct 2024 21:37:59.268,3841.834
9 Oct 2024 22:10:46.961,9 Oct 2024 23:14:48.445,3841.484
9 Oct 2024 23:47:36.490,10 Oct 2024 00:51:37.619,3841.130
10 Oct 2024 01:24:26.014,10 Oct 2024 02:28:26.794,3840.780
10 Oct 2024 03:01:15.539,10 Oct 2024 04:05:15.966,3840.426
10 Oct 2024 04:38:05.064,10 Oct 2024 05:42:05.139,3840.075
10 Oct 2024 06:14:54.588,10 Oct 2024 07:18:54.313,3839.725
10 Oct 2024 07:51:44.112,10 Oct 2024 08:55:43.487,3839.375
10 Oct 2024 09:28:33.634,10 Oct 2024 10:32:32.663,3839.028
10 Oct 2024 11:05:23.157,10 Oct 2024 12:09:21.834,3838.677
10 Oct 2024 12:42:12.679,10 Oct 2024 13:46:11.007,3838.327
10 Oct 2024 14:19:02.200,10 Oct 2024 15:23:00.182,3837.981
10 Oct 2024 15:55:51.721,10 Oct 2024 16:59:49.352,3837.632
10 Oct 2024 17:32:41.238,10 Oct 2024 18:36:38.527,3837.289
10 Oct 2024 19:09:30.757,10 Oct 2024 20:13:27.700,3836.942
10 Oct 2024 20:46:20.278,10 Oct 2024 21:50:16.870,3836.591
10 Oct 2024 22:23:09.796,10 Oct 2024 23:27:06.044,3836.248
10 Oct 2024 23:59:59.313,11 Oct 2024 01:03:55.216,3835.902
11 Oct 2024 01:36:48.830,11 Oct 2024 02:40:44.385,3835.555
11 Oct 2024 03:13:38.346,11 Oct 2024 04:17:33.557,3835.211
11 Oct 2024 04:50:27.860,11 Oct 2024 05:54:22.728,3834.868
11 Oct 2024 06:27:17.377,11 Oct 2024 07:31:11.902,3834.525
11 Oct 2024 08:04:06.890,11 Oct 2024 09:08:01.071,3834.181
11 Oct 2024 09:40:56.403,11 Oct 2024 10:44:50.244,3833.841
11 Oct 2024 11:17:45.916,11 Oct 2024 12:21:39.415,3833.498
11 Oct 2024 12:54:35.429,11 Oct 2024 13:58:28.585,3833.156
11 Oct 2024 14:31:24.940,11 Oct 2024 15:35:17.755,3832.815
11 Oct 2024 16:08:14.452,11 Oct 2024 17:12:06.923,3832.472
11 Oct 2024 17:45:03.962,11 Oct 2024 18:48:56.093,3832.131
11 Oct 2024 19:21:53.472,11 Oct 2024 20:25:45.263,3831.791
11 Oct 2024 20:58:42.982,11 Oct 2024 22:02:34.433,3831.451
11 Oct 2024 22:35:32.490,11 Oct 2024 23:39:23.603,3831.112
12 Oct 2024 00:12:21.998,12 Oct 2024 01:16:12.774,3830.776
12 Oct 2024 01:49:11.506,12 Oct 2024 02:53:01.943,3830.438
12 Oct 2024 03:26:01.013,12 Oct 2024 04:29:51.110,3830.097
12 Oct 2024 05:02:50.519,12 Oct 2024 06:06:40.281,3829.762
12 Oct 2024 06:39:40.025,12 Oct 2024 07:43:29.450,3829.425
12 Oct 2024 08:16:29.529,12 Oct 2024 09:20:18.619,3829.090
12 Oct 2024 09:53:19.035,12 Oct 2024 10:57:07.787,3828.752
12 Oct 2024 11:30:08.538,12 Oct 2024 12:33:56.954,3828.416
12 Oct 2024 13:06:58.041,12 Oct 2024 14:10:46.122,3828.081
12 Oct 2024 14:43:47.546,12 Oct 2024 15:47:35.290,3827.743
12 Oct 2024 16:20:37.046,12 Oct 2024 17:24:24.457,3827.411
12 Oct 2024 17:57:26.548,12 Oct 2024 19:01:13.626,3827.079
12 Oct 2024 19:34:16.049,12 Oct 2024 20:38:02.793,3826.745
12 Oct 2024 21:11:05.549,12 Oct 2024 22:14:51.961,3826.412
12 Oct 2024 22:47:55.049,12 Oct 2024 23:51:41.126,3826.078
13 Oct 2024 00:24:44.548,13 Oct 2024 01:28:30.293,3825.745
13 Oct 2024 02:01:34.046,13 Oct 2024 03:05:19.460,3825.414
13 Oct 2024 03:38:23.545,13 Oct 2024 04:42:08.626,3825.081
13 Oct 2024 05:15:13.042,13 Oct 2024 06:18:57.792,3824.750
13 Oct 2024 06:52:02.539,13 Oct 2024 07:55:46.959,3824.420
13 Oct 2024 08:28:52.035,13 Oct 2024 09:32:36.125,3824.090
13 Oct 2024 10:05:41.530,13 Oct 2024 11:09:25.290,3823.760
13 Oct 2024 11:42:31.023,13 Oct 2024 12:46:14.456,3823.433
13 Oct 2024 13:19:20.519,13 Oct 2024 14:23:03.621,3823.102
13 Oct 2024 14:56:10.011,13 Oct 2024 15:59:52.787,3822.776
13 Oct 2024 16:32:59.506,13 Oct 2024 17:36:41.952,3822.446
13 Oct 2024 18:09:48.996,13 Oct 2024 19:13:31.118,3822.122
13 Oct 2024 19:46:38.490,13 Oct 2024 20:50:20.280,3821.790
13 Oct 2024 21:23:27.980,13 Oct 2024 22:27:09.445,3821.465
13 Oct 2024 23:00:17.472,14 Oct 2024 00:03:58.609,3821.137
14 Oct 2024 00:37:06.962,14 Oct 2024 01:40:47.773,3820.812
14 Oct 2024 02:13:56.448,14 Oct 2024 03:17:36.940,3820.491
14 Oct 2024 03:50:45.937,14 Oct 2024 04:54:26.103,3820.167
14 Oct 2024 05:27:35.428,14 Oct 2024 06:31:15.267,3819.839
14 Oct 2024 07:04:24.915,14 Oct 2024 08:08:04.431,3819.515
14 Oct 2024 08:41:14.399,14 Oct 2024 09:44:53.594,3819.195
14 Oct 2024 10:18:03.889,14 Oct 2024 11:21:42.757,3818.868
14 Oct 2024 11:54:53.371,14 Oct 2024 12:58:31.920,3818.549
14 Oct 2024 13:31:42.857,14 Oct 2024 14:35:21.083,3818.226
14 Oct 2024 15:08:32.341,14 Oct 2024 16:12:10.245,3817.904
14 Oct 2024 16:45:21.825,14 Oct 2024 17:48:59.408,3817.583
14 Oct 2024 18:22:11.308,14 Oct 2024 19:25:48.570,3817.262
14 Oct 2024 19:59:00.791,14 Oct 2024 21:02:37.732,3816.941
14 Oct 2024 21:35:50.273,14 Oct 2024 22:39:26.894,3816.621
14 Oct 2024 23:12:39.754,15 Oct 2024 00:16:16.056,3816.301
15 Oct 2024 00:49:29.235,15 Oct 2024 01:53:05.218,3815.982
15 Oct 2024 02:26:18.716,15 Oct 2024 03:29:54.379,3815.663
15 Oct 2024 04:03:08.195,15 Oct 2024 05:06:43.540,3815.345
15 Oct 2024 05:39:57.674,15 Oct 2024 06:43:32.701,3815.027
15 Oct 2024 07:16:47.153,15 Oct 2024 08:20:21.862,3814.709
15 Oct 2024 08:53:36.631,15 Oct 2024 09:57:11.023,3814.392
15 Oct 2024 10:30:26.108,15 Oct 2024 11:34:00.183,3814.075
15 Oct 2024 12:07:15.585,15 Oct 2024 13:10:49.344,3813.759
15 Oct 2024 13:44:05.061,15 Oct 2024 14:47:38.504,3813.443
15 Oct 2024 15:20:54.536,15 Oct 2024 16:24:27.664,3813.127
15 Oct 2024 16:57:44.011,15 Oct 2024 18:01:16.823,3812.812
15 Oct 2024 18:34:33.485,15 Oct 2024 19:38:05.983,3812.498
15 Oct 2024 20:11:22.959,15 Oct 2024 21:14:55.143,3812.183
15 Oct 2024 21:48:12.432,15 Oct 2024 22:51:44.302,3811.870
15 Oct 2024 23:25:01.905,16 Oct 2024 00:28:33.461,3811.556
16 Oct 2024 01:01:51.376,16 Oct 2024 02:05:22.620,3811.243
16 Oct 2024 02:38:40.848,16 Oct 2024 03:42:11.776,3810.928
16 Oct 2024 04:15:30.318,16 Oct 2024 05:19:00.935,3810.616
16 Oct 2024 05:52:19.789,16 Oct 2024 06:55:50.093,3810.305
16 Oct 2024 07:29:09.261,16 Oct 2024 08:32:39.251,3809.990
16 Oct 2024 09:05:58.729,16 Oct 2024 10:09:28.409,3809.680
16 Oct 2024 10:42:48.195,16 Oct 2024 11:46:17.567,3809.372
16 Oct 2024 12:19:37.663,16 Oct 2024 13:23:06.725,3809.062
16 Oct 2024 13:56:27.130,16 Oct 2024 14:59:55.882,3808.752
16 Oct 2024 15:33:16.596,16 Oct 2024 16:36:45.039,3808.443
16 Oct 2024 17:10:06.062,16 Oct 2024 18:13:34.197,3808.134
16 Oct 2024 18:46:55.528,16 Oct 2024 19:50:23.353,3807.826
16 Oct 2024 20:23:44.992,16 Oct 2024 21:27:12.510,3807.518
16 Oct 2024 22:00:34.457,16 Oct 2024 23:04:01.669,3807.213
16 Oct 2024 23:37:23.920,17 Oct 2024 00:40:50.826,3806.906
17 Oct 2024 01:14:13.383,17 Oct 2024 02:17:39.979,3806.596
17 Oct 2024 02:51:02.845,17 Oct 2024 03:54:29.135,3806.290
17 Oct 2024 04:27:52.307,17 Oct 2024 05:31:18.291,3805.984
17 Oct 2024 06:04:41.768,17 Oct 2024 07:08:07.447,3805.679
17 Oct 2024 07:41:31.231,17 Oct 2024 08:44:56.602,3805.371
17 Oct 2024 09:18:20.691,17 Oct 2024 10:21:45.758,3805.067
17 Oct 2024 10:55:10.150,17 Oct 2024 11:58:34.913,3804.763
17 Oct 2024 12:31:59.609,17 Oct 2024 13:35:24.068,3804.459
17 Oct 2024 14:08:49.067,17 Oct 2024 15:12:13.223,3804.155
17 Oct 2024 15:45:38.525,17 Oct 2024 16:49:02.377,3803.852
17 Oct 2024 17:22:27.982,17 Oct 2024 18:25:51.532,3803.550
17 Oct 2024 18:59:17.438,17 Oct 2024 20:02:40.686,3803.248
17 Oct 2024 20:36:06.892,17 Oct 2024 21:39:29.840,3802.948
17 Oct 2024 22:12:56.347,17 Oct 2024 23:16:18.994,3802.647
17 Oct 2024 23:49:45.802,18 Oct 2024 00:53:08.148,3802.345
18 Oct 2024 01:26:35.258,18 Oct 2024 02:29:57.301,3802.043
18 Oct 2024 03:03:24.709,18 Oct 2024 04:06:46.454,3801.745
18 Oct 2024 04:40:14.164,18 Oct 2024 05:43:35.608,3801.443
18 Oct 2024 06:17:03.614,18 Oct 2024 07:20:24.761,3801.147
18 Oct 2024 07:53:53.065,18 Oct 2024 08:57:13.913,3800.848
18 Oct 2024 09:30:42.516,18 Oct 2024 10:34:03.066,3800.550
18 Oct 2024 11:07:31.967,18 Oct 2024 12:10:52.218,3800.252
18 Oct 2024 12:44:21.417,18 Oct 2024 13:47:41.373,3799.956
18 Oct 2024 14:21:10.866,18 Oct 2024 15:24:30.525,3799.659
18 Oct 2024 15:58:00.314,18 Oct 2024 17:01:19.677,3799.362
18 Oct 2024 17:34:49.763,18 Oct 2024 18:38:08.828,3799.066
18 Oct 2024 19:11:39.210,18 Oct 2024 20:14:57.980,3798.770
18 Oct 2024 20:48:28.657,18 Oct 2024 21:51:47.131,3798.474
18 Oct 2024 22:25:18.106,18 Oct 2024 23:28:36.282,3798.176
19 Oct 2024 00:02:07.549,19 Oct 2024 01:05:25.433,3797.884
19 Oct 2024 01:38:56.994,19 Oct 2024 02:42:14.584,3797.590
19 Oct 2024 03:15:46.439,19 Oct 2024 04:19:03.735,3797.296
19 Oct 2024 04:52:35.882,19 Oct 2024 05:55:52.885,3797.003
19 Oct 2024 06:29:25.326,19 Oct 2024 07:32:42.035,3796.709
19 Oct 2024 08:06:14.769,19 Oct 2024 09:09:31.185,3796.417
19 Oct 2024 09:43:04.211,19 Oct 2024 10:46:20.335,3796.124
19 Oct 2024 11:19:53.652,19 Oct 2024 12:23:09.485,3795.833
19 Oct 2024 12:56:43.093,19 Oct 2024 13:59:58.634,3795.541
19 Oct 2024 14:33:32.534,19 Oct 2024 15:36:47.784,3795.250
19 Oct 2024 16:10:21.973,19 Oct 2024 17:13:36.933,3794.959
19 Oct 2024 17:47:11.413,19 Oct 2024 18:50:26.082,3794.669
19 Oct 2024 19:24:00.851,19 Oct 2024 20:27:15.230,3794.379
19 Oct 2024 21:00:50.289,19 Oct 2024 22:04:04.377,3794.087
19 Oct 2024 22:37:39.727,19 Oct 2024 23:40:53.525,3793.798
20 Oct 2024 00:14:29.164,20 Oct 2024 01:17:42.673,3793.510
20 Oct 2024 01:51:18.600,20 Oct 2024 02:54:31.821,3793.221
20 Oct 2024 03:28:08.036,20 Oct 2024 04:31:20.969,3792.933
20 Oct 2024 05:04:57.471,20 Oct 2024 06:08:10.117,3792.646
20 Oct 2024 06:41:46.908,20 Oct 2024 07:44:59.264,3792.356
20 Oct 2024 08:18:36.342,20 Oct 2024 09:21:48.411,3792.070
20 Oct 2024 09:55:25.772,20 Oct 2024 10:58:37.558,3791.786
20 Oct 2024 11:32:15.208,20 Oct 2024 12:35:26.705,3791.497
20 Oct 2024 13:09:04.637,20 Oct 2024 14:12:15.852,3791.214
20 Oct 2024 14:45:54.069,20 Oct 2024 15:49:04.998,3790.929
20 Oct 2024 16:22:43.500,20 Oct 2024 17:25:54.145,3790.645
20 Oct 2024 17:59:32.930,20 Oct 2024 19:02:43.291,3790.360
20 Oct 2024 19:36:22.360,20 Oct 2024 20:39:32.437,3790.077
20 Oct 2024 21:13:11.789,20 Oct 2024 22:16:21.586,3789.796
20 Oct 2024 22:50:01.218,20 Oct 2024 23:53:10.731,3789.513
21 Oct 2024 00:26:50.646,21 Oct 2024 01:29:59.876,3789.230
21 Oct 2024 02:03:40.074,21 Oct 2024 03:06:49.021,3788.948
21 Oct 2024 03:40:29.500,21 Oct 2024 04:43:38.164,3788.663
21 Oct 2024 05:17:18.927,21 Oct 2024 06:20:27.308,3788.382
21 Oct 2024 06:54:08.353,21 Oct 2024 07:57:16.453,3788.101
21 Oct 2024 08:30:57.780,21 Oct 2024 09:34:05.598,3787.818
21 Oct 2024 10:07:47.204,21 Oct 2024 11:10:54.742,3787.537
21 Oct 2024 11:44:36.628,21 Oct 2024 12:47:43.886,3787.258
21 Oct 2024 13:21:26.052,21 Oct 2024 14:24:33.030,3786.978
21 Oct 2024 14:58:15.474,21 Oct 2024 16:01:22.174,3786.699
21 Oct 2024 16:35:04.897,21 Oct 2024 17:38:11.317,3786.420
21 Oct 2024 18:11:54.318,21 Oct 2024 19:15:00.460,3786.142
21 Oct 2024 19:48:43.739,21 Oct 2024 20:51:49.604,3785.864
21 Oct 2024 21:25:33.160,21 Oct 2024 22:28:38.746,3785.587
21 Oct 2024 23:02:22.578,22 Oct 2024 00:05:27.889,3785.311
22 Oct 2024 00:39:11.997,22 Oct 2024 01:42:17.032,3785.035
22 Oct 2024 02:16:01.415,22 Oct 2024 03:19:06.174,3784.759
22 Oct 2024 03:52:50.834,22 Oct 2024 04:55:55.316,3784.482
22 Oct 2024 05:29:40.253,22 Oct 2024 06:32:44.458,3784.205
22 Oct 2024 07:06:29.668,22 Oct 2024 08:09:33.600,3783.932
22 Oct 2024 08:43:19.088,22 Oct 2024 09:46:22.742,3783.654
22 Oct 2024 10:20:08.500,22 Oct 2024 11:23:11.883,3783.384
22 Oct 2024 11:56:57.915,22 Oct 2024 13:00:01.025,3783.110
22 Oct 2024 13:33:47.332,22 Oct 2024 14:36:50.166,3782.834
22 Oct 2024 15:10:36.746,22 Oct 2024 16:13:39.307,3782.560
22 Oct 2024 16:47:26.157,22 Oct 2024 17:50:28.447,3782.291
22 Oct 2024 18:24:15.572,22 Oct 2024 19:27:17.588,3782.015
22 Oct 2024 20:01:04.982,22 Oct 2024 21:04:06.728,3781.746
22 Oct 2024 21:37:54.393,22 Oct 2024 22:40:55.868,3781.475
22 Oct 2024 23:14:43.804,23 Oct 2024 00:17:45.008,3781.204
23 Oct 2024 00:51:33.218,23 Oct 2024 01:54:34.148,3780.930
23 Oct 2024 02:28:22.625,23 Oct 2024 03:31:23.287,3780.663
23 Oct 2024 04:05:12.034,23 Oct 2024 05:08:12.427,3780.393
23 Oct 2024 05:42:01.443,23 Oct 2024 06:45:01.566,3780.123
23 Oct 2024 07:18:50.851,23 Oct 2024 08:21:50.705,3779.854
23 Oct 2024 08:55:40.259,23 Oct 2024 09:58:39.844,3779.585
23 Oct 2024 10:32:29.666,23 Oct 2024 11:35:28.982,3779.317
23 Oct 2024 12:09:19.072,23 Oct 2024 13:12:18.121,3779.049
23 Oct 2024 13:46:08.481,23 Oct 2024 14:49:07.259,3778.778
23 Oct 2024 15:22:57.886,23 Oct 2024 16:25:56.397,3778.511
23 Oct 2024 16:59:47.288,23 Oct 2024 18:02:45.535,3778.247
23 Oct 2024 18:36:36.692,23 Oct 2024 19:39:34.672,3777.981
23 Oct 2024 20:13:26.095,23 Oct 2024 21:16:23.810,3777.714
23 Oct 2024 21:50:15.498,23 Oct 2024 22:53:12.947,3777.449
23 Oct 2024 23:27:04.904,24 Oct 2024 00:30:02.084,3777.181
24 Oct 2024 01:03:54.302,24 Oct 2024 02:06:51.221,3776.919
24 Oct 2024 02:40:43.706,24 Oct 2024 03:43:40.358,3776.651
24 Oct 2024 04:17:33.104,24 Oct 2024 05:20:29.494,3776.390
24 Oct 2024 05:54:22.507,24 Oct 2024 06:57:18.630,3776.123
24 Oct 2024 07:31:11.906,24 Oct 2024 08:34:07.766,3775.860
24 Oct 2024 09:08:01.302,24 Oct 2024 10:10:56.902,3775.600
24 Oct 2024 10:44:50.700,24 Oct 2024 11:47:46.038,3775.338
24 Oct 2024 12:21:40.098,24 Oct 2024 13:24:35.174,3775.075
24 Oct 2024 13:58:29.495,24 Oct 2024 15:01:24.309,3774.814
24 Oct 2024 15:35:18.892,24 Oct 2024 16:38:13.444,3774.552
24 Oct 2024 17:12:08.288,24 Oct 2024 18:15:02.579,3774.291
24 Oct 2024 18:48:57.683,24 Oct 2024 19:51:51.714,3774.031
24 Oct 2024 20:25:47.078,24 Oct 2024 21:28:40.848,3773.770
24 Oct 2024 22:02:36.472,24 Oct 2024 23:05:29.983,3773.511
24 Oct 2024 23:39:25.866,25 Oct 2024 00:42:19.120,3773.254
25 Oct 2024 01:16:15.259,25 Oct 2024 02:19:08.251,3772.992
25 Oct 2024 02:53:04.651,25 Oct 2024 03:55:57.387,3772.736
25 Oct 2024 04:29:54.043,25 Oct 2024 05:32:46.518,3772.475
25 Oct 2024 06:06:43.434,25 Oct 2024 07:09:35.654,3772.220
25 Oct 2024 07:43:32.825,25 Oct 2024 08:46:24.785,3771.960
25 Oct 2024 09:20:22.215,25 Oct 2024 10:23:13.918,3771.703
25 Oct 2024 10:57:11.607,25 Oct 2024 12:00:03.051,3771.444
25 Oct 2024 12:34:00.996,25 Oct 2024 13:36:52.183,3771.187
25 Oct 2024 14:10:50.384,25 Oct 2024 15:13:41.316,3770.931
25 Oct 2024 15:47:39.772,25 Oct 2024 16:50:30.448,3770.676
25 Oct 2024 17:24:29.159,25 Oct 2024 18:27:19.580,3770.421
25 Oct 2024 19:01:18.546,25 Oct 2024 20:04:08.712,3770.166
25 Oct 2024 20:38:07.932,25 Oct 2024 21:40:57.843,3769.912
25 Oct 2024 22:14:57.317,25 Oct 2024 23:17:46.975,3769.658
25 Oct 2024 23:51:46.702,26 Oct 2024 00:54:36.106,3769.404
26 Oct 2024 01:28:36.086,26 Oct 2024 02:31:25.237,3769.151
26 Oct 2024 03:05:25.470,26 Oct 2024 04:08:14.368,3768.898
26 Oct 2024 04:42:14.851,26 Oct 2024 05:45:03.499,3768.647
26 Oct 2024 06:19:04.233,26 Oct 2024 07:21:52.629,3768.396
26 Oct 2024 07:55:53.616,26 Oct 2024 08:58:41.759,3768.143
26 Oct 2024 09:32:42.999,26 Oct 2024 10:35:30.890,3767.890
26 Oct 2024 11:09:32.380,26 Oct 2024 12:12:20.019,3767.639
26 Oct 2024 12:46:21.758,26 Oct 2024 13:49:09.149,3767.391
26 Oct 2024 14:23:11.140,26 Oct 2024 15:25:58.279,3767.138
26 Oct 2024 16:00:00.517,26 Oct 2024 17:02:47.408,3766.891
26 Oct 2024 17:36:49.898,26 Oct 2024 18:39:36.537,3766.639
26 Oct 2024 19:13:39.273,26 Oct 2024 20:16:25.666,3766.393
26 Oct 2024 20:50:28.653,26 Oct 2024 21:53:14.795,3766.142
26 Oct 2024 22:27:18.030,26 Oct 2024 23:30:03.923,3765.894
27 Oct 2024 00:04:07.406,27 Oct 2024 01:06:53.052,3765.646
27 Oct 2024 01:40:56.781,27 Oct 2024 02:43:42.180,3765.398
27 Oct 2024 03:17:46.154,27 Oct 2024 04:20:31.308,3765.154
27 Oct 2024 04:54:35.528,27 Oct 2024 05:57:20.435,3764.907
27 Oct 2024 06:31:24.902,27 Oct 2024 07:34:09.563,3764.661
27 Oct 2024 08:08:14.278,27 Oct 2024 09:10:58.690,3764.412
27 Oct 2024 09:45:03.651,27 Oct 2024 10:47:47.817,3764.167
27 Oct 2024 11:21:53.020,27 Oct 2024 12:24:36.944,3763.924
27 Oct 2024 12:58:42.391,27 Oct 2024 14:01:26.071,3763.680
27 Oct 2024 14:35:31.762,27 Oct 2024 15:38:15.198,3763.435
27 Oct 2024 16:12:21.138,27 Oct 2024 17:15:04.324,3763.186
27 Oct 2024 17:49:10.505,27 Oct 2024 18:51:53.450,3762.945
27 Oct 2024 19:25:59.872,27 Oct 2024 20:28:42.576,3762.704
27 Oct 2024 21:02:49.243,27 Oct 2024 22:05:31.702,3762.459
27 Oct 2024 22:39:38.611,27 Oct 2024 23:42:20.827,3762.216
28 Oct 2024 00:16:27.979,28 Oct 2024 01:19:09.953,3761.974
28 Oct 2024 01:53:17.343,28 Oct 2024 02:55:59.078,3761.735
28 Oct 2024 03:30:06.713,28 Oct 2024 04:32:48.203,3761.490
28 Oct 2024 05:06:56.075,28 Oct 2024 06:09:37.328,3761.253
28 Oct 2024 06:43:45.441,28 Oct 2024 07:46:26.452,3761.011
28 Oct 2024 08:20:34.807,28 Oct 2024 09:23:15.577,3760.770
28 Oct 2024 09:57:24.171,28 Oct 2024 11:00:04.701,3760.530
28 Oct 2024 11:34:13.535,28 Oct 2024 12:36:53.825,3760.290
28 Oct 2024 13:11:02.895,28 Oct 2024 14:13:42.949,3760.054
28 Oct 2024 14:47:52.257,28 Oct 2024 15:50:32.072,3759.815
28 Oct 2024 16:24:41.619,28 Oct 2024 17:27:21.195,3759.577
28 Oct 2024 18:01:30.980,28 Oct 2024 19:04:10.319,3759.339
28 Oct 2024 19:38:20.340,28 Oct 2024 20:40:59.442,3759.101
28 Oct 2024 21:15:09.700,28 Oct 2024 22:17:48.564,3758.864
28 Oct 2024 22:51:59.060,28 Oct 2024 23:54:37.687,3758.627
29 Oct 2024 00:28:48.418,29 Oct 2024 01:31:26.809,3758.391
29 Oct 2024 02:05:37.777,29 Oct 2024 03:08:15.935,3758.158
29 Oct 2024 03:42:27.134,29 Oct 2024 04:45:05.054,3757.919
29 Oct 2024 05:19:16.491,29 Oct 2024 06:21:54.178,3757.686
29 Oct 2024 06:56:05.848,29 Oct 2024 07:58:43.297,3757.449
29 Oct 2024 08:32:55.204,29 Oct 2024 09:35:32.419,3757.215
29 Oct 2024 10:09:44.559,29 Oct 2024 11:12:21.539,3756.980
29 Oct 2024 11:46:33.914,29 Oct 2024 12:49:10.660,3756.747
29 Oct 2024 13:23:23.268,29 Oct 2024 14:25:59.781,3756.513
29 Oct 2024 15:00:12.624,29 Oct 2024 16:02:48.902,3756.278
29 Oct 2024 16:37:01.977,29 Oct 2024 17:39:38.022,3756.045
29 Oct 2024 18:13:51.329,29 Oct 2024 19:16:27.142,3755.813
29 Oct 2024 19:50:40.681,29 Oct 2024 20:53:16.262,3755.581
29 Oct 2024 21:27:30.033,29 Oct 2024 22:30:05.382,3755.350
29 Oct 2024 23:04:19.383,30 Oct 2024 00:06:54.502,3755.119
30 Oct 2024 00:41:08.733,30 Oct 2024 01:43:43.621,3754.888
30 Oct 2024 02:17:58.083,30 Oct 2024 03:20:32.740,3754.657
30 Oct 2024 03:54:47.432,30 Oct 2024 04:57:21.859,3754.428
30 Oct 2024 05:31:36.780,30 Oct 2024 06:34:10.978,3754.198
30 Oct 2024 07:08:26.128,30 Oct 2024 08:11:00.097,3753.969
30 Oct 2024 08:45:15.475,30 Oct 2024 09:47:49.215,3753.740
30 Oct 2024 10:22:04.822,30 Oct 2024 11:24:38.333,3753.511
30 Oct 2024 11:58:54.168,30 Oct 2024 13:01:27.451,3753.283
30 Oct 2024 13:35:43.511,30 Oct 2024 14:38:16.569,3753.058
30 Oct 2024 15:12:32.857,30 Oct 2024 16:15:05.687,3752.830
30 Oct 2024 16:49:22.201,30 Oct 2024 17:51:54.804,3752.603
30 Oct 2024 18:26:11.545,30 Oct 2024 19:28:43.921,3752.376
30 Oct 2024 20:03:00.888,30 Oct 2024 21:05:33.038,3752.150
30 Oct 2024 21:39:50.230,30 Oct 2024 22:42:22.155,3751.925
30 Oct 2024 23:16:39.575,31 Oct 2024 00:19:11.271,3751.697
31 Oct 2024 00:53:28.916,31 Oct 2024 01:56:00.388,3751.472
31 Oct 2024 02:30:18.257,31 Oct 2024 03:32:49.504,3751.247
31 Oct 2024 04:07:07.597,31 Oct 2024 05:09:38.620,3751.023
31 Oct 2024 05:43:56.934,31 Oct 2024 06:46:27.736,3750.802
31 Oct 2024 07:20:46.273,31 Oct 2024 08:23:16.851,3750.578
31 Oct 2024 08:57:35.612,31 Oct 2024 10:00:05.967,3750.355
31 Oct 2024 10:34:24.952,31 Oct 2024 11:36:55.082,3750.129
31 Oct 2024 12:11:14.290,31 Oct 2024 13:13:44.197,3749.907
31 Oct 2024 13:48:03.624,31 Oct 2024 14:50:33.311,3749.687
31 Oct 2024 15:24:52.963,31 Oct 2024 16:27:22.426,3749.463
31 Oct 2024 17:01:42.296,31 Oct 2024 18:04:11.540,3749.244
31 Oct 2024 18:38:31.631,31 Oct 2024 19:41:00.654,3749.023
31 Oct 2024 20:15:20.968,31 Oct 2024 21:17:49.768,3748.800
31 Oct 2024 21:52:10.302,31 Oct 2024 22:54:38.882,3748.580
31 Oct 2024 23:28:59.636,1 Nov 2024 00:31:27.996,3748.360
1 Nov 2024 01:05:48.966,1 Nov 2024 02:08:17.109,3748.142
1 Nov 2024 02:42:38.298,1 Nov 2024 03:45:06.222,3747.924
1 Nov 2024 04:19:27.633,1 Nov 2024 05:21:55.335,3747.702
1 Nov 2024 05:56:16.963,1 Nov 2024 06:58:44.448,3747.484
1 Nov 2024 07:33:06.293,1 Nov 2024 08:35:33.560,3747.267
1 Nov 2024 09:09:55.621,1 Nov 2024 10:12:22.672,3747.052
1 Nov 2024 10:46:44.950,1 Nov 2024 11:49:11.784,3746.834
1 Nov 2024 12:23:34.279,1 Nov 2024 13:26:00.896,3746.617
1 Nov 2024 14:00:23.607,1 Nov 2024 15:02:50.008,3746.401
1 Nov 2024 15:37:12.935,1 Nov 2024 16:39:39.120,3746.185
1 Nov 2024 17:14:02.262,1 Nov 2024 18:16:28.231,3745.969
1 Nov 2024 18:50:51.588,1 Nov 2024 19:53:17.342,3745.754
1 Nov 2024 20:27:40.914,1 Nov 2024 21:30:06.453,3745.539
1 Nov 2024 22:04:30.239,1 Nov 2024 23:06:55.563,3745.324
1 Nov 2024 23:41:19.564,2 Nov 2024 00:43:44.674,3745.110
2 Nov 2024 01:18:08.888,2 Nov 2024 02:20:33.784,3744.896
2 Nov 2024 02:54:58.212,2 Nov 2024 03:57:22.894,3744.682
2 Nov 2024 04:31:47.535,2 Nov 2024 05:34:12.004,3744.469
2 Nov 2024 06:08:36.857,2 Nov 2024 07:11:01.116,3744.259
2 Nov 2024 07:45:26.179,2 Nov 2024 08:47:50.226,3744.047
2 Nov 2024 09:22:15.500,2 Nov 2024 10:24:39.332,3743.832
2 Nov 2024 10:59:04.821,2 Nov 2024 12:01:28.444,3743.623
2 Nov 2024 12:35:54.141,2 Nov 2024 13:38:17.553,3743.412
2 Nov 2024 14:12:43.461,2 Nov 2024 15:15:06.662,3743.201
2 Nov 2024 15:49:32.780,2 Nov 2024 16:51:55.767,3742.987
2 Nov 2024 17:26:22.098,2 Nov 2024 18:28:44.875,3742.777
2 Nov 2024 19:03:11.418,2 Nov 2024 20:05:33.983,3742.565
2 Nov 2024 20:40:00.735,2 Nov 2024 21:42:23.091,3742.356
2 Nov 2024 22:16:50.052,2 Nov 2024 23:19:12.199,3742.147
2 Nov 2024 23:53:39.368,3 Nov 2024 00:56:01.306,3741.938
3 Nov 2024 01:30:28.684,3 Nov 2024 02:32:50.413,3741.730
3 Nov 2024 03:07:17.999,3 Nov 2024 04:09:39.520,3741.522
3 Nov 2024 04:44:07.313,3 Nov 2024 05:46:28.627,3741.314
3 Nov 2024 06:20:56.627,3 Nov 2024 07:23:17.734,3741.107
3 Nov 2024 07:57:45.940,3 Nov 2024 09:00:06.840,3740.900
3 Nov 2024 09:34:35.252,3 Nov 2024 10:36:55.946,3740.694
3 Nov 2024 11:11:24.565,3 Nov 2024 12:13:45.052,3740.487
3 Nov 2024 12:48:13.876,3 Nov 2024 13:50:34.158,3740.282
3 Nov 2024 14:25:03.187,3 Nov 2024 15:27:23.263,3740.076
3 Nov 2024 16:01:52.497,3 Nov 2024 17:04:12.369,3739.871
3 Nov 2024 17:38:41.805,3 Nov 2024 18:41:01.474,3739.668
3 Nov 2024 19:15:31.114,3 Nov 2024 20:17:50.579,3739.464
3 Nov 2024 20:52:20.423,3 Nov 2024 21:54:39.683,3739.261
3 Nov 2024 22:29:09.733,3 Nov 2024 23:31:28.788,3739.055
4 Nov 2024 00:05:59.038,4 Nov 2024 01:08:17.892,3738.854
4 Nov 2024 01:42:48.347,4 Nov 2024 02:45:06.996,3738.649
4 Nov 2024 03:19:37.652,4 Nov 2024 04:21:56.100,3738.448
4 Nov 2024 04:56:26.959,4 Nov 2024 05:58:45.204,3738.244
4 Nov 2024 06:33:16.263,4 Nov 2024 07:35:34.307,3738.044
4 Nov 2024 08:10:05.567,4 Nov 2024 09:12:23.410,3737.843
4 Nov 2024 09:46:54.873,4 Nov 2024 10:49:12.513,3737.640
4 Nov 2024 11:23:44.177,4 Nov 2024 12:26:01.616,3737.440
4 Nov 2024 13:00:33.479,4 Nov 2024 14:02:50.719,3737.239
4 Nov 2024 14:37:22.782,4 Nov 2024 15:39:39.821,3737.040
4 Nov 2024 16:14:12.081,4 Nov 2024 17:16:28.923,3736.842
4 Nov 2024 17:51:01.384,4 Nov 2024 18:53:18.025,3736.641
4 Nov 2024 19:27:50.683,4 Nov 2024 20:30:07.127,3736.444
4 Nov 2024 21:04:39.985,4 Nov 2024 22:06:56.229,3736.244
4 Nov 2024 22:41:29.285,4 Nov 2024 23:43:45.330,3736.045
5 Nov 2024 00:18:18.583,5 Nov 2024 01:20:34.431,3735.848
5 Nov 2024 01:55:07.882,5 Nov 2024 02:57:23.532,3735.650
5 Nov 2024 03:31:57.179,5 Nov 2024 04:34:12.633,3735.454
5 Nov 2024 05:08:46.473,5 Nov 2024 06:11:01.733,3735.260
5 Nov 2024 06:45:35.773,5 Nov 2024 07:47:50.834,3735.061
5 Nov 2024 08:22:25.068,5 Nov 2024 09:24:39.934,3734.866
5 Nov 2024 09:59:14.361,5 Nov 2024 11:01:29.034,3734.673
5 Nov 2024 11:36:03.656,5 Nov 2024 12:38:18.133,3734.478
5 Nov 2024 13:12:52.953,5 Nov 2024 14:15:07.233,3734.280
5 Nov 2024 14:49:42.244,5 Nov 2024 15:51:56.332,3734.088
5 Nov 2024 16:26:31.537,5 Nov 2024 17:28:45.431,3733.894
5 Nov 2024 18:03:20.829,5 Nov 2024 19:05:34.530,3733.701
5 Nov 2024 19:40:10.121,5 Nov 2024 20:42:23.629,3733.507
5 Nov 2024 21:16:59.413,5 Nov 2024 22:19:12.727,3733.315
5 Nov 2024 22:53:48.703,5 Nov 2024 23:56:01.825,3733.122
6 Nov 2024 00:30:37.994,6 Nov 2024 01:32:50.923,3732.930
6 Nov 2024 02:07:27.283,6 Nov 2024 03:09:40.021,3732.738
6 Nov 2024 03:44:16.572,6 Nov 2024 04:46:29.119,3732.547
6 Nov 2024 05:21:05.861,6 Nov 2024 06:23:18.216,3732.355
6 Nov 2024 06:57:55.149,6 Nov 2024 08:00:07.313,3732.165
6 Nov 2024 08:34:44.436,6 Nov 2024 09:36:56.413,3731.977
6 Nov 2024 10:11:33.723,6 Nov 2024 11:13:45.510,3731.787
6 Nov 2024 11:48:23.009,6 Nov 2024 12:50:34.606,3731.597
6 Nov 2024 13:25:12.295,6 Nov 2024 14:27:23.700,3731.405
6 Nov 2024 15:02:01.580,6 Nov 2024 16:04:12.797,3731.217
6 Nov 2024 16:38:50.864,6 Nov 2024 17:41:01.892,3731.028
6 Nov 2024 18:15:40.148,6 Nov 2024 19:17:50.988,3730.840
6 Nov 2024 19:52:29.432,6 Nov 2024 20:54:40.083,3730.652
6 Nov 2024 21:29:18.714,6 Nov 2024 22:31:29.179,3730.464
6 Nov 2024 23:06:07.997,7 Nov 2024 00:08:18.274,3730.277
7 Nov 2024 00:42:57.278,7 Nov 2024 01:45:07.369,3730.090
7 Nov 2024 02:19:46.561,7 Nov 2024 03:21:56.463,3729.902
7 Nov 2024 03:56:35.842,7 Nov 2024 04:58:45.558,3729.716
7 Nov 2024 05:33:25.122,7 Nov 2024 06:35:34.652,3729.530
7 Nov 2024 07:10:14.401,7 Nov 2024 08:12:23.746,3729.345
7 Nov 2024 08:47:03.680,7 Nov 2024 09:49:12.840,3729.160
7 Nov 2024 10:23:52.958,7 Nov 2024 11:26:01.933,3728.975
7 Nov 2024 12:00:42.236,7 Nov 2024 13:02:51.027,3728.791
7 Nov 2024 13:37:31.513,7 Nov 2024 14:39:40.120,3728.607
7 Nov 2024 15:14:20.789,7 Nov 2024 16:16:29.213,3728.424
7 Nov 2024 16:51:10.065,7 Nov 2024 17:53:18.306,3728.241
7 Nov 2024 18:27:59.340,7 Nov 2024 19:30:07.398,3728.058
7 Nov 2024 20:04:48.615,7 Nov 2024 21:06:56.491,3727.876
7 Nov 2024 21:41:37.889,7 Nov 2024 22:43:45.583,3727.694
7 Nov 2024 23:18:27.163,8 Nov 2024 00:20:34.675,3727.512
8 Nov 2024 00:55:16.436,8 Nov 2024 01:57:23.766,3727.331
8 Nov 2024 02:32:05.708,8 Nov 2024 03:34:12.858,3727.150
8 Nov 2024 04:08:54.980,8 Nov 2024 05:11:01.949,3726.969
8 Nov 2024 05:45:44.251,8 Nov 2024 06:47:51.040,3726.789
8 Nov 2024 07:22:33.522,8 Nov 2024 08:24:40.131,3726.609
8 Nov 2024 08:59:22.790,8 Nov 2024 10:01:29.222,3726.431
8 Nov 2024 10:36:12.062,8 Nov 2024 11:38:18.312,3726.250
8 Nov 2024 12:13:01.329,8 Nov 2024 13:15:07.402,3726.074
8 Nov 2024 13:49:50.597,8 Nov 2024 14:51:56.492,3725.895
8 Nov 2024 15:26:39.867,8 Nov 2024 16:28:45.582,3725.715
8 Nov 2024 17:03:29.132,8 Nov 2024 18:05:34.672,3725.539
8 Nov 2024 18:40:18.399,8 Nov 2024 19:42:23.761,3725.362
8 Nov 2024 20:17:07.665,8 Nov 2024 21:19:12.850,3725.185
8 Nov 2024 21:53:56.933,8 Nov 2024 22:56:01.939,3725.006
8 Nov 2024 23:30:46.198,9 Nov 2024 00:32:51.028,3724.830
9 Nov 2024 01:07:35.462,9 Nov 2024 02:09:40.117,3724.654
9 Nov 2024 02:44:24.726,9 Nov 2024 03:46:29.205,3724.479
9 Nov 2024 04:21:13.989,9 Nov 2024 05:23:18.293,3724.304
9 Nov 2024 05:58:03.250,9 Nov 2024 07:00:07.381,3724.131
9 Nov 2024 07:34:52.512,9 Nov 2024 08:36:56.469,3723.957
9 Nov 2024 09:11:41.776,9 Nov 2024 10:13:45.556,3723.780
9 Nov 2024 10:48:31.034,9 Nov 2024 11:50:34.643,3723.609
9 Nov 2024 12:25:20.298,9 Nov 2024 13:27:23.730,3723.433
9 Nov 2024 14:02:09.555,9 Nov 2024 15:04:12.817,3723.262
9 Nov 2024 15:38:58.814,9 Nov 2024 16:41:01.904,3723.090
9 Nov 2024 17:15:48.073,9 Nov 2024 18:17:50.990,3722.917
9 Nov 2024 18:52:37.331,9 Nov 2024 19:54:40.076,3722.745
9 Nov 2024 20:29:26.588,9 Nov 2024 21:31:29.162,3722.574
9 Nov 2024 22:06:15.845,9 Nov 2024 23:08:18.248,3722.403
9 Nov 2024 23:43:05.102,10 Nov 2024 00:45:07.334,3722.232
10 Nov 2024 01:19:54.358,10 Nov 2024 02:21:56.419,3722.061
10 Nov 2024 02:56:43.613,10 Nov 2024 03:58:45.504,3721.891
10 Nov 2024 04:33:32.868,10 Nov 2024 05:35:34.589,3721.721
10 Nov 2024 06:10:22.122,10 Nov 2024 07:12:23.674,3721.552
10 Nov 2024 07:47:11.375,10 Nov 2024 08:49:12.758,3721.383
10 Nov 2024 09:24:00.629,10 Nov 2024 10:26:01.842,3721.214
10 Nov 2024 11:00:49.881,10 Nov 2024 12:02:50.926,3721.045
10 Nov 2024 12:37:39.133,10 Nov 2024 13:39:40.013,3720.880
10 Nov 2024 14:14:28.384,10 Nov 2024 15:16:29.096,3720.712
10 Nov 2024 15:51:17.635,10 Nov 2024 16:53:18.177,3720.542
10 Nov 2024 17:28:06.885,10 Nov 2024 18:30:07.263,3720.378
10 Nov 2024 19:04:56.135,10 Nov 2024 20:06:56.346,3720.211
10 Nov 2024 20:41:45.384,10 Nov 2024 21:43:45.429,3720.045
10 Nov 2024 22:18:34.632,10 Nov 2024 23:20:34.509,3719.877
10 Nov 2024 23:55:23.880,11 Nov 2024 00:57:23.591,3719.711
11 Nov 2024 01:32:13.127,11 Nov 2024 02:34:12.673,3719.546
11 Nov 2024 03:09:02.374,11 Nov 2024 04:11:01.755,3719.381
11 Nov 2024 04:45:51.620,11 Nov 2024 05:47:50.837,3719.216
11 Nov 2024 06:22:40.866,11 Nov 2024 07:24:39.918,3719.052
11 Nov 2024 07:59:30.111,11 Nov 2024 09:01:28.999,3718.888
11 Nov 2024 09:36:19.356,11 Nov 2024 10:38:18.081,3718.725
11 Nov 2024 11:13:08.602,11 Nov 2024 12:15:07.161,3718.560
11 Nov 2024 12:49:57.845,11 Nov 2024 13:51:56.242,3718.397
11 Nov 2024 14:26:47.088,11 Nov 2024 15:28:45.322,3718.235
11 Nov 2024 16:03:36.330,11 Nov 2024 17:05:34.403,3718.073
11 Nov 2024 17:40:25.572,11 Nov 2024 18:42:23.483,3717.911
11 Nov 2024 19:17:14.813,11 Nov 2024 20:19:12.562,3717.750
11 Nov 2024 20:54:04.053,11 Nov 2024 21:56:01.642,3717.589
11 Nov 2024 22:30:53.293,11 Nov 2024 23:32:50.721,3717.428
12 Nov 2024 00:07:42.532,12 Nov 2024 01:09:39.800,3717.268
12 Nov 2024 01:44:31.771,12 Nov 2024 02:46:28.879,3717.108
12 Nov 2024 03:21:21.009,12 Nov 2024 04:23:17.958,3716.948
12 Nov 2024 04:58:10.247,12 Nov 2024 06:00:07.036,3716.789
12 Nov 2024 06:34:59.484,12 Nov 2024 07:36:56.115,3716.630
12 Nov 2024 08:11:48.721,12 Nov 2024 09:13:45.193,3716.472
12 Nov 2024 09:48:37.957,12 Nov 2024 10:50:34.270,3716.314
12 Nov 2024 11:25:27.192,12 Nov 2024 12:27:23.348,3716.156
12 Nov 2024 13:02:16.427,12 Nov 2024 14:04:12.425,3715.999
12 Nov 2024 14:39:05.661,12 Nov 2024 15:41:01.503,3715.842
12 Nov 2024 16:15:54.895,12 Nov 2024 17:17:50.580,3715.685
12 Nov 2024 17:52:44.128,12 Nov 2024 18:54:39.656,3715.529
12 Nov 2024 19:29:33.360,12 Nov 2024 20:31:28.733,3715.373
12 Nov 2024 21:06:22.592,12 Nov 2024 22:08:17.809,3715.217
12 Nov 2024 22:43:11.824,12 Nov 2024 23:45:06.885,3715.062
13 Nov 2024 00:20:01.054,13 Nov 2024 01:21:55.961,3714.907
13 Nov 2024 01:56:50.285,13 Nov 2024 02:58:45.037,3714.752
13 Nov 2024 03:33:39.514,13 Nov 2024 04:35:34.112,3714.598
13 Nov 2024 05:10:28.744,13 Nov 2024 06:12:23.187,3714.444
13 Nov 2024 06:47:17.970,13 Nov 2024 07:49:12.262,3714.293
13 Nov 2024 08:24:07.200,13 Nov 2024 09:26:01.337,3714.137
13 Nov 2024 10:00:56.428,13 Nov 2024 11:02:50.412,3713.984
13 Nov 2024 11:37:45.652,13 Nov 2024 12:39:39.486,3713.834
13 Nov 2024 13:14:34.881,13 Nov 2024 14:16:28.560,3713.680
13 Nov 2024 14:51:24.107,13 Nov 2024 15:53:17.634,3713.527
13 Nov 2024 16:28:13.329,13 Nov 2024 17:30:06.708,3713.379
13 Nov 2024 18:05:02.554,13 Nov 2024 19:06:55.782,3713.228
13 Nov 2024 19:41:51.778,13 Nov 2024 20:43:44.855,3713.077
13 Nov 2024 21:18:41.001,13 Nov 2024 22:20:33.928,3712.927
13 Nov 2024 22:55:30.224,13 Nov 2024 23:57:23.001,3712.777
14 Nov 2024 00:32:19.446,14 Nov 2024 01:34:12.073,3712.627
14 Nov 2024 02:09:08.668,14 Nov 2024 03:11:01.146,3712.478
14 Nov 2024 03:45:57.889,14 Nov 2024 04:47:50.218,3712.329
14 Nov 2024 05:22:47.110,14 Nov 2024 06:24:39.290,3712.180
14 Nov 2024 06:59:36.330,14 Nov 2024 08:01:28.362,3712.032
14 Nov 2024 08:36:25.549,14 Nov 2024 09:38:17.433,3711.884
14 Nov 2024 10:13:14.768,14 Nov 2024 11:15:06.505,3711.736
14 Nov 2024 11:50:03.987,14 Nov 2024 12:51:55.576,3711.589
14 Nov 2024 13:26:53.205,14 Nov 2024 14:28:44.647,3711.442
14 Nov 2024 15:03:42.422,14 Nov 2024 16:05:33.720,3711.298
14 Nov 2024 16:40:31.638,14 Nov 2024 17:42:22.790,3711.152
14 Nov 2024 18:17:20.855,14 Nov 2024 19:19:11.860,3711.006
14 Nov 2024 19:54:10.070,14 Nov 2024 20:56:00.928,3710.858
14 Nov 2024 21:30:59.285,14 Nov 2024 22:32:50.000,3710.715
14 Nov 2024 23:07:48.499,15 Nov 2024 00:09:39.067,3710.568
15 Nov 2024 00:44:37.713,15 Nov 2024 01:46:28.137,3710.423
15 Nov 2024 02:21:26.927,15 Nov 2024 03:23:17.206,3710.279
15 Nov 2024 03:58:16.139,15 Nov 2024 05:00:06.275,3710.136
15 Nov 2024 05:35:05.351,15 Nov 2024 06:36:55.344,3709.992
15 Nov 2024 07:11:54.563,15 Nov 2024 08:13:44.412,3709.849
15 Nov 2024 08:48:43.774,15 Nov 2024 09:50:33.480,3709.706
15 Nov 2024 10:25:32.984,15 Nov 2024 11:27:22.548,3709.564
15 Nov 2024 12:02:22.194,15 Nov 2024 13:04:11.616,3709.422
15 Nov 2024 13:39:11.404,15 Nov 2024 14:41:00.684,3709.280
15 Nov 2024 15:16:00.612,15 Nov 2024 16:17:49.751,3709.139
15 Nov 2024 16:52:49.821,15 Nov 2024 17:54:38.819,3708.998
15 Nov 2024 18:29:39.028,15 Nov 2024 19:31:27.886,3708.857
15 Nov 2024 20:06:28.235,15 Nov 2024 21:08:16.952,3708.717
15 Nov 2024 21:43:17.442,15 Nov 2024 22:45:06.019,3708.577
15 Nov 2024 23:20:06.648,16 Nov 2024 00:21:55.085,3708.437
16 Nov 2024 00:56:55.855,16 Nov 2024 01:58:44.151,3708.296
16 Nov 2024 02:33:45.060,16 Nov 2024 03:35:33.217,3708.157
16 Nov 2024 04:10:34.265,16 Nov 2024 05:12:22.283,3708.018
16 Nov 2024 05:47:23.468,16 Nov 2024 06:49:11.348,3707.880
16 Nov 2024 07:24:12.671,16 Nov 2024 08:26:00.413,3707.742
16 Nov 2024 09:01:01.874,16 Nov 2024 10:02:49.478,3707.605
16 Nov 2024 10:37:51.076,16 Nov 2024 11:39:38.543,3707.467
16 Nov 2024 12:14:40.277,16 Nov 2024 13:16:27.608,3707.331
16 Nov 2024 13:51:29.478,16 Nov 2024 14:53:16.672,3707.194
16 Nov 2024 15:28:18.678,16 Nov 2024 16:30:05.736,3707.058
16 Nov 2024 17:05:07.878,16 Nov 2024 18:06:54.800,3706.922
16 Nov 2024 18:41:57.077,16 Nov 2024 19:43:43.864,3706.787
16 Nov 2024 20:18:46.276,16 Nov 2024 21:20:32.927,3706.652
16 Nov 2024 21:55:35.474,16 Nov 2024 22:57:21.991,3706.517
16 Nov 2024 23:32:24.671,17 Nov 2024 00:34:11.054,3706.382
17 Nov 2024 01:09:13.868,17 Nov 2024 02:11:00.117,3706.248
17 Nov 2024 02:46:03.065,17 Nov 2024 03:47:49.179,3706.115
17 Nov 2024 04:22:52.260,17 Nov 2024 05:24:38.242,3705.981
17 Nov 2024 05:59:41.456,17 Nov 2024 07:01:27.304,3705.848
17 Nov 2024 07:36:30.648,17 Nov 2024 08:38:16.366,3705.718
17 Nov 2024 09:13:19.845,17 Nov 2024 10:15:05.427,3705.583
17 Nov 2024 10:50:09.036,17 Nov 2024 11:51:54.489,3705.453
17 Nov 2024 12:26:58.231,17 Nov 2024 13:28:43.550,3705.319
17 Nov 2024 14:03:47.421,17 Nov 2024 15:05:32.611,3705.191
17 Nov 2024 15:40:36.615,17 Nov 2024 16:42:21.672,3705.057
17 Nov 2024 17:17:25.804,17 Nov 2024 18:19:10.733,3704.929
17 Nov 2024 18:54:14.994,17 Nov 2024 19:55:59.793,3704.799
17 Nov 2024 20:31:04.185,17 Nov 2024 21:32:48.853,3704.669
17 Nov 2024 22:07:53.374,17 Nov 2024 23:09:37.913,3704.539
17 Nov 2024 23:44:42.563,18 Nov 2024 00:46:26.973,3704.410
18 Nov 2024 01:21:31.752,18 Nov 2024 02:23:16.033,3704.281
18 Nov 2024 02:58:20.939,18 Nov 2024 04:00:05.092,3704.152
18 Nov 2024 04:35:10.127,18 Nov 2024 05:36:54.151,3704.024
18 Nov 2024 06:11:59.314,18 Nov 2024 07:13:43.210,3703.896
18 Nov 2024 07:48:48.500,18 Nov 2024 08:50:32.268,3703.769
18 Nov 2024 09:25:37.685,18 Nov 2024 10:27:21.327,3703.641
18 Nov 2024 11:02:26.870,18 Nov 2024 12:04:10.385,3703.515
18 Nov 2024 12:39:16.055,18 Nov 2024 13:40:59.443,3703.388
18 Nov 2024 14:16:05.239,18 Nov 2024 15:17:48.501,3703.262
18 Nov 2024 15:52:54.422,18 Nov 2024 16:54:37.558,3703.136
18 Nov 2024 17:29:43.605,18 Nov 2024 18:31:26.616,3703.010
18 Nov 2024 19:06:32.787,18 Nov 2024 20:08:15.676,3702.888
18 Nov 2024 20:43:21.969,18 Nov 2024 21:45:04.732,3702.763
18 Nov 2024 22:20:11.150,18 Nov 2024 23:21:53.786,3702.636
18 Nov 2024 23:57:00.331,19 Nov 2024 00:58:42.843,3702.512
19 Nov 2024 01:33:49.511,19 Nov 2024 02:35:31.901,3702.391
19 Nov 2024 03:10:38.690,19 Nov 2024 04:12:20.959,3702.269
19 Nov 2024 04:47:27.869,19 Nov 2024 05:49:10.011,3702.142
19 Nov 2024 06:24:17.047,19 Nov 2024 07:25:59.066,3702.019
19 Nov 2024 08:01:06.225,19 Nov 2024 09:02:48.122,3701.896
19 Nov 2024 09:37:55.402,19 Nov 2024 10:39:37.177,3701.774
19 Nov 2024 11:14:44.579,19 Nov 2024 12:16:26.232,3701.653
19 Nov 2024 12:51:33.755,19 Nov 2024 13:53:15.286,3701.531
19 Nov 2024 14:28:22.931,19 Nov 2024 15:30:04.341,3701.410
19 Nov 2024 16:05:12.106,19 Nov 2024 17:06:53.395,3701.289
19 Nov 2024 17:42:01.280,19 Nov 2024 18:43:42.449,3701.169
19 Nov 2024 19:18:50.454,19 Nov 2024 20:20:31.503,3701.049
19 Nov 2024 20:55:39.627,19 Nov 2024 21:57:20.556,3700.929
19 Nov 2024 22:32:28.800,19 Nov 2024 23:34:09.610,3700.810
20 Nov 2024 00:09:17.972,20 Nov 2024 01:10:58.663,3700.691
20 Nov 2024 01:46:07.143,20 Nov 2024 02:47:47.716,3700.572
20 Nov 2024 03:22:56.314,20 Nov 2024 04:24:36.768,3700.454
20 Nov 2024 04:59:45.485,20 Nov 2024 06:01:25.821,3700.336
20 Nov 2024 06:36:34.655,20 Nov 2024 07:38:14.873,3700.218
20 Nov 2024 08:13:23.824,20 Nov 2024 09:15:03.925,3700.101
20 Nov 2024 09:50:12.993,20 Nov 2024 10:51:52.977,3699.984
20 Nov 2024 11:27:02.161,20 Nov 2024 12:28:42.028,3699.867
20 Nov 2024 13:03:51.329,20 Nov 2024 14:05:31.080,3699.751
20 Nov 2024 14:40:40.496,20 Nov 2024 15:42:20.131,3699.635
20 Nov 2024 16:17:29.662,20 Nov 2024 17:19:09.182,3699.519
20 Nov 2024 17:54:18.828,20 Nov 2024 18:55:58.232,3699.404
20 Nov 2024 19:31:07.994,20 Nov 2024 20:32:47.283,3699.289
20 Nov 2024 21:07:57.158,20 Nov 2024 22:09:36.333,3699.174
20 Nov 2024 22:44:46.323,20 Nov 2024 23:46:25.383,3699.060
21 Nov 2024 00:21:35.486,21 Nov 2024 01:23:14.433,3698.946
21 Nov 2024 01:58:24.649,21 Nov 2024 03:00:03.482,3698.833
21 Nov 2024 03:35:13.812,21 Nov 2024 04:36:52.532,3698.720
21 Nov 2024 05:12:02.974,21 Nov 2024 06:13:41.581,3698.607
21 Nov 2024 06:48:52.135,21 Nov 2024 07:50:30.630,3698.494
21 Nov 2024 08:25:41.296,21 Nov 2024 09:27:19.678,3698.382
21 Nov 2024 10:02:30.457,21 Nov 2024 11:04:08.727,3698.270
21 Nov 2024 11:39:19.617,21 Nov 2024 12:40:57.775,3698.158
21 Nov 2024 13:16:08.776,21 Nov 2024 14:17:46.823,3698.047
21 Nov 2024 14:52:57.937,21 Nov 2024 15:54:35.871,3697.934
21 Nov 2024 16:29:47.092,21 Nov 2024 17:31:24.918,3697.826
21 Nov 2024 18:06:36.250,21 Nov 2024 19:08:13.965,3697.716
21 Nov 2024 19:43:25.407,21 Nov 2024 20:45:03.013,3697.606
21 Nov 2024 21:20:14.563,21 Nov 2024 22:21:52.059,3697.497
21 Nov 2024 22:57:03.719,21 Nov 2024 23:58:41.106,3697.387
22 Nov 2024 00:33:52.874,22 Nov 2024 01:35:30.153,3697.279
22 Nov 2024 02:10:42.029,22 Nov 2024 03:12:19.199,3697.170
22 Nov 2024 03:47:31.183,22 Nov 2024 04:49:08.245,3697.062
22 Nov 2024 05:24:20.336,22 Nov 2024 06:25:57.290,3696.954
22 Nov 2024 07:01:09.489,22 Nov 2024 08:02:46.336,3696.847
22 Nov 2024 08:37:58.642,22 Nov 2024 09:39:35.381,3696.739
22 Nov 2024 10:14:47.794,22 Nov 2024 11:16:24.426,3696.633
22 Nov 2024 11:51:36.945,22 Nov 2024 12:53:13.471,3696.526
22 Nov 2024 13:28:26.096,22 Nov 2024 14:30:02.516,3696.420
22 Nov 2024 15:05:15.246,22 Nov 2024 16:06:51.560,3696.314
22 Nov 2024 16:42:04.396,22 Nov 2024 17:43:40.604,3696.209
22 Nov 2024 18:18:53.545,22 Nov 2024 19:20:29.648,3696.104
22 Nov 2024 19:55:42.693,22 Nov 2024 20:57:18.692,3695.999
22 Nov 2024 21:32:31.841,22 Nov 2024 22:34:07.736,3695.895
22 Nov 2024 23:09:20.988,23 Nov 2024 00:10:56.779,3695.791
23 Nov 2024 00:46:10.135,23 Nov 2024 01:47:45.825,3695.689
23 Nov 2024 02:22:59.281,23 Nov 2024 03:24:34.865,3695.583
23 Nov 2024 03:59:48.427,23 Nov 2024 05:01:23.908,3695.480
23 Nov 2024 05:36:37.572,23 Nov 2024 06:38:12.952,3695.380
23 Nov 2024 07:13:26.717,23 Nov 2024 08:15:01.995,3695.278
23 Nov 2024 08:50:15.861,23 Nov 2024 09:51:51.034,3695.173
23 Nov 2024 10:27:05.004,23 Nov 2024 11:28:40.076,3695.071
23 Nov 2024 12:03:54.147,23 Nov 2024 13:05:29.117,3694.970
23 Nov 2024 13:40:43.289,23 Nov 2024 14:42:18.158,3694.869
23 Nov 2024 15:17:32.431,23 Nov 2024 16:19:07.199,3694.768
23 Nov 2024 16:54:21.572,23 Nov 2024 17:55:56.240,3694.668
23 Nov 2024 18:31:10.713,23 Nov 2024 19:32:45.281,3694.568
23 Nov 2024 20:07:59.853,23 Nov 2024 21:09:34.321,3694.468
23 Nov 2024 21:44:48.993,23 Nov 2024 22:46:23.361,3694.369
23 Nov 2024 23:21:38.131,24 Nov 2024 00:23:12.401,3694.270
24 Nov 2024 00:58:27.270,24 Nov 2024 02:00:01.441,3694.171
24 Nov 2024 02:35:16.408,24 Nov 2024 03:36:50.480,3694.073
24 Nov 2024 04:12:05.545,24 Nov 2024 05:13:39.520,3693.975
24 Nov 2024 05:48:54.682,24 Nov 2024 06:50:28.559,3693.877
24 Nov 2024 07:25:43.818,24 Nov 2024 08:27:17.597,3693.780
24 Nov 2024 09:02:32.953,24 Nov 2024 10:04:06.636,3693.683
24 Nov 2024 10:39:22.088,24 Nov 2024 11:40:55.674,3693.586
24 Nov 2024 12:16:11.223,24 Nov 2024 13:17:44.712,3693.490
24 Nov 2024 13:53:00.356,24 Nov 2024 14:54:33.750,3693.394
24 Nov 2024 15:29:49.490,24 Nov 2024 16:31:22.788,3693.298
24 Nov 2024 17:06:38.622,24 Nov 2024 18:08:11.825,3693.203
24 Nov 2024 18:43:27.755,24 Nov 2024 19:45:00.863,3693.108
24 Nov 2024 20:20:16.886,24 Nov 2024 21:21:49.900,3693.013
24 Nov 2024 21:57:06.017,24 Nov 2024 22:58:38.936,3692.919
24 Nov 2024 23:33:55.148,25 Nov 2024 00:35:27.973,3692.825
25 Nov 2024 01:10:44.278,25 Nov 2024 02:12:17.009,3692.731
25 Nov 2024 02:47:33.407,25 Nov 2024 03:49:06.045,3692.638
25 Nov 2024 04:24:22.536,25 Nov 2024 05:25:55.081,3692.545
25 Nov 2024 06:01:11.664,25 Nov 2024 07:02:44.117,3692.453
25 Nov 2024 07:38:00.792,25 Nov 2024 08:39:33.152,3692.360
25 Nov 2024 09:14:49.919,25 Nov 2024 10:16:22.187,3692.268
25 Nov 2024 10:51:39.045,25 Nov 2024 11:53:11.222,3692.177
25 Nov 2024 12:28:28.171,25 Nov 2024 13:30:00.257,3692.085
25 Nov 2024 14:05:17.299,25 Nov 2024 15:06:49.291,3691.992
25 Nov 2024 15:42:06.424,25 Nov 2024 16:43:38.325,3691.901
25 Nov 2024 17:18:55.548,25 Nov 2024 18:20:27.360,3691.811
25 Nov 2024 18:55:44.669,25 Nov 2024 19:57:16.393,3691.724
25 Nov 2024 20:32:33.795,25 Nov 2024 21:34:05.427,3691.632
25 Nov 2024 22:09:22.918,25 Nov 2024 23:10:54.460,3691.542
25 Nov 2024 23:46:12.041,26 Nov 2024 00:47:43.493,3691.452
26 Nov 2024 01:23:01.159,26 Nov 2024 02:24:32.526,3691.368
26 Nov 2024 02:59:50.280,26 Nov 2024 04:01:21.559,3691.279
26 Nov 2024 04:36:39.400,26 Nov 2024 05:38:10.591,3691.191
26 Nov 2024 06:13:28.520,26 Nov 2024 07:14:59.624,3691.104
26 Nov 2024 07:50:17.639,26 Nov 2024 08:51:48.655,3691.017
26 Nov 2024 09:27:06.758,26 Nov 2024 10:28:37.687,3690.930
26 Nov 2024 11:03:55.876,26 Nov 2024 12:05:26.719,3690.843
26 Nov 2024 12:40:44.993,26 Nov 2024 13:42:15.750,3690.757
26 Nov 2024 14:17:34.110,26 Nov 2024 15:19:04.781,3690.671
26 Nov 2024 15:54:23.226,26 Nov 2024 16:55:53.812,3690.586
26 Nov 2024 17:31:12.342,26 Nov 2024 18:32:42.843,3690.500
26 Nov 2024 19:08:01.458,26 Nov 2024 20:09:31.873,3690.415
26 Nov 2024 20:44:50.572,26 Nov 2024 21:46:20.903,3690.331
26 Nov 2024 22:21:39.686,26 Nov 2024 23:23:09.933,3690.247
26 Nov 2024 23:58:28.800,27 Nov 2024 00:59:58.963,3690.163
27 Nov 2024 01:35:17.913,27 Nov 2024 02:36:47.992,3690.079
27 Nov 2024 03:12:07.025,27 Nov 2024 04:13:37.024,3689.999
27 Nov 2024 04:48:56.137,27 Nov 2024 05:50:26.053,3689.916
27 Nov 2024 06:25:45.249,27 Nov 2024 07:27:15.079,3689.831
27 Nov 2024 08:02:34.359,27 Nov 2024 09:04:04.108,3689.749
27 Nov 2024 09:39:23.469,27 Nov 2024 10:40:53.139,3689.669
27 Nov 2024 11:16:12.579,27 Nov 2024 12:17:42.167,3689.588
27 Nov 2024 12:53:01.688,27 Nov 2024 13:54:31.192,3689.504
27 Nov 2024 14:29:50.797,27 Nov 2024 15:31:20.220,3689.423
27 Nov 2024 16:06:39.904,27 Nov 2024 17:08:09.247,3689.343
27 Nov 2024 17:43:29.012,27 Nov 2024 18:44:58.274,3689.262
27 Nov 2024 19:20:18.119,27 Nov 2024 20:21:47.301,3689.183
27 Nov 2024 20:57:07.225,27 Nov 2024 21:58:36.328,3689.103
27 Nov 2024 22:33:56.331,27 Nov 2024 23:35:25.355,3689.024
28 Nov 2024 00:10:45.436,28 Nov 2024 01:12:14.381,3688.945
28 Nov 2024 01:47:34.540,28 Nov 2024 02:49:03.407,3688.867
28 Nov 2024 03:24:23.644,28 Nov 2024 04:25:52.433,3688.789
28 Nov 2024 05:01:12.747,28 Nov 2024 06:02:41.458,3688.711
28 Nov 2024 06:38:01.850,28 Nov 2024 07:39:30.484,3688.633
28 Nov 2024 08:14:50.953,28 Nov 2024 09:16:19.509,3688.556
28 Nov 2024 09:51:40.054,28 Nov 2024 10:53:08.534,3688.479
28 Nov 2024 11:28:29.155,28 Nov 2024 12:29:57.558,3688.403
28 Nov 2024 13:05:18.256,28 Nov 2024 14:06:46.583,3688.327
28 Nov 2024 14:42:07.356,28 Nov 2024 15:43:35.607,3688.251
28 Nov 2024 16:18:56.455,28 Nov 2024 17:20:24.631,3688.175
28 Nov 2024 17:55:45.554,28 Nov 2024 18:57:13.655,3688.100
28 Nov 2024 19:32:34.653,28 Nov 2024 20:34:02.678,3688.025
28 Nov 2024 21:09:23.750,28 Nov 2024 22:10:51.701,3687.951
28 Nov 2024 22:46:12.848,28 Nov 2024 23:47:40.724,3687.877
29 Nov 2024 00:23:01.944,29 Nov 2024 01:24:29.747,3687.803
29 Nov 2024 01:59:51.040,29 Nov 2024 03:01:18.770,3687.730
29 Nov 2024 03:36:40.136,29 Nov 2024 04:38:07.792,3687.656
29 Nov 2024 05:13:29.231,29 Nov 2024 06:14:56.814,3687.584
29 Nov 2024 06:50:18.325,29 Nov 2024 07:51:45.836,3687.511
29 Nov 2024 08:27:07.419,29 Nov 2024 09:28:34.858,3687.439
29 Nov 2024 10:03:56.512,29 Nov 2024 11:05:23.879,3687.367
29 Nov 2024 11:40:45.605,29 Nov 2024 12:42:12.901,3687.296
29 Nov 2024 13:17:34.697,29 Nov 2024 14:19:01.922,3687.225
29 Nov 2024 14:54:23.788,29 Nov 2024 15:55:50.942,3687.154
29 Nov 2024 16:31:12.879,29 Nov 2024 17:32:39.963,3687.084
29 Nov 2024 18:08:01.972,29 Nov 2024 19:09:28.983,3687.011
29 Nov 2024 19:44:51.062,29 Nov 2024 20:46:18.003,3686.941
29 Nov 2024 21:21:40.149,29 Nov 2024 22:23:07.023,3686.874
29 Nov 2024 22:58:29.238,29 Nov 2024 23:59:56.043,3686.805
30 Nov 2024 00:35:18.328,30 Nov 2024 01:36:45.062,3686.734
30 Nov 2024 02:12:07.416,30 Nov 2024 03:13:34.081,3686.665
30 Nov 2024 03:48:56.500,30 Nov 2024 04:50:23.100,3686.600
30 Nov 2024 05:25:45.587,30 Nov 2024 06:27:12.119,3686.532
30 Nov 2024 07:02:34.673,30 Nov 2024 08:04:01.137,3686.465
30 Nov 2024 08:39:23.758,30 Nov 2024 09:40:50.155,3686.398
30 Nov 2024 10:16:12.843,30 Nov 2024 11:17:39.173,3686.331
30 Nov 2024 11:53:01.927,30 Nov 2024 12:54:28.191,3686.264
30 Nov 2024 13:29:51.010,30 Nov 2024 14:31:17.209,3686.198
30 Nov 2024 15:06:40.093,30 Nov 2024 16:08:06.226,3686.133
30 Nov 2024 16:43:29.176,30 Nov 2024 17:44:55.243,3686.067
30 Nov 2024 18:20:18.258,30 Nov 2024 19:21:44.260,3686.002
30 Nov 2024 19:57:07.339,30 Nov 2024 20:58:33.276,3685.937
30 Nov 2024 21:33:56.420,30 Nov 2024 22:35:22.293,3685.873
30 Nov 2024 23:10:45.500,1 Dec 2024 00:12:11.309,3685.809
1 Dec 2024 00:47:34.580,1 Dec 2024 01:49:00.325,3685.745
1 Dec 2024 02:24:23.659,1 Dec 2024 03:25:49.341,3685.682
1 Dec 2024 04:01:12.737,1 Dec 2024 05:02:38.356,3685.619
1 Dec 2024 05:38:01.815,1 Dec 2024 06:39:27.371,3685.556
1 Dec 2024 07:14:50.893,1 Dec 2024 08:16:16.389,3685.496
1 Dec 2024 08:51:39.970,1 Dec 2024 09:53:05.403,3685.434
1 Dec 2024 10:28:29.046,1 Dec 2024 11:29:54.416,3685.370
1 Dec 2024 12:05:18.121,1 Dec 2024 13:06:43.430,3685.308
1 Dec 2024 13:42:07.197,1 Dec 2024 14:43:32.446,3685.250
1 Dec 2024 15:18:56.271,1 Dec 2024 16:20:21.460,3685.189
1 Dec 2024 16:55:45.345,1 Dec 2024 17:57:10.471,3685.126
1 Dec 2024 18:32:34.419,1 Dec 2024 19:33:59.485,3685.066
1 Dec 2024 20:09:23.491,1 Dec 2024 21:10:48.498,3685.006
1 Dec 2024 21:46:12.564,1 Dec 2024 22:47:37.511,3684.947
1 Dec 2024 23:23:01.635,2 Dec 2024 00:24:26.523,3684.888
2 Dec 2024 00:59:50.707,2 Dec 2024 02:01:15.536,3684.829
2 Dec 2024 02:36:39.777,2 Dec 2024 03:38:04.548,3684.771
2 Dec 2024 04:13:28.847,2 Dec 2024 05:14:53.560,3684.713
2 Dec 2024 05:50:17.917,2 Dec 2024 06:51:42.572,3684.655
2 Dec 2024 07:27:06.985,2 Dec 2024 08:28:31.583,3684.598
2 Dec 2024 09:03:56.054,2 Dec 2024 10:05:20.594,3684.541
2 Dec 2024 10:40:45.122,2 Dec 2024 11:42:09.605,3684.484
2 Dec 2024 12:17:34.189,2 Dec 2024 13:18:58.616,3684.427
2 Dec 2024 13:54:23.255,2 Dec 2024 14:55:47.627,3684.371
2 Dec 2024 15:31:12.321,2 Dec 2024 16:32:36.637,3684.316
2 Dec 2024 17:08:01.387,2 Dec 2024 18:09:25.647,3684.260
2 Dec 2024 18:44:50.452,2 Dec 2024 19:46:14.657,3684.205
2 Dec 2024 20:21:39.516,2 Dec 2024 21:23:03.667,3684.151
2 Dec 2024 21:58:28.580,2 Dec 2024 22:59:52.676,3684.096
2 Dec 2024 23:35:17.643,3 Dec 2024 00:36:41.685,3684.042
3 Dec 2024 01:12:06.706,3 Dec 2024 02:13:30.694,3683.988
3 Dec 2024 02:48:55.768,3 Dec 2024 03:50:19.703,3683.935
3 Dec 2024 04:25:44.829,3 Dec 2024 05:27:08.711,3683.882
3 Dec 2024 06:02:33.890,3 Dec 2024 07:03:57.720,3683.829
3 Dec 2024 07:39:22.951,3 Dec 2024 08:40:46.728,3683.777
3 Dec 2024 09:16:12.010,3 Dec 2024 10:17:35.735,3683.725
3 Dec 2024 10:53:01.070,3 Dec 2024 11:54:24.743,3683.673
3 Dec 2024 12:29:50.128,3 Dec 2024 13:31:13.750,3683.622
3 Dec 2024 14:06:39.186,3 Dec 2024 15:08:02.757,3683.571
3 Dec 2024 15:43:28.244,3 Dec 2024 16:44:51.764,3683.520
3 Dec 2024 17:20:17.301,3 Dec 2024 18:21:40.771,3683.470
3 Dec 2024 18:57:06.357,3 Dec 2024 19:58:29.777,3683.420
3 Dec 2024 20:33:55.416,3 Dec 2024 21:35:18.783,3683.368
3 Dec 2024 22:10:44.469,3 Dec 2024 23:12:07.789,3683.320
3 Dec 2024 23:47:33.523,4 Dec 2024 00:48:56.795,3683.272
4 Dec 2024 01:24:22.577,4 Dec 2024 02:25:45.800,3683.223
4 Dec 2024 03:01:11.631,4 Dec 2024 04:02:34.805,3683.175
4 Dec 2024 04:38:00.686,4 Dec 2024 05:39:23.810,3683.124
4 Dec 2024 06:14:49.739,4 Dec 2024 07:16:12.815,3683.076
4 Dec 2024 07:51:38.791,4 Dec 2024 08:53:01.820,3683.029
4 Dec 2024 09:28:27.842,4 Dec 2024 10:29:50.824,3682.982
4 Dec 2024 11:05:16.893,4 Dec 2024 12:06:39.828,3682.935
4 Dec 2024 12:42:05.940,4 Dec 2024 13:43:28.832,3682.892
4 Dec 2024 14:18:54.993,4 Dec 2024 15:20:17.835,3682.843
4 Dec 2024 15:55:44.042,4 Dec 2024 16:57:06.839,3682.797
4 Dec 2024 17:32:33.090,4 Dec 2024 18:33:55.842,3682.751
4 Dec 2024 19:09:22.138,4 Dec 2024 20:10:44.845,3682.706
4 Dec 2024 20:46:11.182,4 Dec 2024 21:47:33.847,3682.665
4 Dec 2024 22:23:00.229,4 Dec 2024 23:24:22.850,3682.620
4 Dec 2024 23:59:49.275,5 Dec 2024 01:01:11.852,3682.576
5 Dec 2024 01:36:38.321,5 Dec 2024 02:38:00.854,3682.533
5 Dec 2024 03:13:27.370,5 Dec 2024 04:14:49.855,3682.485
5 Dec 2024 04:50:16.415,5 Dec 2024 05:51:38.857,3682.442
5 Dec 2024 06:27:05.454,5 Dec 2024 07:28:27.858,3682.404
5 Dec 2024 08:03:54.501,5 Dec 2024 09:05:16.859,3682.358
5 Dec 2024 09:40:43.540,5 Dec 2024 10:42:05.860,3682.319
5 Dec 2024 11:17:32.587,5 Dec 2024 12:18:54.863,3682.276
5 Dec 2024 12:54:21.629,5 Dec 2024 13:55:43.863,3682.235
5 Dec 2024 14:31:10.670,5 Dec 2024 15:32:32.861,3682.191
5 Dec 2024 16:07:59.710,5 Dec 2024 17:09:21.861,3682.150
5 Dec 2024 17:44:48.751,5 Dec 2024 18:46:10.860,3682.110
5 Dec 2024 19:21:37.790,5 Dec 2024 20:22:59.862,3682.072
5 Dec 2024 20:58:26.829,5 Dec 2024 21:59:48.863,3682.034
5 Dec 2024 22:35:15.867,5 Dec 2024 23:36:37.857,3681.990
6 Dec 2024 00:12:04.905,6 Dec 2024 01:13:26.856,3681.951
6 Dec 2024 01:48:53.942,6 Dec 2024 02:50:15.854,3681.913
6 Dec 2024 03:25:42.978,6 Dec 2024 04:27:04.853,3681.874
6 Dec 2024 05:02:32.014,6 Dec 2024 06:03:53.851,3681.836
6 Dec 2024 06:39:21.050,6 Dec 2024 07:40:42.848,3681.799
6 Dec 2024 08:16:10.084,6 Dec 2024 09:17:31.846,3681.761
6 Dec 2024 09:52:59.119,6 Dec 2024 10:54:20.843,3681.724
6 Dec 2024 11:29:48.152,6 Dec 2024 12:31:09.840,3681.688
6 Dec 2024 13:06:37.185,6 Dec 2024 14:07:58.837,3681.651
6 Dec 2024 14:43:26.218,6 Dec 2024 15:44:47.833,3681.615
6 Dec 2024 16:20:15.250,6 Dec 2024 17:21:36.830,3681.580
6 Dec 2024 17:57:04.281,6 Dec 2024 18:58:25.826,3681.545
6 Dec 2024 19:33:53.312,6 Dec 2024 20:35:14.821,3681.510
6 Dec 2024 21:10:42.342,6 Dec 2024 22:12:03.817,3681.475
6 Dec 2024 22:47:31.372,6 Dec 2024 23:48:52.812,3681.441
7 Dec 2024 00:24:20.401,7 Dec 2024 01:25:41.807,3681.407
7 Dec 2024 02:01:09.429,7 Dec 2024 03:02:30.802,3681.373
7 Dec 2024 03:37:58.457,7 Dec 2024 04:39:19.797,3681.340
7 Dec 2024 05:14:47.485,7 Dec 2024 06:16:08.791,3681.307
7 Dec 2024 06:51:36.512,7 Dec 2024 07:52:57.786,3681.274
7 Dec 2024 08:28:25.538,7 Dec 2024 09:29:46.780,3681.242
7 Dec 2024 10:05:14.564,7 Dec 2024 11:06:35.773,3681.210
7 Dec 2024 11:42:03.589,7 Dec 2024 12:43:24.767,3681.178
7 Dec 2024 13:18:52.613,7 Dec 2024 14:20:13.760,3681.147
7 Dec 2024 14:55:41.637,7 Dec 2024 15:57:02.753,3681.116
7 Dec 2024 16:32:30.661,7 Dec 2024 17:33:51.746,3681.085
7 Dec 2024 18:09:19.683,7 Dec 2024 19:10:40.738,3681.055
7 Dec 2024 19:46:08.706,7 Dec 2024 20:47:29.730,3681.025
7 Dec 2024 21:22:57.727,7 Dec 2024 22:24:18.723,3680.995
7 Dec 2024 22:59:46.749,8 Dec 2024 00:01:07.714,3680.966
8 Dec 2024 00:36:35.767,8 Dec 2024 01:37:56.706,3680.939
8 Dec 2024 02:13:24.789,8 Dec 2024 03:14:45.697,3680.908
8 Dec 2024 03:50:13.808,8 Dec 2024 04:51:34.688,3680.880
8 Dec 2024 05:27:02.827,8 Dec 2024 06:28:23.679,3680.852
8 Dec 2024 07:03:51.846,8 Dec 2024 08:05:12.670,3680.824
8 Dec 2024 08:40:40.863,8 Dec 2024 09:42:01.660,3680.797
8 Dec 2024 10:17:29.878,8 Dec 2024 11:18:50.650,3680.772
8 Dec 2024 11:54:18.897,8 Dec 2024 12:55:39.640,3680.743
8 Dec 2024 13:31:07.913,8 Dec 2024 14:32:28.630,3680.717
8 Dec 2024 15:07:56.925,8 Dec 2024 16:09:17.619,3680.695
8 Dec 2024 16:44:45.943,8 Dec 2024 17:46:06.609,3680.665
8 Dec 2024 18:21:34.953,8 Dec 2024 19:22:55.598,3680.644
8 Dec 2024 19:58:23.971,8 Dec 2024 20:59:44.586,3680.615
8 Dec 2024 21:35:12.984,8 Dec 2024 22:36:33.575,3680.590
8 Dec 2024 23:12:01.992,9 Dec 2024 00:13:22.563,3680.571
9 Dec 2024 00:48:51.009,9 Dec 2024 01:50:11.551,3680.542
9 Dec 2024 02:25:40.020,9 Dec 2024 03:27:00.539,3680.519
9 Dec 2024 04:02:29.031,9 Dec 2024 05:03:49.527,3680.495
9 Dec 2024 05:39:18.042,9 Dec 2024 06:40:38.514,3680.472
9 Dec 2024 07:16:07.051,9 Dec 2024 08:17:27.501,3680.450
9 Dec 2024 08:52:56.060,9 Dec 2024 09:54:16.491,3680.431
9 Dec 2024 10:29:45.069,9 Dec 2024 11:31:05.474,3680.405
9 Dec 2024 12:06:34.077,9 Dec 2024 13:07:54.464,3680.387
9 Dec 2024 13:43:23.084,9 Dec 2024 14:44:43.447,3680.362
9 Dec 2024 15:20:12.091,9 Dec 2024 16:21:32.435,3680.344
9 Dec 2024 16:57:01.098,9 Dec 2024 17:58:21.421,3680.323
9 Dec 2024 18:33:50.103,9 Dec 2024 19:35:10.404,3680.301
