idealorbit/Place-UniSMaine-To-Satellite-Cubesat_Access.txt

                                                                              29 Jul 2021 11:15:21
FOR UNFUNDED EDUCATIONAL USE ONLY
Place-UniSMaine-To-Satellite-Cubesat:  Access Summary Report


UniSMaine-To-Cubesat
--------------------
                  Access        Start Time (UTCG)           Stop Time (UTCG)        Duration (sec)
                  ------    ------------------------    ------------------------    --------------
                       1     1 Oct 2024 17:32:02.034     1 Oct 2024 17:41:10.681           548.647
                       2     1 Oct 2024 19:06:59.443     1 Oct 2024 19:19:54.004           774.561
                       3     1 Oct 2024 20:44:15.602     1 Oct 2024 20:53:35.952           560.350
                       4     2 Oct 2024 04:29:18.429     2 Oct 2024 04:34:05.142           286.712
                       5     2 Oct 2024 06:00:26.533     2 Oct 2024 06:12:51.037           744.504
                       6     2 Oct 2024 07:37:08.021     2 Oct 2024 07:48:48.426           700.405
                       7     2 Oct 2024 17:43:45.490     2 Oct 2024 17:54:06.848           621.358
                       8     2 Oct 2024 19:19:09.763     2 Oct 2024 19:31:59.026           769.263
                       9     2 Oct 2024 20:56:50.841     2 Oct 2024 21:04:51.720           480.879
                      10     3 Oct 2024 04:40:02.880     3 Oct 2024 04:47:05.437           422.558
                      11     3 Oct 2024 06:12:22.550     3 Oct 2024 06:25:05.012           762.462
                      12     3 Oct 2024 07:49:47.527     3 Oct 2024 08:00:42.500           654.973
                      13     3 Oct 2024 17:55:36.331     3 Oct 2024 18:06:51.766           675.435
                      14     3 Oct 2024 19:31:22.380     3 Oct 2024 19:43:58.395           756.015
                      15     3 Oct 2024 21:09:37.981     3 Oct 2024 21:15:51.681           373.700
                      16     4 Oct 2024 04:51:10.385     4 Oct 2024 04:59:46.650           516.264
                      17     4 Oct 2024 06:24:24.260     4 Oct 2024 06:37:16.680           772.419
                      18     4 Oct 2024 08:02:36.705     4 Oct 2024 08:12:30.667           593.961
                      19     4 Oct 2024 18:07:32.339     4 Oct 2024 18:19:27.814           715.476
                      20     4 Oct 2024 19:43:37.361     4 Oct 2024 19:55:51.999           734.638
                      21     4 Oct 2024 21:22:56.365     4 Oct 2024 21:26:16.383           200.018
                      22     5 Oct 2024 05:02:30.962     5 Oct 2024 05:12:18.659           587.697
                      23     5 Oct 2024 06:36:31.620     5 Oct 2024 06:49:26.056           774.437
                      24     5 Oct 2024 08:15:38.684     5 Oct 2024 08:24:09.993           511.309
                      25     5 Oct 2024 18:19:32.286     5 Oct 2024 18:31:56.361           744.075
                      26     5 Oct 2024 19:55:54.927     5 Oct 2024 20:07:39.573           704.647
                      27     6 Oct 2024 05:14:01.071     6 Oct 2024 05:24:44.895           643.824
                      28     6 Oct 2024 06:48:44.716     6 Oct 2024 07:01:33.061           768.345
                      29     6 Oct 2024 08:29:00.653     6 Oct 2024 08:35:33.531           392.877
                      30     6 Oct 2024 16:58:04.110     6 Oct 2024 17:03:21.311           317.200
                      31     6 Oct 2024 18:31:35.422     6 Oct 2024 18:44:18.242           762.820
                      32     6 Oct 2024 20:08:15.486     6 Oct 2024 20:19:20.635           665.149
                      33     7 Oct 2024 05:25:38.970     7 Oct 2024 05:37:06.993           688.024
                      34     7 Oct 2024 07:01:03.776     7 Oct 2024 07:13:37.485           753.709
                      35     7 Oct 2024 08:43:14.070     7 Oct 2024 08:46:10.096           176.026
                      36     7 Oct 2024 17:09:14.583     7 Oct 2024 17:16:58.317           463.735
                      37     7 Oct 2024 18:43:41.290     7 Oct 2024 18:56:33.994           772.704
                      38     7 Oct 2024 20:20:39.722     7 Oct 2024 20:30:54.414           614.692
                      39     8 Oct 2024 05:37:23.672     8 Oct 2024 05:49:25.836           722.164
                      40     8 Oct 2024 07:13:29.224     8 Oct 2024 07:25:38.954           729.730
                      41     8 Oct 2024 17:20:48.081     8 Oct 2024 17:30:07.979           559.898
                      42     8 Oct 2024 18:55:49.610     8 Oct 2024 19:08:43.929           774.319
                      43     8 Oct 2024 20:33:08.873     8 Oct 2024 20:42:19.571           550.698
                      44     9 Oct 2024 04:17:55.117     9 Oct 2024 04:23:03.966           308.850
                      45     9 Oct 2024 05:49:14.592     9 Oct 2024 06:01:41.952           747.360
                      46     9 Oct 2024 07:26:01.738     9 Oct 2024 07:37:36.882           695.144
                      47     9 Oct 2024 17:32:32.745     9 Oct 2024 17:43:02.422           629.677
                      48     9 Oct 2024 19:08:00.251     9 Oct 2024 19:20:48.186           767.935
                      49     9 Oct 2024 20:45:45.342     9 Oct 2024 20:53:33.593           468.251
                      50    10 Oct 2024 04:28:43.847    10 Oct 2024 04:36:00.527           436.680
                      51    10 Oct 2024 06:01:11.380    10 Oct 2024 06:13:55.627           764.247
                      52    10 Oct 2024 07:38:42.417    10 Oct 2024 07:49:30.284           647.867
                      53    10 Oct 2024 17:44:24.393    10 Oct 2024 17:55:46.029           681.636
                      54    10 Oct 2024 19:20:13.185    10 Oct 2024 19:32:46.791           753.606
                      55    10 Oct 2024 20:58:34.913    10 Oct 2024 21:04:30.596           355.683
                      56    11 Oct 2024 04:39:53.417    11 Oct 2024 04:48:40.209           526.792
                      57    11 Oct 2024 06:13:13.845    11 Oct 2024 06:26:06.995           773.150
                      58    11 Oct 2024 07:51:33.075    11 Oct 2024 08:01:17.503           584.428
                      59    11 Oct 2024 17:56:21.001    11 Oct 2024 18:08:20.998           719.997
                      60    11 Oct 2024 19:32:28.513    11 Oct 2024 19:44:39.595           731.082
                      61    11 Oct 2024 21:12:03.671    11 Oct 2024 21:14:44.373           160.702
                      62    12 Oct 2024 04:51:15.405    12 Oct 2024 05:01:11.325           595.919
                      63    12 Oct 2024 06:25:21.964    12 Oct 2024 06:38:16.071           774.107
                      64    12 Oct 2024 08:04:37.148    12 Oct 2024 08:12:55.288           498.140
                      65    12 Oct 2024 18:08:21.425    12 Oct 2024 18:20:48.605           747.180
                      66    12 Oct 2024 19:44:46.462    12 Oct 2024 19:56:26.323           699.861
                      67    13 Oct 2024 05:02:46.627    13 Oct 2024 05:13:36.950           650.324
                      68    13 Oct 2024 06:37:35.841    13 Oct 2024 06:50:22.754           766.912
                      69    13 Oct 2024 08:18:02.900    13 Oct 2024 08:24:15.637           372.737
                      70    13 Oct 2024 16:46:43.795    13 Oct 2024 16:52:26.051           342.256
                      71    13 Oct 2024 18:20:24.961    13 Oct 2024 18:33:09.635           764.674
                      72    13 Oct 2024 19:57:07.479    13 Oct 2024 20:08:06.456           658.976
                      73    14 Oct 2024 05:14:25.479    14 Oct 2024 05:25:58.581           693.102
                      74    14 Oct 2024 06:49:55.727    14 Oct 2024 07:02:26.816           751.089
                      75    14 Oct 2024 08:32:36.785    14 Oct 2024 08:34:32.365           115.580
                      76    14 Oct 2024 16:57:58.915    14 Oct 2024 17:05:57.821           478.906
                      77    14 Oct 2024 18:32:31.182    14 Oct 2024 18:45:24.586           773.404
                      78    14 Oct 2024 20:09:32.304    14 Oct 2024 20:19:39.159           606.855
                      79    15 Oct 2024 03:56:46.258    15 Oct 2024 03:58:06.662            80.404
                      80    15 Oct 2024 05:26:11.039    15 Oct 2024 05:38:17.049           726.010
                      81    15 Oct 2024 07:02:22.071    15 Oct 2024 07:14:27.861           725.790
                      82    15 Oct 2024 17:09:34.343    15 Oct 2024 17:19:05.008           570.665
                      83    15 Oct 2024 18:44:39.829    15 Oct 2024 18:57:33.752           773.923
                      84    15 Oct 2024 20:22:02.277    15 Oct 2024 20:31:02.990           540.713
                      85    16 Oct 2024 04:06:32.675    16 Oct 2024 04:12:02.009           329.334
                      86    16 Oct 2024 05:38:02.759    16 Oct 2024 05:50:32.837           750.078
                      87    16 Oct 2024 07:14:55.605    16 Oct 2024 07:26:25.261           689.656
                      88    16 Oct 2024 17:21:20.136    16 Oct 2024 17:31:57.796           637.660
                      89    16 Oct 2024 18:56:50.787    16 Oct 2024 19:09:37.249           766.462
                      90    16 Oct 2024 20:34:40.069    16 Oct 2024 20:42:15.181           455.112
                      91    17 Oct 2024 04:17:25.151    17 Oct 2024 04:24:55.370           450.219
                      92    17 Oct 2024 05:50:00.316    17 Oct 2024 06:02:46.205           765.889
                      93    17 Oct 2024 07:27:37.487    17 Oct 2024 07:38:17.969           640.482
                      94    17 Oct 2024 17:33:12.557    17 Oct 2024 17:44:40.138           687.581
                      95    17 Oct 2024 19:09:04.044    17 Oct 2024 19:21:35.082           751.038
                      96    17 Oct 2024 20:47:32.392    17 Oct 2024 20:53:08.897           336.506
                      97    18 Oct 2024 04:28:36.660    18 Oct 2024 04:37:33.643           536.982
                      98    18 Oct 2024 06:02:03.536    18 Oct 2024 06:14:57.277           773.741
                      99    18 Oct 2024 07:40:29.688    18 Oct 2024 07:50:04.178           574.490
                     100    18 Oct 2024 17:45:09.748    18 Oct 2024 17:57:14.050           724.302
                     101    18 Oct 2024 19:21:19.719    18 Oct 2024 19:33:27.087           727.368
                     102    18 Oct 2024 21:01:17.956    18 Oct 2024 21:03:05.316           107.361
                     103    19 Oct 2024 04:40:00.012    19 Oct 2024 04:50:03.916           603.904
                     104    19 Oct 2024 06:14:12.421    19 Oct 2024 06:27:06.046           773.625
                     105    19 Oct 2024 07:53:35.991    19 Oct 2024 08:01:40.297           484.306
                     106    19 Oct 2024 16:25:20.086    19 Oct 2024 16:26:43.285            83.199
                     107    19 Oct 2024 17:57:10.632    19 Oct 2024 18:09:40.736           750.104
                     108    19 Oct 2024 19:33:38.059    19 Oct 2024 19:45:12.961           694.901
                     109    20 Oct 2024 04:51:32.322    20 Oct 2024 05:02:28.950           656.627
                     110    20 Oct 2024 06:26:27.078    20 Oct 2024 06:39:12.407           765.329
                     111    20 Oct 2024 08:07:05.985    20 Oct 2024 08:12:56.996           351.011
                     112    20 Oct 2024 16:35:24.527    20 Oct 2024 16:41:29.688           365.161
                     113    20 Oct 2024 18:09:14.560    20 Oct 2024 18:22:00.921           766.362
                     114    20 Oct 2024 19:45:59.545    20 Oct 2024 19:56:52.146           652.602
                     115    21 Oct 2024 05:03:12.114    21 Oct 2024 05:14:50.129           698.015
                     116    21 Oct 2024 06:38:47.798    21 Oct 2024 06:51:16.102           748.304
                     117    21 Oct 2024 16:46:43.602    21 Oct 2024 16:54:56.915           493.313
                     118    21 Oct 2024 18:21:21.128    21 Oct 2024 18:34:15.081           773.952
                     119    21 Oct 2024 19:58:24.984    21 Oct 2024 20:08:23.751           598.767
                     120    22 Oct 2024 03:45:02.653    22 Oct 2024 03:47:25.405           142.751
                     121    22 Oct 2024 05:14:58.522    22 Oct 2024 05:27:08.229           729.708
                     122    22 Oct 2024 06:51:15.058    22 Oct 2024 07:03:16.710           721.652
                     123    22 Oct 2024 16:58:20.798    22 Oct 2024 17:08:01.785           580.987
                     124    22 Oct 2024 18:33:30.099    22 Oct 2024 18:46:23.479           773.380
                     125    22 Oct 2024 20:10:55.826    22 Oct 2024 20:19:46.207           530.380
                     126    23 Oct 2024 03:55:10.965    23 Oct 2024 04:00:59.415           348.450
                     127    23 Oct 2024 05:26:51.037    23 Oct 2024 05:39:23.688           752.651
                     128    23 Oct 2024 07:03:49.629    23 Oct 2024 07:15:13.561           683.932
                     129    23 Oct 2024 17:10:07.658    23 Oct 2024 17:20:52.990           645.332
                     130    23 Oct 2024 18:45:41.372    23 Oct 2024 18:58:26.215           764.842
                     131    23 Oct 2024 20:23:35.049    23 Oct 2024 20:30:56.451           441.402
                     132    24 Oct 2024 04:06:06.768    24 Oct 2024 04:13:49.984           463.216
                     133    24 Oct 2024 05:38:49.358    24 Oct 2024 05:51:36.752           767.395
                     134    24 Oct 2024 07:16:32.750    24 Oct 2024 07:27:05.542           632.791
                     135    24 Oct 2024 17:22:00.817    24 Oct 2024 17:33:34.101           693.284
                     136    24 Oct 2024 18:57:54.954    24 Oct 2024 19:10:23.273           748.320
                     137    24 Oct 2024 20:36:30.531    24 Oct 2024 20:41:46.470           315.939
                     138    25 Oct 2024 04:17:20.112    25 Oct 2024 04:26:26.953           546.842
                     139    25 Oct 2024 05:50:53.336    25 Oct 2024 06:03:47.522           774.185
                     140    25 Oct 2024 07:29:26.550    25 Oct 2024 07:38:50.682           564.132
                     141    25 Oct 2024 17:33:58.567    25 Oct 2024 17:46:06.982           728.415
                     142    25 Oct 2024 19:10:10.978    25 Oct 2024 19:22:14.478           723.500
                     143    26 Oct 2024 04:28:44.776    26 Oct 2024 04:38:56.422           611.647
                     144    26 Oct 2024 06:03:02.981    26 Oct 2024 06:15:55.988           773.007
                     145    26 Oct 2024 07:42:35.231    26 Oct 2024 07:50:24.991           469.761
                     146    26 Oct 2024 16:13:34.966    26 Oct 2024 16:16:13.318           158.352
                     147    26 Oct 2024 17:45:59.902    26 Oct 2024 17:58:32.753           752.851
                     148    26 Oct 2024 19:22:29.718    26 Oct 2024 19:33:59.482           689.764
                     149    27 Oct 2024 04:40:18.148    27 Oct 2024 04:51:20.892           662.745
                     150    27 Oct 2024 06:15:18.430    27 Oct 2024 06:28:02.017           763.587
                     151    27 Oct 2024 07:56:10.069    27 Oct 2024 08:01:37.446           327.378
                     152    27 Oct 2024 16:24:06.104    27 Oct 2024 16:30:32.408           386.305
                     153    27 Oct 2024 17:58:04.213    27 Oct 2024 18:10:52.108           767.895
                     154    27 Oct 2024 19:34:51.688    27 Oct 2024 19:45:37.705           646.017
                     155    28 Oct 2024 04:51:58.862    28 Oct 2024 05:03:41.635           702.773
                     156    28 Oct 2024 06:27:39.997    28 Oct 2024 06:40:05.333           745.337
                     157    28 Oct 2024 16:35:28.610    28 Oct 2024 16:43:55.626           507.015
                     158    28 Oct 2024 18:10:11.121    28 Oct 2024 18:23:05.479           774.358
                     159    28 Oct 2024 19:47:17.759    28 Oct 2024 19:57:08.184           590.425
                     160    29 Oct 2024 03:33:29.181    29 Oct 2024 03:36:34.097           184.916
                     161    29 Oct 2024 05:03:46.120    29 Oct 2024 05:15:59.366           733.246
                     162    29 Oct 2024 06:40:08.181    29 Oct 2024 06:52:05.498           717.317
                     163    29 Oct 2024 16:47:07.440    29 Oct 2024 16:56:58.319           590.879
                     164    29 Oct 2024 18:22:20.417    29 Oct 2024 18:35:13.108           772.691
                     165    29 Oct 2024 19:59:49.524    29 Oct 2024 20:08:29.218           519.694
                     166    30 Oct 2024 03:43:49.875    30 Oct 2024 03:49:56.282           366.406
                     167    30 Oct 2024 05:15:39.421    30 Oct 2024 05:28:14.502           755.082
                     168    30 Oct 2024 06:52:43.815    30 Oct 2024 07:04:01.783           677.968
                     169    30 Oct 2024 16:58:55.302    30 Oct 2024 17:09:48.009           652.707
                     170    30 Oct 2024 18:34:32.008    30 Oct 2024 18:47:15.082           763.074
                     171    30 Oct 2024 20:12:30.301    30 Oct 2024 20:19:37.385           427.084
                     172    31 Oct 2024 03:54:48.676    31 Oct 2024 04:02:44.398           475.721
                     173    31 Oct 2024 05:27:38.502    31 Oct 2024 05:40:27.261           768.759
                     174    31 Oct 2024 07:05:28.210    31 Oct 2024 07:15:52.992           624.782
                     175    31 Oct 2024 17:10:49.177    31 Oct 2024 17:22:27.915           698.739
                     176    31 Oct 2024 18:46:45.918    31 Oct 2024 18:59:11.368           745.450
                     177    31 Oct 2024 20:25:29.461    31 Oct 2024 20:30:23.190           293.729
                     178     1 Nov 2024 04:06:03.760     1 Nov 2024 04:15:20.149           556.389
                     179     1 Nov 2024 05:39:43.241     1 Nov 2024 05:52:37.737           774.497
                     180     1 Nov 2024 07:18:23.683     1 Nov 2024 07:27:37.001           553.317
                     181     1 Nov 2024 17:22:47.462     1 Nov 2024 17:34:59.784           732.322
                     182     1 Nov 2024 18:59:02.291     1 Nov 2024 19:11:01.758           719.467
                     183     2 Nov 2024 04:17:29.698     2 Nov 2024 04:27:48.857           619.159
                     184     2 Nov 2024 05:51:53.653     2 Nov 2024 06:04:45.893           772.240
                     185     2 Nov 2024 07:31:34.911     2 Nov 2024 07:39:09.332           454.422
                     186     2 Nov 2024 16:02:03.006     2 Nov 2024 16:05:30.127           207.121
                     187     2 Nov 2024 17:34:49.237     2 Nov 2024 17:47:24.660           755.423
                     188     2 Nov 2024 19:11:21.440     2 Nov 2024 19:22:45.887           684.448
                     189     3 Nov 2024 04:29:04.110     3 Nov 2024 04:40:12.781           668.670
                     190     3 Nov 2024 06:04:09.899     3 Nov 2024 06:16:51.586           761.687
                     191     3 Nov 2024 07:45:15.378     3 Nov 2024 07:50:16.762           301.384
                     192     3 Nov 2024 16:12:48.391     3 Nov 2024 16:19:34.354           405.963
                     193     3 Nov 2024 17:46:53.924     3 Nov 2024 17:59:43.188           769.264
                     194     3 Nov 2024 19:23:43.910     3 Nov 2024 19:34:23.132           639.221
                     195     4 Nov 2024 04:40:45.737     4 Nov 2024 04:52:33.093           707.356
                     196     4 Nov 2024 06:16:32.319     4 Nov 2024 06:28:54.516           742.197
                     197     4 Nov 2024 16:24:13.915     4 Nov 2024 16:32:53.981           520.066
                     198     4 Nov 2024 17:59:01.170     4 Nov 2024 18:11:55.775           774.605
                     199     4 Nov 2024 19:36:10.644     4 Nov 2024 19:45:52.453           581.808
                     200     5 Nov 2024 03:21:59.853     5 Nov 2024 03:25:38.732           218.880
                     201     5 Nov 2024 04:52:33.822     5 Nov 2024 05:04:50.469           736.647
                     202     5 Nov 2024 06:29:01.444     5 Nov 2024 06:40:54.217           712.773
                     203     5 Nov 2024 16:35:54.255     5 Nov 2024 16:45:54.623           600.368
                     204     5 Nov 2024 18:11:10.784     5 Nov 2024 18:24:02.640           771.856
                     205     5 Nov 2024 19:48:43.387     5 Nov 2024 19:57:12.008           508.620
                     206     6 Nov 2024 03:32:29.334     6 Nov 2024 03:38:52.692           383.358
                     207     6 Nov 2024 05:04:27.913     6 Nov 2024 05:17:05.284           757.371
                     208     6 Nov 2024 06:41:38.157     6 Nov 2024 06:52:49.915           671.758
                     209     6 Nov 2024 16:47:43.069     6 Nov 2024 16:58:42.852           659.782
                     210     6 Nov 2024 18:23:22.692     6 Nov 2024 18:36:03.852           761.161
                     211     6 Nov 2024 20:01:25.860     6 Nov 2024 20:08:17.949           412.089
                     212     7 Nov 2024 03:43:30.862     7 Nov 2024 03:51:38.616           487.753
                     213     7 Nov 2024 05:16:27.755     7 Nov 2024 05:29:17.740           769.984
                     214     7 Nov 2024 06:54:23.872     7 Nov 2024 07:04:40.326           616.454
                     215     7 Nov 2024 16:59:37.622     7 Nov 2024 17:11:21.592           703.970
                     216     7 Nov 2024 18:35:36.927     7 Nov 2024 18:47:59.358           742.431
                     217     7 Nov 2024 20:14:29.392     7 Nov 2024 20:18:58.844           269.453
                     218     8 Nov 2024 03:54:47.597     8 Nov 2024 04:04:13.232           565.635
                     219     8 Nov 2024 05:28:33.247     8 Nov 2024 05:41:27.919           774.672
                     220     8 Nov 2024 07:07:21.100     8 Nov 2024 07:16:23.116           542.016
                     221     8 Nov 2024 17:11:36.430     8 Nov 2024 17:23:52.465           736.035
                     222     8 Nov 2024 18:47:53.661     8 Nov 2024 18:59:48.930           715.269
                     223     9 Nov 2024 04:06:14.767     9 Nov 2024 04:16:41.217           626.450
                     224     9 Nov 2024 05:40:44.433     9 Nov 2024 05:53:35.758           771.326
                     225     9 Nov 2024 07:20:35.069     9 Nov 2024 07:27:53.278           438.209
                     226     9 Nov 2024 15:50:36.073     9 Nov 2024 15:54:41.840           245.767
                     227     9 Nov 2024 17:23:38.631     9 Nov 2024 17:36:16.450           757.820
                     228     9 Nov 2024 19:00:13.224     9 Nov 2024 19:11:32.172           678.948
                     229    10 Nov 2024 04:17:50.206    10 Nov 2024 04:29:04.613           674.407
                     230    10 Nov 2024 05:53:01.482    10 Nov 2024 06:05:41.108           759.627
                     231    10 Nov 2024 07:34:22.247    10 Nov 2024 07:38:54.613           272.366
                     232    10 Nov 2024 16:01:31.281    10 Nov 2024 16:08:35.626           424.345
                     233    10 Nov 2024 17:35:43.686    10 Nov 2024 17:48:34.163           770.476
                     234    10 Nov 2024 19:12:36.210    10 Nov 2024 19:23:08.418           632.209
                     235    11 Nov 2024 04:29:32.727    11 Nov 2024 04:41:24.511           711.784
                     236    11 Nov 2024 06:05:24.764    11 Nov 2024 06:17:43.645           738.880
                     237    11 Nov 2024 16:12:59.490    11 Nov 2024 16:21:52.000           532.510
                     238    11 Nov 2024 17:47:51.266    11 Nov 2024 18:00:45.970           774.704
                     239    11 Nov 2024 19:25:03.638    11 Nov 2024 19:34:36.550           572.911
                     240    12 Nov 2024 03:10:32.978    12 Nov 2024 03:14:41.005           248.027
                     241    12 Nov 2024 04:41:21.638    12 Nov 2024 04:53:41.527           739.889
                     242    12 Nov 2024 06:17:54.850    12 Nov 2024 06:29:42.866           708.016
                     243    12 Nov 2024 16:24:41.230    12 Nov 2024 16:34:50.708           609.479
                     244    12 Nov 2024 18:00:01.197    12 Nov 2024 18:12:52.073           770.877
                     245    12 Nov 2024 19:37:37.416    12 Nov 2024 19:45:54.560           497.145
                     246    13 Nov 2024 03:21:09.266    13 Nov 2024 03:27:48.706           399.440
                     247    13 Nov 2024 04:53:16.510    13 Nov 2024 05:05:56.028           759.518
                     248    13 Nov 2024 06:30:32.669    13 Nov 2024 06:41:37.954           665.284
                     249    13 Nov 2024 16:36:30.950    13 Nov 2024 16:47:37.524           666.574
                     250    13 Nov 2024 18:12:13.420    13 Nov 2024 18:24:52.523           759.102
                     251    13 Nov 2024 19:50:21.755    13 Nov 2024 19:56:58.108           396.353
                     252    14 Nov 2024 03:32:13.297    14 Nov 2024 03:40:32.657           499.360
                     253    14 Nov 2024 05:05:17.115    14 Nov 2024 05:18:08.183           771.069
                     254    14 Nov 2024 06:43:19.747    14 Nov 2024 06:53:27.521           607.774
                     255    14 Nov 2024 16:48:26.149    14 Nov 2024 17:00:15.130           708.981
                     256    14 Nov 2024 18:24:27.985    14 Nov 2024 18:36:47.241           739.256
                     257    14 Nov 2024 20:03:30.618    14 Nov 2024 20:07:33.132           242.514
                     258    15 Nov 2024 03:43:31.615    15 Nov 2024 03:53:06.222           574.607
                     259    15 Nov 2024 05:17:23.366    15 Nov 2024 05:30:18.061           774.695
                     260    15 Nov 2024 06:56:18.810    15 Nov 2024 07:05:09.019           530.209
                     261    15 Nov 2024 17:00:25.467    15 Nov 2024 17:12:45.027           739.561
                     262    15 Nov 2024 18:36:45.084    15 Nov 2024 18:48:35.992           710.909
                     263    16 Nov 2024 03:54:59.986    16 Nov 2024 04:05:33.507           633.521
                     264    16 Nov 2024 05:29:35.322    16 Nov 2024 05:42:25.584           770.262
                     265    16 Nov 2024 07:09:35.763    16 Nov 2024 07:16:36.773           421.011
                     266    16 Nov 2024 15:39:12.048    16 Nov 2024 15:43:50.573           278.524
                     267    16 Nov 2024 17:12:28.086    16 Nov 2024 17:25:08.136           760.051
                     268    16 Nov 2024 18:49:05.076    16 Nov 2024 19:00:18.337           673.261
                     269    17 Nov 2024 04:06:36.427    17 Nov 2024 04:17:56.395           679.968
                     270    17 Nov 2024 05:41:53.183    17 Nov 2024 05:54:30.585           757.402
                     271    17 Nov 2024 07:23:31.235    17 Nov 2024 07:27:30.432           239.197
                     272    17 Nov 2024 15:50:14.701    17 Nov 2024 15:57:36.310           441.608
                     273    17 Nov 2024 17:24:33.503    17 Nov 2024 17:37:25.033           771.530
                     274    17 Nov 2024 19:01:28.594    17 Nov 2024 19:11:53.566           624.973
                     275    18 Nov 2024 04:18:19.836    18 Nov 2024 04:30:15.882           716.047
                     276    18 Nov 2024 05:54:17.339    18 Nov 2024 06:06:32.717           735.379
                     277    18 Nov 2024 16:01:45.315    18 Nov 2024 16:10:49.713           544.398
                     278    18 Nov 2024 17:36:41.412    18 Nov 2024 17:49:36.067           774.655
                     279    18 Nov 2024 19:13:56.747    18 Nov 2024 19:23:20.474           563.728
                     280    19 Nov 2024 02:59:07.789    19 Nov 2024 03:03:41.679           273.890
                     281    19 Nov 2024 04:30:09.564    19 Nov 2024 04:42:32.554           742.990
                     282    19 Nov 2024 06:06:48.398    19 Nov 2024 06:18:31.447           703.049
                     283    19 Nov 2024 16:13:28.362    19 Nov 2024 16:23:46.583           618.221
                     284    19 Nov 2024 17:48:51.657    19 Nov 2024 18:01:41.409           769.752
                     285    19 Nov 2024 19:26:31.624    19 Nov 2024 19:34:36.866           485.243
                     286    20 Nov 2024 03:09:49.627    20 Nov 2024 03:16:44.369           414.742
                     287    20 Nov 2024 04:42:05.215    20 Nov 2024 04:54:46.739           761.524
                     288    20 Nov 2024 06:19:27.348    20 Nov 2024 06:30:25.895           658.547
                     289    20 Nov 2024 16:25:18.942    20 Nov 2024 16:36:32.034           673.092
                     290    20 Nov 2024 18:01:04.191    20 Nov 2024 18:13:41.098           756.906
                     291    20 Nov 2024 19:39:18.037    20 Nov 2024 19:45:37.811           379.774
                     292    21 Nov 2024 03:20:55.985    21 Nov 2024 03:29:26.540           510.556
                     293    21 Nov 2024 04:54:06.575    21 Nov 2024 05:06:58.596           772.021
                     294    21 Nov 2024 06:32:15.835    21 Nov 2024 06:42:14.575           598.740
                     295    21 Nov 2024 16:37:14.768    21 Nov 2024 16:49:08.530           713.762
                     296    21 Nov 2024 18:13:19.088    21 Nov 2024 18:25:35.024           735.936
                     297    21 Nov 2024 19:52:33.654    21 Nov 2024 19:56:05.542           211.888
                     298    22 Nov 2024 03:32:15.811    22 Nov 2024 03:41:59.109           583.297
                     299    22 Nov 2024 05:06:13.588    22 Nov 2024 05:19:08.163           774.575
                     300    22 Nov 2024 06:45:16.832    22 Nov 2024 06:53:54.683           517.851
                     301    22 Nov 2024 16:49:14.567    22 Nov 2024 17:01:37.470           742.902
                     302    22 Nov 2024 18:25:36.556    22 Nov 2024 18:37:22.942           706.386
                     303    23 Nov 2024 03:43:45.342    23 Nov 2024 03:54:25.732           640.390
                     304    23 Nov 2024 05:18:26.317    23 Nov 2024 05:31:15.367           769.050
                     305    23 Nov 2024 06:58:37.049    23 Nov 2024 07:05:19.755           402.707
                     306    23 Nov 2024 15:27:49.981    23 Nov 2024 15:32:57.270           307.289
                     307    23 Nov 2024 17:01:17.596    23 Nov 2024 17:13:59.715           762.119
                     308    23 Nov 2024 18:37:56.985    23 Nov 2024 18:49:04.373           667.388
                     309    24 Nov 2024 03:55:22.769    24 Nov 2024 04:06:48.124           685.355
                     310    24 Nov 2024 05:30:44.998    24 Nov 2024 05:43:20.012           755.014
                     311    24 Nov 2024 07:12:43.365    24 Nov 2024 07:16:03.194           199.829
                     312    24 Nov 2024 15:38:58.581    24 Nov 2024 15:46:36.464           457.883
                     313    24 Nov 2024 17:13:23.369    24 Nov 2024 17:26:15.801           772.432
                     314    24 Nov 2024 18:50:21.058    24 Nov 2024 19:00:38.568           617.510
                     315    25 Nov 2024 04:07:07.057    25 Nov 2024 04:19:07.213           720.156
                     316    25 Nov 2024 05:43:10.038    25 Nov 2024 05:55:21.729           731.690
                     317    25 Nov 2024 15:50:31.369    25 Nov 2024 15:59:47.131           555.762
                     318    25 Nov 2024 17:25:31.604    25 Nov 2024 17:38:26.063           774.459
                     319    25 Nov 2024 19:02:49.964    25 Nov 2024 19:12:04.221           554.257
                     320    26 Nov 2024 02:47:43.852    26 Nov 2024 02:52:41.178           297.326
                     321    26 Nov 2024 04:18:57.597    26 Nov 2024 04:31:23.540           745.943
                     322    26 Nov 2024 05:55:42.084    26 Nov 2024 06:07:19.949           697.864
                     323    26 Nov 2024 16:02:15.641    26 Nov 2024 16:12:42.252           626.610
                     324    26 Nov 2024 17:37:42.163    26 Nov 2024 17:50:30.641           768.478
                     325    26 Nov 2024 19:15:26.029    26 Nov 2024 19:23:18.905           472.876
                     326    27 Nov 2024 02:58:30.382    27 Nov 2024 03:05:39.735           429.353
                     327    27 Nov 2024 04:30:54.026    27 Nov 2024 04:43:37.412           763.386
                     328    27 Nov 2024 06:08:22.204    27 Nov 2024 06:19:13.733           651.529
                     329    27 Nov 2024 16:14:07.033    27 Nov 2024 16:25:26.383           679.349
                     330    27 Nov 2024 17:49:55.012    27 Nov 2024 18:02:29.568           754.556
                     331    27 Nov 2024 19:28:14.751    27 Nov 2024 19:34:17.016           362.266
                     332    28 Nov 2024 03:09:38.894    28 Nov 2024 03:18:20.270           521.375
                     333    28 Nov 2024 04:42:56.141    28 Nov 2024 04:55:48.967           772.826
                     334    28 Nov 2024 06:21:12.151    28 Nov 2024 06:31:01.476           589.325
                     335    28 Nov 2024 16:26:03.459    28 Nov 2024 16:38:01.795           718.336
                     336    28 Nov 2024 18:02:10.247    28 Nov 2024 18:14:22.704           732.457
                     337    28 Nov 2024 19:41:39.434    28 Nov 2024 19:44:35.134           175.700
                     338    29 Nov 2024 03:21:00.173    29 Nov 2024 03:30:51.904           591.731
                     339    29 Nov 2024 04:55:03.912    29 Nov 2024 05:07:58.231           774.320
                     340    29 Nov 2024 06:34:15.191    29 Nov 2024 06:42:40.090           504.898
                     341    29 Nov 2024 16:38:03.743    29 Nov 2024 16:50:29.792           746.049
                     342    29 Nov 2024 18:14:28.088    29 Nov 2024 18:26:09.781           701.693
                     343    30 Nov 2024 03:32:30.847    30 Nov 2024 03:43:17.889           647.042
                     344    30 Nov 2024 05:07:17.431    30 Nov 2024 05:20:05.111           767.681
                     345    30 Nov 2024 06:47:39.020    30 Nov 2024 06:54:02.144           383.125
                     346    30 Nov 2024 15:16:29.358    30 Nov 2024 15:22:02.459           333.101
                     347    30 Nov 2024 16:50:07.164    30 Nov 2024 17:02:51.180           764.016
                     348    30 Nov 2024 18:26:48.969    30 Nov 2024 18:37:50.287           661.318
                     349     1 Dec 2024 03:44:09.240     1 Dec 2024 03:55:39.801           690.561
                     350     1 Dec 2024 05:19:36.937     1 Dec 2024 05:32:09.389           752.452
                     351     1 Dec 2024 07:02:01.063     1 Dec 2024 07:04:30.480           149.418
                     352     1 Dec 2024 15:27:42.872     1 Dec 2024 15:35:36.145           473.273
                     353     1 Dec 2024 17:02:13.287     1 Dec 2024 17:15:06.469           773.182
                     354     1 Dec 2024 18:39:13.610     1 Dec 2024 18:49:23.423           609.814
                     355     2 Dec 2024 03:55:54.392     2 Dec 2024 04:07:58.502           724.109
                     356     2 Dec 2024 05:32:02.870     2 Dec 2024 05:44:10.680           727.810
                     357     2 Dec 2024 15:39:17.642     2 Dec 2024 15:48:44.279           566.637
                     358     2 Dec 2024 17:14:21.844     2 Dec 2024 17:27:15.961           774.117
                     359     2 Dec 2024 18:51:43.314     2 Dec 2024 19:00:47.775           544.461
                     360     3 Dec 2024 02:36:20.907     3 Dec 2024 02:41:39.774           318.867
                     361     3 Dec 2024 04:07:45.739     3 Dec 2024 04:20:14.490           748.752
                     362     3 Dec 2024 05:44:35.926     3 Dec 2024 05:56:08.378           692.452
                     363     3 Dec 2024 15:51:03.056     3 Dec 2024 16:01:37.721           634.665
                     364     3 Dec 2024 17:26:32.713     3 Dec 2024 17:39:19.779           767.066
                     365     3 Dec 2024 19:04:20.649     3 Dec 2024 19:12:00.673           460.024
                     366     4 Dec 2024 02:47:11.491     4 Dec 2024 02:54:34.816           443.325
                     367     4 Dec 2024 04:19:42.940     4 Dec 2024 04:32:28.047           765.107
                     368     4 Dec 2024 05:57:17.238     4 Dec 2024 06:08:01.469           644.231
                     369     4 Dec 2024 16:02:55.225     4 Dec 2024 16:14:20.576           685.351
                     370     4 Dec 2024 17:38:45.879     4 Dec 2024 17:51:17.937           752.058
                     371     4 Dec 2024 19:17:11.972     4 Dec 2024 19:22:55.647           343.675
                     372     5 Dec 2024 02:58:22.023     5 Dec 2024 03:07:13.859           531.836
                     373     5 Dec 2024 04:31:45.812     5 Dec 2024 04:44:39.302           773.490
                     374     5 Dec 2024 06:10:08.701     5 Dec 2024 06:19:48.218           579.517
                     375     5 Dec 2024 16:14:52.234     5 Dec 2024 16:26:54.927           722.693
                     376     5 Dec 2024 17:51:01.452     5 Dec 2024 18:03:10.276           728.824
                     377     5 Dec 2024 19:30:50.262     5 Dec 2024 19:32:59.603           129.341
                     378     6 Dec 2024 03:09:44.702     6 Dec 2024 03:19:44.607           599.905
                     379     6 Dec 2024 04:43:54.348     6 Dec 2024 04:56:48.254           773.905
                     380     6 Dec 2024 06:23:13.916     6 Dec 2024 06:31:25.220           491.303
                     381     6 Dec 2024 16:26:52.971     6 Dec 2024 16:39:21.996           749.025
                     382     6 Dec 2024 18:03:19.674     6 Dec 2024 18:14:56.503           696.829
                     383     7 Dec 2024 03:21:16.485     7 Dec 2024 03:32:09.984           653.498
                     384     7 Dec 2024 04:56:08.647     7 Dec 2024 05:08:54.806           766.159
                     385     7 Dec 2024 06:36:41.766     7 Dec 2024 06:42:43.830           362.063
                     386     7 Dec 2024 15:05:09.854     7 Dec 2024 15:11:06.461           356.607
                     387     7 Dec 2024 16:38:56.785     7 Dec 2024 16:51:42.538           765.754
                     388     7 Dec 2024 18:15:41.014     7 Dec 2024 18:26:36.076           655.062
                     389     8 Dec 2024 03:32:55.828     8 Dec 2024 03:44:31.431           695.603
                     390     8 Dec 2024 05:08:28.985     8 Dec 2024 05:20:58.712           749.727
                     391     8 Dec 2024 06:51:35.142     8 Dec 2024 06:52:41.466            66.324
                     392     8 Dec 2024 15:16:27.526     8 Dec 2024 15:24:35.387           487.861
                     393     8 Dec 2024 16:51:03.250     8 Dec 2024 17:03:57.032           773.782
                     394     8 Dec 2024 18:28:06.247     8 Dec 2024 18:38:08.124           601.877
                     395     9 Dec 2024 02:14:59.660     9 Dec 2024 02:16:54.650           114.991
                     396     9 Dec 2024 03:44:41.838     9 Dec 2024 03:56:49.749           727.911
                     397     9 Dec 2024 05:20:55.826     9 Dec 2024 05:32:59.565           723.739
                     398     9 Dec 2024 15:28:04.107     9 Dec 2024 15:37:41.162           577.055
                     399     9 Dec 2024 17:03:12.126     9 Dec 2024 17:16:05.757           773.631
                     400     9 Dec 2024 18:40:36.790     9 Dec 2024 18:49:31.127           534.337
                     401    10 Dec 2024 02:24:58.773    10 Dec 2024 02:30:37.640           338.868
                     402    10 Dec 2024 03:56:33.985    10 Dec 2024 04:09:05.403           751.418
                     403    10 Dec 2024 05:33:29.917    10 Dec 2024 05:44:56.717           686.800
                     404    10 Dec 2024 15:39:50.600    10 Dec 2024 15:50:33.003           642.403
                     405    10 Dec 2024 17:15:23.306    10 Dec 2024 17:28:08.816           765.510
                     406    10 Dec 2024 18:53:15.497    10 Dec 2024 19:00:42.135           446.638
                     407    11 Dec 2024 02:35:52.925    11 Dec 2024 02:43:29.654           456.729
                     408    11 Dec 2024 04:08:31.955    11 Dec 2024 04:21:18.644           766.689
                     409    11 Dec 2024 05:46:12.458    11 Dec 2024 05:56:49.084           636.627
                     410    11 Dec 2024 15:51:43.512    11 Dec 2024 16:03:14.614           691.102
                     411    11 Dec 2024 17:27:36.789    11 Dec 2024 17:40:06.202           749.413
                     412    11 Dec 2024 19:06:09.785    11 Dec 2024 19:11:33.603           323.819
                     413    12 Dec 2024 02:47:05.362    12 Dec 2024 02:56:07.318           541.955
                     414    12 Dec 2024 04:20:35.590    12 Dec 2024 04:33:29.594           774.005
                     415    12 Dec 2024 05:59:05.497    12 Dec 2024 06:08:34.784           569.287
                     416    12 Dec 2024 16:03:41.079    12 Dec 2024 16:15:47.929           726.850
                     417    12 Dec 2024 17:39:52.702    12 Dec 2024 17:51:57.745           725.044
                     418    12 Dec 2024 19:20:17.609    12 Dec 2024 19:21:07.479            49.870
                     419    13 Dec 2024 02:58:29.391    13 Dec 2024 03:08:37.232           607.841
                     420    13 Dec 2024 04:32:44.887    13 Dec 2024 04:45:38.237           773.350
                     421    13 Dec 2024 06:12:13.026    13 Dec 2024 06:20:10.027           477.001
                     422    13 Dec 2024 14:43:27.917    13 Dec 2024 14:45:42.281           134.364
                     423    13 Dec 2024 16:15:42.269    13 Dec 2024 16:28:14.084           751.815
                     424    13 Dec 2024 17:52:11.316    13 Dec 2024 18:03:43.110           691.794
                     425    14 Dec 2024 03:10:02.253    14 Dec 2024 03:21:02.020           659.767
                     426    14 Dec 2024 04:44:59.977    14 Dec 2024 04:57:44.455           764.478
                     427    14 Dec 2024 06:25:45.441    14 Dec 2024 06:31:24.672           339.231
                     428    14 Dec 2024 14:53:51.252    14 Dec 2024 15:00:09.489           378.237
                     429    14 Dec 2024 16:27:46.459    14 Dec 2024 16:40:33.792           767.333
                     430    14 Dec 2024 18:04:33.124    14 Dec 2024 18:15:21.731           648.607
                     431    15 Dec 2024 03:21:42.533    15 Dec 2024 03:33:23.012           700.479
                     432    15 Dec 2024 04:57:21.157    15 Dec 2024 05:09:47.980           746.823
                     433    15 Dec 2024 15:05:12.516    15 Dec 2024 15:13:34.242           501.725
                     434    15 Dec 2024 16:39:53.259    15 Dec 2024 16:52:47.499           774.240
                     435    15 Dec 2024 18:16:58.974    15 Dec 2024 18:26:52.669           593.695
                     436    16 Dec 2024 02:03:22.250    16 Dec 2024 02:06:07.322           165.072
                     437    16 Dec 2024 03:33:29.400    16 Dec 2024 03:45:40.949           731.549
                     438    16 Dec 2024 05:09:48.922    16 Dec 2024 05:21:48.388           719.466
                     439    16 Dec 2024 15:16:50.757    16 Dec 2024 15:26:37.798           587.041
                     440    16 Dec 2024 16:52:02.454    16 Dec 2024 17:04:55.454           773.000
                     441    16 Dec 2024 18:29:30.407    16 Dec 2024 18:38:14.276           523.869
                     442    17 Dec 2024 02:13:37.319    17 Dec 2024 02:19:34.910           357.590
                     443    17 Dec 2024 03:45:22.338    17 Dec 2024 03:57:56.274           753.936
                     444    17 Dec 2024 05:22:24.064    17 Dec 2024 05:33:44.968           680.904
                     445    17 Dec 2024 15:28:38.264    17 Dec 2024 15:39:28.103           649.839
                     446    17 Dec 2024 17:04:13.944    17 Dec 2024 17:16:57.753           763.809
                     447    17 Dec 2024 18:42:10.602    17 Dec 2024 18:49:23.274           432.672
                     448    18 Dec 2024 02:24:34.664    18 Dec 2024 02:32:24.270           469.606
                     449    18 Dec 2024 03:57:21.071    18 Dec 2024 04:10:09.205           768.134
                     450    18 Dec 2024 05:35:07.872    18 Dec 2024 05:45:36.576           628.704
                     451    18 Dec 2024 15:40:31.892    18 Dec 2024 15:52:08.507           696.614
                     452    18 Dec 2024 17:16:27.749    18 Dec 2024 17:28:54.368           746.618
                     453    18 Dec 2024 18:55:08.316    18 Dec 2024 19:00:10.779           302.463
                     454    19 Dec 2024 02:35:48.903    19 Dec 2024 02:45:00.655           551.753
                     455    19 Dec 2024 04:09:25.464    19 Dec 2024 04:22:19.849           774.386
                     456    19 Dec 2024 05:48:02.557    19 Dec 2024 05:57:21.163           558.606
                     457    19 Dec 2024 15:52:29.990    19 Dec 2024 16:04:40.798           730.808
                     458    19 Dec 2024 17:28:44.006    19 Dec 2024 17:40:45.097           721.091
                     459    20 Dec 2024 02:47:14.234    20 Dec 2024 02:57:29.770           615.536
                     460    20 Dec 2024 04:21:35.533    20 Dec 2024 04:34:28.178           772.645
                     461    20 Dec 2024 06:01:12.557    20 Dec 2024 06:08:54.492           461.935
                     462    20 Dec 2024 14:31:52.883    20 Dec 2024 14:35:02.285           189.402
                     463    20 Dec 2024 16:04:31.620    20 Dec 2024 16:17:06.055           754.435
                     464    20 Dec 2024 17:41:03.013    20 Dec 2024 17:52:29.597           686.584
                     465    21 Dec 2024 02:58:48.155    21 Dec 2024 03:09:53.990           665.835
                     466    21 Dec 2024 04:33:51.418    21 Dec 2024 04:46:34.054           762.636
                     467    21 Dec 2024 06:14:50.229    21 Dec 2024 06:20:04.474           314.245
                     468    21 Dec 2024 14:42:33.391    21 Dec 2024 14:49:11.694           398.303
                     469    21 Dec 2024 16:16:36.182    21 Dec 2024 16:29:24.935           768.752
                     470    21 Dec 2024 17:53:25.306    21 Dec 2024 18:04:07.250           641.944
                     471    22 Dec 2024 03:10:29.358    22 Dec 2024 03:22:14.541           705.183
                     472    22 Dec 2024 04:46:13.452    22 Dec 2024 04:58:37.190           743.737
                     473    22 Dec 2024 14:53:57.797    22 Dec 2024 15:02:32.725           514.928
                     474    22 Dec 2024 16:28:43.316    22 Dec 2024 16:41:37.857           774.541
                     475    22 Dec 2024 18:05:51.797    22 Dec 2024 18:15:37.050           585.253
                     476    23 Dec 2024 01:51:51.000    23 Dec 2024 01:55:13.908           202.908
                     477    23 Dec 2024 03:22:17.061    23 Dec 2024 03:34:32.113           735.052
                     478    23 Dec 2024 04:58:42.150    23 Dec 2024 05:10:37.131           714.981
                     479    23 Dec 2024 15:05:37.580    23 Dec 2024 15:15:34.194           596.614
                     480    23 Dec 2024 16:40:52.824    23 Dec 2024 16:53:45.049           772.225
                     481    23 Dec 2024 18:18:24.172    23 Dec 2024 18:26:57.212           513.040
                     482    24 Dec 2024 02:02:16.457    24 Dec 2024 02:08:31.666           375.209
                     483    24 Dec 2024 03:34:10.794    24 Dec 2024 03:46:47.104           756.311
                     484    24 Dec 2024 05:11:18.368    24 Dec 2024 05:22:33.131           674.763
                     485    24 Dec 2024 15:17:26.047    24 Dec 2024 15:28:23.024           656.977
                     486    24 Dec 2024 16:53:04.626    24 Dec 2024 17:05:46.588           761.962
                     487    24 Dec 2024 18:31:05.981    24 Dec 2024 18:38:04.061           418.080
                     488    25 Dec 2024 02:13:16.685    25 Dec 2024 02:21:18.676           481.990
                     489    25 Dec 2024 03:46:10.292    25 Dec 2024 03:58:59.726           769.434
                     490    25 Dec 2024 05:24:03.476    25 Dec 2024 05:34:23.944           620.468
                     491    25 Dec 2024 15:29:20.356    25 Dec 2024 15:41:02.251           701.895
                     492    25 Dec 2024 17:05:18.748    25 Dec 2024 17:17:42.427           743.679
                     493    25 Dec 2024 18:44:07.726    25 Dec 2024 18:48:46.990           279.264
                     494    26 Dec 2024 02:24:32.636    26 Dec 2024 02:33:53.868           561.233
                     495    26 Dec 2024 03:58:15.443    26 Dec 2024 04:11:10.069           774.625
                     496    26 Dec 2024 05:36:59.886    26 Dec 2024 05:46:07.335           547.449
                     497    26 Dec 2024 15:41:18.980    26 Dec 2024 15:53:33.544           734.565
                     498    26 Dec 2024 17:17:35.355    26 Dec 2024 17:29:32.347           716.992
                     499    27 Dec 2024 02:35:59.226    27 Dec 2024 02:46:22.230           623.004
                     500    27 Dec 2024 04:10:26.284    27 Dec 2024 04:23:18.075           771.791
                     501    27 Dec 2024 05:50:12.554    27 Dec 2024 05:57:38.569           446.015
                     502    27 Dec 2024 14:20:24.530    27 Dec 2024 14:24:15.536           231.006
                     503    27 Dec 2024 15:53:21.030    27 Dec 2024 16:05:57.912           756.882
                     504    27 Dec 2024 17:29:54.771    27 Dec 2024 17:41:15.966           681.195
                     505    28 Dec 2024 02:47:34.192    28 Dec 2024 02:58:45.904           671.712
                     506    28 Dec 2024 04:22:42.972    28 Dec 2024 04:35:23.605           760.632
                     507    28 Dec 2024 06:03:56.422    28 Dec 2024 06:08:42.962           286.540
                     508    28 Dec 2024 14:31:16.165    28 Dec 2024 14:38:13.194           417.028
                     509    28 Dec 2024 16:05:25.956    28 Dec 2024 16:18:15.971           770.015
                     510    28 Dec 2024 17:42:17.565    28 Dec 2024 17:52:52.633           635.068
                     511    29 Dec 2024 02:59:16.301    29 Dec 2024 03:11:06.020           709.719
                     512    29 Dec 2024 04:35:05.868    29 Dec 2024 04:47:26.341           740.473
                     513    29 Dec 2024 14:42:43.353    29 Dec 2024 14:51:30.868           527.514
                     514    29 Dec 2024 16:17:33.418    29 Dec 2024 16:30:28.114           774.695
                     515    29 Dec 2024 17:54:44.723    29 Dec 2024 18:04:21.262           576.540
                     516    30 Dec 2024 01:40:22.914    30 Dec 2024 01:44:17.416           234.502
                     517    30 Dec 2024 03:11:04.836    30 Dec 2024 03:23:23.226           738.390
                     518    30 Dec 2024 04:47:35.520    30 Dec 2024 04:59:25.805           710.285
                     519    30 Dec 2024 14:54:24.562    30 Dec 2024 15:04:30.369           605.807
                     520    30 Dec 2024 16:29:43.237    30 Dec 2024 16:42:34.545           771.308
                     521    30 Dec 2024 18:07:18.087    30 Dec 2024 18:15:39.917           501.830
                     522    31 Dec 2024 01:50:56.109    31 Dec 2024 01:57:27.985           391.876
                     523    31 Dec 2024 03:22:59.355    31 Dec 2024 03:35:37.896           758.541
                     524    31 Dec 2024 05:00:12.839    31 Dec 2024 05:11:21.195           668.357
                     525    31 Dec 2024 15:06:13.942    31 Dec 2024 15:17:17.771           663.830
                     526    31 Dec 2024 16:41:55.346    31 Dec 2024 16:54:35.322           759.976
                     527    31 Dec 2024 18:20:01.674    31 Dec 2024 18:26:44.463           402.789
                     528     1 Jan 2025 02:01:58.969     1 Jan 2025 02:10:12.887           493.918
                     529     1 Jan 2025 03:34:59.618     1 Jan 2025 03:47:50.212           770.594
                     530     1 Jan 2025 05:12:59.293     1 Jan 2025 05:23:11.173           611.881
                     531     1 Jan 2025 15:18:08.898     1 Jan 2025 15:29:55.856           706.958
                     532     1 Jan 2025 16:54:09.790     1 Jan 2025 17:06:30.378           740.589
                     533     1 Jan 2025 18:33:08.272     1 Jan 2025 18:37:21.998           253.726
                     534     2 Jan 2025 02:13:16.551     2 Jan 2025 02:22:46.976           570.425
                     535     2 Jan 2025 03:47:05.530     2 Jan 2025 04:00:00.243           774.713
                     536     2 Jan 2025 05:25:57.505     2 Jan 2025 05:34:53.298           535.793
                     537     2 Jan 2025 15:30:08.028     2 Jan 2025 15:42:26.167           738.139
                     538     2 Jan 2025 17:06:26.752     2 Jan 2025 17:18:19.482           712.730
                     539     3 Jan 2025 02:24:44.368     3 Jan 2025 02:35:14.609           630.241
                     540     3 Jan 2025 03:59:17.140     3 Jan 2025 04:12:07.926           770.787
                     541     3 Jan 2025 05:39:13.058     3 Jan 2025 05:46:22.211           429.152
                     542     3 Jan 2025 14:08:59.649     3 Jan 2025 14:13:25.231           265.582
                     543     3 Jan 2025 15:42:10.492     3 Jan 2025 15:54:49.651           759.158
                     544     3 Jan 2025 17:18:46.580     3 Jan 2025 17:30:02.210           675.630
                     545     4 Jan 2025 02:36:20.350     4 Jan 2025 02:47:37.756           677.406
                     546     4 Jan 2025 04:11:34.638     4 Jan 2025 04:24:13.102           758.464
                     547     4 Jan 2025 05:53:04.454     4 Jan 2025 05:57:19.686           255.232
                     548     4 Jan 2025 14:19:59.483     4 Jan 2025 14:27:14.075           434.592
                     549     4 Jan 2025 15:54:15.776     4 Jan 2025 16:07:06.896           771.120
                     550     4 Jan 2025 17:31:09.887     4 Jan 2025 17:41:37.873           627.986
                     551     5 Jan 2025 02:48:03.356     5 Jan 2025 02:59:57.451           714.095
                     552     5 Jan 2025 04:23:58.402     5 Jan 2025 04:36:15.433           737.030
                     553     5 Jan 2025 14:31:29.159     5 Jan 2025 14:40:28.688           539.529
                     554     5 Jan 2025 16:06:23.562     5 Jan 2025 16:19:18.266           774.703
                     555     5 Jan 2025 17:43:37.748     5 Jan 2025 17:53:05.301           567.553
                     556     6 Jan 2025 01:28:56.863     6 Jan 2025 01:33:18.964           262.101
                     557     6 Jan 2025 02:59:52.715     6 Jan 2025 03:12:14.299           741.584
                     558     6 Jan 2025 04:36:29.026     6 Jan 2025 04:48:14.400           705.374
                     559     6 Jan 2025 14:43:11.696     6 Jan 2025 14:53:26.321           614.625
                     560     6 Jan 2025 16:18:33.689     6 Jan 2025 16:31:23.937           770.248
                     561     6 Jan 2025 17:56:12.171     6 Jan 2025 18:04:22.381           490.210
                     562     7 Jan 2025 01:39:36.216     7 Jan 2025 01:46:23.921           407.704
                     563     7 Jan 2025 03:11:48.017     7 Jan 2025 03:24:28.640           760.623
                     564     7 Jan 2025 04:49:07.470     7 Jan 2025 05:00:09.155           661.685
                     565     7 Jan 2025 14:55:01.940     7 Jan 2025 15:06:12.347           670.407
                     566     7 Jan 2025 16:30:46.108     7 Jan 2025 16:43:23.953           757.845
                     567     7 Jan 2025 18:08:57.713     7 Jan 2025 18:15:24.440           386.727
                     568     8 Jan 2025 01:50:41.509     8 Jan 2025 01:59:06.924           505.415
                     569     8 Jan 2025 03:23:49.040     8 Jan 2025 03:36:40.653           771.613
                     570     8 Jan 2025 05:01:55.317     8 Jan 2025 05:11:58.251           602.933
                     571     8 Jan 2025 15:06:57.523     8 Jan 2025 15:18:49.315           711.793
                     572     8 Jan 2025 16:43:00.875     8 Jan 2025 16:55:18.225           737.350
                     573     8 Jan 2025 18:22:10.340     8 Jan 2025 18:25:55.403           225.063
                     574     9 Jan 2025 02:02:00.646     9 Jan 2025 02:11:39.970           579.324
                     575     9 Jan 2025 03:35:55.712     9 Jan 2025 03:48:50.373           774.662
                     576     9 Jan 2025 05:14:55.427     9 Jan 2025 05:23:39.014           523.587
                     577     9 Jan 2025 15:18:57.142     9 Jan 2025 15:31:18.665           741.523
                     578     9 Jan 2025 16:55:18.192     9 Jan 2025 17:07:06.503           708.311
                     579    10 Jan 2025 02:13:29.647    10 Jan 2025 02:24:06.918           637.271
                     580    10 Jan 2025 03:48:08.100    10 Jan 2025 04:00:57.731           769.631
                     581    10 Jan 2025 05:28:14.133    10 Jan 2025 05:35:05.354           411.221
                     582    10 Jan 2025 13:57:37.008    10 Jan 2025 14:02:32.604           295.596
                     583    10 Jan 2025 15:31:00.009    10 Jan 2025 15:43:41.281           761.272
                     584    10 Jan 2025 17:07:38.450    10 Jan 2025 17:18:48.331           669.881
                     585    11 Jan 2025 02:25:06.632    11 Jan 2025 02:36:29.552           682.920
                     586    11 Jan 2025 04:00:26.421    11 Jan 2025 04:13:02.547           756.125
                     587    11 Jan 2025 05:42:15.109    11 Jan 2025 05:45:53.865           218.756
                     588    11 Jan 2025 14:08:43.279    11 Jan 2025 14:16:14.408           451.129
                     589    11 Jan 2025 15:43:05.644    11 Jan 2025 15:55:57.720           772.076
                     590    11 Jan 2025 17:20:02.290    11 Jan 2025 17:30:22.971           620.680
                     591    12 Jan 2025 02:36:50.525    12 Jan 2025 02:48:48.836           718.311
                     592    12 Jan 2025 04:12:51.066    12 Jan 2025 04:25:04.460           733.394
                     593    12 Jan 2025 14:20:15.196    12 Jan 2025 14:29:26.210           551.015
                     594    12 Jan 2025 15:55:13.750    12 Jan 2025 16:08:08.317           774.567
                     595    12 Jan 2025 17:32:30.877    12 Jan 2025 17:41:49.163           558.286
                     596    13 Jan 2025 01:17:32.273    13 Jan 2025 01:22:19.130           286.857
                     597    13 Jan 2025 02:48:40.703    13 Jan 2025 03:01:05.331           744.629
                     598    13 Jan 2025 04:25:22.675    13 Jan 2025 04:37:02.917           700.243
                     599    13 Jan 2025 14:31:58.974    13 Jan 2025 14:42:22.068           623.094
                     600    13 Jan 2025 16:07:24.185    13 Jan 2025 16:20:13.229           769.044
                     601    13 Jan 2025 17:45:06.437    13 Jan 2025 17:53:04.592           478.155
