idealorbit/Satellite-Cubesat-To-Place-UMaine_Access.txt

                                                                              12 Jul 2021 13:31:38
FOR UNFUNDED EDUCATIONAL USE ONLY
Satellite-Cubesat-To-Place-UMaine:  Access Summary Report


Cubesat-To-UMaine
-----------------
                  Access        Start Time (UTCG)           Stop Time (UTCG)        Duration (sec)
                  ------    ------------------------    ------------------------    --------------
                       1     1 Nov 2024 17:22:21.019     1 Nov 2024 17:34:45.301           744.281
                       2     1 Nov 2024 18:58:42.522     1 Nov 2024 19:10:32.722           710.200
                       3     2 Nov 2024 04:17:24.286     2 Nov 2024 04:28:17.136           652.850
                       4     2 Nov 2024 05:52:13.807     2 Nov 2024 06:05:02.251           768.444
                       5     2 Nov 2024 07:32:22.370     2 Nov 2024 07:39:13.256           410.885
                       6     2 Nov 2024 16:00:39.850     2 Nov 2024 16:06:20.191           340.341
                       7     2 Nov 2024 17:34:24.514     2 Nov 2024 17:47:07.300           762.785
                       8     2 Nov 2024 19:11:02.028     2 Nov 2024 19:22:15.327           673.299
                       9     3 Nov 2024 04:29:03.838     3 Nov 2024 04:40:38.050           694.213
                      10     3 Nov 2024 06:04:32.983     3 Nov 2024 06:17:06.976           753.994
                      11     3 Nov 2024 07:46:20.604     3 Nov 2024 07:50:05.508           224.904
                      12     3 Nov 2024 16:11:56.423     3 Nov 2024 16:19:51.655           475.232
                      13     3 Nov 2024 17:46:30.559     3 Nov 2024 17:59:23.329           772.770
                      14     3 Nov 2024 19:23:24.781     3 Nov 2024 19:33:51.120           626.339
                      15     4 Nov 2024 03:10:42.881     4 Nov 2024 03:13:27.323           164.442
                      16     4 Nov 2024 04:40:49.806     4 Nov 2024 04:52:56.062           726.256
                      17     4 Nov 2024 06:16:58.366     4 Nov 2024 06:29:08.944           730.579
                      18     4 Nov 2024 16:23:32.726     4 Nov 2024 16:32:59.075           566.350
                      19     4 Nov 2024 17:58:38.893     4 Nov 2024 18:11:33.694           774.801
                      20     4 Nov 2024 19:35:51.763     4 Nov 2024 19:45:19.028           567.265
                      21     5 Nov 2024 03:20:59.880     5 Nov 2024 03:26:52.357           352.478
                      22     5 Nov 2024 04:52:41.717     5 Nov 2024 05:05:11.607           749.890
                      23     5 Nov 2024 06:29:30.589     5 Nov 2024 06:41:07.618           697.030
                      24     5 Nov 2024 16:35:19.097     5 Nov 2024 16:45:52.351           633.254
                      25     5 Nov 2024 18:10:49.378     5 Nov 2024 18:23:38.548           769.170
                      26     5 Nov 2024 19:48:24.801     5 Nov 2024 19:56:37.135           492.334
                      27     6 Nov 2024 03:31:57.634     6 Nov 2024 03:39:40.608           462.974
                      28     6 Nov 2024 05:04:39.261     6 Nov 2024 05:17:24.911           765.650
                      29     6 Nov 2024 06:42:10.657     6 Nov 2024 06:53:02.097           651.440
                      30     6 Nov 2024 16:47:11.892     6 Nov 2024 16:58:35.330           683.438
                      31     6 Nov 2024 18:23:01.977     6 Nov 2024 18:35:37.924           755.947
                      32     6 Nov 2024 20:01:07.909     6 Nov 2024 20:07:41.334           393.425
                      33     7 Nov 2024 03:43:11.803     7 Nov 2024 03:52:16.329           544.526
                      34     7 Nov 2024 05:16:42.313     7 Nov 2024 05:29:36.094           773.782
                      35     7 Nov 2024 06:55:00.231     7 Nov 2024 07:04:50.883           590.652
                      36     7 Nov 2024 16:59:09.295     7 Nov 2024 17:11:10.017           720.722
                      37     7 Nov 2024 18:35:16.771     7 Nov 2024 18:47:31.709           734.938
                      38     7 Nov 2024 20:14:14.065     7 Nov 2024 20:18:18.550           244.485
                      39     8 Nov 2024 03:54:36.761     8 Nov 2024 04:04:45.036           608.275
                      40     8 Nov 2024 05:28:50.847     8 Nov 2024 05:41:45.152           774.305
                      41     8 Nov 2024 07:08:02.331     8 Nov 2024 07:16:31.148           508.817
                      42     8 Nov 2024 15:39:10.928     8 Nov 2024 15:40:41.652            90.724
                      43     8 Nov 2024 17:11:10.248     8 Nov 2024 17:23:37.573           747.326
                      44     8 Nov 2024 18:47:33.942     8 Nov 2024 18:59:19.682           705.740
                      45     9 Nov 2024 04:06:10.101     9 Nov 2024 04:17:09.044           658.942
                      46     9 Nov 2024 05:41:04.975     9 Nov 2024 05:53:51.984           767.009
                      47     9 Nov 2024 07:21:23.837     9 Nov 2024 07:27:56.233           392.395
                      48     9 Nov 2024 15:49:20.878     9 Nov 2024 15:55:23.725           362.847
                      49     9 Nov 2024 17:23:14.108     9 Nov 2024 17:35:58.743           764.634
                      50     9 Nov 2024 18:59:53.853     9 Nov 2024 19:11:01.407           667.553
                      51    10 Nov 2024 04:17:50.549    10 Nov 2024 04:29:29.541           698.992
                      52    10 Nov 2024 05:53:24.959    10 Nov 2024 06:05:56.374           751.415
                      53    10 Nov 2024 07:35:33.865    10 Nov 2024 07:38:37.320           183.454
                      54    10 Nov 2024 16:00:41.284    10 Nov 2024 16:08:50.762           489.478
                      55    10 Nov 2024 17:35:20.484    10 Nov 2024 17:48:13.990           773.506
                      56    10 Nov 2024 19:12:17.119    10 Nov 2024 19:22:36.213           619.094
                      57    11 Nov 2024 02:59:12.300    11 Nov 2024 03:02:33.115           200.815
                      58    11 Nov 2024 04:29:37.335    11 Nov 2024 04:41:47.214           729.880
                      59    11 Nov 2024 06:05:51.211    11 Nov 2024 06:17:57.945           726.735
                      60    11 Nov 2024 16:12:19.301    11 Nov 2024 16:21:55.909           576.608
                      61    11 Nov 2024 17:47:29.116    11 Nov 2024 18:00:23.610           774.494
                      62    11 Nov 2024 19:24:44.789    11 Nov 2024 19:34:02.938           558.149
                      63    12 Nov 2024 03:09:39.168    12 Nov 2024 03:15:48.829           369.661
                      64    12 Nov 2024 04:41:30.009    12 Nov 2024 04:54:02.454           752.445
                      65    12 Nov 2024 06:18:24.418    12 Nov 2024 06:29:56.123           691.705
                      66    12 Nov 2024 16:24:06.704    12 Nov 2024 16:34:47.630           640.925
                      67    12 Nov 2024 17:59:39.896    12 Nov 2024 18:12:27.727           767.832
                      68    12 Nov 2024 19:37:18.891    12 Nov 2024 19:45:19.481           480.590
                      69    13 Nov 2024 03:20:39.696    13 Nov 2024 03:28:34.831           475.135
                      70    13 Nov 2024 04:53:28.304    13 Nov 2024 05:06:15.476           767.172
                      71    13 Nov 2024 06:31:05.646    13 Nov 2024 06:41:49.949           644.303
                      72    13 Nov 2024 16:36:00.213    13 Nov 2024 16:47:29.404           689.191
                      73    13 Nov 2024 18:11:52.789    13 Nov 2024 18:24:26.355           753.566
                      74    13 Nov 2024 19:50:03.964    13 Nov 2024 19:56:21.187           377.223
                      75    14 Nov 2024 03:31:55.516    14 Nov 2024 03:41:09.418           553.902
                      76    14 Nov 2024 05:05:32.086    14 Nov 2024 05:18:26.382           774.296
                      77    14 Nov 2024 06:43:56.677    14 Nov 2024 06:53:37.812           581.135
                      78    14 Nov 2024 16:47:58.153    14 Nov 2024 17:00:03.066           724.913
                      79    14 Nov 2024 18:24:07.898    14 Nov 2024 18:36:19.373           731.475
                      80    14 Nov 2024 20:03:16.354    14 Nov 2024 20:06:51.634           215.280
                      81    15 Nov 2024 03:43:21.695    15 Nov 2024 03:53:37.409           615.713
                      82    15 Nov 2024 05:17:41.362    15 Nov 2024 05:30:35.157           773.794
                      83    15 Nov 2024 06:57:00.822    15 Nov 2024 07:05:16.587           495.765
                      84    15 Nov 2024 15:27:28.416    15 Nov 2024 15:30:09.283           160.867
                      85    15 Nov 2024 16:59:59.532    15 Nov 2024 17:12:29.729           750.197
                      86    15 Nov 2024 18:36:25.418    15 Nov 2024 18:48:06.534           701.116
                      87    16 Nov 2024 03:54:56.044    16 Nov 2024 04:06:00.901           664.857
                      88    16 Nov 2024 05:29:56.257    16 Nov 2024 05:42:41.681           765.425
                      89    16 Nov 2024 07:10:25.999    16 Nov 2024 07:16:38.600           372.601
                      90    16 Nov 2024 15:38:02.730    16 Nov 2024 15:44:26.369           383.638
                      91    16 Nov 2024 17:12:03.761    16 Nov 2024 17:24:50.079           766.318
                      92    16 Nov 2024 18:48:45.745    16 Nov 2024 18:59:47.371           661.626
                      93    17 Nov 2024 04:06:37.373    17 Nov 2024 04:18:20.999           703.626
                      94    17 Nov 2024 05:42:17.049    17 Nov 2024 05:54:45.722           748.673
                      95    17 Nov 2024 07:24:54.094    17 Nov 2024 07:27:02.256           128.163
                      96    17 Nov 2024 15:49:26.464    17 Nov 2024 15:57:49.499           503.035
                      97    17 Nov 2024 17:24:10.459    17 Nov 2024 17:37:04.555           774.096
                      98    17 Nov 2024 19:01:09.538    17 Nov 2024 19:11:21.168           611.630
                      99    18 Nov 2024 02:47:44.681    18 Nov 2024 02:51:36.034           231.353
                     100    18 Nov 2024 04:18:24.973    18 Nov 2024 04:30:38.331           733.358
                     101    18 Nov 2024 05:54:44.191    18 Nov 2024 06:06:46.887           722.696
                     102    18 Nov 2024 16:01:06.060    18 Nov 2024 16:10:52.514           586.453
                     103    18 Nov 2024 17:36:19.389    18 Nov 2024 17:49:13.429           774.040
                     104    18 Nov 2024 19:13:37.935    18 Nov 2024 19:22:46.670           548.735
                     105    19 Nov 2024 02:58:18.948    19 Nov 2024 03:04:44.887           385.939
                     106    19 Nov 2024 04:30:18.412    19 Nov 2024 04:42:53.270           754.858
                     107    19 Nov 2024 06:07:18.400    19 Nov 2024 06:18:44.551           686.151
                     108    19 Nov 2024 16:12:54.432    19 Nov 2024 16:23:42.739           648.307
                     109    19 Nov 2024 17:48:30.459    19 Nov 2024 18:01:16.806           766.347
                     110    19 Nov 2024 19:26:13.168    19 Nov 2024 19:34:01.566           468.398
                     111    20 Nov 2024 03:09:22.016    20 Nov 2024 03:17:28.877           486.860
                     112    20 Nov 2024 04:42:17.446    20 Nov 2024 04:55:06.014           768.569
                     113    20 Nov 2024 06:20:00.815    20 Nov 2024 06:30:37.706           636.891
                     114    20 Nov 2024 16:24:48.623    20 Nov 2024 16:36:23.330           694.707
                     115    20 Nov 2024 18:00:43.647    20 Nov 2024 18:13:14.690           751.043
                     116    20 Nov 2024 19:39:00.437    20 Nov 2024 19:45:00.558           360.121
                     117    21 Nov 2024 03:20:39.410    21 Nov 2024 03:30:02.402           562.992
                     118    21 Nov 2024 04:54:21.958    21 Nov 2024 05:07:16.642           774.684
                     119    21 Nov 2024 06:32:53.356    21 Nov 2024 06:42:24.586           571.230
                     120    21 Nov 2024 16:36:47.076    21 Nov 2024 16:48:55.993           728.917
                     121    21 Nov 2024 18:12:59.071    21 Nov 2024 18:25:06.937           727.866
                     122    21 Nov 2024 19:52:21.073    21 Nov 2024 19:55:22.219           181.146
                     123    22 Nov 2024 03:32:06.775    22 Nov 2024 03:42:29.707           622.932
                     124    22 Nov 2024 05:06:31.981    22 Nov 2024 05:19:25.124           773.143
                     125    22 Nov 2024 06:45:59.684    22 Nov 2024 06:54:01.745           482.061
                     126    22 Nov 2024 15:15:57.426    22 Nov 2024 15:19:25.323           207.897
                     127    22 Nov 2024 16:48:48.878    22 Nov 2024 17:01:21.769           752.891
                     128    22 Nov 2024 18:25:16.951    22 Nov 2024 18:36:53.275           696.324
                     129    23 Nov 2024 03:43:42.111    23 Nov 2024 03:54:52.702           670.590
                     130    23 Nov 2024 05:18:47.651    23 Nov 2024 05:31:31.337           763.686
                     131    23 Nov 2024 06:59:28.967    23 Nov 2024 07:05:20.245           351.278
                     132    23 Nov 2024 15:26:45.265    23 Nov 2024 15:33:28.253           402.987
                     133    23 Nov 2024 17:00:53.462    23 Nov 2024 17:13:41.306           767.844
                     134    23 Nov 2024 18:37:37.702    23 Nov 2024 18:48:33.213           655.511
                     135    24 Nov 2024 03:55:24.312    24 Nov 2024 04:07:12.410           708.098
                     136    24 Nov 2024 05:31:09.261    24 Nov 2024 05:43:35.024           745.763
                     137    24 Nov 2024 15:38:11.923    24 Nov 2024 15:46:47.874           515.951
                     138    24 Nov 2024 17:13:00.477    24 Nov 2024 17:25:55.019           774.541
                     139    24 Nov 2024 18:50:02.037    24 Nov 2024 19:00:05.977           603.940
                     140    25 Nov 2024 02:36:18.980    25 Nov 2024 02:40:37.113           258.132
                     141    25 Nov 2024 04:07:12.715    25 Nov 2024 04:19:29.411           736.696
                     142    25 Nov 2024 05:43:37.301    25 Nov 2024 05:55:35.766           718.465
                     143    25 Nov 2024 15:49:52.982    25 Nov 2024 15:59:48.884           595.902
                     144    25 Nov 2024 17:25:09.703    25 Nov 2024 17:38:03.150           773.447
                     145    25 Nov 2024 19:02:31.197    25 Nov 2024 19:11:30.217           539.019
                     146    26 Nov 2024 02:46:59.161    26 Nov 2024 02:53:40.587           401.426
                     147    26 Nov 2024 04:19:06.914    26 Nov 2024 04:31:44.051           757.137
                     148    26 Nov 2024 05:56:12.532    26 Nov 2024 06:07:32.903           680.371
                     149    26 Nov 2024 16:01:42.276    26 Nov 2024 16:12:37.671           655.395
                     150    26 Nov 2024 17:37:21.062    26 Nov 2024 17:50:05.792           764.730
                     151    26 Nov 2024 19:15:07.644    26 Nov 2024 19:22:43.391           455.747
                     152    27 Nov 2024 02:58:04.581    27 Nov 2024 03:06:22.765           498.185
                     153    27 Nov 2024 04:31:06.685    27 Nov 2024 04:43:56.510           769.825
                     154    27 Nov 2024 06:08:56.169    27 Nov 2024 06:19:25.342           629.173
                     155    27 Nov 2024 16:13:37.120    27 Nov 2024 16:25:17.114           699.994
                     156    27 Nov 2024 17:49:34.547    27 Nov 2024 18:02:02.922           748.375
                     157    27 Nov 2024 19:27:57.382    27 Nov 2024 19:33:39.388           342.006
                     158    28 Nov 2024 03:09:23.478    28 Nov 2024 03:18:55.296           571.817
                     159    28 Nov 2024 04:43:11.939    28 Nov 2024 04:56:06.859           774.920
                     160    28 Nov 2024 06:21:50.284    28 Nov 2024 06:31:11.190           560.906
                     161    28 Nov 2024 16:25:36.078    28 Nov 2024 16:37:48.800           732.722
                     162    28 Nov 2024 18:01:50.290    28 Nov 2024 18:13:54.400           724.110
                     163    28 Nov 2024 19:41:30.003    28 Nov 2024 19:43:48.527           138.525
                     164    29 Nov 2024 03:20:51.995    29 Nov 2024 03:31:21.947           629.952
                     165    29 Nov 2024 04:55:22.706    29 Nov 2024 05:08:15.055           772.349
                     166    29 Nov 2024 06:34:58.937    29 Nov 2024 06:42:46.587           467.650
                     167    29 Nov 2024 15:04:31.136    29 Nov 2024 15:08:36.588           245.452
                     168    29 Nov 2024 16:37:38.283    29 Nov 2024 16:50:13.706           755.423
                     169    29 Nov 2024 18:14:08.528    29 Nov 2024 18:25:39.906           691.378
                     170    30 Nov 2024 03:32:28.302    30 Nov 2024 03:43:44.461           676.159
                     171    30 Nov 2024 05:07:39.153    30 Nov 2024 05:20:20.955           761.802
                     172    30 Nov 2024 06:48:32.897    30 Nov 2024 06:54:01.017           328.120
                     173    30 Nov 2024 15:15:28.391    30 Nov 2024 15:22:29.490           421.098
                     174    30 Nov 2024 16:49:43.219    30 Nov 2024 17:02:32.441           769.222
                     175    30 Nov 2024 18:26:29.719    30 Nov 2024 18:37:18.935           649.217
                     176     1 Dec 2024 03:44:11.365     1 Dec 2024 03:56:03.782           712.417
                     177     1 Dec 2024 05:20:01.593     1 Dec 2024 05:32:24.274           742.681
                     178     1 Dec 2024 15:26:57.651     1 Dec 2024 15:35:45.931           528.280

Global Statistics
-----------------
Min Duration          42     8 Nov 2024 15:39:10.928     8 Nov 2024 15:40:41.652            90.724
Max Duration         159    28 Nov 2024 04:43:11.939    28 Nov 2024 04:56:06.859           774.920
Mean Duration                                                                              604.409
Total Duration                                                                          107584.767
