idealorbit/Satellite-Cubesat-To-Place-SSU_Access.txt

                                                                              29 Jul 2021 11:18:45
FOR UNFUNDED EDUCATIONAL USE ONLY
Satellite-Cubesat-To-Place-SSU:  Access Summary Report


Cubesat-To-SSU
--------------
                  Access        Start Time (UTCG)           Stop Time (UTCG)        Duration (sec)
                  ------    ------------------------    ------------------------    --------------
                       1     1 Oct 2024 20:48:30.086     1 Oct 2024 20:54:47.194           377.108
                       2     1 Oct 2024 22:22:09.808     1 Oct 2024 22:35:00.736           770.928
                       3     1 Oct 2024 23:59:23.837     2 Oct 2024 00:09:00.592           576.755
                       4     2 Oct 2024 09:13:21.686     2 Oct 2024 09:24:53.134           691.448
                       5     2 Oct 2024 10:49:00.437     2 Oct 2024 11:01:16.076           735.639
                       6     2 Oct 2024 20:59:44.545     2 Oct 2024 21:08:14.187           509.642
                       7     2 Oct 2024 22:34:17.603     2 Oct 2024 22:47:10.362           772.759
                       8     3 Oct 2024 00:12:02.667     3 Oct 2024 00:20:15.129           492.463
                       9     3 Oct 2024 09:25:06.198     3 Oct 2024 09:37:13.303           727.105
                      10     3 Oct 2024 11:01:31.562     3 Oct 2024 11:13:12.446           700.885
                      11     3 Oct 2024 21:11:18.838     3 Oct 2024 21:21:17.400           598.562
                      12     3 Oct 2024 22:46:28.474     3 Oct 2024 22:59:13.644           765.170
                      13     4 Oct 2024 00:24:56.306     4 Oct 2024 00:31:10.839           374.533
                      14     4 Oct 2024 08:06:20.831     4 Oct 2024 08:10:02.494           221.663
                      15     4 Oct 2024 09:36:57.756     4 Oct 2024 09:49:29.874           752.118
                      16     4 Oct 2024 11:14:11.621     4 Oct 2024 11:25:03.320           651.699
                      17     4 Oct 2024 21:23:03.818     4 Oct 2024 21:34:06.219           662.401
                      18     4 Oct 2024 22:58:42.432     4 Oct 2024 23:11:10.543           748.111
                      19     5 Oct 2024 00:38:34.782     5 Oct 2024 00:41:17.496           162.713
                      20     5 Oct 2024 08:16:44.188     5 Oct 2024 08:23:25.084           400.897
                      21     5 Oct 2024 09:48:55.886     5 Oct 2024 10:01:43.230           767.344
                      22     5 Oct 2024 11:27:02.806     5 Oct 2024 11:36:46.641           583.835
                      23     5 Oct 2024 21:34:55.857     5 Oct 2024 21:46:44.433           708.575
                      24     5 Oct 2024 23:10:59.667     5 Oct 2024 23:23:00.785           721.118
                      25     6 Oct 2024 08:27:44.426     6 Oct 2024 08:36:14.961           510.534
                      26     6 Oct 2024 10:01:00.377     6 Oct 2024 10:13:53.529           773.152
                      27     6 Oct 2024 11:40:09.505     6 Oct 2024 11:48:18.204           488.699
                      28     6 Oct 2024 21:46:53.124     6 Oct 2024 21:59:14.014           740.889
                      29     6 Oct 2024 23:23:20.610     6 Oct 2024 23:34:43.862           683.252
                      30     7 Oct 2024 08:39:01.638     7 Oct 2024 08:48:51.875           590.237
                      31     7 Oct 2024 10:13:11.231     7 Oct 2024 10:26:00.728           769.496
                      32     7 Oct 2024 11:53:43.509     7 Oct 2024 11:59:26.469           342.960
                      33     7 Oct 2024 20:26:49.578     7 Oct 2024 20:29:26.173           156.595
                      34     7 Oct 2024 21:58:54.571     7 Oct 2024 22:11:36.084           761.513
                      35     7 Oct 2024 23:35:46.063     7 Oct 2024 23:46:18.853           632.789
                      36     8 Oct 2024 08:50:30.348     8 Oct 2024 09:01:21.102           650.755
                      37     8 Oct 2024 10:25:28.640     8 Oct 2024 10:38:04.631           755.992
                      38     8 Oct 2024 20:37:10.859     8 Oct 2024 20:43:50.001           399.142
                      39     8 Oct 2024 22:10:59.581     8 Oct 2024 22:23:51.322           771.742
                      40     8 Oct 2024 23:48:17.479     8 Oct 2024 23:57:44.160           566.682
                      41     9 Oct 2024 09:02:08.108     9 Oct 2024 09:13:44.958           696.850
                      42     9 Oct 2024 10:37:53.064     9 Oct 2024 10:50:04.815           731.752
                      43     9 Oct 2024 20:48:29.067     9 Oct 2024 20:57:12.706           523.639
                      44     9 Oct 2024 22:23:07.806     9 Oct 2024 22:36:00.090           772.283
                      45    10 Oct 2024 00:00:57.806    10 Oct 2024 00:08:56.679           478.873
                      46    10 Oct 2024 09:13:53.599    10 Oct 2024 09:26:04.624           731.024
                      47    10 Oct 2024 10:50:25.296    10 Oct 2024 11:02:00.544           695.248
                      48    10 Oct 2024 21:00:05.154    10 Oct 2024 21:10:13.627           608.473
                      49    10 Oct 2024 22:35:19.098    10 Oct 2024 22:48:02.518           763.420
                      50    11 Oct 2024 00:13:54.543    11 Oct 2024 00:19:48.742           354.199
                      51    11 Oct 2024 07:54:52.427    11 Oct 2024 07:59:06.558           254.132
                      52    11 Oct 2024 09:25:46.058    11 Oct 2024 09:38:20.758           754.699
                      53    11 Oct 2024 11:03:06.685    11 Oct 2024 11:13:50.567           643.882
                      54    11 Oct 2024 21:11:51.256    11 Oct 2024 21:23:00.854           669.598
                      55    11 Oct 2024 22:47:33.492    11 Oct 2024 22:59:58.540           745.049
                      56    12 Oct 2024 00:27:53.598    12 Oct 2024 00:29:34.243           100.645
                      57    12 Oct 2024 08:05:23.790    12 Oct 2024 08:12:21.719           417.929
                      58    12 Oct 2024 09:37:45.045    12 Oct 2024 09:50:33.713           768.669
                      59    12 Oct 2024 11:15:59.616    12 Oct 2024 11:25:32.648           573.032
                      60    12 Oct 2024 21:23:44.095    12 Oct 2024 21:35:37.814           713.719
                      61    12 Oct 2024 22:59:51.203    12 Oct 2024 23:11:47.852           716.649
                      62    13 Oct 2024 08:16:26.839    13 Oct 2024 08:25:09.343           522.504
                      63    13 Oct 2024 09:49:50.387    13 Oct 2024 10:02:43.604           773.216
                      64    13 Oct 2024 11:29:08.977    13 Oct 2024 11:37:02.081           473.104
                      65    13 Oct 2024 21:35:41.985    13 Oct 2024 21:48:06.327           744.342
                      66    13 Oct 2024 23:12:12.708    13 Oct 2024 23:23:29.901           677.193
                      67    14 Oct 2024 08:27:45.790    14 Oct 2024 08:37:45.038           599.248
                      68    14 Oct 2024 10:02:02.103    14 Oct 2024 10:14:50.390           768.286
                      69    14 Oct 2024 11:42:48.834    14 Oct 2024 11:48:05.052           316.217
                      70    14 Oct 2024 20:15:15.019    14 Oct 2024 20:18:44.824           209.806
                      71    14 Oct 2024 21:47:43.951    14 Oct 2024 22:00:27.446           763.496
                      72    14 Oct 2024 23:24:38.867    14 Oct 2024 23:35:03.700           624.833
                      73    15 Oct 2024 08:39:15.816    15 Oct 2024 08:50:13.465           657.648
                      74    15 Oct 2024 10:14:20.419    15 Oct 2024 10:26:53.834           753.415
                      75    15 Oct 2024 20:25:52.406    15 Oct 2024 20:32:51.978           419.572
                      76    15 Oct 2024 21:59:49.419    15 Oct 2024 22:12:41.798           772.380
                      77    15 Oct 2024 23:37:11.282    15 Oct 2024 23:46:27.507           556.225
                      78    16 Oct 2024 08:50:54.671    16 Oct 2024 09:02:36.718           702.047
                      79    16 Oct 2024 10:26:45.834    16 Oct 2024 10:38:53.483           727.649
                      80    16 Oct 2024 20:37:13.912    16 Oct 2024 20:46:10.855           536.942
                      81    16 Oct 2024 22:11:58.072    16 Oct 2024 22:24:49.707           771.635
                      82    16 Oct 2024 23:49:53.225    16 Oct 2024 23:57:37.882           464.656
                      83    17 Oct 2024 09:02:41.129    17 Oct 2024 09:14:55.893           734.764
                      84    17 Oct 2024 10:39:19.199    17 Oct 2024 10:50:48.544           689.345
                      85    17 Oct 2024 20:48:51.662    17 Oct 2024 20:59:09.616           617.953
                      86    17 Oct 2024 22:24:09.784    17 Oct 2024 22:36:51.285           761.501
                      87    18 Oct 2024 00:02:53.512    18 Oct 2024 00:08:25.843           332.330
                      88    18 Oct 2024 07:43:26.080    18 Oct 2024 07:48:08.662           282.582
                      89    18 Oct 2024 09:14:34.482    18 Oct 2024 09:27:11.594           757.112
                      90    18 Oct 2024 10:52:01.959    18 Oct 2024 11:02:37.677           635.718
                      91    18 Oct 2024 21:00:38.823    18 Oct 2024 21:11:55.304           676.481
                      92    18 Oct 2024 22:36:24.617    18 Oct 2024 22:48:46.423           741.806
                      93    19 Oct 2024 07:54:03.881    19 Oct 2024 08:01:17.954           434.073
                      94    19 Oct 2024 09:26:34.330    19 Oct 2024 09:39:24.142           769.812
                      95    19 Oct 2024 11:04:56.717    19 Oct 2024 11:14:18.437           561.720
                      96    19 Oct 2024 21:12:32.437    19 Oct 2024 21:24:31.045           718.608
                      97    19 Oct 2024 22:48:42.819    19 Oct 2024 23:00:34.796           711.977
                      98    20 Oct 2024 08:05:09.521    20 Oct 2024 08:14:03.543           534.021
                      99    20 Oct 2024 09:38:40.519    20 Oct 2024 09:51:33.636           773.117
                     100    20 Oct 2024 11:18:08.947    20 Oct 2024 11:25:45.540           456.593
                     101    20 Oct 2024 21:24:30.932    20 Oct 2024 21:36:58.513           747.582
                     102    20 Oct 2024 23:01:04.896    20 Oct 2024 23:12:15.801           670.905
                     103    21 Oct 2024 08:16:30.140    21 Oct 2024 08:26:38.093           607.953
                     104    21 Oct 2024 09:50:53.101    21 Oct 2024 10:03:40.001           766.899
                     105    21 Oct 2024 11:31:55.774    21 Oct 2024 11:36:42.115           286.341
                     106    21 Oct 2024 20:03:46.321    21 Oct 2024 20:07:57.559           251.239
                     107    21 Oct 2024 21:36:33.405    21 Oct 2024 21:49:18.691           765.286
                     108    21 Oct 2024 23:13:31.795    21 Oct 2024 23:23:48.376           616.581
                     109    22 Oct 2024 08:28:01.447    22 Oct 2024 08:39:05.751           664.304
                     110    22 Oct 2024 10:03:12.333    22 Oct 2024 10:15:42.977           750.644
                     111    22 Oct 2024 20:14:34.611    22 Oct 2024 20:21:53.237           438.626
                     112    22 Oct 2024 21:48:39.324    22 Oct 2024 22:01:32.162           772.838
                     113    22 Oct 2024 23:26:05.259    22 Oct 2024 23:35:10.625           545.366
                     114    23 Oct 2024 08:39:41.373    23 Oct 2024 08:51:28.416           707.043
                     115    23 Oct 2024 10:15:38.754    23 Oct 2024 10:27:42.074           723.320
                     116    23 Oct 2024 20:25:59.053    23 Oct 2024 20:35:08.659           549.606
                     117    23 Oct 2024 22:00:48.402    23 Oct 2024 22:13:39.217           770.815
                     118    23 Oct 2024 23:38:48.959    23 Oct 2024 23:46:18.714           449.755
                     119    24 Oct 2024 08:51:28.786    24 Oct 2024 09:03:47.109           738.322
                     120    24 Oct 2024 10:28:13.276    24 Oct 2024 10:39:36.446           683.170
                     121    24 Oct 2024 20:37:38.350    24 Oct 2024 20:48:05.374           627.024
                     122    24 Oct 2024 22:13:00.534    24 Oct 2024 22:25:39.938           759.404
                     123    24 Oct 2024 23:51:53.393    24 Oct 2024 23:57:01.972           308.579
                     124    25 Oct 2024 07:32:01.226    25 Oct 2024 07:37:09.355           308.129
                     125    25 Oct 2024 09:03:23.023    25 Oct 2024 09:16:02.383           759.359
                     126    25 Oct 2024 10:40:57.457    25 Oct 2024 10:51:24.648           627.191
                     127    25 Oct 2024 20:49:26.525    25 Oct 2024 21:00:49.586           683.061
                     128    25 Oct 2024 22:25:15.809    25 Oct 2024 22:37:34.184           738.375
                     129    26 Oct 2024 07:42:44.414    26 Oct 2024 07:50:13.841           449.427
                     130    26 Oct 2024 09:15:23.726    26 Oct 2024 09:28:14.531           770.805
                     131    26 Oct 2024 10:53:54.126    26 Oct 2024 11:03:03.998           549.871
                     132    26 Oct 2024 21:01:20.875    26 Oct 2024 21:13:24.131           723.256
                     133    26 Oct 2024 22:37:34.506    26 Oct 2024 22:49:21.612           707.106
                     134    27 Oct 2024 07:53:52.461    27 Oct 2024 08:02:57.565           545.104
                     135    27 Oct 2024 09:27:30.768    27 Oct 2024 09:40:23.617           772.849
                     136    27 Oct 2024 11:07:09.469    27 Oct 2024 11:14:28.526           439.057
                     137    27 Oct 2024 21:13:19.957    27 Oct 2024 21:25:50.571           750.614
                     138    27 Oct 2024 22:49:57.175    27 Oct 2024 23:01:01.550           664.375
                     139    28 Oct 2024 08:05:14.681    28 Oct 2024 08:15:31.041           616.360
                     140    28 Oct 2024 09:39:44.219    28 Oct 2024 09:52:29.559           765.340
                     141    28 Oct 2024 11:21:04.884    28 Oct 2024 11:25:17.093           252.209
                     142    28 Oct 2024 19:52:20.899    28 Oct 2024 19:57:06.952           286.053
                     143    28 Oct 2024 21:25:22.929    28 Oct 2024 21:38:09.823           766.894
                     144    28 Oct 2024 23:02:24.845    28 Oct 2024 23:12:32.865           608.020
                     145    29 Oct 2024 08:16:47.229    29 Oct 2024 08:27:57.957           670.728
                     146    29 Oct 2024 09:52:04.384    29 Oct 2024 10:04:32.058           747.675
                     147    29 Oct 2024 20:03:17.389    29 Oct 2024 20:10:53.874           456.485
                     148    29 Oct 2024 21:37:29.293    29 Oct 2024 21:50:22.414           773.120
                     149    29 Oct 2024 23:14:59.419    29 Oct 2024 23:23:53.494           534.076
                     150    30 Oct 2024 08:28:28.212    30 Oct 2024 08:40:20.051           711.839
                     151    30 Oct 2024 10:04:31.829    30 Oct 2024 10:16:30.586           718.757
                     152    30 Oct 2024 20:14:44.465    30 Oct 2024 20:24:06.135           561.670
                     153    30 Oct 2024 21:49:38.789    30 Oct 2024 22:02:28.620           769.831
                     154    30 Oct 2024 23:27:45.038    30 Oct 2024 23:34:59.128           434.090
                     155    31 Oct 2024 08:40:16.569    31 Oct 2024 08:52:38.270           741.700
                     156    31 Oct 2024 10:17:07.536    31 Oct 2024 10:28:24.240           676.704
                     157    31 Oct 2024 20:26:25.209    31 Oct 2024 20:37:00.915           635.707
                     158    31 Oct 2024 22:01:51.347    31 Oct 2024 22:14:28.479           757.132
                     159    31 Oct 2024 23:40:54.398    31 Oct 2024 23:45:36.899           282.501
                     160     1 Nov 2024 07:20:37.543     1 Nov 2024 07:26:08.980           331.437
                     161     1 Nov 2024 08:52:11.692     1 Nov 2024 09:04:53.128           761.436
                     162     1 Nov 2024 10:29:53.180     1 Nov 2024 10:40:11.462           618.282
                     163     1 Nov 2024 20:38:14.342     1 Nov 2024 20:49:43.696           689.355
                     164     1 Nov 2024 22:14:07.069     1 Nov 2024 22:26:21.832           734.763
                     165     2 Nov 2024 07:31:25.350     2 Nov 2024 07:39:09.413           464.063
                     166     2 Nov 2024 09:04:13.245     2 Nov 2024 09:17:04.870           771.626
                     167     2 Nov 2024 10:42:51.870     2 Nov 2024 10:51:49.302           537.432
                     168     2 Nov 2024 20:50:09.410     2 Nov 2024 21:02:17.073           727.662
                     169     2 Nov 2024 22:26:26.272     2 Nov 2024 22:38:08.298           702.026
                     170     3 Nov 2024 07:42:35.647     3 Nov 2024 07:51:51.428           555.781
                     171     3 Nov 2024 09:16:21.139     3 Nov 2024 09:29:13.551           772.411
                     172     3 Nov 2024 10:56:10.615     3 Nov 2024 11:03:10.973           420.358
                     173     3 Nov 2024 21:02:09.064     3 Nov 2024 21:14:42.505           753.441
                     174     3 Nov 2024 22:38:49.549     3 Nov 2024 22:49:47.153           657.604
                     175     4 Nov 2024 07:53:59.407     4 Nov 2024 08:04:23.885           624.478
                     176     4 Nov 2024 09:28:35.470     4 Nov 2024 09:41:19.060           763.590
                     177     4 Nov 2024 11:10:17.198     4 Nov 2024 11:13:48.956           211.757
                     178     4 Nov 2024 19:40:57.654     4 Nov 2024 19:46:14.103           316.449
                     179     4 Nov 2024 21:14:12.523     4 Nov 2024 21:27:00.836           768.313
                     180     4 Nov 2024 22:51:18.017     4 Nov 2024 23:01:17.173           599.156
                     181     5 Nov 2024 08:05:33.168     5 Nov 2024 08:16:50.087           676.919
                     182     5 Nov 2024 09:40:56.565     5 Nov 2024 09:53:21.071           744.506
                     183     5 Nov 2024 19:52:00.669     5 Nov 2024 19:59:53.950           473.281
                     184     5 Nov 2024 21:26:19.328     5 Nov 2024 21:39:12.556           773.228
                     185     5 Nov 2024 23:03:53.772     5 Nov 2024 23:12:36.103           522.331
                     186     6 Nov 2024 08:17:15.187     6 Nov 2024 08:29:11.630           716.444
                     187     6 Nov 2024 09:53:25.053     6 Nov 2024 10:05:19.015           713.962
                     188     6 Nov 2024 20:03:30.130     6 Nov 2024 20:13:03.310           573.180
                     189     6 Nov 2024 21:38:29.243     6 Nov 2024 21:51:17.906           768.663
                     190     6 Nov 2024 23:16:41.494     6 Nov 2024 23:23:39.099           417.605
                     191     7 Nov 2024 06:59:31.121     7 Nov 2024 07:01:06.870            95.750
                     192     7 Nov 2024 08:29:04.482     7 Nov 2024 08:41:29.386           744.904
                     193     7 Nov 2024 10:06:01.969     7 Nov 2024 10:17:11.924           669.955
                     194     7 Nov 2024 20:15:12.228     7 Nov 2024 20:25:56.244           644.017
                     195     7 Nov 2024 21:50:42.223     7 Nov 2024 22:03:16.907           754.684
                     196     7 Nov 2024 23:29:56.892     7 Nov 2024 23:34:10.262           253.370
                     197     8 Nov 2024 07:09:14.798     8 Nov 2024 07:15:07.748           352.950
                     198     8 Nov 2024 08:41:00.473     8 Nov 2024 08:53:43.816           763.343
                     199     8 Nov 2024 10:18:49.137     8 Nov 2024 10:28:58.115           608.978
                     200     8 Nov 2024 20:27:02.278     8 Nov 2024 20:38:37.640           695.362
                     201     8 Nov 2024 22:02:58.397     8 Nov 2024 22:15:09.364           730.968
                     202     9 Nov 2024 07:20:06.653     9 Nov 2024 07:28:04.698           478.045
                     203     9 Nov 2024 08:53:02.880     9 Nov 2024 09:05:55.159           772.279
                     204     9 Nov 2024 10:31:49.960     9 Nov 2024 10:40:34.338           524.379
                     205     9 Nov 2024 20:38:58.035     9 Nov 2024 20:51:09.877           731.843
                     206     9 Nov 2024 22:15:18.113     9 Nov 2024 22:26:54.849           696.736
                     207    10 Nov 2024 07:31:19.072    10 Nov 2024 07:40:45.133           566.061
                     208    10 Nov 2024 09:05:11.628    10 Nov 2024 09:18:03.430           771.802
                     209    10 Nov 2024 10:45:12.462    10 Nov 2024 10:51:52.800           400.338
                     210    10 Nov 2024 20:50:58.246    10 Nov 2024 21:03:34.309           756.063
                     211    10 Nov 2024 22:27:42.019    10 Nov 2024 22:38:32.599           650.580
                     212    11 Nov 2024 07:42:44.312    11 Nov 2024 07:53:16.634           632.322
                     213    11 Nov 2024 09:17:26.842    11 Nov 2024 09:30:08.497           761.655
                     214    11 Nov 2024 10:59:35.071    11 Nov 2024 11:02:15.335           160.265
                     215    11 Nov 2024 19:29:35.996    11 Nov 2024 19:35:19.609           343.613
                     216    11 Nov 2024 21:03:02.183    11 Nov 2024 21:15:51.729           769.546
                     217    11 Nov 2024 22:40:11.323    11 Nov 2024 22:50:01.287           589.964
                     218    12 Nov 2024 07:54:19.257    12 Nov 2024 08:05:42.149           682.892
                     219    12 Nov 2024 09:29:48.884    12 Nov 2024 09:42:10.007           741.123
                     220    12 Nov 2024 19:40:44.389    12 Nov 2024 19:48:53.519           489.130
                     221    12 Nov 2024 21:15:09.420    12 Nov 2024 21:28:02.591           773.171
                     222    12 Nov 2024 22:52:48.338    12 Nov 2024 23:01:18.443           510.106
                     223    13 Nov 2024 08:06:02.297    13 Nov 2024 08:18:03.149           720.852
                     224    13 Nov 2024 09:42:18.432    13 Nov 2024 09:54:07.351           708.919
                     225    13 Nov 2024 19:52:16.025    13 Nov 2024 20:02:00.190           584.165
                     226    13 Nov 2024 21:27:19.760    13 Nov 2024 21:40:07.085           767.325
                     227    13 Nov 2024 23:05:38.384    13 Nov 2024 23:12:18.562           400.178
                     228    14 Nov 2024 06:47:47.408    14 Nov 2024 06:50:26.119           158.711
                     229    14 Nov 2024 08:17:52.513    14 Nov 2024 08:30:20.446           747.933
                     230    14 Nov 2024 09:54:56.595    14 Nov 2024 10:05:59.488           662.892
                     231    14 Nov 2024 20:03:59.405    14 Nov 2024 20:14:51.370           651.965
                     232    14 Nov 2024 21:39:33.161    14 Nov 2024 21:52:05.222           752.061
                     233    14 Nov 2024 23:19:01.476    14 Nov 2024 23:22:41.463           219.988
                     234    15 Nov 2024 06:57:52.843    15 Nov 2024 07:04:05.827           372.984
                     235    15 Nov 2024 08:29:49.376    15 Nov 2024 08:42:34.459           765.083
                     236    15 Nov 2024 10:07:45.339    15 Nov 2024 10:17:44.594           599.255
                     237    15 Nov 2024 20:15:50.328    15 Nov 2024 20:27:31.423           701.095
                     238    15 Nov 2024 21:51:49.794    15 Nov 2024 22:03:56.772           726.978
                     239    16 Nov 2024 07:08:48.304    16 Nov 2024 07:16:59.728           491.423
                     240    16 Nov 2024 08:41:52.634    16 Nov 2024 08:54:45.400           772.766
                     241    16 Nov 2024 10:20:48.427    16 Nov 2024 10:29:19.074           510.647
                     242    16 Nov 2024 20:27:46.750    16 Nov 2024 20:40:02.547           735.796
                     243    16 Nov 2024 22:04:10.033    16 Nov 2024 22:15:41.268           691.235
                     244    17 Nov 2024 07:20:02.718    17 Nov 2024 07:29:38.705           575.986
                     245    17 Nov 2024 08:54:02.238    17 Nov 2024 09:06:53.259           771.020
                     246    17 Nov 2024 10:34:15.121    17 Nov 2024 10:40:33.891           378.771
                     247    17 Nov 2024 20:39:47.504    17 Nov 2024 20:52:25.996           758.492
                     248    17 Nov 2024 22:16:34.589    17 Nov 2024 22:27:17.889           643.300
                     249    18 Nov 2024 07:31:29.386    18 Nov 2024 07:42:09.283           639.897
                     250    18 Nov 2024 09:06:18.340    18 Nov 2024 09:18:57.883           759.543
                     251    18 Nov 2024 10:49:08.210    18 Nov 2024 10:50:26.550            78.340
                     252    18 Nov 2024 19:18:15.570    18 Nov 2024 19:24:23.827           368.257
                     253    18 Nov 2024 20:51:51.911    18 Nov 2024 21:04:42.513           770.602
                     254    18 Nov 2024 22:29:04.765    18 Nov 2024 22:38:45.201           580.436
                     255    19 Nov 2024 07:43:05.487    19 Nov 2024 07:54:34.137           688.650
                     256    19 Nov 2024 09:18:41.345    19 Nov 2024 09:30:58.883           737.539
                     257    19 Nov 2024 19:29:28.514    19 Nov 2024 19:37:52.636           504.122
                     258    19 Nov 2024 21:03:59.581    19 Nov 2024 21:16:52.507           772.926
                     259    19 Nov 2024 22:41:43.121    19 Nov 2024 22:50:00.486           497.365
                     260    20 Nov 2024 07:54:49.530    20 Nov 2024 08:06:54.610           725.080
                     261    20 Nov 2024 09:31:11.966    20 Nov 2024 09:42:55.606           703.641
                     262    20 Nov 2024 19:41:02.141    20 Nov 2024 19:50:56.805           594.664
                     263    20 Nov 2024 21:16:10.330    20 Nov 2024 21:28:56.153           765.823
                     264    20 Nov 2024 22:54:35.772    20 Nov 2024 23:00:57.459           381.687
                     265    21 Nov 2024 06:36:13.290    21 Nov 2024 06:39:35.858           202.568
                     266    21 Nov 2024 08:06:40.666    21 Nov 2024 08:19:11.454           750.788
                     267    21 Nov 2024 09:43:51.415    21 Nov 2024 09:54:46.930           655.515
                     268    21 Nov 2024 19:52:46.721    21 Nov 2024 20:03:46.293           659.573
                     269    21 Nov 2024 21:28:24.161    21 Nov 2024 21:40:53.421           749.259
                     270    21 Nov 2024 23:08:09.323    21 Nov 2024 23:11:09.327           180.005
                     271    22 Nov 2024 06:46:31.562    22 Nov 2024 06:53:03.311           391.749
                     272    22 Nov 2024 08:18:38.397    22 Nov 2024 08:31:25.052           766.656
                     273    22 Nov 2024 09:56:41.802    22 Nov 2024 10:06:30.885           589.083
                     274    22 Nov 2024 20:04:38.484    22 Nov 2024 20:16:25.046           706.563
                     275    22 Nov 2024 21:40:41.258    22 Nov 2024 21:52:44.054           722.796
                     276    23 Nov 2024 06:57:30.271    23 Nov 2024 07:05:54.520           504.249
                     277    23 Nov 2024 08:30:42.504    23 Nov 2024 08:43:35.589           773.085
                     278    23 Nov 2024 10:09:47.290    23 Nov 2024 10:18:03.478           496.188
                     279    23 Nov 2024 20:16:35.550    23 Nov 2024 20:28:55.078           739.528
                     280    23 Nov 2024 21:53:02.027    23 Nov 2024 22:04:27.546           685.519
                     281    24 Nov 2024 07:08:46.577    24 Nov 2024 07:18:32.141           585.564
                     282    24 Nov 2024 08:42:52.967    24 Nov 2024 08:55:43.031           770.064
                     283    24 Nov 2024 10:23:18.733    24 Nov 2024 10:29:14.107           355.374
                     284    24 Nov 2024 18:56:43.792    24 Nov 2024 18:58:53.901           130.109
                     285    24 Nov 2024 20:28:36.833    24 Nov 2024 20:41:17.559           760.726
                     286    24 Nov 2024 22:05:27.258    24 Nov 2024 22:16:03.014           635.756
                     287    25 Nov 2024 07:20:14.629    25 Nov 2024 07:31:01.845           647.216
                     288    25 Nov 2024 08:55:09.966    25 Nov 2024 09:07:47.201           757.235
                     289    25 Nov 2024 19:06:56.128    25 Nov 2024 19:13:26.990           390.862
                     290    25 Nov 2024 20:40:41.702    25 Nov 2024 20:53:33.180           771.478
                     291    25 Nov 2024 22:17:58.354    25 Nov 2024 22:27:28.907           570.553
                     292    26 Nov 2024 07:31:51.867    26 Nov 2024 07:43:26.056           694.189
                     293    26 Nov 2024 09:07:33.944    26 Nov 2024 09:19:47.678           733.734
                     294    26 Nov 2024 19:18:13.003    26 Nov 2024 19:26:51.325           518.322
                     295    26 Nov 2024 20:52:49.798    26 Nov 2024 21:05:42.315           772.517
                     296    26 Nov 2024 22:30:38.149    26 Nov 2024 22:38:42.220           484.071
                     297    27 Nov 2024 07:43:36.896    27 Nov 2024 07:55:46.017           729.120
                     298    27 Nov 2024 09:20:05.665    27 Nov 2024 09:31:43.760           698.095
                     299    27 Nov 2024 19:29:48.459    27 Nov 2024 19:39:53.159           604.700
                     300    27 Nov 2024 21:05:00.963    27 Nov 2024 21:17:45.109           764.145
                     301    27 Nov 2024 22:43:33.731    27 Nov 2024 22:49:35.715           361.984
                     302    28 Nov 2024 06:24:43.358    28 Nov 2024 06:28:41.499           238.141
                     303    28 Nov 2024 07:55:28.940    28 Nov 2024 08:08:02.406           753.466
                     304    28 Nov 2024 09:32:46.432    28 Nov 2024 09:43:34.243           647.811
                     305    28 Nov 2024 19:41:34.176    28 Nov 2024 19:52:41.034           666.857
                     306    28 Nov 2024 21:17:15.223    28 Nov 2024 21:29:41.504           746.281
                     307    28 Nov 2024 22:57:23.442    28 Nov 2024 22:59:30.847           127.404
                     308    29 Nov 2024 06:35:10.869    29 Nov 2024 06:42:00.296           409.427
                     309    29 Nov 2024 08:07:27.535    29 Nov 2024 08:20:15.600           768.066
                     310    29 Nov 2024 09:45:38.536    29 Nov 2024 09:55:16.981           578.445
                     311    29 Nov 2024 19:53:26.748    29 Nov 2024 20:05:18.513           711.764
                     312    29 Nov 2024 21:29:32.786    29 Nov 2024 21:41:31.209           718.423
                     313    30 Nov 2024 06:46:12.534    30 Nov 2024 06:54:49.095           516.562
                     314    30 Nov 2024 08:19:32.492    30 Nov 2024 08:32:25.728           773.236
                     315    30 Nov 2024 09:58:46.600    30 Nov 2024 10:06:47.519           480.919
                     316    30 Nov 2024 20:05:24.435    30 Nov 2024 20:17:47.475           743.040
                     317    30 Nov 2024 21:41:54.108    30 Nov 2024 21:53:13.685           679.577
                     318     1 Dec 2024 06:57:30.641     1 Dec 2024 07:07:25.448           594.807
                     319     1 Dec 2024 08:31:43.818     1 Dec 2024 08:44:32.749           768.930
                     320     1 Dec 2024 10:12:23.501     1 Dec 2024 10:17:53.250           329.749
                     321     1 Dec 2024 18:45:05.472     1 Dec 2024 18:48:16.459           190.987
                     322     1 Dec 2024 20:17:26.235     1 Dec 2024 20:30:09.004           762.769
                     323     1 Dec 2024 21:54:20.032     1 Dec 2024 22:04:47.974           627.942
                     324     2 Dec 2024 07:09:00.042     2 Dec 2024 07:19:54.314           654.272
                     325     2 Dec 2024 08:44:01.723     2 Dec 2024 08:56:36.452           754.729
                     326     2 Dec 2024 18:55:37.503     2 Dec 2024 19:02:29.276           411.773
                     327     2 Dec 2024 20:29:31.558     2 Dec 2024 20:42:23.736           772.177
                     328     2 Dec 2024 22:06:52.092     2 Dec 2024 22:16:12.390           560.298
                     329     3 Dec 2024 07:20:38.380     3 Dec 2024 07:32:17.908           699.527
                     330     3 Dec 2024 08:56:26.687     3 Dec 2024 09:08:36.397           729.710
                     331     3 Dec 2024 19:06:57.815     3 Dec 2024 19:15:49.636           531.821
                     332     3 Dec 2024 20:41:40.078     3 Dec 2024 20:54:32.013           771.935
                     333     3 Dec 2024 22:19:33.443     3 Dec 2024 22:27:23.622           470.179
                     334     4 Dec 2024 07:32:24.390     4 Dec 2024 07:44:37.362           732.972
                     335     4 Dec 2024 09:08:59.531     4 Dec 2024 09:20:31.816           692.284
                     336     4 Dec 2024 19:18:34.970     4 Dec 2024 19:28:49.263           614.293
                     337     4 Dec 2024 20:53:51.656     4 Dec 2024 21:06:33.956           762.300
                     338     4 Dec 2024 22:32:32.367     4 Dec 2024 22:38:13.221           340.854
                     339     5 Dec 2024 06:13:15.974     5 Dec 2024 06:17:44.683           268.710
                     340     5 Dec 2024 07:44:17.334     5 Dec 2024 07:56:53.310           755.976
                     341     5 Dec 2024 09:21:41.656     5 Dec 2024 09:32:21.417           639.761
                     342     5 Dec 2024 19:30:21.757     5 Dec 2024 19:41:35.585           673.828
                     343     5 Dec 2024 21:06:06.351     5 Dec 2024 21:18:29.469           743.118
                     344     6 Dec 2024 06:23:50.698     6 Dec 2024 06:30:56.841           426.142
                     345     6 Dec 2024 07:56:16.791     6 Dec 2024 08:09:06.092           769.302
                     346     6 Dec 2024 09:34:35.550     6 Dec 2024 09:44:02.860           567.311
                     347     6 Dec 2024 19:42:15.107     6 Dec 2024 19:54:11.834           716.727
                     348     6 Dec 2024 21:18:24.387     6 Dec 2024 21:30:18.239           713.852
                     349     7 Dec 2024 06:34:55.082     7 Dec 2024 06:43:43.472           528.390
                     350     7 Dec 2024 08:08:22.595     7 Dec 2024 08:21:15.808           773.213
                     351     7 Dec 2024 09:47:46.389     7 Dec 2024 09:55:31.153           464.764
                     352     7 Dec 2024 19:54:13.398     7 Dec 2024 20:06:39.745           746.347
                     353     7 Dec 2024 21:30:46.270     7 Dec 2024 21:41:59.682           673.412
                     354     8 Dec 2024 06:46:14.902     8 Dec 2024 06:56:18.629           603.727
                     355     8 Dec 2024 08:20:34.789     8 Dec 2024 08:33:22.407           767.618
                     356     8 Dec 2024 10:01:29.705     8 Dec 2024 10:06:31.028           301.323
                     357     8 Dec 2024 18:33:35.124     8 Dec 2024 18:37:30.974           235.850
                     358     8 Dec 2024 20:06:15.703     8 Dec 2024 20:19:00.325           764.622
                     359     8 Dec 2024 21:43:12.908     8 Dec 2024 21:53:32.764           619.856
                     360     9 Dec 2024 06:57:45.608     9 Dec 2024 07:08:46.702           661.094
                     361     9 Dec 2024 08:32:53.607     9 Dec 2024 08:45:25.639           752.032
                     362     9 Dec 2024 18:44:19.568     9 Dec 2024 18:51:30.801           431.233
                     363     9 Dec 2024 20:18:21.474     9 Dec 2024 20:31:14.174           772.700
                     364     9 Dec 2024 21:55:45.988     9 Dec 2024 22:04:55.647           549.658
                     365    10 Dec 2024 07:09:25.034    10 Dec 2024 07:21:09.690           704.656
                     366    10 Dec 2024 08:45:19.572    10 Dec 2024 08:57:25.032           725.460
                     367    10 Dec 2024 18:55:42.927    10 Dec 2024 19:04:47.583           544.656
                     368    10 Dec 2024 20:30:30.413    10 Dec 2024 20:43:21.596           771.184
                     369    10 Dec 2024 22:08:29.022    10 Dec 2024 22:16:04.666           455.644
                     370    11 Dec 2024 07:21:12.008    11 Dec 2024 07:33:28.650           736.641
                     371    11 Dec 2024 08:57:53.565    11 Dec 2024 09:09:19.764           686.199
                     372    11 Dec 2024 19:07:21.660    11 Dec 2024 19:17:45.131           623.472
                     373    11 Dec 2024 20:42:42.406    11 Dec 2024 20:55:22.686           760.280
                     374    11 Dec 2024 22:21:31.810    11 Dec 2024 22:26:49.842           318.032
                     375    12 Dec 2024 06:01:50.352    12 Dec 2024 06:06:46.192           295.840
                     376    12 Dec 2024 07:33:05.842    12 Dec 2024 07:45:44.161           758.319
                     377    12 Dec 2024 09:10:37.090    12 Dec 2024 09:21:08.446           631.356
                     378    12 Dec 2024 19:19:09.470    12 Dec 2024 19:30:29.956           680.485
                     379    12 Dec 2024 20:54:57.532    12 Dec 2024 21:07:17.312           739.780
                     380    13 Dec 2024 06:12:30.994    13 Dec 2024 06:19:53.004           442.010
                     381    13 Dec 2024 07:45:06.160    13 Dec 2024 07:57:56.530           770.370
                     382    13 Dec 2024 09:23:32.861    13 Dec 2024 09:32:48.510           555.649
                     383    13 Dec 2024 19:31:03.561    13 Dec 2024 19:43:05.003           721.442
                     384    13 Dec 2024 21:07:16.057    13 Dec 2024 21:19:05.143           709.087
                     385    14 Dec 2024 06:23:37.892    14 Dec 2024 06:32:37.667           539.775
                     386    14 Dec 2024 07:57:12.819    14 Dec 2024 08:10:05.840           773.021
                     387    14 Dec 2024 09:36:46.711    14 Dec 2024 09:44:14.329           447.619
                     388    14 Dec 2024 19:43:02.440    14 Dec 2024 19:55:31.881           749.441
                     389    14 Dec 2024 21:19:38.517    14 Dec 2024 21:30:45.530           667.013
                     390    15 Dec 2024 06:34:59.358    15 Dec 2024 06:45:11.700           612.342
                     391    15 Dec 2024 08:09:25.880    15 Dec 2024 08:22:12.012           766.132
                     392    15 Dec 2024 09:50:37.796    15 Dec 2024 09:55:07.007           269.212
                     393    15 Dec 2024 18:22:08.738    15 Dec 2024 18:26:41.463           272.726
                     394    15 Dec 2024 19:55:05.240    15 Dec 2024 20:07:51.531           766.292
                     395    15 Dec 2024 21:32:05.902    15 Dec 2024 21:42:17.373           611.471
                     396    16 Dec 2024 06:46:31.329    16 Dec 2024 06:57:39.004           667.675
                     397    16 Dec 2024 08:21:45.624    16 Dec 2024 08:34:14.761           749.137
                     398    16 Dec 2024 18:33:02.228    16 Dec 2024 18:40:31.672           449.444
                     399    16 Dec 2024 20:07:11.448    16 Dec 2024 20:20:04.503           773.055
                     400    16 Dec 2024 21:44:40.056    16 Dec 2024 21:53:38.668           538.612
                     401    17 Dec 2024 06:58:11.824    17 Dec 2024 07:10:01.407           709.583
                     402    17 Dec 2024 08:34:12.606    17 Dec 2024 08:46:13.584           720.978
                     403    17 Dec 2024 18:44:28.310    17 Dec 2024 18:53:45.201           556.891
                     404    17 Dec 2024 20:19:20.806    17 Dec 2024 20:32:11.069           770.263
                     405    17 Dec 2024 21:57:24.923    17 Dec 2024 22:04:45.314           440.391
                     406    18 Dec 2024 07:09:59.756    18 Dec 2024 07:22:19.881           740.125
                     407    18 Dec 2024 08:46:47.773    18 Dec 2024 08:58:07.605           679.832
                     408    18 Dec 2024 18:56:08.518    18 Dec 2024 19:06:40.774           632.256
                     409    18 Dec 2024 20:31:33.214    18 Dec 2024 20:44:11.301           758.087
                     410    18 Dec 2024 22:10:32.266    18 Dec 2024 22:15:25.370           293.104
                     411    19 Dec 2024 05:50:26.067    19 Dec 2024 05:55:46.454           320.387
                     412    19 Dec 2024 07:21:54.475    19 Dec 2024 07:34:34.963           760.488
                     413    19 Dec 2024 08:59:32.745    19 Dec 2024 09:09:55.318           622.573
                     414    19 Dec 2024 19:07:57.297    19 Dec 2024 19:19:24.152           686.855
                     415    19 Dec 2024 20:43:48.777    19 Dec 2024 20:56:05.037           736.259
                     416    20 Dec 2024 06:01:11.714    20 Dec 2024 06:08:48.822           457.108
                     417    20 Dec 2024 07:33:55.645    20 Dec 2024 07:46:46.917           771.272
                     418    20 Dec 2024 09:12:30.494    20 Dec 2024 09:21:33.908           543.414
                     419    20 Dec 2024 19:19:52.106    20 Dec 2024 19:31:58.025           725.919
                     420    20 Dec 2024 20:56:07.796    20 Dec 2024 21:07:51.913           704.116
                     421    21 Dec 2024 06:12:20.954    21 Dec 2024 06:21:31.680           550.726
                     422    21 Dec 2024 07:46:03.159    21 Dec 2024 07:58:55.815           772.656
                     423    21 Dec 2024 09:25:47.618    21 Dec 2024 09:32:56.987           429.369
                     424    21 Dec 2024 19:31:51.555    21 Dec 2024 19:44:23.886           752.331
                     425    21 Dec 2024 21:08:30.851    21 Dec 2024 21:19:31.228           660.376
                     426    22 Dec 2024 06:23:43.997    22 Dec 2024 06:34:04.655           620.658
                     427    22 Dec 2024 07:58:17.096    22 Dec 2024 08:11:01.550           764.454
                     428    22 Dec 2024 09:39:48.537    22 Dec 2024 09:43:40.404           231.868
                     429    22 Dec 2024 18:10:44.848    22 Dec 2024 18:15:49.376           304.528
                     430    22 Dec 2024 19:43:54.839    22 Dec 2024 19:56:42.613           767.774
                     431    22 Dec 2024 21:20:59.010    22 Dec 2024 21:31:01.792           602.782
                     432    23 Dec 2024 06:35:17.199    23 Dec 2024 06:46:31.223           674.024
                     433    23 Dec 2024 08:10:37.775    23 Dec 2024 08:23:03.811           746.036
                     434    23 Dec 2024 18:21:45.403    23 Dec 2024 18:29:31.956           466.553
                     435    23 Dec 2024 19:56:01.487    23 Dec 2024 20:08:54.710           773.223
                     436    23 Dec 2024 21:33:34.305    23 Dec 2024 21:42:21.432           527.128
                     437    24 Dec 2024 06:46:58.750    24 Dec 2024 06:58:53.058           714.308
                     438    24 Dec 2024 08:23:05.788    24 Dec 2024 08:35:02.047           716.259
                     439    24 Dec 2024 18:33:13.952    24 Dec 2024 18:42:42.495           568.543
                     440    24 Dec 2024 20:08:11.255    24 Dec 2024 20:21:00.427           769.172
                     441    24 Dec 2024 21:46:21.175    24 Dec 2024 21:53:25.533           424.358
                     442    25 Dec 2024 05:29:43.195    25 Dec 2024 05:30:21.060            37.865
                     443    25 Dec 2024 06:58:47.620    25 Dec 2024 07:11:11.053           743.434
                     444    25 Dec 2024 08:35:42.158    25 Dec 2024 08:46:55.327           673.169
                     445    25 Dec 2024 18:44:55.537    25 Dec 2024 18:55:36.197           640.660
                     446    25 Dec 2024 20:20:24.078    25 Dec 2024 20:32:59.801           755.722
                     447    25 Dec 2024 21:59:34.015    25 Dec 2024 22:03:59.521           265.506
                     448    26 Dec 2024 05:39:02.824    26 Dec 2024 05:44:45.747           342.924
                     449    26 Dec 2024 07:10:43.221    26 Dec 2024 07:23:25.707           762.485
                     450    26 Dec 2024 08:48:28.633    26 Dec 2024 08:58:42.023           613.390
                     451    26 Dec 2024 18:56:45.241    26 Dec 2024 19:08:18.178           692.937
                     452    26 Dec 2024 20:32:40.085    26 Dec 2024 20:44:52.641           732.556
                     453    27 Dec 2024 05:49:52.821    27 Dec 2024 05:57:44.335           471.514
                     454    27 Dec 2024 07:22:45.245    27 Dec 2024 07:35:37.254           772.009
                     455    27 Dec 2024 09:01:28.467    27 Dec 2024 09:10:19.034           530.567
                     456    27 Dec 2024 19:08:40.741    27 Dec 2024 19:20:50.900           730.160
                     457    27 Dec 2024 20:44:59.607    27 Dec 2024 20:56:38.549           698.943
                     458    28 Dec 2024 06:01:04.260    28 Dec 2024 06:10:25.535           561.275
                     459    28 Dec 2024 07:34:53.613    28 Dec 2024 07:47:45.735           772.122
                     460    28 Dec 2024 09:14:49.194    28 Dec 2024 09:21:39.052           409.858
                     461    28 Dec 2024 19:20:40.744    28 Dec 2024 19:33:15.764           755.020
                     462    28 Dec 2024 20:57:23.270    28 Dec 2024 21:08:16.771           653.502
                     463    29 Dec 2024 06:12:28.816    29 Dec 2024 06:22:57.508           628.692
                     464    29 Dec 2024 07:47:08.434    29 Dec 2024 07:59:51.026           762.592
                     465    29 Dec 2024 09:29:03.499    29 Dec 2024 09:32:09.660           186.161
                     466    29 Dec 2024 17:59:22.726    29 Dec 2024 18:04:55.460           332.734
                     467    29 Dec 2024 19:32:44.504    29 Dec 2024 19:45:33.577           769.073
                     468    29 Dec 2024 21:09:52.242    29 Dec 2024 21:19:46.025           593.783
                     469    30 Dec 2024 06:24:03.222    30 Dec 2024 06:35:23.367           680.145
                     470    30 Dec 2024 07:59:30.053    30 Dec 2024 08:11:52.786           742.732
                     471    30 Dec 2024 18:10:29.047    30 Dec 2024 18:18:31.723           482.676
                     472    30 Dec 2024 19:44:51.581    30 Dec 2024 19:57:44.806           773.224
                     473    30 Dec 2024 21:22:28.744    30 Dec 2024 21:31:03.935           515.190
                     474    31 Dec 2024 06:35:45.800    31 Dec 2024 06:47:44.642           718.842
                     475    31 Dec 2024 08:11:59.126    31 Dec 2024 08:23:50.423           711.297
                     476    31 Dec 2024 18:21:59.830    31 Dec 2024 18:31:39.502           579.671
                     477    31 Dec 2024 19:57:01.757    31 Dec 2024 20:09:49.673           767.916
                     478    31 Dec 2024 21:35:17.827    31 Dec 2024 21:42:05.275           407.448
                     479     1 Jan 2025 05:17:43.417     1 Jan 2025 05:19:56.394           132.977
                     480     1 Jan 2025 06:47:35.606     1 Jan 2025 07:00:02.169           746.563
                     481     1 Jan 2025 08:24:36.727     1 Jan 2025 08:35:42.930           666.203
                     482     1 Jan 2025 18:33:42.705     1 Jan 2025 18:44:31.414           648.709
                     483     1 Jan 2025 20:09:15.000     1 Jan 2025 20:21:48.184           753.184
                     484     1 Jan 2025 21:48:37.532     1 Jan 2025 21:52:31.823           234.291
                     485     2 Jan 2025 05:27:40.458     2 Jan 2025 05:33:44.256           363.798
                     486     2 Jan 2025 06:59:32.080     2 Jan 2025 07:12:16.392           764.312
                     487     2 Jan 2025 08:37:24.753     2 Jan 2025 08:47:28.553           603.800
                     488     2 Jan 2025 18:45:33.292     2 Jan 2025 18:57:12.036           698.744
                     489     2 Jan 2025 20:21:31.457     2 Jan 2025 20:33:40.126           728.669
                     490     3 Jan 2025 05:38:34.285     3 Jan 2025 05:46:39.567           485.282
                     491     3 Jan 2025 07:11:34.959     3 Jan 2025 07:24:27.533           772.574
                     492     3 Jan 2025 08:50:26.802     3 Jan 2025 08:59:03.861           517.059
                     493     3 Jan 2025 18:57:29.457     3 Jan 2025 19:09:43.636           734.179
                     494     3 Jan 2025 20:33:51.487     3 Jan 2025 20:45:25.048           693.562
                     495     4 Jan 2025 05:49:47.787     4 Jan 2025 05:59:19.235           571.448
                     496     4 Jan 2025 07:23:44.183     4 Jan 2025 07:36:35.595           771.411
                     497     4 Jan 2025 09:03:51.530     4 Jan 2025 09:10:20.420           388.890
                     498     4 Jan 2025 19:09:30.002     4 Jan 2025 19:22:07.510           757.508
                     499     4 Jan 2025 20:46:15.781     4 Jan 2025 20:57:02.155           646.374
                     500     5 Jan 2025 06:01:13.810     5 Jan 2025 06:11:50.257           636.447
                     501     5 Jan 2025 07:35:59.892     5 Jan 2025 07:48:40.432           760.540
                     502     5 Jan 2025 09:18:27.172     5 Jan 2025 09:20:30.269           123.097
                     503     5 Jan 2025 17:48:01.941     5 Jan 2025 17:54:00.133           358.192
                     504     5 Jan 2025 19:21:34.227     5 Jan 2025 19:34:24.417           770.190
                     505     5 Jan 2025 20:58:45.601     5 Jan 2025 21:08:30.056           584.456
                     506     6 Jan 2025 06:12:49.391     6 Jan 2025 06:24:15.433           686.042
                     507     6 Jan 2025 07:48:22.469     6 Jan 2025 08:00:41.679           739.210
                     508     6 Jan 2025 17:59:13.089     6 Jan 2025 18:07:31.002           497.913
                     509     6 Jan 2025 19:33:41.727     6 Jan 2025 19:46:34.790           773.064
                     510     6 Jan 2025 21:11:23.396     6 Jan 2025 21:19:46.150           502.754
                     511     7 Jan 2025 06:24:32.986     7 Jan 2025 06:36:36.165           723.179
                     512     7 Jan 2025 08:00:52.611     7 Jan 2025 08:12:38.696           706.085
                     513     7 Jan 2025 18:10:45.921     7 Jan 2025 18:20:36.217           590.296
                     514     7 Jan 2025 19:45:52.319     7 Jan 2025 19:58:38.807           766.487
                     515     7 Jan 2025 21:24:14.929     7 Jan 2025 21:30:44.482           389.553
                     516     8 Jan 2025 05:06:05.857     8 Jan 2025 05:09:09.591           183.734
                     517     8 Jan 2025 06:36:23.710     8 Jan 2025 06:48:53.227           749.516
                     518     8 Jan 2025 08:13:31.483     8 Jan 2025 08:24:30.401           658.918
                     519     8 Jan 2025 18:22:30.020     8 Jan 2025 18:33:26.425           656.405
                     520     8 Jan 2025 19:58:05.977     8 Jan 2025 20:10:36.449           750.472
                     521     8 Jan 2025 21:37:43.665     8 Jan 2025 21:41:01.425           197.760
                     522     9 Jan 2025 05:16:18.818     9 Jan 2025 05:22:42.117           383.298
                     523     9 Jan 2025 06:48:21.056     9 Jan 2025 07:01:07.026           765.970
                     524     9 Jan 2025 08:26:21.128     9 Jan 2025 08:36:14.893           593.765
                     525     9 Jan 2025 18:34:21.448     9 Jan 2025 18:46:05.732           704.284
                     526     9 Jan 2025 20:10:22.888     9 Jan 2025 20:22:27.481           724.593
                     527    10 Jan 2025 05:27:16.078    10 Jan 2025 05:35:34.546           498.468
                     528    10 Jan 2025 07:00:24.787    10 Jan 2025 07:13:17.757           772.969
                     529    10 Jan 2025 08:39:25.527    10 Jan 2025 08:47:48.364           502.837
                     530    10 Jan 2025 18:46:18.258    10 Jan 2025 18:58:36.233           737.975
                     531    10 Jan 2025 20:22:43.436    10 Jan 2025 20:34:11.410           687.974
                     532    11 Jan 2025 05:38:31.536    11 Jan 2025 05:48:12.795           581.259
                     533    11 Jan 2025 07:12:34.871    11 Jan 2025 07:25:25.397           770.525
                     534    11 Jan 2025 08:52:54.756    11 Jan 2025 08:59:00.966           366.210
                     535    11 Jan 2025 17:26:43.999    11 Jan 2025 17:28:16.193            92.194
                     536    11 Jan 2025 18:58:19.329    11 Jan 2025 19:10:59.135           759.806
                     537    11 Jan 2025 20:35:08.386    11 Jan 2025 20:45:47.379           638.993
                     538    12 Jan 2025 05:49:58.969    12 Jan 2025 06:00:42.908           643.939
                     539    12 Jan 2025 07:24:51.473    12 Jan 2025 07:37:29.779           758.306
                     540    12 Jan 2025 17:36:42.221    12 Jan 2025 17:43:03.676           381.455
                     541    12 Jan 2025 19:10:24.013    12 Jan 2025 19:23:15.145           771.132
                     542    12 Jan 2025 20:47:39.093    12 Jan 2025 20:57:13.886           574.793
                     543    13 Jan 2025 06:01:35.698    13 Jan 2025 06:13:07.421           691.723
                     544    13 Jan 2025 07:37:15.020    13 Jan 2025 07:49:30.500           735.479
                     545    13 Jan 2025 17:47:57.508    13 Jan 2025 17:56:29.853           512.345
                     546    13 Jan 2025 19:22:31.935    13 Jan 2025 19:35:24.654           772.719
                     547    13 Jan 2025 21:00:18.265    13 Jan 2025 21:08:28.061           489.796
                     548    14 Jan 2025 06:13:20.292    14 Jan 2025 06:25:27.623           727.331
                     549    14 Jan 2025 07:49:46.253    14 Jan 2025 08:01:26.876           700.623
                     550    14 Jan 2025 17:59:32.214    14 Jan 2025 18:09:32.676           600.462
                     551    14 Jan 2025 19:34:42.930    14 Jan 2025 19:47:27.819           764.890
                     552    14 Jan 2025 21:13:12.555    14 Jan 2025 21:19:23.091           370.535
                     553    15 Jan 2025 04:54:34.169    15 Jan 2025 04:58:16.998           222.829
                     554    15 Jan 2025 06:25:11.934    15 Jan 2025 06:37:44.222           752.289
                     555    15 Jan 2025 08:02:26.435    15 Jan 2025 08:13:17.744           651.309
                     556    15 Jan 2025 18:11:17.465    15 Jan 2025 18:22:21.240           663.775
                     557    15 Jan 2025 19:46:57.011    15 Jan 2025 19:59:24.595           747.585
                     558    15 Jan 2025 21:26:54.298    15 Jan 2025 21:29:26.446           152.148
                     559    16 Jan 2025 05:04:57.813    16 Jan 2025 05:11:39.418           401.605
                     560    16 Jan 2025 06:37:10.146    16 Jan 2025 06:49:57.608           767.462
                     561    16 Jan 2025 08:15:17.768    16 Jan 2025 08:25:01.031           583.263
                     562    16 Jan 2025 18:23:09.706    16 Jan 2025 18:34:59.265           709.559
                     563    16 Jan 2025 19:59:14.375    16 Jan 2025 20:11:14.705           720.329
                     564    17 Jan 2025 05:15:58.177    17 Jan 2025 05:24:29.285           511.108
                     565    17 Jan 2025 06:49:14.728    17 Jan 2025 07:02:07.922           773.194
                     566    17 Jan 2025 08:28:24.668    17 Jan 2025 08:36:32.509           487.842
                     567    17 Jan 2025 18:35:07.135    17 Jan 2025 18:47:28.694           741.558
                     568    17 Jan 2025 20:11:35.461    17 Jan 2025 20:22:57.628           682.167
                     569    18 Jan 2025 05:27:15.490    18 Jan 2025 05:37:06.212           590.722
                     570    18 Jan 2025 07:01:25.675    18 Jan 2025 07:14:15.136           769.461
                     571    18 Jan 2025 08:41:59.046    18 Jan 2025 08:47:40.519           341.472
                     572    18 Jan 2025 17:14:58.469    18 Jan 2025 17:17:46.053           167.584
                     573    18 Jan 2025 18:47:08.721    18 Jan 2025 18:59:50.633           761.913
                     574    18 Jan 2025 20:24:01.084    18 Jan 2025 20:34:32.433           631.349
                     575    19 Jan 2025 05:38:44.294    19 Jan 2025 05:49:35.458           651.164
                     576    19 Jan 2025 07:13:43.180    19 Jan 2025 07:26:19.047           755.867
                     577    19 Jan 2025 17:25:23.363    19 Jan 2025 17:32:06.274           402.912
                     578    19 Jan 2025 18:59:13.854    19 Jan 2025 19:12:05.752           771.898
                     579    19 Jan 2025 20:36:32.720    19 Jan 2025 20:45:57.497           564.778
                     580    20 Jan 2025 05:50:22.145    20 Jan 2025 06:01:59.333           697.188
                     581    20 Jan 2025 07:26:07.709    20 Jan 2025 07:38:19.229           731.521
                     582    20 Jan 2025 17:36:42.254    20 Jan 2025 17:45:28.302           526.048
                     583    20 Jan 2025 19:11:22.194    20 Jan 2025 19:24:14.405           772.210
                     584    20 Jan 2025 20:49:13.379    20 Jan 2025 20:57:09.654           476.275
                     585    21 Jan 2025 06:02:07.725    21 Jan 2025 06:14:19.017           731.292
                     586    21 Jan 2025 07:38:40.057    21 Jan 2025 07:50:14.947           694.890
                     587    21 Jan 2025 17:48:18.698    21 Jan 2025 17:58:28.871           610.173
                     588    21 Jan 2025 19:23:33.595    21 Jan 2025 19:36:16.719           763.124
                     589    21 Jan 2025 21:02:10.789    21 Jan 2025 21:08:01.009           350.220
                     590    22 Jan 2025 04:43:05.644    22 Jan 2025 04:47:21.324           255.680
                     591    22 Jan 2025 06:14:00.273    22 Jan 2025 06:26:35.164           754.891
                     592    22 Jan 2025 07:51:21.582    22 Jan 2025 08:02:04.940           643.358
                     593    22 Jan 2025 18:00:05.038    22 Jan 2025 18:11:15.864           670.826
                     594    22 Jan 2025 19:35:48.101    22 Jan 2025 19:48:12.621           744.519
                     595    22 Jan 2025 21:16:16.271    22 Jan 2025 21:17:40.041            83.771
                     596    23 Jan 2025 04:53:37.360    23 Jan 2025 05:00:36.244           418.884
                     597    23 Jan 2025 06:25:59.350    23 Jan 2025 06:38:48.130           768.780
                     598    23 Jan 2025 08:04:14.680    23 Jan 2025 08:13:46.958           572.278
                     599    23 Jan 2025 18:11:58.056    23 Jan 2025 18:23:52.648           714.592
                     600    23 Jan 2025 19:48:05.928    23 Jan 2025 20:00:01.805           715.877
                     601    24 Jan 2025 05:04:40.571    24 Jan 2025 05:13:23.816           523.245
