3UCubedIntegratedSim/Reports & Plots/North Cusp/NorthCusp LTAN CSV/LTANMidnight.csv

Number,Coverage Start (UTCG),Coverage End (UTCG),Duration (sec),Percent,
1,2025-01-01 16:26:17,2025-01-01 16:31:31,313.664,0.100%,
2,2025-01-01 18:00:58,2025-01-01 18:06:13,314.877,0.100%,
3,2025-01-01 19:36:21,2025-01-01 19:40:53,271.664,0.086%,
4,2025-01-01 21:11:03,2025-01-01 21:15:34,270.912,0.086%,
5,2025-01-01 22:45:44,2025-01-01 22:49:43,238.87,0.076%,
6,2025-01-01 22:49:44,2025-01-01 22:50:26,42.124,0.013%,
7,2025-01-02 00:20:09,2025-01-02 00:25:13,304.43,0.097%,
8,2025-01-02 01:54:47,2025-01-02 01:59:58,310.659,0.099%,
9,2025-01-02 03:29:28,2025-01-02 03:34:41,313.875,0.100%,
10,2025-01-02 05:04:08,2025-01-02 05:09:23,314.885,0.100%,
11,2025-01-02 06:39:32,2025-01-02 06:42:08,155.796,0.049%,
12,2025-01-02 06:42:08,2025-01-02 06:44:03,114.874,0.036%,
13,2025-01-02 08:14:13,2025-01-02 08:18:46,272.541,0.086%,
14,2025-01-02 09:48:55,2025-01-02 09:52:54,238.664,0.076%,
15,2025-01-02 09:52:56,2025-01-02 09:53:37,41.426,0.013%,
16,2025-01-02 11:23:19,2025-01-02 11:28:24,305.218,0.097%,
17,2025-01-02 12:57:58,2025-01-02 13:03:09,311.083,0.099%,
18,2025-01-02 14:32:38,2025-01-02 14:37:52,314.064,0.100%,
19,2025-01-02 16:07:19,2025-01-02 16:12:34,314.871,0.100%,
20,2025-01-02 17:42:42,2025-01-02 17:45:18,156.147,0.050%,
21,2025-01-02 17:45:19,2025-01-02 17:47:14,114.762,0.036%,
22,2025-01-02 19:17:24,2025-01-02 19:21:58,273.936,0.087%,
23,2025-01-02 20:51:55,2025-01-02 20:51:59,3.996,0.001%,
24,2025-01-02 20:52:05,2025-01-02 20:56:04,238.434,0.076%,
25,2025-01-02 20:56:08,2025-01-02 20:56:48,40.447,0.013%,
26,2025-01-02 22:26:29,2025-01-02 22:31:35,305.959,0.097%,
27,2025-01-03 00:01:08,2025-01-03 00:06:19,311.477,0.099%,
28,2025-01-03 01:35:48,2025-01-03 01:41:02,314.231,0.100%,
29,2025-01-03 03:10:29,2025-01-03 03:15:44,314.843,0.100%,
30,2025-01-03 04:45:53,2025-01-03 04:50:24,271.093,0.086%,
31,2025-01-03 06:20:34,2025-01-03 06:25:09,275.171,0.087%,
32,2025-01-03 07:55:03,2025-01-03 07:55:11,7.875,0.003%,
33,2025-01-03 07:55:16,2025-01-03 07:59:14,238.182,0.076%,
34,2025-01-03 07:59:20,2025-01-03 07:59:59,39.64,0.013%,
35,2025-01-03 09:29:39,2025-01-03 09:34:46,306.658,0.097%,
36,2025-01-03 11:04:18,2025-01-03 11:08:06,227.35,0.072%,
37,2025-01-03 11:08:06,2025-01-03 11:09:30,83.667,0.027%,
38,2025-01-03 12:38:58,2025-01-03 12:44:13,314.388,0.100%,
39,2025-01-03 14:13:39,2025-01-03 14:18:54,314.792,0.100%,
40,2025-01-03 15:49:03,2025-01-03 15:53:34,270.853,0.086%,
41,2025-01-03 17:23:44,2025-01-03 17:28:21,276.28,0.088%,
42,2025-01-03 18:58:13,2025-01-03 18:58:23,10.377,0.003%,
43,2025-01-03 18:58:26,2025-01-03 19:02:24,237.916,0.075%,
44,2025-01-03 19:02:30,2025-01-03 19:03:10,40.584,0.013%,
45,2025-01-03 20:32:49,2025-01-03 20:37:56,307.318,0.097%,
46,2025-01-03 22:07:28,2025-01-03 22:11:16,227.381,0.072%,
47,2025-01-03 22:11:18,2025-01-03 22:12:41,82.497,0.026%,
48,2025-01-03 23:42:09,2025-01-03 23:47:23,314.513,0.100%,
49,2025-01-04 01:16:50,2025-01-04 01:22:05,314.721,0.100%,
50,2025-01-04 02:52:13,2025-01-04 02:56:44,270.587,0.086%,
51,2025-01-04 04:26:55,2025-01-04 04:31:32,277.298,0.088%,
52,2025-01-04 06:01:22,2025-01-04 06:01:35,12.363,0.004%,
53,2025-01-04 06:01:37,2025-01-04 06:05:34,237.623,0.075%,
54,2025-01-04 06:05:40,2025-01-04 06:06:21,41.467,0.013%,
55,2025-01-04 07:35:59,2025-01-04 07:41:07,307.932,0.098%,
56,2025-01-04 09:10:39,2025-01-04 09:14:26,227.392,0.072%,
57,2025-01-04 09:14:29,2025-01-04 09:15:51,82.114,0.026%,
58,2025-01-04 10:45:19,2025-01-04 10:50:34,314.625,0.100%,
59,2025-01-04 12:20:00,2025-01-04 12:25:15,314.631,0.100%,
60,2025-01-04 13:55:24,2025-01-04 13:59:54,270.289,0.086%,
61,2025-01-04 15:30:05,2025-01-04 15:34:44,278.23,0.088%,
62,2025-01-04 17:04:32,2025-01-04 17:04:46,14.048,0.005%,
63,2025-01-04 17:04:47,2025-01-04 17:08:45,237.31,0.075%,
64,2025-01-04 17:08:50,2025-01-04 17:09:32,42.298,0.013%,
65,2025-01-04 18:39:09,2025-01-04 18:44:18,308.514,0.098%,
66,2025-01-04 20:13:49,2025-01-04 20:17:36,227.379,0.072%,
67,2025-01-04 20:17:39,2025-01-04 20:19:02,82.492,0.026%,
68,2025-01-04 21:48:30,2025-01-04 21:53:44,314.711,0.100%,
69,2025-01-04 23:23:11,2025-01-04 23:28:25,314.522,0.100%,
70,2025-01-05 00:58:34,2025-01-05 01:03:04,269.964,0.086%,
71,2025-01-05 02:33:16,2025-01-05 02:37:55,279.089,0.089%,
72,2025-01-05 04:07:42,2025-01-05 04:07:57,15.538,0.005%,
73,2025-01-05 04:07:58,2025-01-05 04:11:55,237.519,0.075%,
74,2025-01-05 04:12:00,2025-01-05 04:12:43,43.085,0.014%,
75,2025-01-05 05:42:20,2025-01-05 05:47:29,309.063,0.098%,
76,2025-01-05 07:16:59,2025-01-05 07:20:47,227.445,0.072%,
77,2025-01-05 07:20:50,2025-01-05 07:22:12,82.836,0.026%,
78,2025-01-05 08:51:40,2025-01-05 08:56:55,314.787,0.100%,
79,2025-01-05 10:26:21,2025-01-05 10:31:35,314.394,0.100%,
80,2025-01-05 12:01:45,2025-01-05 12:06:14,269.61,0.086%,
81,2025-01-05 13:36:26,2025-01-05 13:41:06,279.896,0.089%,
82,2025-01-05 15:10:52,2025-01-05 15:15:07,255.499,0.081%,
83,2025-01-05 15:15:10,2025-01-05 15:15:54,43.824,0.014%,
84,2025-01-05 16:45:30,2025-01-05 16:50:39,309.58,0.098%,
85,2025-01-05 18:20:10,2025-01-05 18:23:58,228.739,0.073%,
86,2025-01-05 18:24:00,2025-01-05 18:25:23,83.156,0.026%,
87,2025-01-05 19:54:50,2025-01-05 20:00:05,314.839,0.100%,
88,2025-01-05 21:29:31,2025-01-05 21:34:46,314.24,0.100%,
89,2025-01-05 23:04:55,2025-01-05 23:09:24,269.225,0.085%,
90,2025-01-06 00:39:37,2025-01-06 00:44:17,280.645,0.089%,
91,2025-01-06 02:14:02,2025-01-06 02:18:19,257.231,0.082%,
92,2025-01-06 02:18:20,2025-01-06 02:19:05,44.516,0.014%,
93,2025-01-06 03:48:40,2025-01-06 03:53:50,310.068,0.098%,
94,2025-01-06 05:23:20,2025-01-06 05:27:10,229.92,0.073%,
95,2025-01-06 05:27:10,2025-01-06 05:28:34,83.447,0.027%,
96,2025-01-06 06:58:01,2025-01-06 07:03:15,314.869,0.100%,
97,2025-01-06 08:32:42,2025-01-06 08:37:56,314.071,0.100%,
98,2025-01-06 10:08:05,2025-01-06 10:12:36,270.35,0.086%,
99,2025-01-06 11:42:47,2025-01-06 11:46:46,238.932,0.076%,
100,2025-01-06 11:46:46,2025-01-06 11:47:28,42.3,0.013%,
101,2025-01-06 13:17:12,2025-01-06 13:21:30,258.796,0.082%,
102,2025-01-06 13:21:31,2025-01-06 13:22:16,45.172,0.014%,
103,2025-01-06 14:51:50,2025-01-06 14:57:01,310.523,0.099%,
104,2025-01-06 16:26:30,2025-01-06 16:31:44,313.813,0.100%,
105,2025-01-06 18:01:11,2025-01-06 18:06:26,314.889,0.100%,
106,2025-01-06 19:35:52,2025-01-06 19:39:10,198.122,0.063%,
107,2025-01-06 19:39:11,2025-01-06 19:41:06,115.095,0.037%,
108,2025-01-06 21:11:16,2025-01-06 21:15:48,272.069,0.086%,
109,2025-01-06 22:45:58,2025-01-06 22:49:56,238.73,0.076%,
110,2025-01-06 22:49:58,2025-01-06 22:50:40,41.663,0.013%,
111,2025-01-07 00:20:22,2025-01-07 00:25:27,304.984,0.097%,
112,2025-01-07 01:55:00,2025-01-07 02:00:11,310.956,0.099%,
113,2025-01-07 03:29:41,2025-01-07 03:34:55,314.012,0.100%,
114,2025-01-07 05:04:21,2025-01-07 05:09:36,314.884,0.100%,
115,2025-01-07 06:39:03,2025-01-07 06:42:21,198.121,0.063%,
116,2025-01-07 06:42:21,2025-01-07 06:44:16,114.802,0.036%,
117,2025-01-07 08:14:26,2025-01-07 08:19:00,273.528,0.087%,
118,2025-01-07 09:48:59,2025-01-07 09:49:00,1.348,0.000%,
119,2025-01-07 09:49:08,2025-01-07 09:53:07,238.508,0.076%,
120,2025-01-07 09:53:10,2025-01-07 09:53:51,40.783,0.013%,
121,2025-01-07 11:23:32,2025-01-07 11:28:37,305.737,0.097%,
122,2025-01-07 12:58:11,2025-01-07 13:03:22,311.362,0.099%,
123,2025-01-07 14:32:51,2025-01-07 14:38:05,314.183,0.100%,
124,2025-01-07 16:07:32,2025-01-07 16:12:47,314.853,0.100%,
125,2025-01-07 17:42:13,2025-01-07 17:47:26,313.416,0.099%,
126,2025-01-07 19:17:37,2025-01-07 19:22:12,274.804,0.087%,
127,2025-01-07 20:52:06,2025-01-07 20:52:13,6.932,0.002%,
128,2025-01-07 20:52:19,2025-01-07 20:56:17,238.264,0.076%,
129,2025-01-07 20:56:22,2025-01-07 20:57:02,39.503,0.013%,
130,2025-01-07 22:26:42,2025-01-07 22:31:48,306.448,0.097%,
131,2025-01-08 00:01:21,2025-01-08 00:05:08,227.335,0.072%,
132,2025-01-08 00:05:09,2025-01-08 00:06:33,83.987,0.027%,
133,2025-01-08 01:36:01,2025-01-08 01:41:16,314.337,0.100%,
134,2025-01-08 03:10:42,2025-01-08 03:15:57,314.81,0.100%,
135,2025-01-08 04:45:23,2025-01-08 04:50:37,313.153,0.099%,
136,2025-01-08 06:20:47,2025-01-08 06:25:23,275.952,0.088%,
137,2025-01-08 07:55:16,2025-01-08 07:55:25,9.686,0.003%,
138,2025-01-08 07:55:29,2025-01-08 07:59:27,237.999,0.076%,
139,2025-01-08 07:59:32,2025-01-08 08:00:13,40.3,0.013%,
140,2025-01-08 09:29:52,2025-01-08 09:34:59,307.12,0.097%,
141,2025-01-08 11:04:31,2025-01-08 11:08:19,227.375,0.072%,
142,2025-01-08 11:08:20,2025-01-08 11:09:43,82.881,0.026%,
143,2025-01-08 12:39:12,2025-01-08 12:44:26,314.48,0.100%,
144,2025-01-08 14:13:53,2025-01-08 14:19:07,314.747,0.100%,
145,2025-01-08 15:48:34,2025-01-08 15:53:47,312.866,0.099%,
146,2025-01-08 17:23:58,2025-01-08 17:28:35,276.995,0.088%,
147,2025-01-08 18:58:25,2025-01-08 18:58:37,11.796,0.004%,
148,2025-01-08 18:58:39,2025-01-08 19:02:37,237.713,0.075%,
149,2025-01-08 19:02:43,2025-01-08 19:03:24,41.199,0.013%,
150,2025-01-08 20:33:02,2025-01-08 20:38:10,307.751,0.098%,
151,2025-01-08 22:07:41,2025-01-08 22:11:29,227.391,0.072%,
152,2025-01-08 22:11:32,2025-01-08 22:12:54,81.989,0.026%,
153,2025-01-08 23:42:22,2025-01-08 23:47:37,314.592,0.100%,
154,2025-01-09 01:17:03,2025-01-09 01:22:18,314.662,0.100%,
155,2025-01-09 02:51:44,2025-01-09 02:56:57,312.553,0.099%,
156,2025-01-09 04:27:08,2025-01-09 04:31:46,277.952,0.088%,
157,2025-01-09 06:01:35,2025-01-09 06:01:48,13.562,0.004%,
158,2025-01-09 06:01:50,2025-01-09 06:05:47,237.413,0.075%,
159,2025-01-09 06:05:53,2025-01-09 06:06:35,42.049,0.013%,
160,2025-01-09 07:36:12,2025-01-09 07:41:21,308.339,0.098%,
161,2025-01-09 09:10:52,2025-01-09 09:14:39,227.388,0.072%,
162,2025-01-09 09:14:42,2025-01-09 09:16:05,82.381,0.026%,
163,2025-01-09 10:45:32,2025-01-09 10:50:47,314.687,0.100%,
164,2025-01-09 12:20:13,2025-01-09 12:25:28,314.557,0.100%,
165,2025-01-09 13:54:55,2025-01-09 14:00:07,312.21,0.099%,
166,2025-01-09 15:30:18,2025-01-09 15:34:57,278.834,0.088%,
167,2025-01-09 17:04:45,2025-01-09 17:05:00,15.106,0.005%,
168,2025-01-09 17:05:00,2025-01-09 17:08:58,237.081,0.075%,
169,2025-01-09 17:09:03,2025-01-09 17:09:46,42.85,0.014%,
170,2025-01-09 18:39:22,2025-01-09 18:44:31,308.899,0.098%,
171,2025-01-09 20:14:02,2025-01-09 20:17:49,227.359,0.072%,
172,2025-01-09 20:17:52,2025-01-09 20:19:15,82.738,0.026%,
173,2025-01-09 21:48:43,2025-01-09 21:53:57,314.763,0.100%,
174,2025-01-09 23:23:24,2025-01-09 23:28:38,314.434,0.100%,
175,2025-01-10 00:58:05,2025-01-10 01:03:17,311.841,0.099%,
176,2025-01-10 02:33:29,2025-01-10 02:38:09,279.651,0.089%,
177,2025-01-10 04:07:55,2025-01-10 04:12:09,254.927,0.081%,
178,2025-01-10 04:12:13,2025-01-10 04:12:57,43.603,0.014%,
179,2025-01-10 05:42:33,2025-01-10 05:47:42,309.424,0.098%,
180,2025-01-10 07:17:12,2025-01-10 07:21:01,228.357,0.072%,
181,2025-01-10 07:21:03,2025-01-10 07:22:26,83.061,0.026%,
182,2025-01-10 08:51:53,2025-01-10 08:57:08,314.825,0.100%,
183,2025-01-10 10:26:34,2025-01-10 10:31:48,314.291,0.100%,
184,2025-01-10 12:01:16,2025-01-10 12:01:54,38.648,0.012%,
185,2025-01-10 12:01:58,2025-01-10 12:06:27,269.345,0.085%,
186,2025-01-10 13:36:39,2025-01-10 13:41:20,280.42,0.089%,
187,2025-01-10 15:11:04,2025-01-10 15:15:21,256.724,0.081%,
188,2025-01-10 15:15:23,2025-01-10 15:16:07,44.312,0.014%,
189,2025-01-10 16:45:43,2025-01-10 16:50:53,309.922,0.098%,
190,2025-01-10 18:20:23,2025-01-10 18:24:12,229.569,0.073%,
191,2025-01-10 18:24:13,2025-01-10 18:25:36,83.358,0.026%,
192,2025-01-10 19:55:03,2025-01-10 20:00:18,314.864,0.100%,
193,2025-01-10 21:29:45,2025-01-10 21:34:59,314.123,0.100%,
194,2025-01-10 23:04:26,2025-01-10 23:04:57,30.597,0.010%,
195,2025-01-10 23:05:08,2025-01-10 23:09:38,269.743,0.086%,
196,2025-01-11 00:39:50,2025-01-11 00:44:31,281.134,0.089%,
197,2025-01-11 02:14:14,2025-01-11 02:18:33,258.333,0.082%,
198,2025-01-11 02:18:33,2025-01-11 02:19:18,44.974,0.014%,
199,2025-01-11 03:48:53,2025-01-11 03:54:03,310.389,0.098%,
200,2025-01-11 05:23:33,2025-01-11 05:28:47,313.751,0.100%,
201,2025-01-11 06:58:14,2025-01-11 07:03:29,314.884,0.100%,
202,2025-01-11 08:32:55,2025-01-11 08:36:13,198.14,0.063%,
203,2025-01-11 08:36:13,2025-01-11 08:38:09,115.523,0.037%,
204,2025-01-11 10:07:37,2025-01-11 10:07:59,22.403,0.007%,
205,2025-01-11 10:08:19,2025-01-11 10:12:50,271.577,0.086%,
206,2025-01-11 11:43:00,2025-01-11 11:46:59,238.791,0.076%,
207,2025-01-11 11:47:00,2025-01-11 11:47:42,41.884,0.013%,
208,2025-01-11 13:17:24,2025-01-11 13:22:29,304.744,0.097%,
209,2025-01-11 14:52:03,2025-01-11 14:57:14,310.826,0.099%,
210,2025-01-11 16:26:43,2025-01-11 16:31:57,313.951,0.100%,
211,2025-01-11 18:01:24,2025-01-11 18:06:39,314.883,0.100%,
212,2025-01-11 19:36:05,2025-01-11 19:39:23,198.078,0.063%,
213,2025-01-11 19:39:24,2025-01-11 19:41:19,114.834,0.036%,
214,2025-01-11 21:10:47,2025-01-11 21:11:01,14.077,0.005%,
215,2025-01-11 21:11:29,2025-01-11 21:16:02,273.101,0.087%,
216,2025-01-11 22:46:11,2025-01-11 22:50:09,238.575,0.076%,
217,2025-01-11 22:50:12,2025-01-11 22:50:53,41.085,0.013%,
218,2025-01-12 00:20:34,2025-01-12 00:25:40,305.517,0.097%,
219,2025-01-12 01:55:13,2025-01-12 02:00:25,311.241,0.099%,
220,2025-01-12 03:29:54,2025-01-12 03:35:08,314.134,0.100%,
221,2025-01-12 05:04:34,2025-01-12 05:09:49,314.867,0.100%,
222,2025-01-12 06:39:16,2025-01-12 06:44:29,313.496,0.099%,
223,2025-01-12 08:13:57,2025-01-12 08:14:03,5.62,0.002%,
224,2025-01-12 08:14:39,2025-01-12 08:19:14,274.429,0.087%,
225,2025-01-12 09:49:10,2025-01-12 09:49:15,5.844,0.002%,
226,2025-01-12 09:49:21,2025-01-12 09:53:20,238.338,0.076%,
227,2025-01-12 09:53:24,2025-01-12 09:54:04,39.951,0.013%,
228,2025-01-12 11:23:45,2025-01-12 11:28:51,306.238,0.097%,
229,2025-01-12 12:58:24,2025-01-12 13:02:11,227.32,0.072%,
230,2025-01-12 13:02:11,2025-01-12 13:03:35,84.293,0.027%,
231,2025-01-12 14:33:04,2025-01-12 14:38:18,314.294,0.100%,
232,2025-01-12 16:07:45,2025-01-12 16:13:00,314.824,0.100%,
233,2025-01-12 17:42:26,2025-01-12 17:47:39,313.237,0.099%,
234,2025-01-12 19:17:50,2025-01-12 19:22:25,275.613,0.087%,
235,2025-01-12 20:52:19,2025-01-12 20:52:28,8.949,0.003%,
236,2025-01-12 20:52:32,2025-01-12 20:56:30,238.084,0.076%,
237,2025-01-12 20:56:35,2025-01-12 20:57:15,40.009,0.013%,
238,2025-01-12 22:26:55,2025-01-12 22:32:02,306.919,0.097%,
239,2025-01-13 00:01:34,2025-01-13 00:05:21,227.366,0.072%,
240,2025-01-13 00:05:23,2025-01-13 00:06:46,83.24,0.026%,
241,2025-01-13 01:36:14,2025-01-13 01:41:29,314.434,0.100%,
242,2025-01-13 03:10:55,2025-01-13 03:16:10,314.769,0.100%,
243,2025-01-13 04:45:37,2025-01-13 04:50:50,312.957,0.099%,
244,2025-01-13 06:21:00,2025-01-13 06:25:37,276.689,0.088%,
245,2025-01-13 07:55:28,2025-01-13 07:55:39,11.202,0.004%,
246,2025-01-13 07:55:42,2025-01-13 07:59:40,237.805,0.075%,
247,2025-01-13 07:59:45,2025-01-13 08:00:26,40.928,0.013%,
248,2025-01-13 09:30:05,2025-01-13 09:35:12,307.561,0.098%,
249,2025-01-13 11:04:44,2025-01-13 11:08:32,227.39,0.072%,
250,2025-01-13 11:08:35,2025-01-13 11:09:57,81.979,0.026%,
251,2025-01-13 12:39:25,2025-01-13 12:44:39,314.564,0.100%,
252,2025-01-13 14:14:06,2025-01-13 14:19:20,314.692,0.100%,
253,2025-01-13 15:48:47,2025-01-13 15:54:00,312.65,0.099%,
254,2025-01-13 17:24:11,2025-01-13 17:28:48,277.667,0.088%,
255,2025-01-13 18:58:38,2025-01-13 18:58:51,13.061,0.004%,
256,2025-01-13 18:58:53,2025-01-13 19:02:50,237.503,0.075%,
257,2025-01-13 19:02:55,2025-01-13 19:03:37,41.793,0.013%,
258,2025-01-13 20:33:15,2025-01-13 20:38:23,308.165,0.098%,
259,2025-01-13 22:07:55,2025-01-13 22:11:42,227.391,0.072%,
260,2025-01-13 22:11:45,2025-01-13 22:13:07,82.262,0.026%,
261,2025-01-13 23:42:35,2025-01-13 23:47:50,314.662,0.100%,
262,2025-01-14 01:17:16,2025-01-14 01:22:31,314.595,0.100%,
263,2025-01-14 02:51:57,2025-01-14 02:57:10,312.32,0.099%,
264,2025-01-14 04:27:21,2025-01-14 04:32:00,278.573,0.088%,
265,2025-01-14 06:01:48,2025-01-14 06:02:02,14.659,0.005%,
266,2025-01-14 06:02:03,2025-01-14 06:06:00,237.184,0.075%,
267,2025-01-14 06:06:06,2025-01-14 06:06:48,42.613,0.014%,
268,2025-01-14 07:36:25,2025-01-14 07:41:34,308.733,0.098%,
269,2025-01-14 09:11:05,2025-01-14 09:14:52,227.373,0.072%,
270,2025-01-14 09:14:55,2025-01-14 09:16:18,82.634,0.026%,
271,2025-01-14 10:45:45,2025-01-14 10:51:00,314.745,0.100%,
272,2025-01-14 12:20:26,2025-01-14 12:25:41,314.474,0.100%,
273,2025-01-14 13:55:08,2025-01-14 14:00:20,311.958,0.099%,
274,2025-01-14 15:30:32,2025-01-14 15:35:11,279.411,0.089%,
275,2025-01-14 17:04:57,2025-01-14 17:05:13,16.089,0.005%,
276,2025-01-14 17:05:14,2025-01-14 17:09:12,238.077,0.076%,
277,2025-01-14 17:09:16,2025-01-14 17:09:59,43.377,0.014%,
278,2025-01-14 18:39:35,2025-01-14 18:44:45,309.27,0.098%,
279,2025-01-14 20:14:15,2025-01-14 20:18:03,227.965,0.072%,
280,2025-01-14 20:18:05,2025-01-14 20:19:28,82.968,0.026%,
281,2025-01-14 21:48:56,2025-01-14 21:54:11,314.807,0.100%,
282,2025-01-14 23:23:37,2025-01-14 23:28:51,314.335,0.100%,
283,2025-01-15 00:58:18,2025-01-15 01:03:30,311.568,0.099%,
284,2025-01-15 02:33:42,2025-01-15 02:38:22,280.189,0.089%,
285,2025-01-15 04:08:07,2025-01-15 04:12:23,256.204,0.081%,
286,2025-01-15 04:12:26,2025-01-15 04:13:10,44.101,0.014%,
287,2025-01-15 05:42:46,2025-01-15 05:47:55,309.776,0.098%,
288,2025-01-15 07:17:25,2025-01-15 07:21:15,229.215,0.073%,
289,2025-01-15 07:21:16,2025-01-15 07:22:39,83.275,0.026%,
290,2025-01-15 08:52:06,2025-01-15 08:57:21,314.855,0.100%,
291,2025-01-15 10:26:47,2025-01-15 10:32:01,314.177,0.100%,
292,2025-01-15 12:01:29,2025-01-15 12:06:40,311.172,0.099%,
293,2025-01-15 13:36:53,2025-01-15 13:41:33,280.922,0.089%,
294,2025-01-15 15:11:17,2025-01-15 15:15:35,257.864,0.082%,
295,2025-01-15 15:15:36,2025-01-15 15:16:21,44.778,0.014%,
296,2025-01-15 16:45:56,2025-01-15 16:51:06,310.252,0.098%,
297,2025-01-15 18:20:36,2025-01-15 18:25:49,313.69,0.100%,
298,2025-01-15 19:55:16,2025-01-15 20:00:31,314.881,0.100%,
299,2025-01-15 21:29:58,2025-01-15 21:35:12,313.996,0.100%,
300,2025-01-15 23:04:39,2025-01-15 23:09:52,313.119,0.099%,
301,2025-01-16 00:40:03,2025-01-16 00:44:02,238.855,0.076%,
302,2025-01-16 00:44:03,2025-01-16 00:44:45,42.077,0.013%,
303,2025-01-16 02:14:27,2025-01-16 02:19:32,304.501,0.097%,
304,2025-01-16 03:49:06,2025-01-16 03:54:17,310.699,0.099%,
305,2025-01-16 05:23:46,2025-01-16 05:29:00,313.894,0.100%,
306,2025-01-16 06:58:27,2025-01-16 07:03:42,314.888,0.100%,
307,2025-01-16 08:33:08,2025-01-16 08:36:26,198.096,0.063%,
308,2025-01-16 08:36:27,2025-01-16 08:38:22,114.867,0.036%,
309,2025-01-16 10:07:50,2025-01-16 10:13:04,314.703,0.100%,
310,2025-01-16 11:43:13,2025-01-16 11:47:12,238.647,0.076%,
311,2025-01-16 11:47:14,2025-01-16 11:47:56,41.36,0.013%,
312,2025-01-16 13:17:37,2025-01-16 13:22:43,305.289,0.097%,
313,2025-01-16 14:52:16,2025-01-16 14:57:27,311.117,0.099%,
314,2025-01-16 16:26:56,2025-01-16 16:32:10,314.081,0.100%,
315,2025-01-16 18:01:37,2025-01-16 18:06:52,314.877,0.100%,
316,2025-01-16 19:36:18,2025-01-16 19:39:37,198.504,0.063%,
317,2025-01-16 19:39:37,2025-01-16 19:41:32,114.748,0.036%,
318,2025-01-16 21:11:00,2025-01-16 21:16:16,316.067,0.100%,
319,2025-01-16 22:46:13,2025-01-16 22:46:17,4.504,0.001%,
320,2025-01-16 22:46:24,2025-01-16 22:50:22,238.413,0.076%,
321,2025-01-16 22:50:26,2025-01-16 22:51:07,40.344,0.013%,
322,2025-01-17 00:20:47,2025-01-17 00:25:53,306.028,0.097%,
323,2025-01-17 01:55:26,2025-01-17 02:00:38,311.515,0.099%,
324,2025-01-17 03:30:07,2025-01-17 03:35:21,314.252,0.100%,
325,2025-01-17 05:04:48,2025-01-17 05:10:02,314.838,0.100%,
326,2025-01-17 06:39:29,2025-01-17 06:44:42,313.319,0.099%,
327,2025-01-17 08:14:11,2025-01-17 08:19:28,317.273,0.101%,
328,2025-01-17 09:49:22,2025-01-17 09:49:30,8.145,0.003%,
329,2025-01-17 09:49:34,2025-01-17 09:53:33,238.163,0.076%,
330,2025-01-17 09:53:38,2025-01-17 09:54:18,39.721,0.013%,
331,2025-01-17 11:23:57,2025-01-17 11:29:04,306.717,0.097%,
332,2025-01-17 12:58:37,2025-01-17 13:02:24,227.357,0.072%,
333,2025-01-17 13:02:25,2025-01-17 13:03:49,83.583,0.027%,
334,2025-01-17 14:33:17,2025-01-17 14:38:31,314.395,0.100%,
335,2025-01-17 16:07:58,2025-01-17 16:13:13,314.788,0.100%,
336,2025-01-17 17:42:39,2025-01-17 17:47:52,313.048,0.099%,
337,2025-01-17 19:17:21,2025-01-17 19:22:39,318.359,0.101%,
338,2025-01-17 20:52:31,2025-01-17 20:52:42,10.579,0.003%,
339,2025-01-17 20:52:45,2025-01-17 20:56:43,237.894,0.075%,
340,2025-01-17 20:56:48,2025-01-17 20:57:29,40.654,0.013%,
341,2025-01-17 22:27:08,2025-01-17 22:32:15,307.371,0.098%,
342,2025-01-18 00:01:47,2025-01-18 00:05:34,227.385,0.072%,
343,2025-01-18 00:05:37,2025-01-18 00:06:59,82.391,0.026%,
344,2025-01-18 01:36:27,2025-01-18 01:41:42,314.522,0.100%,
345,2025-01-18 03:11:08,2025-01-18 03:16:23,314.718,0.100%,
346,2025-01-18 04:45:50,2025-01-18 04:51:02,312.75,0.099%,
347,2025-01-18 06:20:31,2025-01-18 06:25:51,319.357,0.101%,
348,2025-01-18 07:55:41,2025-01-18 07:55:53,12.529,0.004%,
349,2025-01-18 07:55:55,2025-01-18 07:59:53,237.6,0.075%,
350,2025-01-18 07:59:58,2025-01-18 08:00:40,41.535,0.013%,
351,2025-01-18 09:30:18,2025-01-18 09:35:26,307.986,0.098%,
352,2025-01-18 11:04:57,2025-01-18 11:08:45,227.394,0.072%,
353,2025-01-18 11:08:48,2025-01-18 11:10:10,82.145,0.026%,
354,2025-01-18 12:39:38,2025-01-18 12:44:52,314.638,0.100%,
355,2025-01-18 14:14:19,2025-01-18 14:19:33,314.626,0.100%,
356,2025-01-18 15:49:00,2025-01-18 15:54:13,312.424,0.099%,
357,2025-01-18 17:23:42,2025-01-18 17:29:02,320.269,0.102%,
358,2025-01-18 18:58:50,2025-01-18 18:59:05,14.197,0.005%,
359,2025-01-18 18:59:06,2025-01-18 19:03:03,237.285,0.075%,
360,2025-01-18 19:03:08,2025-01-18 19:03:51,42.365,0.013%,
361,2025-01-18 20:33:28,2025-01-18 20:38:36,308.565,0.098%,
362,2025-01-18 22:08:08,2025-01-18 22:11:55,227.38,0.072%,
363,2025-01-18 22:11:58,2025-01-18 22:13:20,82.52,0.026%,
364,2025-01-18 23:42:48,2025-01-18 23:48:03,314.723,0.100%,
365,2025-01-19 01:17:29,2025-01-19 01:22:44,314.518,0.100%,
366,2025-01-19 02:52:11,2025-01-19 02:57:23,312.072,0.099%,
367,2025-01-19 04:26:52,2025-01-19 04:32:13,321.117,0.102%,
368,2025-01-19 06:02:00,2025-01-19 06:02:16,15.67,0.005%,
369,2025-01-19 06:02:16,2025-01-19 06:06:14,237.64,0.075%,
370,2025-01-19 06:06:19,2025-01-19 06:07:02,43.144,0.014%,
371,2025-01-19 07:36:38,2025-01-19 07:41:47,309.109,0.098%,
372,2025-01-19 09:11:18,2025-01-19 09:15:05,227.562,0.072%,
373,2025-01-19 09:15:08,2025-01-19 09:16:31,82.872,0.026%,
374,2025-01-19 10:45:58,2025-01-19 10:51:13,314.793,0.100%,
375,2025-01-19 12:20:40,2025-01-19 12:25:54,314.381,0.100%,
376,2025-01-19 13:55:21,2025-01-19 14:00:33,311.689,0.099%,
377,2025-01-19 15:30:03,2025-01-19 15:35:25,321.904,0.102%,
378,2025-01-19 17:05:10,2025-01-19 17:09:26,255.655,0.081%,
379,2025-01-19 17:09:29,2025-01-19 17:10:13,43.884,0.014%,
380,2025-01-19 18:39:48,2025-01-19 18:44:58,309.625,0.098%,
381,2025-01-19 20:14:28,2025-01-19 20:18:17,228.845,0.073%,
382,2025-01-19 20:18:18,2025-01-19 20:19:42,83.182,0.026%,
383,2025-01-19 21:49:09,2025-01-19 21:54:24,314.844,0.100%,
384,2025-01-19 23:23:50,2025-01-19 23:29:04,314.229,0.100%,
385,2025-01-20 00:58:31,2025-01-20 01:03:43,311.283,0.099%,
386,2025-01-20 02:33:13,2025-01-20 02:33:49,35.318,0.011%,
387,2025-01-20 02:33:55,2025-01-20 02:38:36,280.7,0.089%,
388,2025-01-20 04:08:20,2025-01-20 04:12:37,257.375,0.082%,
389,2025-01-20 04:12:39,2025-01-20 04:13:23,44.573,0.014%,
390,2025-01-20 05:42:59,2025-01-20 05:48:09,310.11,0.098%,
391,2025-01-20 07:17:38,2025-01-20 07:21:28,230.016,0.073%,
392,2025-01-20 07:21:29,2025-01-20 07:22:52,83.463,0.027%,
393,2025-01-20 08:52:19,2025-01-20 08:57:34,314.875,0.100%,
394,2025-01-20 10:27:00,2025-01-20 10:32:14,314.055,0.100%,
395,2025-01-20 12:01:42,2025-01-20 12:06:54,312.568,0.099%,
396,2025-01-20 13:36:24,2025-01-20 13:36:48,24.259,0.008%,
397,2025-01-20 13:37:06,2025-01-20 13:41:05,238.919,0.076%,
398,2025-01-20 13:41:05,2025-01-20 13:41:47,42.252,0.013%,
399,2025-01-20 15:11:30,2025-01-20 15:15:49,258.922,0.082%,
400,2025-01-20 15:15:49,2025-01-20 15:16:34,45.226,0.014%,
401,2025-01-20 16:46:09,2025-01-20 16:51:19,310.566,0.099%,
402,2025-01-20 18:20:49,2025-01-20 18:26:03,313.836,0.100%,
403,2025-01-20 19:55:30,2025-01-20 20:00:44,314.887,0.100%,
404,2025-01-20 21:30:11,2025-01-20 21:33:29,198.121,0.063%,
405,2025-01-20 21:33:30,2025-01-20 21:35:25,114.979,0.037%,
406,2025-01-20 23:04:52,2025-01-20 23:10:07,314.243,0.100%,
407,2025-01-21 00:39:34,2025-01-21 00:39:47,13.052,0.004%,
408,2025-01-21 00:40:16,2025-01-21 00:44:15,238.712,0.076%,
409,2025-01-21 00:44:17,2025-01-21 00:44:58,41.61,0.013%,
410,2025-01-21 02:14:40,2025-01-21 02:19:45,305.05,0.097%,
411,2025-01-21 03:49:19,2025-01-21 03:54:30,310.993,0.099%,
412,2025-01-21 05:23:59,2025-01-21 05:29:13,314.026,0.100%,
413,2025-01-21 06:58:40,2025-01-21 07:03:55,314.881,0.100%,
414,2025-01-21 08:33:21,2025-01-21 08:36:39,198.205,0.063%,
415,2025-01-21 08:36:40,2025-01-21 08:38:35,114.79,0.036%,
416,2025-01-21 10:08:03,2025-01-21 10:13:18,315.668,0.100%,
417,2025-01-21 11:42:45,2025-01-21 11:42:46,1.678,0.001%,
418,2025-01-21 11:43:17,2025-01-21 11:43:19,2.469,0.001%,
419,2025-01-21 11:43:27,2025-01-21 11:47:25,238.486,0.076%,
420,2025-01-21 11:47:29,2025-01-21 11:48:09,40.696,0.013%,
421,2025-01-21 13:17:50,2025-01-21 13:22:56,305.806,0.097%,
422,2025-01-21 14:52:29,2025-01-21 14:57:41,311.394,0.099%,
423,2025-01-21 16:27:09,2025-01-21 16:32:24,314.199,0.100%,
424,2025-01-21 18:01:50,2025-01-21 18:07:05,314.856,0.100%,
425,2025-01-21 19:36:32,2025-01-21 19:41:45,313.398,0.099%,
426,2025-01-21 21:11:13,2025-01-21 21:16:30,316.916,0.101%,
427,2025-01-21 22:46:25,2025-01-21 22:46:32,7.229,0.002%,
428,2025-01-21 22:46:37,2025-01-21 22:50:35,238.24,0.076%,
429,2025-01-21 22:50:41,2025-01-21 22:51:20,39.419,0.013%,
430,2025-01-22 00:21:00,2025-01-22 00:26:07,306.514,0.097%,
431,2025-01-22 01:55:39,2025-01-22 01:59:27,227.343,0.072%,
432,2025-01-22 01:59:27,2025-01-22 02:00:51,83.906,0.027%,
433,2025-01-22 03:30:20,2025-01-22 03:35:34,314.354,0.100%,
434,2025-01-22 05:05:01,2025-01-22 05:10:15,314.805,0.100%,
435,2025-01-22 06:39:42,2025-01-22 06:44:55,313.133,0.099%,
436,2025-01-22 08:14:24,2025-01-22 08:19:42,318.037,0.101%,
437,2025-01-22 09:49:34,2025-01-22 09:49:44,9.898,0.003%,
438,2025-01-22 09:49:48,2025-01-22 09:53:46,237.978,0.076%,
439,2025-01-22 09:53:51,2025-01-22 09:54:31,40.376,0.013%,
440,2025-01-22 11:24:10,2025-01-22 11:29:18,307.174,0.097%,
441,2025-01-22 12:58:50,2025-01-22 13:02:37,227.38,0.072%,
442,2025-01-22 13:02:39,2025-01-22 13:04:02,82.786,0.026%,
443,2025-01-22 14:33:30,2025-01-22 14:38:45,314.485,0.100%,
444,2025-01-22 16:08:11,2025-01-22 16:13:26,314.74,0.100%,
445,2025-01-22 17:42:52,2025-01-22 17:48:05,312.842,0.099%,
446,2025-01-22 19:17:34,2025-01-22 19:22:53,319.06,0.101%,
447,2025-01-22 20:52:44,2025-01-22 20:52:56,11.967,0.004%,
448,2025-01-22 20:52:58,2025-01-22 20:56:56,237.691,0.075%,
449,2025-01-22 20:57:01,2025-01-22 20:57:42,41.271,0.013%,
450,2025-01-22 22:27:21,2025-01-22 22:32:28,307.801,0.098%,
451,2025-01-23 00:02:00,2025-01-23 00:05:47,227.393,0.072%,
452,2025-01-23 00:05:50,2025-01-23 00:07:12,82.02,0.026%,
453,2025-01-23 01:36:40,2025-01-23 01:41:55,314.599,0.100%,
454,2025-01-23 03:11:21,2025-01-23 03:16:36,314.657,0.100%,
455,2025-01-23 04:46:03,2025-01-23 04:51:15,312.527,0.099%,
456,2025-01-23 06:20:45,2025-01-23 06:26:05,319.997,0.102%,
457,2025-01-23 07:55:53,2025-01-23 07:56:07,13.705,0.004%,
458,2025-01-23 07:56:09,2025-01-23 08:00:06,237.386,0.075%,
459,2025-01-23 08:00:11,2025-01-23 08:00:53,42.114,0.013%,
460,2025-01-23 09:30:31,2025-01-23 09:35:39,308.391,0.098%,
461,2025-01-23 11:05:10,2025-01-23 11:08:58,227.387,0.072%,
462,2025-01-23 11:09:01,2025-01-23 11:10:23,82.407,0.026%,
463,2025-01-23 12:39:51,2025-01-23 12:45:05,314.702,0.100%,
464,2025-01-23 14:14:32,2025-01-23 14:19:46,314.552,0.100%,
465,2025-01-23 15:49:13,2025-01-23 15:54:25,312.182,0.099%,
466,2025-01-23 17:23:55,2025-01-23 17:29:16,320.862,0.102%,
467,2025-01-23 18:59:03,2025-01-23 18:59:18,15.235,0.005%,
468,2025-01-23 18:59:19,2025-01-23 19:03:16,237.18,0.075%,
469,2025-01-23 19:03:21,2025-01-23 19:04:04,42.911,0.014%,
470,2025-01-23 20:33:41,2025-01-23 20:38:50,308.947,0.098%,
471,2025-01-23 22:08:21,2025-01-23 22:12:08,227.363,0.072%,
472,2025-01-23 22:12:11,2025-01-23 22:13:34,82.764,0.026%,
473,2025-01-23 23:43:01,2025-01-23 23:48:16,314.776,0.100%,
474,2025-01-24 01:17:42,2025-01-24 01:22:57,314.431,0.100%,
475,2025-01-24 02:52:24,2025-01-24 02:57:36,311.81,0.099%,
476,2025-01-24 04:27:06,2025-01-24 04:32:27,321.668,0.102%,
477,2025-01-24 06:02:13,2025-01-24 06:06:28,255.088,0.081%,
478,2025-01-24 06:06:31,2025-01-24 06:07:15,43.657,0.014%,
479,2025-01-24 07:36:51,2025-01-24 07:42:01,309.468,0.098%,
480,2025-01-24 09:11:31,2025-01-24 09:15:19,228.467,0.072%,
481,2025-01-24 09:15:21,2025-01-24 09:16:44,83.093,0.026%,
482,2025-01-24 10:46:12,2025-01-24 10:51:26,314.83,0.100%,
483,2025-01-24 12:20:53,2025-01-24 12:26:07,314.277,0.100%,
484,2025-01-24 13:55:34,2025-01-24 14:00:46,311.408,0.099%,
485,2025-01-24 15:30:16,2025-01-24 15:35:38,322.419,0.102%,
486,2025-01-24 17:05:23,2025-01-24 17:09:40,256.867,0.082%,
487,2025-01-24 17:09:42,2025-01-24 17:10:26,44.368,0.014%,
488,2025-01-24 18:40:01,2025-01-24 18:45:11,309.964,0.098%,
489,2025-01-24 20:14:41,2025-01-24 20:18:31,229.667,0.073%,
490,2025-01-24 20:18:31,2025-01-24 20:19:55,83.382,0.026%,
491,2025-01-24 21:49:22,2025-01-24 21:54:37,314.864,0.100%,
492,2025-01-24 23:24:03,2025-01-24 23:29:17,314.111,0.100%,
493,2025-01-25 00:58:45,2025-01-25 01:03:57,311.981,0.099%,
494,2025-01-25 02:33:26,2025-01-25 02:38:50,323.121,0.103%,
495,2025-01-25 04:08:33,2025-01-25 04:12:51,258.465,0.082%,
496,2025-01-25 04:12:52,2025-01-25 04:13:37,45.027,0.014%,
497,2025-01-25 05:43:11,2025-01-25 05:48:22,310.43,0.098%,
498,2025-01-25 07:17:52,2025-01-25 07:23:05,313.768,0.100%,
499,2025-01-25 08:52:32,2025-01-25 08:57:47,314.886,0.100%,
500,2025-01-25 10:27:13,2025-01-25 10:30:32,198.138,0.063%,
501,2025-01-25 10:30:32,2025-01-25 10:32:27,115.409,0.037%,
502,2025-01-25 12:01:55,2025-01-25 12:07:09,313.763,0.100%,
503,2025-01-25 13:36:37,2025-01-25 13:41:18,280.702,0.089%,
504,2025-01-25 13:41:19,2025-01-25 13:42:01,41.83,0.013%,
505,2025-01-25 15:11:43,2025-01-25 15:16:48,304.81,0.097%,
506,2025-01-25 16:46:22,2025-01-25 16:51:33,310.867,0.099%,
507,2025-01-25 18:21:02,2025-01-25 18:26:16,313.969,0.100%,
508,2025-01-25 19:55:43,2025-01-25 20:00:58,314.885,0.100%,
509,2025-01-25 21:30:24,2025-01-25 21:33:42,198.071,0.063%,
510,2025-01-25 21:33:43,2025-01-25 21:35:38,114.823,0.036%,
511,2025-01-25 23:05:06,2025-01-25 23:10:21,315.248,0.100%,
512,2025-01-26 00:39:47,2025-01-26 00:44:28,280.481,0.089%,
513,2025-01-26 00:44:31,2025-01-26 00:45:12,41.01,0.013%,
514,2025-01-26 02:14:53,2025-01-26 02:19:59,305.579,0.097%,
515,2025-01-26 03:49:32,2025-01-26 03:54:43,311.274,0.099%,
516,2025-01-26 05:24:12,2025-01-26 05:29:26,314.152,0.100%,
517,2025-01-26 06:58:53,2025-01-26 07:04:08,314.865,0.100%,
518,2025-01-26 08:33:34,2025-01-26 08:38:48,313.475,0.099%,
519,2025-01-26 10:08:16,2025-01-26 10:13:32,316.549,0.100%,
520,2025-01-26 11:42:58,2025-01-26 11:47:38,280.235,0.089%,
521,2025-01-26 11:47:43,2025-01-26 11:48:23,39.839,0.013%,
522,2025-01-26 13:18:03,2025-01-26 13:23:09,306.301,0.097%,
523,2025-01-26 14:52:42,2025-01-26 14:56:30,227.329,0.072%,
524,2025-01-26 14:56:30,2025-01-26 14:57:54,84.211,0.027%,
525,2025-01-26 16:27:22,2025-01-26 16:32:37,314.311,0.100%,
526,2025-01-26 18:02:03,2025-01-26 18:07:18,314.822,0.100%,
527,2025-01-26 19:36:45,2025-01-26 19:41:58,313.219,0.099%,
528,2025-01-26 21:11:26,2025-01-26 21:16:44,317.706,0.101%,
529,2025-01-26 22:46:08,2025-01-26 22:50:48,279.971,0.089%,
530,2025-01-26 22:50:54,2025-01-26 22:51:34,40.086,0.013%,
531,2025-01-27 00:21:13,2025-01-27 00:26:20,306.981,0.097%,
532,2025-01-27 01:55:52,2025-01-27 01:59:40,227.372,0.072%,
533,2025-01-27 01:59:41,2025-01-27 02:01:05,83.15,0.026%,
534,2025-01-27 03:30:33,2025-01-27 03:35:47,314.449,0.100%,
535,2025-01-27 05:05:14,2025-01-27 05:10:29,314.763,0.100%,
536,2025-01-27 06:39:55,2025-01-27 06:45:08,312.935,0.099%,
537,2025-01-27 08:14:37,2025-01-27 08:19:56,318.757,0.101%,
538,2025-01-27 09:49:19,2025-01-27 09:49:58,39.128,0.012%,
539,2025-01-27 09:50:01,2025-01-27 09:53:59,237.782,0.075%,
540,2025-01-27 09:54:04,2025-01-27 09:54:45,41.004,0.013%,
541,2025-01-27 11:24:23,2025-01-27 11:29:31,307.613,0.098%,
542,2025-01-27 12:59:03,2025-01-27 13:02:50,227.394,0.072%,
543,2025-01-27 13:02:53,2025-01-27 13:04:15,81.899,0.026%,
544,2025-01-27 14:33:43,2025-01-27 14:38:58,314.572,0.100%,
545,2025-01-27 16:08:24,2025-01-27 16:13:39,314.687,0.100%,
546,2025-01-27 17:43:06,2025-01-27 17:48:18,312.624,0.099%,
547,2025-01-27 19:17:47,2025-01-27 19:23:07,319.718,0.101%,
548,2025-01-27 20:52:29,2025-01-27 20:52:50,21.011,0.007%,
549,2025-01-27 20:52:56,2025-01-27 20:53:09,13.211,0.004%,
550,2025-01-27 20:53:11,2025-01-27 20:57:09,237.48,0.075%,
551,2025-01-27 20:57:14,2025-01-27 20:57:56,41.866,0.013%,
552,2025-01-27 22:27:33,2025-01-27 22:32:42,308.216,0.098%,
553,2025-01-28 00:02:13,2025-01-28 00:06:00,227.392,0.072%,
554,2025-01-28 00:06:03,2025-01-28 00:07:26,82.292,0.026%,
555,2025-01-28 01:36:54,2025-01-28 01:42:08,314.67,0.100%,
556,2025-01-28 03:11:35,2025-01-28 03:16:49,314.589,0.100%,
557,2025-01-28 04:46:16,2025-01-28 04:51:28,312.293,0.099%,
558,2025-01-28 06:20:58,2025-01-28 06:26:18,320.603,0.102%,
559,2025-01-28 07:55:40,2025-01-28 07:55:47,7.183,0.002%,
560,2025-01-28 07:56:06,2025-01-28 07:56:21,14.792,0.005%,
561,2025-01-28 07:56:22,2025-01-28 08:00:19,237.16,0.075%,
562,2025-01-28 08:00:24,2025-01-28 08:01:07,42.674,0.014%,
563,2025-01-28 09:30:44,2025-01-28 09:35:52,308.782,0.098%,
564,2025-01-28 11:05:23,2025-01-28 11:09:11,227.37,0.072%,
565,2025-01-28 11:09:14,2025-01-28 11:10:36,82.657,0.026%,
566,2025-01-28 12:40:04,2025-01-28 12:45:19,314.757,0.100%,
567,2025-01-28 14:14:45,2025-01-28 14:19:59,314.467,0.100%,
568,2025-01-28 15:49:26,2025-01-28 15:54:38,311.926,0.099%,
569,2025-01-28 17:24:08,2025-01-28 17:29:30,321.427,0.102%,
570,2025-01-28 18:59:16,2025-01-28 18:59:32,16.207,0.005%,
571,2025-01-28 18:59:32,2025-01-28 19:03:30,238.185,0.076%,
572,2025-01-28 19:03:34,2025-01-28 19:04:18,43.437,0.014%,
573,2025-01-28 20:33:54,2025-01-28 20:39:03,309.316,0.098%,
574,2025-01-28 22:08:34,2025-01-28 22:12:22,228.074,0.072%,
575,2025-01-28 22:12:24,2025-01-28 22:13:47,82.99,0.026%,
576,2025-01-28 23:43:14,2025-01-28 23:48:29,314.818,0.100%,
577,2025-01-29 01:17:55,2025-01-29 01:23:10,314.328,0.100%,
578,2025-01-29 02:52:37,2025-01-29 02:57:48,311.537,0.099%,
579,2025-01-29 04:27:19,2025-01-29 04:32:41,322.195,0.102%,
580,2025-01-29 06:02:26,2025-01-29 06:06:42,256.349,0.081%,
581,2025-01-29 06:06:44,2025-01-29 06:07:29,44.157,0.014%,
582,2025-01-29 07:37:04,2025-01-29 07:42:14,309.818,0.098%,
583,2025-01-29 09:11:44,2025-01-29 09:15:33,229.313,0.073%,
584,2025-01-29 09:15:34,2025-01-29 09:16:57,83.298,0.026%,
585,2025-01-29 10:46:25,2025-01-29 10:51:39,314.861,0.100%,
586,2025-01-29 12:21:06,2025-01-29 12:26:20,314.164,0.100%,
587,2025-01-29 13:55:47,2025-01-29 14:00:59,311.346,0.099%,
588,2025-01-29 15:30:29,2025-01-29 15:35:52,322.911,0.102%,
589,2025-01-29 17:05:36,2025-01-29 17:09:54,257.995,0.082%,
590,2025-01-29 17:09:55,2025-01-29 17:10:39,44.83,0.014%,
591,2025-01-29 18:40:14,2025-01-29 18:45:25,310.291,0.098%,
592,2025-01-29 20:14:54,2025-01-29 20:20:08,313.707,0.100%,
593,2025-01-29 21:49:35,2025-01-29 21:54:50,314.881,0.100%,
594,2025-01-29 23:24:16,2025-01-29 23:27:34,198.154,0.063%,
595,2025-01-29 23:27:34,2025-01-29 23:29:30,115.823,0.037%,
596,2025-01-30 00:58:58,2025-01-30 01:04:11,313.257,0.099%,
597,2025-01-30 02:33:40,2025-01-30 02:38:20,280.768,0.089%,
598,2025-01-30 02:38:21,2025-01-30 02:39:03,42.029,0.013%,
599,2025-01-30 04:08:46,2025-01-30 04:13:50,304.569,0.097%,
600,2025-01-30 05:43:24,2025-01-30 05:48:35,310.739,0.099%,
601,2025-01-30 07:18:05,2025-01-30 07:23:18,313.91,0.100%,
602,2025-01-30 08:52:45,2025-01-30 08:58:00,314.892,0.100%,
603,2025-01-30 10:27:27,2025-01-30 10:30:45,198.096,0.063%,
604,2025-01-30 10:30:46,2025-01-30 10:32:40,114.858,0.036%,
605,2025-01-30 12:02:08,2025-01-30 12:07:23,314.825,0.100%,
606,2025-01-30 13:36:50,2025-01-30 13:41:31,280.548,0.089%,
607,2025-01-30 13:41:33,2025-01-30 13:42:14,41.29,0.013%,
608,2025-01-30 15:11:56,2025-01-30 15:17:01,305.352,0.097%,
609,2025-01-30 16:46:35,2025-01-30 16:51:46,311.154,0.099%,
610,2025-01-30 18:21:15,2025-01-30 18:26:29,314.096,0.100%,
611,2025-01-30 19:55:56,2025-01-30 20:01:11,314.873,0.100%,
612,2025-01-30 21:30:37,2025-01-30 21:33:56,198.584,0.063%,
613,2025-01-30 21:33:56,2025-01-30 21:35:51,114.739,0.036%,
614,2025-01-30 23:05:19,2025-01-30 23:10:35,316.17,0.100%,
615,2025-01-31 00:40:01,2025-01-31 00:44:41,280.314,0.089%,
616,2025-01-31 00:44:45,2025-01-31 00:45:25,40.249,0.013%,
617,2025-01-31 02:15:06,2025-01-31 02:20:12,306.085,0.097%,
618,2025-01-31 03:49:45,2025-01-31 03:54:57,311.545,0.099%,
619,2025-01-31 05:24:25,2025-01-31 05:29:39,314.266,0.100%,
620,2025-01-31 06:59:06,2025-01-31 07:04:21,314.84,0.100%,
621,2025-01-31 08:33:47,2025-01-31 08:39:01,313.299,0.099%,
622,2025-01-31 10:08:29,2025-01-31 10:13:46,317.364,0.101%,
623,2025-01-31 11:43:11,2025-01-31 11:47:51,280.052,0.089%,
624,2025-01-31 11:47:57,2025-01-31 11:48:36,39.798,0.013%,
625,2025-01-31 13:18:16,2025-01-31 13:23:23,306.775,0.097%,
626,2025-01-31 14:52:55,2025-01-31 14:56:43,227.363,0.072%,
627,2025-01-31 14:56:44,2025-01-31 14:58:07,83.49,0.027%,
628,2025-01-31 16:27:36,2025-01-31 16:32:50,314.411,0.100%,
629,2025-01-31 18:02:16,2025-01-31 18:07:31,314.785,0.100%,
630,2025-01-31 19:36:58,2025-01-31 19:42:11,313.026,0.099%,
631,2025-01-31 21:11:40,2025-01-31 21:16:58,318.444,0.101%,
632,2025-01-31 22:46:22,2025-01-31 22:51:01,279.78,0.089%,
633,2025-01-31 22:51:07,2025-01-31 22:51:47,40.726,0.013%,
634,2025-02-01 00:21:26,2025-02-01 00:26:34,307.43,0.098%,
635,2025-02-01 01:56:06,2025-02-01 01:59:53,227.39,0.072%,
636,2025-02-01 01:59:55,2025-02-01 02:01:18,82.286,0.026%,
637,2025-02-01 03:30:46,2025-02-01 03:36:00,314.539,0.100%,
638,2025-02-01 05:05:27,2025-02-01 05:10:42,314.71,0.100%,
639,2025-02-01 06:40:08,2025-02-01 06:45:21,312.725,0.099%,
640,2025-02-01 08:14:50,2025-02-01 08:20:09,319.433,0.101%,
641,2025-02-01 09:49:32,2025-02-01 09:54:11,279.48,0.089%,
642,2025-02-01 09:54:17,2025-02-01 09:54:58,41.606,0.013%,
643,2025-02-01 11:24:36,2025-02-01 11:29:44,308.035,0.098%,
644,2025-02-01 12:59:16,2025-02-01 13:03:03,227.396,0.072%,
645,2025-02-01 13:03:06,2025-02-01 13:04:28,82.18,0.026%,
646,2025-02-01 14:33:56,2025-02-01 14:39:11,314.644,0.100%,
647,2025-02-01 16:08:37,2025-02-01 16:13:52,314.618,0.100%,
648,2025-02-01 17:43:19,2025-02-01 17:48:31,312.397,0.099%,
649,2025-02-01 19:18:00,2025-02-01 19:23:21,320.34,0.102%,
650,2025-02-01 20:52:42,2025-02-01 20:57:22,279.165,0.089%,
651,2025-02-01 20:57:27,2025-02-01 20:58:09,42.43,0.014%,
652,2025-02-01 22:27:46,2025-02-01 22:32:55,308.614,0.098%,
653,2025-02-02 00:02:26,2025-02-02 00:06:13,227.38,0.072%,
654,2025-02-02 00:06:16,2025-02-02 00:07:39,82.55,0.026%,
655,2025-02-02 01:37:07,2025-02-02 01:42:21,314.731,0.100%,
656,2025-02-02 03:11:48,2025-02-02 03:17:02,314.509,0.100%,
657,2025-02-02 04:46:29,2025-02-02 04:51:41,312.043,0.099%,
658,2025-02-02 06:21:11,2025-02-02 06:26:32,321.18,0.102%,
659,2025-02-02 07:55:53,2025-02-02 07:56:35,41.566,0.013%,
660,2025-02-02 07:56:35,2025-02-02 08:00:33,237.757,0.075%,
661,2025-02-02 08:00:37,2025-02-02 08:01:20,43.207,0.014%,
662,2025-02-02 09:30:57,2025-02-02 09:36:06,309.156,0.098%,
663,2025-02-02 11:05:36,2025-02-02 11:09:24,227.669,0.072%,
664,2025-02-02 11:09:27,2025-02-02 11:10:50,82.891,0.026%,
665,2025-02-02 12:40:17,2025-02-02 12:45:32,314.803,0.100%,
666,2025-02-02 14:14:58,2025-02-02 14:20:12,314.375,0.100%,
667,2025-02-02 15:49:40,2025-02-02 15:54:51,311.662,0.099%,
668,2025-02-02 17:24:21,2025-02-02 17:29:43,321.965,0.102%,
669,2025-02-02 18:59:03,2025-02-02 18:59:27,23.712,0.008%,
670,2025-02-02 18:59:29,2025-02-02 19:03:44,255.804,0.081%,
671,2025-02-02 19:03:47,2025-02-02 19:04:31,43.94,0.014%,
672,2025-02-02 20:34:07,2025-02-02 20:39:16,309.665,0.098%,
673,2025-02-02 22:08:47,2025-02-02 22:12:36,228.948,0.073%,
674,2025-02-02 22:12:37,2025-02-02 22:14:00,83.207,0.026%,
675,2025-02-02 23:43:27,2025-02-02 23:48:42,314.851,0.100%,
676,2025-02-03 01:18:08,2025-02-03 01:23:23,314.219,0.100%,
677,2025-02-03 02:52:50,2025-02-03 02:58:01,311.246,0.099%,
678,2025-02-03 04:27:32,2025-02-03 04:32:55,322.698,0.102%,
679,2025-02-03 06:02:14,2025-02-03 06:02:22,7.639,0.002%,
680,2025-02-03 06:02:39,2025-02-03 06:06:56,257.511,0.082%,
681,2025-02-03 06:06:57,2025-02-03 06:07:42,44.624,0.014%,
682,2025-02-03 07:37:17,2025-02-03 07:42:27,310.149,0.098%,
683,2025-02-03 09:11:57,2025-02-03 09:15:47,230.108,0.073%,
684,2025-02-03 09:15:47,2025-02-03 09:17:11,83.49,0.027%,
685,2025-02-03 10:46:38,2025-02-03 10:51:53,314.882,0.100%,
686,2025-02-03 12:21:19,2025-02-03 12:26:33,314.043,0.100%,
687,2025-02-03 13:56:00,2025-02-03 14:01:13,312.713,0.099%,
688,2025-02-03 15:30:42,2025-02-03 15:35:23,280.83,0.089%,
689,2025-02-03 15:35:23,2025-02-03 15:36:06,42.208,0.013%,
690,2025-02-03 17:05:49,2025-02-03 17:10:08,259.041,0.082%,
691,2025-02-03 17:10:08,2025-02-03 17:10:53,45.275,0.014%,
692,2025-02-03 18:40:27,2025-02-03 18:45:38,310.603,0.099%,
693,2025-02-03 20:15:07,2025-02-03 20:20:21,313.852,0.100%,
694,2025-02-03 21:49:48,2025-02-03 21:55:03,314.892,0.100%,
695,2025-02-03 23:24:29,2025-02-03 23:27:47,198.114,0.063%,
696,2025-02-03 23:27:48,2025-02-03 23:29:43,114.888,0.036%,
697,2025-02-04 00:59:11,2025-02-04 01:04:25,314.365,0.100%,
698,2025-02-04 02:33:53,2025-02-04 02:38:33,280.618,0.089%,
699,2025-02-04 02:38:35,2025-02-04 02:39:17,41.546,0.013%,
700,2025-02-04 04:08:59,2025-02-04 04:14:04,305.118,0.097%,
701,2025-02-04 05:43:37,2025-02-04 05:48:49,311.031,0.099%,
702,2025-02-04 07:18:18,2025-02-04 07:23:32,314.046,0.100%,
703,2025-02-04 08:52:58,2025-02-04 08:58:13,314.882,0.100%,
704,2025-02-04 10:27:40,2025-02-04 10:30:58,198.285,0.063%,
705,2025-02-04 10:30:59,2025-02-04 10:32:53,114.783,0.036%,
706,2025-02-04 12:02:21,2025-02-04 12:07:37,315.773,0.100%,
707,2025-02-04 13:37:03,2025-02-04 13:41:44,280.387,0.089%,
708,2025-02-04 13:41:47,2025-02-04 13:42:28,40.608,0.013%,
709,2025-02-04 15:12:09,2025-02-04 15:17:15,305.866,0.097%,
710,2025-02-04 16:46:48,2025-02-04 16:51:59,311.428,0.099%,
711,2025-02-04 18:21:28,2025-02-04 18:26:42,314.218,0.100%,
712,2025-02-04 19:56:09,2025-02-04 20:01:24,314.852,0.100%,
713,2025-02-04 21:30:50,2025-02-04 21:36:04,313.377,0.099%,
714,2025-02-04 23:05:32,2025-02-04 23:10:49,317.008,0.101%,
715,2025-02-05 00:40:14,2025-02-05 00:44:54,280.139,0.089%,
716,2025-02-05 00:44:59,2025-02-05 00:45:39,39.496,0.013%,
717,2025-02-05 02:15:19,2025-02-05 02:20:25,306.567,0.097%,
718,2025-02-05 03:49:58,2025-02-05 03:53:45,227.352,0.072%,
719,2025-02-05 03:53:46,2025-02-05 03:55:10,83.824,0.027%,
720,2025-02-05 05:24:38,2025-02-05 05:29:53,314.369,0.100%,
721,2025-02-05 06:59:19,2025-02-05 07:04:34,314.805,0.100%,
722,2025-02-05 08:34:01,2025-02-05 08:39:14,313.112,0.099%,
723,2025-02-05 10:08:42,2025-02-05 10:14:00,318.121,0.101%,
724,2025-02-05 11:43:24,2025-02-05 11:48:04,279.862,0.089%,
725,2025-02-05 11:48:09,2025-02-05 11:48:50,40.449,0.013%,
726,2025-02-05 13:18:29,2025-02-05 13:23:36,307.228,0.097%,
727,2025-02-05 14:53:08,2025-02-05 14:56:56,227.384,0.072%,
728,2025-02-05 14:56:58,2025-02-05 14:58:20,82.684,0.026%,
729,2025-02-05 16:27:49,2025-02-05 16:33:03,314.501,0.100%,
730,2025-02-05 18:02:30,2025-02-05 18:07:44,314.737,0.100%,
731,2025-02-05 19:37:11,2025-02-05 19:42:24,312.82,0.099%,
732,2025-02-05 21:11:53,2025-02-05 21:17:12,319.138,0.101%,
733,2025-02-05 22:46:35,2025-02-05 22:51:14,279.575,0.089%,
734,2025-02-05 22:51:20,2025-02-05 22:52:01,41.339,0.013%,
735,2025-02-06 00:21:39,2025-02-06 00:26:47,307.857,0.098%,
736,2025-02-06 01:56:19,2025-02-06 02:00:06,227.397,0.072%,
737,2025-02-06 02:00:09,2025-02-06 02:01:31,82.056,0.026%,
738,2025-02-06 03:30:59,2025-02-06 03:36:14,314.612,0.100%,
739,2025-02-06 05:05:40,2025-02-06 05:10:55,314.649,0.100%,
740,2025-02-06 06:40:21,2025-02-06 06:45:34,312.502,0.099%,
741,2025-02-06 08:15:03,2025-02-06 08:20:23,320.068,0.102%,
742,2025-02-06 09:49:45,2025-02-06 09:54:24,279.264,0.089%,
743,2025-02-06 09:54:30,2025-02-06 09:55:12,42.18,0.013%,
744,2025-02-06 11:24:49,2025-02-06 11:29:58,308.437,0.098%,
745,2025-02-06 12:59:29,2025-02-06 13:03:16,227.39,0.072%,
746,2025-02-06 13:03:19,2025-02-06 13:04:42,82.439,0.026%,
747,2025-02-06 14:34:09,2025-02-06 14:39:24,314.706,0.100%,
748,2025-02-06 16:08:50,2025-02-06 16:14:05,314.542,0.100%,
749,2025-02-06 17:43:32,2025-02-06 17:48:44,312.154,0.099%,
750,2025-02-06 19:18:14,2025-02-06 19:23:35,320.928,0.102%,
751,2025-02-06 20:52:56,2025-02-06 20:57:35,279.205,0.089%,
752,2025-02-06 20:57:40,2025-02-06 20:58:23,42.975,0.014%,
753,2025-02-06 22:27:59,2025-02-06 22:33:08,308.993,0.098%,
754,2025-02-07 00:02:39,2025-02-07 00:06:26,227.356,0.072%,
755,2025-02-07 00:06:29,2025-02-07 00:07:52,82.791,0.026%,
756,2025-02-07 01:37:20,2025-02-07 01:42:34,314.78,0.100%,
757,2025-02-07 03:12:01,2025-02-07 03:17:15,314.416,0.100%,
758,2025-02-07 04:46:42,2025-02-07 04:51:54,311.782,0.099%,
759,2025-02-07 06:21:24,2025-02-07 06:26:46,321.729,0.102%,
760,2025-02-07 07:56:06,2025-02-07 08:00:47,280.61,0.089%,
761,2025-02-07 08:00:50,2025-02-07 08:01:34,43.717,0.014%,
762,2025-02-07 09:31:10,2025-02-07 09:36:19,309.511,0.098%,
763,2025-02-07 11:05:49,2025-02-07 11:09:38,228.565,0.073%,
764,2025-02-07 11:09:40,2025-02-07 11:11:03,83.11,0.026%,
765,2025-02-07 12:40:30,2025-02-07 12:45:45,314.838,0.100%,
766,2025-02-07 14:15:11,2025-02-07 14:20:25,314.267,0.100%,
767,2025-02-07 15:49:53,2025-02-07 15:55:04,311.377,0.099%,
768,2025-02-07 17:24:35,2025-02-07 17:29:57,322.476,0.102%,
769,2025-02-07 18:59:17,2025-02-07 19:03:58,281.826,0.089%,
770,2025-02-07 19:04:00,2025-02-07 19:04:45,44.418,0.014%,
771,2025-02-07 20:34:20,2025-02-07 20:39:30,310.002,0.098%,
772,2025-02-07 22:09:00,2025-02-07 22:12:49,229.761,0.073%,
773,2025-02-07 22:12:50,2025-02-07 22:14:13,83.401,0.026%,
774,2025-02-07 23:43:40,2025-02-07 23:48:55,314.873,0.100%,
775,2025-02-08 01:18:22,2025-02-08 01:23:36,314.099,0.100%,
776,2025-02-08 02:53:03,2025-02-08 02:58:15,312.137,0.099%,
777,2025-02-08 04:27:45,2025-02-08 04:33:08,323.174,0.103%,
778,2025-02-08 06:02:27,2025-02-08 06:02:43,15.552,0.005%,
779,2025-02-08 06:02:51,2025-02-08 06:07:10,258.587,0.082%,
780,2025-02-08 06:07:10,2025-02-08 06:07:55,45.08,0.014%,
781,2025-02-08 07:37:30,2025-02-08 07:42:40,310.463,0.098%,
782,2025-02-08 09:12:10,2025-02-08 09:17:24,313.794,0.100%,
783,2025-02-08 10:46:51,2025-02-08 10:52:06,314.891,0.100%,
784,2025-02-08 12:21:32,2025-02-08 12:24:50,198.131,0.063%,
785,2025-02-08 12:24:51,2025-02-08 12:26:46,115.299,0.037%,
786,2025-02-08 13:56:14,2025-02-08 14:01:27,313.888,0.100%,
787,2025-02-08 15:30:55,2025-02-08 15:35:36,280.685,0.089%,
788,2025-02-08 15:35:38,2025-02-08 15:36:19,41.772,0.013%,
789,2025-02-08 17:06:01,2025-02-08 17:11:06,304.879,0.097%,
790,2025-02-08 18:40:40,2025-02-08 18:45:51,310.901,0.099%,
791,2025-02-08 20:15:20,2025-02-08 20:20:34,313.988,0.100%,
792,2025-02-08 21:50:01,2025-02-08 21:55:16,314.885,0.100%,
793,2025-02-08 23:24:42,2025-02-08 23:28:00,198.066,0.063%,
794,2025-02-08 23:28:01,2025-02-08 23:29:56,114.818,0.036%,
795,2025-02-09 00:59:24,2025-02-09 01:04:39,315.359,0.100%,
796,2025-02-09 02:34:06,2025-02-09 02:38:46,280.459,0.089%,
797,2025-02-09 02:38:49,2025-02-09 02:39:30,40.933,0.013%,
798,2025-02-09 04:09:12,2025-02-09 04:14:17,305.643,0.097%,
799,2025-02-09 05:43:50,2025-02-09 05:49:02,311.314,0.099%,
800,2025-02-09 07:18:31,2025-02-09 07:23:45,314.166,0.100%,
801,2025-02-09 08:53:12,2025-02-09 08:58:26,314.865,0.100%,
802,2025-02-09 10:27:53,2025-02-09 10:33:06,313.456,0.099%,
803,2025-02-09 12:02:34,2025-02-09 12:07:51,316.644,0.100%,
804,2025-02-09 13:37:16,2025-02-09 13:41:57,280.216,0.089%,
805,2025-02-09 13:42:02,2025-02-09 13:42:41,39.73,0.013%,
806,2025-02-09 15:12:22,2025-02-09 15:17:28,306.359,0.097%,
807,2025-02-09 16:47:01,2025-02-09 16:50:48,227.335,0.072%,
808,2025-02-09 16:50:48,2025-02-09 16:52:12,84.131,0.027%,
809,2025-02-09 18:21:41,2025-02-09 18:26:55,314.325,0.100%,
810,2025-02-09 19:56:22,2025-02-09 20:01:37,314.821,0.100%,
811,2025-02-09 21:31:03,2025-02-09 21:36:16,313.196,0.099%,
812,2025-02-09 23:05:45,2025-02-09 23:11:03,317.793,0.101%,
813,2025-02-10 00:40:27,2025-02-10 00:45:07,279.952,0.089%,
814,2025-02-10 00:45:12,2025-02-10 00:45:52,40.158,0.013%,
815,2025-02-10 02:15:32,2025-02-10 02:20:39,307.032,0.097%,
816,2025-02-10 03:50:11,2025-02-10 03:53:58,227.379,0.072%,
817,2025-02-10 03:54:00,2025-02-10 03:55:23,83.055,0.026%,
818,2025-02-10 05:24:51,2025-02-10 05:30:06,314.465,0.100%,
819,2025-02-10 06:59:32,2025-02-10 07:04:47,314.761,0.100%,
820,2025-02-10 08:34:14,2025-02-10 08:39:27,312.913,0.099%,
821,2025-02-10 10:08:55,2025-02-10 10:14:14,318.837,0.101%,
822,2025-02-10 11:43:37,2025-02-10 11:48:17,279.665,0.089%,
823,2025-02-10 11:48:22,2025-02-10 11:49:03,41.07,0.013%,
824,2025-02-10 13:18:42,2025-02-10 13:23:50,307.665,0.098%,
825,2025-02-10 14:53:21,2025-02-10 14:57:09,227.4,0.072%,
826,2025-02-10 14:57:12,2025-02-10 14:58:34,81.927,0.026%,
827,2025-02-10 16:28:02,2025-02-10 16:33:16,314.581,0.100%,
828,2025-02-10 18:02:43,2025-02-10 18:07:57,314.678,0.100%,
829,2025-02-10 19:37:24,2025-02-10 19:42:37,312.601,0.099%,
830,2025-02-10 21:12:06,2025-02-10 21:17:26,319.791,0.101%,
831,2025-02-10 22:46:48,2025-02-10 22:51:27,279.366,0.089%,
832,2025-02-10 22:51:33,2025-02-10 22:52:14,41.927,0.013%,
833,2025-02-11 00:21:52,2025-02-11 00:27:00,308.269,0.098%,
834,2025-02-11 01:56:32,2025-02-11 02:00:19,227.394,0.072%,
835,2025-02-11 02:00:22,2025-02-11 02:01:44,82.327,0.026%,
836,2025-02-11 03:31:12,2025-02-11 03:36:27,314.679,0.100%,
837,2025-02-11 05:05:53,2025-02-11 05:11:08,314.582,0.100%,
838,2025-02-11 06:40:35,2025-02-11 06:45:47,312.267,0.099%,
839,2025-02-11 08:15:16,2025-02-11 08:20:37,320.672,0.102%,
840,2025-02-11 09:49:58,2025-02-11 09:54:37,279.038,0.089%,
841,2025-02-11 09:54:43,2025-02-11 09:55:25,42.733,0.014%,
842,2025-02-11 11:25:02,2025-02-11 11:30:11,308.825,0.098%,
843,2025-02-11 12:59:42,2025-02-11 13:03:29,227.373,0.072%,
844,2025-02-11 13:03:32,2025-02-11 13:04:55,82.686,0.026%,
845,2025-02-11 14:34:22,2025-02-11 14:39:37,314.758,0.100%,
846,2025-02-11 16:09:03,2025-02-11 16:14:18,314.456,0.100%,
847,2025-02-11 17:43:45,2025-02-11 17:48:57,311.901,0.099%,
848,2025-02-11 19:18:27,2025-02-11 19:23:48,321.489,0.102%,
849,2025-02-11 20:53:09,2025-02-11 20:57:49,280.199,0.089%,
850,2025-02-11 20:57:53,2025-02-11 20:58:36,43.492,0.014%,
851,2025-02-11 22:28:12,2025-02-11 22:33:22,309.356,0.098%,
852,2025-02-12 00:02:52,2025-02-12 00:06:40,228.176,0.072%,
853,2025-02-12 00:06:42,2025-02-12 00:08:05,83.02,0.026%,
854,2025-02-12 01:37:33,2025-02-12 01:42:48,314.821,0.100%,
855,2025-02-12 03:12:14,2025-02-12 03:17:28,314.316,0.100%,
856,2025-02-12 04:46:55,2025-02-12 04:52:07,311.504,0.099%,
857,2025-02-12 06:21:37,2025-02-12 06:26:59,322.253,0.102%,
858,2025-02-12 07:56:19,2025-02-12 08:01:01,281.472,0.089%,
859,2025-02-12 08:01:03,2025-02-12 08:01:47,44.21,0.014%,
860,2025-02-12 09:31:23,2025-02-12 09:36:32,309.857,0.098%,
861,2025-02-12 11:06:02,2025-02-12 11:09:52,229.41,0.073%,
862,2025-02-12 11:09:53,2025-02-12 11:11:16,83.315,0.026%,
863,2025-02-12 12:40:43,2025-02-12 12:45:58,314.867,0.100%,
864,2025-02-12 14:15:24,2025-02-12 14:20:38,314.155,0.100%,
865,2025-02-12 15:50:06,2025-02-12 15:55:17,311.514,0.099%,
866,2025-02-12 17:24:48,2025-02-12 17:30:11,322.965,0.102%,
867,2025-02-12 18:59:30,2025-02-12 18:59:53,23.224,0.007%,
868,2025-02-12 18:59:54,2025-02-12 19:04:12,258.118,0.082%,
869,2025-02-12 19:04:13,2025-02-12 19:04:58,44.879,0.014%,
870,2025-02-12 20:34:33,2025-02-12 20:39:43,310.327,0.098%,
871,2025-02-12 22:09:13,2025-02-12 22:14:26,313.724,0.100%,
872,2025-02-12 23:43:53,2025-02-12 23:49:08,314.887,0.100%,
873,2025-02-13 01:18:35,2025-02-13 01:21:53,198.15,0.063%,
874,2025-02-13 01:21:53,2025-02-13 01:23:49,115.719,0.037%,
875,2025-02-13 02:53:16,2025-02-13 02:58:30,313.388,0.099%,
876,2025-02-13 04:27:58,2025-02-13 04:32:39,280.752,0.089%,
877,2025-02-13 04:32:40,2025-02-13 04:33:22,41.98,0.013%,
878,2025-02-13 06:02:40,2025-02-13 06:02:44,3.469,0.001%,
879,2025-02-13 06:03:04,2025-02-13 06:08:09,304.632,0.097%,
880,2025-02-13 07:37:43,2025-02-13 07:42:54,310.768,0.099%,
881,2025-02-13 09:12:23,2025-02-13 09:17:37,313.935,0.100%,
882,2025-02-13 10:47:04,2025-02-13 10:52:19,314.891,0.100%,
883,2025-02-13 12:21:45,2025-02-13 12:25:03,198.089,0.063%,
884,2025-02-13 12:25:04,2025-02-13 12:26:59,114.851,0.036%,
885,2025-02-13 13:56:27,2025-02-13 14:01:42,314.93,0.100%,
886,2025-02-13 15:31:09,2025-02-13 15:35:49,280.529,0.089%,
887,2025-02-13 15:35:52,2025-02-13 15:36:33,41.22,0.013%,
888,2025-02-13 17:06:14,2025-02-13 17:11:20,305.418,0.097%,
889,2025-02-13 18:40:53,2025-02-13 18:46:04,311.188,0.099%,
890,2025-02-13 20:15:33,2025-02-13 20:20:48,314.114,0.100%,
891,2025-02-13 21:50:14,2025-02-13 21:55:29,314.869,0.100%,
892,2025-02-13 23:24:56,2025-02-13 23:28:14,198.66,0.063%,
893,2025-02-13 23:28:14,2025-02-13 23:30:09,114.729,0.036%,
894,2025-02-14 00:59:37,2025-02-14 01:04:53,316.266,0.100%,
895,2025-02-14 02:34:19,2025-02-14 02:38:59,280.295,0.089%,
896,2025-02-14 02:39:04,2025-02-14 02:39:44,40.15,0.013%,
897,2025-02-14 04:09:24,2025-02-14 04:14:31,306.147,0.097%,
898,2025-02-14 05:44:04,2025-02-14 05:49:15,311.583,0.099%,
899,2025-02-14 07:18:44,2025-02-14 07:23:58,314.28,0.100%,
900,2025-02-14 08:53:25,2025-02-14 08:58:39,314.838,0.100%,
901,2025-02-14 10:28:06,2025-02-14 10:33:19,313.282,0.099%,
902,2025-02-14 12:02:48,2025-02-14 12:08:05,317.452,0.101%,
903,2025-02-14 13:37:30,2025-02-14 13:42:10,280.034,0.089%,
904,2025-02-14 13:42:15,2025-02-14 13:42:55,39.871,0.013%,
905,2025-02-14 15:12:35,2025-02-14 15:17:41,306.829,0.097%,
906,2025-02-14 16:47:14,2025-02-14 16:51:01,227.367,0.072%,
907,2025-02-14 16:51:02,2025-02-14 16:52:26,83.403,0.026%,
908,2025-02-14 18:21:54,2025-02-14 18:27:09,314.421,0.100%,
909,2025-02-14 19:56:35,2025-02-14 20:01:50,314.781,0.100%,
910,2025-02-14 21:31:16,2025-02-14 21:36:29,313.002,0.099%,
911,2025-02-14 23:05:58,2025-02-14 23:11:17,318.525,0.101%,
912,2025-02-15 00:40:40,2025-02-15 00:45:20,279.757,0.089%,
913,2025-02-15 00:45:25,2025-02-15 00:46:06,40.794,0.013%,
914,2025-02-15 02:15:45,2025-02-15 02:20:52,307.475,0.098%,
915,2025-02-15 03:50:24,2025-02-15 03:54:11,227.396,0.072%,
916,2025-02-15 03:54:14,2025-02-15 03:55:36,82.18,0.026%,
917,2025-02-15 05:25:04,2025-02-15 05:30:19,314.55,0.100%,
918,2025-02-15 06:59:45,2025-02-15 07:05:00,314.707,0.100%,
919,2025-02-15 08:34:27,2025-02-15 08:39:40,312.7,0.099%,
920,2025-02-15 10:09:09,2025-02-15 10:14:28,319.506,0.101%,
921,2025-02-15 11:43:51,2025-02-15 11:48:30,279.46,0.089%,
922,2025-02-15 11:48:35,2025-02-15 11:49:17,41.67,0.013%,
923,2025-02-15 13:18:55,2025-02-15 13:24:03,308.084,0.098%,
924,2025-02-15 14:53:34,2025-02-15 14:57:22,227.401,0.072%,
925,2025-02-15 14:57:25,2025-02-15 14:58:47,82.211,0.026%,
926,2025-02-15 16:28:15,2025-02-15 16:33:29,314.652,0.100%,
927,2025-02-15 18:02:56,2025-02-15 18:08:10,314.614,0.100%,
928,2025-02-15 19:37:37,2025-02-15 19:42:50,312.374,0.099%,
929,2025-02-15 21:12:19,2025-02-15 21:17:39,320.41,0.102%,
930,2025-02-15 22:47:01,2025-02-15 22:51:40,279.14,0.089%,
931,2025-02-15 22:51:45,2025-02-15 22:52:28,42.492,0.014%,
932,2025-02-16 00:22:05,2025-02-16 00:27:14,308.66,0.098%,
933,2025-02-16 01:56:45,2025-02-16 02:00:32,227.379,0.072%,
934,2025-02-16 02:00:35,2025-02-16 02:01:58,82.578,0.026%,
935,2025-02-16 03:31:25,2025-02-16 03:36:40,314.737,0.100%,
936,2025-02-16 05:06:06,2025-02-16 05:11:21,314.497,0.100%,
937,2025-02-16 06:40:48,2025-02-16 06:46:00,312.016,0.099%,
938,2025-02-16 08:15:29,2025-02-16 08:20:51,321.245,0.102%,
939,2025-02-16 09:50:11,2025-02-16 09:54:51,279.774,0.089%,
940,2025-02-16 09:54:56,2025-02-16 09:55:39,43.267,0.014%,
941,2025-02-16 11:25:15,2025-02-16 11:30:24,309.196,0.098%,
942,2025-02-16 12:59:55,2025-02-16 13:03:43,227.775,0.072%,
943,2025-02-16 13:03:45,2025-02-16 13:05:08,82.922,0.026%,
944,2025-02-16 14:34:35,2025-02-16 14:39:50,314.802,0.100%,
945,2025-02-16 16:09:17,2025-02-16 16:14:31,314.36,0.100%,
946,2025-02-16 17:43:58,2025-02-16 17:49:10,311.632,0.099%,
947,2025-02-16 19:18:40,2025-02-16 19:24:02,322.022,0.102%,
948,2025-02-16 20:53:22,2025-02-16 20:58:03,281.094,0.089%,
949,2025-02-16 20:58:06,2025-02-16 20:58:50,43.995,0.014%,
950,2025-02-16 22:28:25,2025-02-16 22:33:35,309.706,0.098%,
951,2025-02-17 00:03:05,2025-02-17 00:06:54,229.038,0.073%,
952,2025-02-17 00:06:55,2025-02-17 00:08:19,83.231,0.026%,
953,2025-02-17 01:37:46,2025-02-17 01:43:01,314.854,0.100%,
954,2025-02-17 03:12:27,2025-02-17 03:17:41,314.207,0.100%,
955,2025-02-17 04:47:09,2025-02-17 04:52:20,311.215,0.099%,
956,2025-02-17 06:21:50,2025-02-17 06:27:13,322.751,0.102%,
957,2025-02-17 07:56:32,2025-02-17 07:56:48,15.542,0.005%,
958,2025-02-17 07:56:57,2025-02-17 08:01:15,257.632,0.082%,
959,2025-02-17 08:01:16,2025-02-17 08:02:01,44.68,0.014%,
960,2025-02-17 09:31:36,2025-02-17 09:36:46,310.186,0.098%,
961,2025-02-17 11:06:16,2025-02-17 11:11:29,313.659,0.100%,
962,2025-02-17 12:40:56,2025-02-17 12:46:11,314.883,0.100%,
963,2025-02-17 14:15:37,2025-02-17 14:20:51,314.03,0.100%,
964,2025-02-17 15:50:19,2025-02-17 15:55:32,312.854,0.099%,
965,2025-02-17 17:25:01,2025-02-17 17:29:42,280.815,0.089%,
966,2025-02-17 17:29:42,2025-02-17 17:30:24,42.164,0.013%,
967,2025-02-17 19:00:07,2025-02-17 19:05:11,304.383,0.097%,
968,2025-02-17 20:34:46,2025-02-17 20:39:56,310.636,0.099%,
969,2025-02-17 22:09:26,2025-02-17 22:14:40,313.867,0.100%,
970,2025-02-17 23:44:07,2025-02-17 23:49:21,314.891,0.100%,
971,2025-02-18 01:18:48,2025-02-18 01:22:06,198.11,0.063%,
972,2025-02-18 01:22:07,2025-02-18 01:24:02,114.88,0.036%,
973,2025-02-18 02:53:29,2025-02-18 02:58:44,314.483,0.100%,
974,2025-02-18 04:28:11,2025-02-18 04:32:52,280.603,0.089%,
975,2025-02-18 04:32:54,2025-02-18 04:33:35,41.482,0.013%,
976,2025-02-18 06:03:17,2025-02-18 06:08:22,305.176,0.097%,
977,2025-02-18 07:37:56,2025-02-18 07:43:07,311.058,0.099%,
978,2025-02-18 09:12:36,2025-02-18 09:17:50,314.064,0.100%,
979,2025-02-18 10:47:17,2025-02-18 10:52:32,314.878,0.100%,
980,2025-02-18 12:21:58,2025-02-18 12:25:17,198.363,0.063%,
981,2025-02-18 12:25:17,2025-02-18 12:27:12,114.771,0.036%,
982,2025-02-18 13:56:40,2025-02-18 14:01:56,315.872,0.100%,
983,2025-02-18 15:31:22,2025-02-18 15:36:02,280.366,0.089%,
984,2025-02-18 15:36:06,2025-02-18 15:36:46,40.525,0.013%,
985,2025-02-18 17:06:27,2025-02-18 17:11:33,305.925,0.097%,
986,2025-02-18 18:41:06,2025-02-18 18:46:18,311.46,0.099%,
987,2025-02-18 20:15:46,2025-02-18 20:21:01,314.229,0.100%,
988,2025-02-18 21:50:27,2025-02-18 21:55:42,314.846,0.100%,
989,2025-02-18 23:25:09,2025-02-18 23:30:22,313.357,0.099%,
990,2025-02-19 00:59:50,2025-02-19 01:05:07,317.102,0.101%,
991,2025-02-19 02:34:32,2025-02-19 02:39:12,280.116,0.089%,
992,2025-02-19 02:39:18,2025-02-19 02:39:58,39.571,0.013%,
993,2025-02-19 04:09:37,2025-02-19 04:14:44,306.625,0.097%,
994,2025-02-19 05:44:17,2025-02-19 05:48:04,227.356,0.072%,
995,2025-02-19 05:48:05,2025-02-19 05:49:28,83.742,0.027%,
996,2025-02-19 07:18:57,2025-02-19 07:24:11,314.38,0.100%,
997,2025-02-19 08:53:38,2025-02-19 08:58:53,314.802,0.100%,
998,2025-02-19 10:28:19,2025-02-19 10:33:32,313.09,0.099%,
999,2025-02-19 12:03:01,2025-02-19 12:08:19,318.202,0.101%,
1000,2025-02-19 13:37:43,2025-02-19 13:42:23,279.843,0.089%,
1001,2025-02-19 13:42:28,2025-02-19 13:43:09,40.516,0.013%,
1002,2025-02-19 15:12:47,2025-02-19 15:17:55,307.279,0.097%,
1003,2025-02-19 16:47:27,2025-02-19 16:51:14,227.386,0.072%,
1004,2025-02-19 16:51:16,2025-02-19 16:52:39,82.585,0.026%,
1005,2025-02-19 18:22:07,2025-02-19 18:27:22,314.509,0.100%,
1006,2025-02-19 19:56:48,2025-02-19 20:02:03,314.735,0.100%,
