3UCubedIntegratedSim/Reports & Plots/Area Target Access Data/CSV/Sat0.csv

Access,Start Time (UTCG),Stop Time (UTCG),Duration (sec),,,Global Statistics,,,,
1,2025-01-01 16:16:06,2025-01-01 16:20:22,256.423,,,Min Duration,5414,2025-12-23 19:22:26,2025-12-23 19:26:42,256.089
2,2025-01-01 17:50:50,2025-01-01 17:55:07,256.285,,,Max Duration,3316,2025-08-07 18:38:17,2025-08-07 18:42:41,264.199
3,2025-01-01 19:25:35,2025-01-01 19:29:51,256.319,,,Mean Duration,,,,258.87
4,2025-01-01 21:00:19,2025-01-01 21:04:36,256.521,,,Total Duration,,,,1436210.57
5,2025-01-01 22:35:03,2025-01-01 22:39:20,256.897,,,,,,,
6,2025-01-02 00:09:47,2025-01-02 00:14:04,257.437,,,,,,,
7,2025-01-02 01:44:31,2025-01-02 01:48:49,258.141,,,,,,,
8,2025-01-02 03:19:14,2025-01-02 03:23:33,259.006,,,,,,,
9,2025-01-02 04:53:57,2025-01-02 04:58:17,260.031,,,,,,,
10,2025-01-02 06:28:41,2025-01-02 06:33:02,261.22,,,,,,,
11,2025-01-02 08:03:24,2025-01-02 08:07:46,262.568,,,,,,,
12,2025-01-02 09:38:07,2025-01-02 09:42:31,264.073,,,,,,,
13,2025-01-02 11:12:52,2025-01-02 11:17:15,262.529,,,,,,,
14,2025-01-02 12:47:38,2025-01-02 12:51:59,261.074,,,,,,,
15,2025-01-02 14:22:24,2025-01-02 14:26:44,259.82,,,,,,,
16,2025-01-02 15:57:09,2025-01-02 16:01:28,258.764,,,,,,,
17,2025-01-02 17:31:55,2025-01-02 17:36:13,257.896,,,,,,,
18,2025-01-02 19:06:40,2025-01-02 19:10:57,257.224,,,,,,,
19,2025-01-02 20:41:25,2025-01-02 20:45:41,256.732,,,,,,,
20,2025-01-02 22:16:09,2025-01-02 22:20:26,256.418,,,,,,,
21,2025-01-02 23:50:54,2025-01-02 23:55:10,256.281,,,,,,,
22,2025-01-03 01:25:38,2025-01-03 01:29:54,256.319,,,,,,,
23,2025-01-03 03:00:22,2025-01-03 03:04:39,256.527,,,,,,,
24,2025-01-03 04:35:06,2025-01-03 04:39:23,256.902,,,,,,,
25,2025-01-03 06:09:50,2025-01-03 06:14:08,257.444,,,,,,,
26,2025-01-03 07:44:34,2025-01-03 07:48:52,258.149,,,,,,,
27,2025-01-03 09:19:17,2025-01-03 09:23:36,259.017,,,,,,,
28,2025-01-03 10:54:01,2025-01-03 10:58:21,260.046,,,,,,,
29,2025-01-03 12:28:44,2025-01-03 12:33:05,261.233,,,,,,,
30,2025-01-03 14:03:27,2025-01-03 14:07:50,262.583,,,,,,,
31,2025-01-03 15:38:10,2025-01-03 15:42:34,264.091,,,,,,,
32,2025-01-03 17:12:56,2025-01-03 17:17:18,262.505,,,,,,,
33,2025-01-03 18:47:42,2025-01-03 18:52:03,261.057,,,,,,,
34,2025-01-03 20:22:27,2025-01-03 20:26:47,259.807,,,,,,,
35,2025-01-03 21:57:13,2025-01-03 22:01:31,258.752,,,,,,,
36,2025-01-03 23:31:58,2025-01-03 23:36:16,257.889,,,,,,,
37,2025-01-04 01:06:43,2025-01-04 01:11:00,257.217,,,,,,,
38,2025-01-04 02:41:28,2025-01-04 02:45:45,256.726,,,,,,,
39,2025-01-04 04:16:13,2025-01-04 04:20:29,256.416,,,,,,,
40,2025-01-04 05:50:57,2025-01-04 05:55:13,256.281,,,,,,,
41,2025-01-04 07:25:41,2025-01-04 07:29:58,256.32,,,,,,,
42,2025-01-04 09:00:26,2025-01-04 09:04:42,256.53,,,,,,,
43,2025-01-04 10:35:10,2025-01-04 10:39:27,256.907,,,,,,,
44,2025-01-04 12:09:53,2025-01-04 12:14:11,257.449,,,,,,,
45,2025-01-04 13:44:37,2025-01-04 13:48:55,258.158,,,,,,,
46,2025-01-04 15:19:21,2025-01-04 15:23:40,259.023,,,,,,,
47,2025-01-04 16:54:04,2025-01-04 16:58:24,260.059,,,,,,,
48,2025-01-04 18:28:47,2025-01-04 18:33:08,261.25,,,,,,,
49,2025-01-04 20:03:30,2025-01-04 20:07:53,262.599,,,,,,,
50,2025-01-04 21:38:13,2025-01-04 21:42:37,264.108,,,,,,,
51,2025-01-04 23:12:59,2025-01-04 23:17:22,262.493,,,,,,,
52,2025-01-05 00:47:45,2025-01-05 00:52:06,261.037,,,,,,,
53,2025-01-05 02:22:31,2025-01-05 02:26:50,259.791,,,,,,,
54,2025-01-05 03:57:16,2025-01-05 04:01:35,258.74,,,,,,,
55,2025-01-05 05:32:01,2025-01-05 05:36:19,257.881,,,,,,,
56,2025-01-05 07:06:46,2025-01-05 07:11:04,257.209,,,,,,,
57,2025-01-05 08:41:31,2025-01-05 08:45:48,256.721,,,,,,,
58,2025-01-05 10:16:16,2025-01-05 10:20:32,256.413,,,,,,,
59,2025-01-05 11:51:00,2025-01-05 11:55:17,256.28,,,,,,,
60,2025-01-05 13:25:45,2025-01-05 13:30:01,256.321,,,,,,,
61,2025-01-05 15:00:29,2025-01-05 15:04:45,256.533,,,,,,,
62,2025-01-05 16:35:13,2025-01-05 16:39:30,256.912,,,,,,,
63,2025-01-05 18:09:57,2025-01-05 18:14:14,257.457,,,,,,,
64,2025-01-05 19:44:40,2025-01-05 19:48:59,258.163,,,,,,,
65,2025-01-05 21:19:24,2025-01-05 21:23:43,259.038,,,,,,,
66,2025-01-05 22:54:07,2025-01-05 22:58:27,260.069,,,,,,,
67,2025-01-06 00:28:51,2025-01-06 00:33:12,261.265,,,,,,,
68,2025-01-06 02:03:34,2025-01-06 02:07:56,262.615,,,,,,,
69,2025-01-06 03:38:16,2025-01-06 03:42:41,264.13,,,,,,,
70,2025-01-06 05:13:02,2025-01-06 05:17:25,262.473,,,,,,,
71,2025-01-06 06:47:48,2025-01-06 06:52:09,261.024,,,,,,,
72,2025-01-06 08:22:34,2025-01-06 08:26:54,259.778,,,,,,,
73,2025-01-06 09:57:19,2025-01-06 10:01:38,258.729,,,,,,,
74,2025-01-06 11:32:05,2025-01-06 11:36:23,257.872,,,,,,,
75,2025-01-06 13:06:50,2025-01-06 13:11:07,257.2,,,,,,,
76,2025-01-06 14:41:35,2025-01-06 14:45:51,256.716,,,,,,,
77,2025-01-06 16:16:19,2025-01-06 16:20:36,256.412,,,,,,,
78,2025-01-06 17:51:04,2025-01-06 17:55:20,256.275,,,,,,,
79,2025-01-06 19:25:48,2025-01-06 19:30:04,256.321,,,,,,,
80,2025-01-06 21:00:32,2025-01-06 21:04:49,256.536,,,,,,,
81,2025-01-06 22:35:16,2025-01-06 22:39:33,256.915,,,,,,,
82,2025-01-07 00:10:00,2025-01-07 00:14:18,257.463,,,,,,,
83,2025-01-07 01:44:44,2025-01-07 01:49:02,258.173,,,,,,,
84,2025-01-07 03:19:27,2025-01-07 03:23:46,259.049,,,,,,,
85,2025-01-07 04:54:11,2025-01-07 04:58:31,260.084,,,,,,,
86,2025-01-07 06:28:54,2025-01-07 06:33:15,261.278,,,,,,,
87,2025-01-07 08:03:37,2025-01-07 08:08:00,262.632,,,,,,,
88,2025-01-07 09:38:20,2025-01-07 09:42:44,264.113,,,,,,,
89,2025-01-07 11:13:06,2025-01-07 11:17:28,262.455,,,,,,,
90,2025-01-07 12:47:52,2025-01-07 12:52:13,261.005,,,,,,,
91,2025-01-07 14:22:37,2025-01-07 14:26:57,259.764,,,,,,,
92,2025-01-07 15:57:23,2025-01-07 16:01:41,258.717,,,,,,,
93,2025-01-07 17:32:08,2025-01-07 17:36:26,257.858,,,,,,,
94,2025-01-07 19:06:53,2025-01-07 19:11:10,257.194,,,,,,,
95,2025-01-07 20:41:38,2025-01-07 20:45:55,256.711,,,,,,,
96,2025-01-07 22:16:23,2025-01-07 22:20:39,256.406,,,,,,,
97,2025-01-07 23:51:07,2025-01-07 23:55:23,256.277,,,,,,,
98,2025-01-08 01:25:51,2025-01-08 01:30:08,256.323,,,,,,,
99,2025-01-08 03:00:36,2025-01-08 03:04:52,256.539,,,,,,,
100,2025-01-08 04:35:20,2025-01-08 04:39:37,256.922,,,,,,,
101,2025-01-08 06:10:03,2025-01-08 06:14:21,257.471,,,,,,,
102,2025-01-08 07:44:47,2025-01-08 07:49:05,258.184,,,,,,,
103,2025-01-08 09:19:31,2025-01-08 09:23:50,259.06,,,,,,,
104,2025-01-08 10:54:14,2025-01-08 10:58:34,260.096,,,,,,,
105,2025-01-08 12:28:57,2025-01-08 12:33:18,261.291,,,,,,,
106,2025-01-08 14:03:40,2025-01-08 14:08:03,262.649,,,,,,,
107,2025-01-08 15:38:23,2025-01-08 15:42:47,264.092,,,,,,,
108,2025-01-08 17:13:09,2025-01-08 17:17:32,262.431,,,,,,,
109,2025-01-08 18:47:55,2025-01-08 18:52:16,260.992,,,,,,,
110,2025-01-08 20:22:41,2025-01-08 20:27:00,259.751,,,,,,,
111,2025-01-08 21:57:26,2025-01-08 22:01:45,258.705,,,,,,,
112,2025-01-08 23:32:11,2025-01-08 23:36:29,257.851,,,,,,,
113,2025-01-09 01:06:56,2025-01-09 01:11:14,257.188,,,,,,,
114,2025-01-09 02:41:41,2025-01-09 02:45:58,256.706,,,,,,,
115,2025-01-09 04:16:26,2025-01-09 04:20:42,256.404,,,,,,,
116,2025-01-09 05:51:10,2025-01-09 05:55:27,256.277,,,,,,,
117,2025-01-09 07:25:55,2025-01-09 07:30:11,256.324,,,,,,,
118,2025-01-09 09:00:39,2025-01-09 09:04:55,256.542,,,,,,,
119,2025-01-09 10:35:23,2025-01-09 10:39:40,256.927,,,,,,,
120,2025-01-09 12:10:07,2025-01-09 12:14:24,257.477,,,,,,,
121,2025-01-09 13:44:50,2025-01-09 13:49:09,258.193,,,,,,,
122,2025-01-09 15:19:34,2025-01-09 15:23:53,259.066,,,,,,,
123,2025-01-09 16:54:17,2025-01-09 16:58:37,260.109,,,,,,,
124,2025-01-09 18:29:00,2025-01-09 18:33:22,261.307,,,,,,,
125,2025-01-09 20:03:44,2025-01-09 20:08:06,262.665,,,,,,,
126,2025-01-09 21:38:27,2025-01-09 21:42:51,264.063,,,,,,,
127,2025-01-09 23:13:13,2025-01-09 23:17:35,262.417,,,,,,,
128,2025-01-10 00:47:58,2025-01-10 00:52:19,260.972,,,,,,,
129,2025-01-10 02:22:44,2025-01-10 02:27:04,259.735,,,,,,,
130,2025-01-10 03:57:29,2025-01-10 04:01:48,258.694,,,,,,,
131,2025-01-10 05:32:15,2025-01-10 05:36:33,257.843,,,,,,,
132,2025-01-10 07:07:00,2025-01-10 07:11:17,257.18,,,,,,,
133,2025-01-10 08:41:45,2025-01-10 08:46:01,256.7,,,,,,,
134,2025-01-10 10:16:29,2025-01-10 10:20:46,256.4,,,,,,,
135,2025-01-10 11:51:14,2025-01-10 11:55:30,256.276,,,,,,,
136,2025-01-10 13:25:58,2025-01-10 13:30:14,256.325,,,,,,,
137,2025-01-10 15:00:42,2025-01-10 15:04:59,256.545,,,,,,,
138,2025-01-10 16:35:26,2025-01-10 16:39:43,256.932,,,,,,,
139,2025-01-10 18:10:10,2025-01-10 18:14:28,257.487,,,,,,,
140,2025-01-10 19:44:54,2025-01-10 19:49:12,258.198,,,,,,,
141,2025-01-10 21:19:37,2025-01-10 21:23:56,259.08,,,,,,,
142,2025-01-10 22:54:21,2025-01-10 22:58:41,260.12,,,,,,,
143,2025-01-11 00:29:04,2025-01-11 00:33:25,261.322,,,,,,,
144,2025-01-11 02:03:47,2025-01-11 02:08:10,262.68,,,,,,,
145,2025-01-11 03:38:30,2025-01-11 03:42:54,264.048,,,,,,,
146,2025-01-11 05:13:16,2025-01-11 05:17:38,262.4,,,,,,,
147,2025-01-11 06:48:02,2025-01-11 06:52:23,260.959,,,,,,,
148,2025-01-11 08:22:47,2025-01-11 08:27:07,259.722,,,,,,,
149,2025-01-11 09:57:33,2025-01-11 10:01:51,258.682,,,,,,,
150,2025-01-11 11:32:18,2025-01-11 11:36:36,257.833,,,,,,,
151,2025-01-11 13:07:03,2025-01-11 13:11:20,257.17,,,,,,,
152,2025-01-11 14:41:48,2025-01-11 14:46:05,256.695,,,,,,,
153,2025-01-11 16:16:33,2025-01-11 16:20:49,256.397,,,,,,,
154,2025-01-11 17:51:17,2025-01-11 17:55:33,256.27,,,,,,,
155,2025-01-11 19:26:01,2025-01-11 19:30:18,256.324,,,,,,,
156,2025-01-11 21:00:46,2025-01-11 21:05:02,256.547,,,,,,,
157,2025-01-11 22:35:30,2025-01-11 22:39:47,256.934,,,,,,,
158,2025-01-12 00:10:13,2025-01-12 00:14:31,257.49,,,,,,,
159,2025-01-12 01:44:57,2025-01-12 01:49:15,258.207,,,,,,,
160,2025-01-12 03:19:41,2025-01-12 03:24:00,259.091,,,,,,,
161,2025-01-12 04:54:24,2025-01-12 04:58:44,260.133,,,,,,,
162,2025-01-12 06:29:07,2025-01-12 06:33:28,261.335,,,,,,,
163,2025-01-12 08:03:50,2025-01-12 08:08:13,262.697,,,,,,,
164,2025-01-12 09:38:33,2025-01-12 09:42:57,264.027,,,,,,,
165,2025-01-12 11:13:19,2025-01-12 11:17:42,262.379,,,,,,,
166,2025-01-12 12:48:05,2025-01-12 12:52:26,260.939,,,,,,,
167,2025-01-12 14:22:51,2025-01-12 14:27:10,259.707,,,,,,,
168,2025-01-12 15:57:36,2025-01-12 16:01:55,258.669,,,,,,,
169,2025-01-12 17:32:21,2025-01-12 17:36:39,257.819,,,,,,,
170,2025-01-12 19:07:06,2025-01-12 19:11:24,257.164,,,,,,,
171,2025-01-12 20:41:51,2025-01-12 20:46:08,256.689,,,,,,,
172,2025-01-12 22:16:36,2025-01-12 22:20:52,256.392,,,,,,,
173,2025-01-12 23:51:20,2025-01-12 23:55:37,256.271,,,,,,,
174,2025-01-13 01:26:05,2025-01-13 01:30:21,256.326,,,,,,,
175,2025-01-13 03:00:49,2025-01-13 03:05:05,256.549,,,,,,,
176,2025-01-13 04:35:33,2025-01-13 04:39:50,256.94,,,,,,,
177,2025-01-13 06:10:17,2025-01-13 06:14:34,257.497,,,,,,,
178,2025-01-13 07:45:00,2025-01-13 07:49:19,258.218,,,,,,,
179,2025-01-13 09:19:44,2025-01-13 09:24:03,259.101,,,,,,,
180,2025-01-13 10:54:27,2025-01-13 10:58:47,260.145,,,,,,,
181,2025-01-13 12:29:10,2025-01-13 12:33:32,261.347,,,,,,,
182,2025-01-13 14:03:53,2025-01-13 14:08:16,262.712,,,,,,,
183,2025-01-13 15:38:37,2025-01-13 15:43:01,264.001,,,,,,,
184,2025-01-13 17:13:23,2025-01-13 17:17:45,262.355,,,,,,,
185,2025-01-13 18:48:08,2025-01-13 18:52:29,260.925,,,,,,,
186,2025-01-13 20:22:54,2025-01-13 20:27:14,259.693,,,,,,,
187,2025-01-13 21:57:39,2025-01-13 22:01:58,258.656,,,,,,,
188,2025-01-13 23:32:25,2025-01-13 23:36:42,257.811,,,,,,,
189,2025-01-14 01:07:10,2025-01-14 01:11:27,257.156,,,,,,,
190,2025-01-14 02:41:55,2025-01-14 02:46:11,256.683,,,,,,,
191,2025-01-14 04:16:39,2025-01-14 04:20:56,256.389,,,,,,,
192,2025-01-14 05:51:24,2025-01-14 05:55:40,256.271,,,,,,,
193,2025-01-14 07:26:08,2025-01-14 07:30:24,256.326,,,,,,,
194,2025-01-14 09:00:52,2025-01-14 09:05:09,256.552,,,,,,,
195,2025-01-14 10:35:36,2025-01-14 10:39:53,256.945,,,,,,,
196,2025-01-14 12:10:20,2025-01-14 12:14:38,257.502,,,,,,,
197,2025-01-14 13:45:04,2025-01-14 13:49:22,258.226,,,,,,,
198,2025-01-14 15:19:47,2025-01-14 15:24:06,259.106,,,,,,,
199,2025-01-14 16:54:31,2025-01-14 16:58:51,260.157,,,,,,,
200,2025-01-14 18:29:14,2025-01-14 18:33:35,261.363,,,,,,,
201,2025-01-14 20:03:57,2025-01-14 20:08:20,262.728,,,,,,,
202,2025-01-14 21:38:40,2025-01-14 21:43:04,263.975,,,,,,,
203,2025-01-14 23:13:26,2025-01-14 23:17:48,262.339,,,,,,,
204,2025-01-15 00:48:12,2025-01-15 00:52:33,260.904,,,,,,,
205,2025-01-15 02:22:57,2025-01-15 02:27:17,259.677,,,,,,,
206,2025-01-15 03:57:43,2025-01-15 04:02:01,258.645,,,,,,,
207,2025-01-15 05:32:28,2025-01-15 05:36:46,257.803,,,,,,,
208,2025-01-15 07:07:13,2025-01-15 07:11:30,257.149,,,,,,,
209,2025-01-15 08:41:58,2025-01-15 08:46:15,256.678,,,,,,,
210,2025-01-15 10:16:43,2025-01-15 10:20:59,256.386,,,,,,,
211,2025-01-15 11:51:27,2025-01-15 11:55:43,256.27,,,,,,,
212,2025-01-15 13:26:11,2025-01-15 13:30:28,256.327,,,,,,,
213,2025-01-15 15:00:56,2025-01-15 15:05:12,256.554,,,,,,,
214,2025-01-15 16:35:40,2025-01-15 16:39:57,256.949,,,,,,,
215,2025-01-15 18:10:23,2025-01-15 18:14:41,257.51,,,,,,,
216,2025-01-15 19:45:07,2025-01-15 19:49:25,258.231,,,,,,,
217,2025-01-15 21:19:51,2025-01-15 21:24:10,259.121,,,,,,,
218,2025-01-15 22:54:34,2025-01-15 22:58:54,260.169,,,,,,,
219,2025-01-16 00:29:17,2025-01-16 00:33:38,261.378,,,,,,,
220,2025-01-16 02:04:00,2025-01-16 02:08:23,262.743,,,,,,,
221,2025-01-16 03:38:43,2025-01-16 03:43:07,263.962,,,,,,,
222,2025-01-16 05:13:29,2025-01-16 05:17:52,262.319,,,,,,,
223,2025-01-16 06:48:15,2025-01-16 06:52:36,260.891,,,,,,,
224,2025-01-16 08:23:01,2025-01-16 08:27:20,259.664,,,,,,,
225,2025-01-16 09:57:46,2025-01-16 10:02:05,258.633,,,,,,,
226,2025-01-16 11:32:31,2025-01-16 11:36:49,257.794,,,,,,,
227,2025-01-16 13:07:16,2025-01-16 13:11:34,257.139,,,,,,,
228,2025-01-16 14:42:01,2025-01-16 14:46:18,256.673,,,,,,,
229,2025-01-16 16:16:46,2025-01-16 16:21:02,256.383,,,,,,,
230,2025-01-16 17:51:30,2025-01-16 17:55:47,256.264,,,,,,,
231,2025-01-16 19:26:15,2025-01-16 19:30:31,256.326,,,,,,,
232,2025-01-16 21:00:59,2025-01-16 21:05:15,256.557,,,,,,,
233,2025-01-16 22:35:43,2025-01-16 22:40:00,256.952,,,,,,,
234,2025-01-17 00:10:27,2025-01-17 00:14:44,257.516,,,,,,,
235,2025-01-17 01:45:10,2025-01-17 01:49:29,258.24,,,,,,,
236,2025-01-17 03:19:54,2025-01-17 03:24:13,259.132,,,,,,,
237,2025-01-17 04:54:37,2025-01-17 04:58:57,260.182,,,,,,,
238,2025-01-17 06:29:20,2025-01-17 06:33:42,261.391,,,,,,,
239,2025-01-17 08:04:03,2025-01-17 08:08:26,262.761,,,,,,,
240,2025-01-17 09:38:47,2025-01-17 09:43:11,263.936,,,,,,,
241,2025-01-17 11:13:33,2025-01-17 11:17:55,262.302,,,,,,,
242,2025-01-17 12:48:18,2025-01-17 12:52:39,260.872,,,,,,,
243,2025-01-17 14:23:04,2025-01-17 14:27:24,259.65,,,,,,,
244,2025-01-17 15:57:49,2025-01-17 16:02:08,258.621,,,,,,,
245,2025-01-17 17:32:35,2025-01-17 17:36:52,257.78,,,,,,,
246,2025-01-17 19:07:20,2025-01-17 19:11:37,257.134,,,,,,,
247,2025-01-17 20:42:05,2025-01-17 20:46:21,256.667,,,,,,,
248,2025-01-17 22:16:49,2025-01-17 22:21:06,256.379,,,,,,,
249,2025-01-17 23:51:34,2025-01-17 23:55:50,256.266,,,,,,,
250,2025-01-18 01:26:18,2025-01-18 01:30:34,256.329,,,,,,,
251,2025-01-18 03:01:02,2025-01-18 03:05:19,256.56,,,,,,,
252,2025-01-18 04:35:46,2025-01-18 04:40:03,256.959,,,,,,,
253,2025-01-18 06:10:30,2025-01-18 06:14:48,257.524,,,,,,,
254,2025-01-18 07:45:14,2025-01-18 07:49:32,258.252,,,,,,,
255,2025-01-18 09:19:57,2025-01-18 09:24:16,259.143,,,,,,,
256,2025-01-18 10:54:41,2025-01-18 10:59:01,260.195,,,,,,,
257,2025-01-18 12:29:24,2025-01-18 12:33:45,261.404,,,,,,,
258,2025-01-18 14:04:07,2025-01-18 14:08:29,262.777,,,,,,,
259,2025-01-18 15:38:50,2025-01-18 15:43:14,263.916,,,,,,,
260,2025-01-18 17:13:36,2025-01-18 17:17:58,262.28,,,,,,,
261,2025-01-18 18:48:22,2025-01-18 18:52:43,260.859,,,,,,,
262,2025-01-18 20:23:07,2025-01-18 20:27:27,259.637,,,,,,,
263,2025-01-18 21:57:53,2025-01-18 22:02:11,258.609,,,,,,,
264,2025-01-18 23:32:38,2025-01-18 23:36:56,257.773,,,,,,,
265,2025-01-19 01:07:23,2025-01-19 01:11:40,257.127,,,,,,,
266,2025-01-19 02:42:08,2025-01-19 02:46:25,256.663,,,,,,,
267,2025-01-19 04:16:53,2025-01-19 04:21:09,256.377,,,,,,,
268,2025-01-19 05:51:37,2025-01-19 05:55:53,256.267,,,,,,,
269,2025-01-19 07:26:21,2025-01-19 07:30:38,256.33,,,,,,,
270,2025-01-19 09:01:06,2025-01-19 09:05:22,256.564,,,,,,,
271,2025-01-19 10:35:50,2025-01-19 10:40:07,256.965,,,,,,,
272,2025-01-19 12:10:33,2025-01-19 12:14:51,257.53,,,,,,,
273,2025-01-19 13:45:17,2025-01-19 13:49:35,258.261,,,,,,,
274,2025-01-19 15:20:01,2025-01-19 15:24:20,259.149,,,,,,,
275,2025-01-19 16:54:44,2025-01-19 16:59:04,260.208,,,,,,,
276,2025-01-19 18:29:27,2025-01-19 18:33:48,261.421,,,,,,,
277,2025-01-19 20:04:10,2025-01-19 20:08:33,262.793,,,,,,,
278,2025-01-19 21:38:53,2025-01-19 21:43:17,263.891,,,,,,,
279,2025-01-19 23:13:39,2025-01-19 23:18:02,262.264,,,,,,,
280,2025-01-20 00:48:25,2025-01-20 00:52:46,260.84,,,,,,,
281,2025-01-20 02:23:11,2025-01-20 02:27:30,259.626,,,,,,,
282,2025-01-20 03:57:56,2025-01-20 04:02:15,258.599,,,,,,,
283,2025-01-20 05:32:41,2025-01-20 05:36:59,257.766,,,,,,,
284,2025-01-20 07:07:26,2025-01-20 07:11:44,257.12,,,,,,,
285,2025-01-20 08:42:11,2025-01-20 08:46:28,256.658,,,,,,,
286,2025-01-20 10:16:56,2025-01-20 10:21:12,256.375,,,,,,,
287,2025-01-20 11:51:40,2025-01-20 11:55:57,256.266,,,,,,,
288,2025-01-20 13:26:25,2025-01-20 13:30:41,256.332,,,,,,,
289,2025-01-20 15:01:09,2025-01-20 15:05:25,256.567,,,,,,,
290,2025-01-20 16:35:53,2025-01-20 16:40:10,256.97,,,,,,,
291,2025-01-20 18:10:37,2025-01-20 18:14:54,257.539,,,,,,,
292,2025-01-20 19:45:20,2025-01-20 19:49:39,258.267,,,,,,,
293,2025-01-20 21:20:04,2025-01-20 21:24:23,259.165,,,,,,,
294,2025-01-20 22:54:47,2025-01-20 22:59:07,260.22,,,,,,,
295,2025-01-21 00:29:30,2025-01-21 00:33:52,261.437,,,,,,,
296,2025-01-21 02:04:13,2025-01-21 02:08:36,262.809,,,,,,,
297,2025-01-21 03:38:57,2025-01-21 03:43:21,263.874,,,,,,,
298,2025-01-21 05:13:43,2025-01-21 05:18:05,262.247,,,,,,,
299,2025-01-21 06:48:28,2025-01-21 06:52:49,260.828,,,,,,,
300,2025-01-21 08:23:14,2025-01-21 08:27:34,259.609,,,,,,,
301,2025-01-21 09:57:59,2025-01-21 10:02:18,258.588,,,,,,,
302,2025-01-21 11:32:45,2025-01-21 11:37:02,257.757,,,,,,,
303,2025-01-21 13:07:30,2025-01-21 13:11:47,257.112,,,,,,,
304,2025-01-21 14:42:15,2025-01-21 14:46:31,256.654,,,,,,,
305,2025-01-21 16:16:59,2025-01-21 16:21:16,256.372,,,,,,,
306,2025-01-21 17:51:44,2025-01-21 17:56:00,256.262,,,,,,,
307,2025-01-21 19:26:28,2025-01-21 19:30:44,256.332,,,,,,,
308,2025-01-21 21:01:12,2025-01-21 21:05:29,256.571,,,,,,,
309,2025-01-21 22:35:56,2025-01-21 22:40:13,256.978,,,,,,,
310,2025-01-22 00:10:40,2025-01-22 00:14:58,257.545,,,,,,,
311,2025-01-22 01:45:24,2025-01-22 01:49:42,258.277,,,,,,,
312,2025-01-22 03:20:07,2025-01-22 03:24:26,259.177,,,,,,,
313,2025-01-22 04:54:50,2025-01-22 04:59:11,260.234,,,,,,,
314,2025-01-22 06:29:34,2025-01-22 06:33:55,261.451,,,,,,,
315,2025-01-22 08:04:17,2025-01-22 08:08:39,262.829,,,,,,,
316,2025-01-22 09:39:00,2025-01-22 09:43:24,263.854,,,,,,,
317,2025-01-22 11:13:46,2025-01-22 11:18:08,262.23,,,,,,,
318,2025-01-22 12:48:32,2025-01-22 12:52:53,260.809,,,,,,,
319,2025-01-22 14:23:17,2025-01-22 14:27:37,259.596,,,,,,,
320,2025-01-22 15:58:03,2025-01-22 16:02:21,258.577,,,,,,,
321,2025-01-22 17:32:48,2025-01-22 17:37:06,257.744,,,,,,,
322,2025-01-22 19:07:33,2025-01-22 19:11:50,257.107,,,,,,,
323,2025-01-22 20:42:18,2025-01-22 20:46:35,256.649,,,,,,,
324,2025-01-22 22:17:03,2025-01-22 22:21:19,256.369,,,,,,,
325,2025-01-22 23:51:47,2025-01-22 23:56:03,256.264,,,,,,,
326,2025-01-23 01:26:31,2025-01-23 01:30:48,256.335,,,,,,,
327,2025-01-23 03:01:16,2025-01-23 03:05:32,256.574,,,,,,,
328,2025-01-23 04:36:00,2025-01-23 04:40:16,256.981,,,,,,,
329,2025-01-23 06:10:43,2025-01-23 06:15:01,257.553,,,,,,,
330,2025-01-23 07:45:27,2025-01-23 07:49:45,258.289,,,,,,,
331,2025-01-23 09:20:10,2025-01-23 09:24:30,259.188,,,,,,,
332,2025-01-23 10:54:54,2025-01-23 10:59:14,260.247,,,,,,,
333,2025-01-23 12:29:37,2025-01-23 12:33:58,261.464,,,,,,,
334,2025-01-23 14:04:20,2025-01-23 14:08:43,262.844,,,,,,,
335,2025-01-23 15:39:03,2025-01-23 15:43:27,263.834,,,,,,,
336,2025-01-23 17:13:49,2025-01-23 17:18:12,262.207,,,,,,,
337,2025-01-23 18:48:35,2025-01-23 18:52:56,260.796,,,,,,,
338,2025-01-23 20:23:21,2025-01-23 20:27:40,259.584,,,,,,,
339,2025-01-23 21:58:06,2025-01-23 22:02:25,258.565,,,,,,,
340,2025-01-23 23:32:51,2025-01-23 23:37:09,257.738,,,,,,,
341,2025-01-24 01:07:36,2025-01-24 01:11:54,257.1,,,,,,,
342,2025-01-24 02:42:21,2025-01-24 02:46:38,256.644,,,,,,,
343,2025-01-24 04:17:06,2025-01-24 04:21:22,256.367,,,,,,,
344,2025-01-24 05:51:50,2025-01-24 05:56:07,256.265,,,,,,,
345,2025-01-24 07:26:35,2025-01-24 07:30:51,256.336,,,,,,,
346,2025-01-24 09:01:19,2025-01-24 09:05:35,256.578,,,,,,,
347,2025-01-24 10:36:03,2025-01-24 10:40:20,256.986,,,,,,,
348,2025-01-24 12:10:47,2025-01-24 12:15:04,257.56,,,,,,,
349,2025-01-24 13:45:30,2025-01-24 13:49:49,258.298,,,,,,,
350,2025-01-24 15:20:14,2025-01-24 15:24:33,259.194,,,,,,,
351,2025-01-24 16:54:57,2025-01-24 16:59:17,260.26,,,,,,,
352,2025-01-24 18:29:40,2025-01-24 18:34:02,261.481,,,,,,,
353,2025-01-24 20:04:23,2025-01-24 20:08:46,262.861,,,,,,,
354,2025-01-24 21:39:07,2025-01-24 21:43:31,263.809,,,,,,,
355,2025-01-24 23:13:53,2025-01-24 23:18:15,262.192,,,,,,,
356,2025-01-25 00:48:39,2025-01-25 00:52:59,260.777,,,,,,,
357,2025-01-25 02:23:24,2025-01-25 02:27:44,259.568,,,,,,,
358,2025-01-25 03:58:10,2025-01-25 04:02:28,258.554,,,,,,,
359,2025-01-25 05:32:55,2025-01-25 05:37:12,257.73,,,,,,,
360,2025-01-25 07:07:40,2025-01-25 07:11:57,257.093,,,,,,,
361,2025-01-25 08:42:25,2025-01-25 08:46:41,256.641,,,,,,,
362,2025-01-25 10:17:09,2025-01-25 10:21:26,256.364,,,,,,,
363,2025-01-25 11:51:54,2025-01-25 11:56:10,256.264,,,,,,,
364,2025-01-25 13:26:38,2025-01-25 13:30:54,256.338,,,,,,,
365,2025-01-25 15:01:22,2025-01-25 15:05:39,256.581,,,,,,,
366,2025-01-25 16:36:06,2025-01-25 16:40:23,256.993,,,,,,,
367,2025-01-25 18:10:50,2025-01-25 18:15:08,257.568,,,,,,,
368,2025-01-25 19:45:34,2025-01-25 19:49:52,258.304,,,,,,,
369,2025-01-25 21:20:17,2025-01-25 21:24:36,259.209,,,,,,,
370,2025-01-25 22:55:00,2025-01-25 22:59:21,260.272,,,,,,,
371,2025-01-26 00:29:44,2025-01-26 00:34:05,261.496,,,,,,,
372,2025-01-26 02:04:27,2025-01-26 02:08:49,262.876,,,,,,,
373,2025-01-26 03:39:10,2025-01-26 03:43:34,263.791,,,,,,,
374,2025-01-26 05:13:56,2025-01-26 05:18:18,262.174,,,,,,,
375,2025-01-26 06:48:42,2025-01-26 06:53:03,260.764,,,,,,,
376,2025-01-26 08:23:27,2025-01-26 08:27:47,259.555,,,,,,,
377,2025-01-26 09:58:13,2025-01-26 10:02:31,258.542,,,,,,,
378,2025-01-26 11:32:58,2025-01-26 11:37:16,257.721,,,,,,,
379,2025-01-26 13:07:43,2025-01-26 13:12:00,257.084,,,,,,,
380,2025-01-26 14:42:28,2025-01-26 14:46:45,256.634,,,,,,,
381,2025-01-26 16:17:13,2025-01-26 16:21:29,256.361,,,,,,,
382,2025-01-26 17:51:57,2025-01-26 17:56:13,256.259,,,,,,,
383,2025-01-26 19:26:41,2025-01-26 19:30:58,256.337,,,,,,,
384,2025-01-26 21:01:26,2025-01-26 21:05:42,256.584,,,,,,,
385,2025-01-26 22:36:09,2025-01-26 22:40:26,256.997,,,,,,,
386,2025-01-27 00:10:53,2025-01-27 00:15:11,257.574,,,,,,,
387,2025-01-27 01:45:37,2025-01-27 01:49:55,258.313,,,,,,,
388,2025-01-27 03:20:20,2025-01-27 03:24:40,259.22,,,,,,,
389,2025-01-27 04:55:04,2025-01-27 04:59:24,260.285,,,,,,,
390,2025-01-27 06:29:47,2025-01-27 06:34:08,261.51,,,,,,,
391,2025-01-27 08:04:30,2025-01-27 08:08:53,262.894,,,,,,,
392,2025-01-27 09:39:13,2025-01-27 09:43:37,263.771,,,,,,,
393,2025-01-27 11:13:59,2025-01-27 11:18:22,262.156,,,,,,,
394,2025-01-27 12:48:45,2025-01-27 12:53:06,260.745,,,,,,,
395,2025-01-27 14:23:31,2025-01-27 14:27:50,259.541,,,,,,,
396,2025-01-27 15:58:16,2025-01-27 16:02:35,258.531,,,,,,,
397,2025-01-27 17:33:01,2025-01-27 17:37:19,257.707,,,,,,,
398,2025-01-27 19:07:46,2025-01-27 19:12:03,257.078,,,,,,,
399,2025-01-27 20:42:31,2025-01-27 20:46:48,256.629,,,,,,,
400,2025-01-27 22:17:16,2025-01-27 22:21:32,256.357,,,,,,,
401,2025-01-27 23:52:00,2025-01-27 23:56:17,256.261,,,,,,,
402,2025-01-28 01:26:45,2025-01-28 01:31:01,256.339,,,,,,,
403,2025-01-28 03:01:29,2025-01-28 03:05:45,256.586,,,,,,,
404,2025-01-28 04:36:13,2025-01-28 04:40:30,257.001,,,,,,,
405,2025-01-28 06:10:57,2025-01-28 06:15:14,257.581,,,,,,,
406,2025-01-28 07:45:40,2025-01-28 07:49:59,258.325,,,,,,,
407,2025-01-28 09:20:24,2025-01-28 09:24:43,259.231,,,,,,,
408,2025-01-28 10:55:07,2025-01-28 10:59:27,260.297,,,,,,,
409,2025-01-28 12:29:50,2025-01-28 12:34:12,261.522,,,,,,,
410,2025-01-28 14:04:33,2025-01-28 14:08:56,262.91,,,,,,,
411,2025-01-28 15:39:17,2025-01-28 15:43:41,263.75,,,,,,,
412,2025-01-28 17:14:03,2025-01-28 17:18:25,262.133,,,,,,,
413,2025-01-28 18:48:49,2025-01-28 18:53:09,260.732,,,,,,,
414,2025-01-28 20:23:34,2025-01-28 20:27:54,259.528,,,,,,,
415,2025-01-28 21:58:20,2025-01-28 22:02:38,258.518,,,,,,,
416,2025-01-28 23:33:05,2025-01-28 23:37:22,257.7,,,,,,,
417,2025-01-29 01:07:50,2025-01-29 01:12:07,257.071,,,,,,,
418,2025-01-29 02:42:35,2025-01-29 02:46:51,256.624,,,,,,,
419,2025-01-29 04:17:19,2025-01-29 04:21:36,256.355,,,,,,,
420,2025-01-29 05:52:04,2025-01-29 05:56:20,256.261,,,,,,,
421,2025-01-29 07:26:48,2025-01-29 07:31:04,256.34,,,,,,,
422,2025-01-29 09:01:32,2025-01-29 09:05:49,256.589,,,,,,,
423,2025-01-29 10:36:16,2025-01-29 10:40:33,257.006,,,,,,,
424,2025-01-29 12:11:00,2025-01-29 12:15:18,257.587,,,,,,,
425,2025-01-29 13:45:44,2025-01-29 13:50:02,258.333,,,,,,,
426,2025-01-29 15:20:27,2025-01-29 15:24:46,259.237,,,,,,,
427,2025-01-29 16:55:10,2025-01-29 16:59:31,260.31,,,,,,,
428,2025-01-29 18:29:54,2025-01-29 18:34:15,261.539,,,,,,,
429,2025-01-29 20:04:37,2025-01-29 20:08:59,262.926,,,,,,,
430,2025-01-29 21:39:20,2025-01-29 21:43:44,263.724,,,,,,,
431,2025-01-29 23:14:06,2025-01-29 23:18:28,262.116,,,,,,,
432,2025-01-30 00:48:52,2025-01-30 00:53:13,260.711,,,,,,,
433,2025-01-30 02:23:37,2025-01-30 02:27:57,259.512,,,,,,,
434,2025-01-30 03:58:23,2025-01-30 04:02:41,258.507,,,,,,,
435,2025-01-30 05:33:08,2025-01-30 05:37:26,257.692,,,,,,,
436,2025-01-30 07:07:53,2025-01-30 07:12:10,257.064,,,,,,,
437,2025-01-30 08:42:38,2025-01-30 08:46:55,256.618,,,,,,,
438,2025-01-30 10:17:23,2025-01-30 10:21:39,256.352,,,,,,,
439,2025-01-30 11:52:07,2025-01-30 11:56:23,256.26,,,,,,,
440,2025-01-30 13:26:51,2025-01-30 13:31:08,256.341,,,,,,,
441,2025-01-30 15:01:35,2025-01-30 15:05:52,256.593,,,,,,,
442,2025-01-30 16:36:19,2025-01-30 16:40:36,257.011,,,,,,,
443,2025-01-30 18:11:03,2025-01-30 18:15:21,257.595,,,,,,,
444,2025-01-30 19:45:47,2025-01-30 19:50:05,258.339,,,,,,,
445,2025-01-30 21:20:30,2025-01-30 21:24:50,259.252,,,,,,,
446,2025-01-30 22:55:14,2025-01-30 22:59:34,260.322,,,,,,,
447,2025-01-31 00:29:57,2025-01-31 00:34:18,261.554,,,,,,,
448,2025-01-31 02:04:40,2025-01-31 02:09:03,262.941,,,,,,,
449,2025-01-31 03:39:23,2025-01-31 03:43:47,263.707,,,,,,,
450,2025-01-31 05:14:09,2025-01-31 05:18:32,262.1,,,,,,,
451,2025-01-31 06:48:55,2025-01-31 06:53:16,260.699,,,,,,,
452,2025-01-31 08:23:41,2025-01-31 08:28:00,259.5,,,,,,,
453,2025-01-31 09:58:26,2025-01-31 10:02:45,258.496,,,,,,,
454,2025-01-31 11:33:11,2025-01-31 11:37:29,257.683,,,,,,,
455,2025-01-31 13:07:56,2025-01-31 13:12:13,257.055,,,,,,,
456,2025-01-31 14:42:41,2025-01-31 14:46:58,256.614,,,,,,,
457,2025-01-31 16:17:26,2025-01-31 16:21:42,256.349,,,,,,,
458,2025-01-31 17:52:10,2025-01-31 17:56:27,256.255,,,,,,,
459,2025-01-31 19:26:55,2025-01-31 19:31:11,256.341,,,,,,,
460,2025-01-31 21:01:39,2025-01-31 21:05:55,256.596,,,,,,,
461,2025-01-31 22:36:23,2025-01-31 22:40:40,257.019,,,,,,,
462,2025-02-01 00:11:07,2025-02-01 00:15:24,257.601,,,,,,,
463,2025-02-01 01:45:50,2025-02-01 01:50:09,258.349,,,,,,,
464,2025-02-01 03:20:34,2025-02-01 03:24:53,259.263,,,,,,,
465,2025-02-01 04:55:17,2025-02-01 04:59:37,260.336,,,,,,,
466,2025-02-01 06:30:00,2025-02-01 06:34:22,261.568,,,,,,,
467,2025-02-01 08:04:43,2025-02-01 08:09:06,262.959,,,,,,,
468,2025-02-01 09:39:27,2025-02-01 09:43:50,263.687,,,,,,,
469,2025-02-01 11:14:13,2025-02-01 11:18:35,262.082,,,,,,,
470,2025-02-01 12:48:59,2025-02-01 12:53:19,260.68,,,,,,,
471,2025-02-01 14:23:44,2025-02-01 14:28:04,259.486,,,,,,,
472,2025-02-01 15:58:30,2025-02-01 16:02:48,258.485,,,,,,,
473,2025-02-01 17:33:15,2025-02-01 17:37:32,257.67,,,,,,,
474,2025-02-01 19:08:00,2025-02-01 19:12:17,257.05,,,,,,,
475,2025-02-01 20:42:45,2025-02-01 20:47:01,256.609,,,,,,,
476,2025-02-01 22:17:29,2025-02-01 22:21:46,256.346,,,,,,,
477,2025-02-01 23:52:14,2025-02-01 23:56:30,256.258,,,,,,,
478,2025-02-02 01:26:58,2025-02-02 01:31:14,256.344,,,,,,,
479,2025-02-02 03:01:42,2025-02-02 03:05:59,256.599,,,,,,,
480,2025-02-02 04:36:26,2025-02-02 04:40:43,257.022,,,,,,,
481,2025-02-02 06:11:10,2025-02-02 06:15:28,257.61,,,,,,,
482,2025-02-02 07:45:54,2025-02-02 07:50:12,258.361,,,,,,,
483,2025-02-02 09:20:37,2025-02-02 09:24:56,259.275,,,,,,,
484,2025-02-02 10:55:20,2025-02-02 10:59:41,260.349,,,,,,,
485,2025-02-02 12:30:03,2025-02-02 12:34:25,261.582,,,,,,,
486,2025-02-02 14:04:46,2025-02-02 14:09:09,262.976,,,,,,,
487,2025-02-02 15:39:30,2025-02-02 15:43:54,263.667,,,,,,,
488,2025-02-02 17:14:16,2025-02-02 17:18:38,262.06,,,,,,,
489,2025-02-02 18:49:02,2025-02-02 18:53:23,260.668,,,,,,,
490,2025-02-02 20:23:48,2025-02-02 20:28:07,259.474,,,,,,,
491,2025-02-02 21:58:33,2025-02-02 22:02:51,258.474,,,,,,,
492,2025-02-02 23:33:18,2025-02-02 23:37:36,257.664,,,,,,,
493,2025-02-03 01:08:03,2025-02-03 01:12:20,257.044,,,,,,,
494,2025-02-03 02:42:48,2025-02-03 02:47:05,256.605,,,,,,,
495,2025-02-03 04:17:33,2025-02-03 04:21:49,256.344,,,,,,,
496,2025-02-03 05:52:17,2025-02-03 05:56:33,256.259,,,,,,,
497,2025-02-03 07:27:01,2025-02-03 07:31:18,256.346,,,,,,,
498,2025-02-03 09:01:45,2025-02-03 09:06:02,256.604,,,,,,,
499,2025-02-03 10:36:29,2025-02-03 10:40:46,257.028,,,,,,,
500,2025-02-03 12:11:13,2025-02-03 12:15:31,257.617,,,,,,,
501,2025-02-03 13:45:57,2025-02-03 13:50:15,258.371,,,,,,,
502,2025-02-03 15:20:40,2025-02-03 15:25:00,259.282,,,,,,,
503,2025-02-03 16:55:24,2025-02-03 16:59:44,260.363,,,,,,,
504,2025-02-03 18:30:07,2025-02-03 18:34:28,261.599,,,,,,,
505,2025-02-03 20:04:50,2025-02-03 20:09:13,262.993,,,,,,,
506,2025-02-03 21:39:34,2025-02-03 21:43:57,263.643,,,,,,,
507,2025-02-03 23:14:19,2025-02-03 23:18:42,262.049,,,,,,,
508,2025-02-04 00:49:05,2025-02-04 00:53:26,260.649,,,,,,,
509,2025-02-04 02:23:51,2025-02-04 02:28:10,259.46,,,,,,,
510,2025-02-04 03:58:36,2025-02-04 04:02:55,258.464,,,,,,,
511,2025-02-04 05:33:21,2025-02-04 05:37:39,257.658,,,,,,,
512,2025-02-04 07:08:06,2025-02-04 07:12:23,257.038,,,,,,,
513,2025-02-04 08:42:51,2025-02-04 08:47:08,256.601,,,,,,,
514,2025-02-04 10:17:36,2025-02-04 10:21:52,256.343,,,,,,,
515,2025-02-04 11:52:20,2025-02-04 11:56:37,256.259,,,,,,,
516,2025-02-04 13:27:05,2025-02-04 13:31:21,256.349,,,,,,,
517,2025-02-04 15:01:49,2025-02-04 15:06:05,256.608,,,,,,,
518,2025-02-04 16:36:33,2025-02-04 16:40:50,257.034,,,,,,,
519,2025-02-04 18:11:17,2025-02-04 18:15:34,257.626,,,,,,,
520,2025-02-04 19:46:00,2025-02-04 19:50:19,258.377,,,,,,,
521,2025-02-04 21:20:44,2025-02-04 21:25:03,259.298,,,,,,,
522,2025-02-04 22:55:27,2025-02-04 22:59:47,260.377,,,,,,,
523,2025-02-05 00:30:10,2025-02-05 00:34:32,261.615,,,,,,,
524,2025-02-05 02:04:53,2025-02-05 02:09:16,263.009,,,,,,,
525,2025-02-05 03:39:37,2025-02-05 03:44:00,263.627,,,,,,,
526,2025-02-05 05:14:23,2025-02-05 05:18:45,262.029,,,,,,,
527,2025-02-05 06:49:09,2025-02-05 06:53:29,260.638,,,,,,,
528,2025-02-05 08:23:54,2025-02-05 08:28:14,259.448,,,,,,,
529,2025-02-05 09:58:40,2025-02-05 10:02:58,258.453,,,,,,,
530,2025-02-05 11:33:25,2025-02-05 11:37:42,257.65,,,,,,,
531,2025-02-05 13:08:10,2025-02-05 13:12:27,257.03,,,,,,,
532,2025-02-05 14:42:55,2025-02-05 14:47:11,256.597,,,,,,,
533,2025-02-05 16:17:39,2025-02-05 16:21:56,256.341,,,,,,,
534,2025-02-05 17:52:24,2025-02-05 17:56:40,256.255,,,,,,,
535,2025-02-05 19:27:08,2025-02-05 19:31:24,256.349,,,,,,,
536,2025-02-05 21:01:52,2025-02-05 21:06:09,256.612,,,,,,,
537,2025-02-05 22:36:36,2025-02-05 22:40:53,257.042,,,,,,,
538,2025-02-06 00:11:20,2025-02-06 00:15:37,257.633,,,,,,,
539,2025-02-06 01:46:03,2025-02-06 01:50:22,258.388,,,,,,,
540,2025-02-06 03:20:47,2025-02-06 03:25:06,259.31,,,,,,,
541,2025-02-06 04:55:30,2025-02-06 04:59:51,260.39,,,,,,,
542,2025-02-06 06:30:13,2025-02-06 06:34:35,261.63,,,,,,,
543,2025-02-06 08:04:56,2025-02-06 08:09:19,263.028,,,,,,,
544,2025-02-06 09:39:40,2025-02-06 09:44:04,263.607,,,,,,,
545,2025-02-06 11:14:26,2025-02-06 11:18:48,262.012,,,,,,,
546,2025-02-06 12:49:12,2025-02-06 12:53:33,260.62,,,,,,,
547,2025-02-06 14:23:58,2025-02-06 14:28:17,259.435,,,,,,,
548,2025-02-06 15:58:43,2025-02-06 16:03:01,258.443,,,,,,,
549,2025-02-06 17:33:28,2025-02-06 17:37:46,257.637,,,,,,,
550,2025-02-06 19:08:13,2025-02-06 19:12:30,257.025,,,,,,,
551,2025-02-06 20:42:58,2025-02-06 20:47:15,256.593,,,,,,,
552,2025-02-06 22:17:43,2025-02-06 22:21:59,256.338,,,,,,,
553,2025-02-06 23:52:27,2025-02-06 23:56:43,256.258,,,,,,,
554,2025-02-07 01:27:11,2025-02-07 01:31:28,256.353,,,,,,,
555,2025-02-07 03:01:55,2025-02-07 03:06:12,256.615,,,,,,,
556,2025-02-07 04:36:39,2025-02-07 04:40:56,257.046,,,,,,,
557,2025-02-07 06:11:23,2025-02-07 06:15:41,257.641,,,,,,,
558,2025-02-07 07:46:07,2025-02-07 07:50:25,258.4,,,,,,,
559,2025-02-07 09:20:50,2025-02-07 09:25:10,259.321,,,,,,,
560,2025-02-07 10:55:34,2025-02-07 10:59:54,260.403,,,,,,,
561,2025-02-07 12:30:17,2025-02-07 12:34:38,261.643,,,,,,,
562,2025-02-07 14:05:00,2025-02-07 14:09:23,263.045,,,,,,,
563,2025-02-07 15:39:44,2025-02-07 15:44:07,263.587,,,,,,,
564,2025-02-07 17:14:30,2025-02-07 17:18:52,261.99,,,,,,,
565,2025-02-07 18:49:15,2025-02-07 18:53:36,260.608,,,,,,,
566,2025-02-07 20:24:01,2025-02-07 20:28:20,259.423,,,,,,,
567,2025-02-07 21:58:46,2025-02-07 22:03:05,258.431,,,,,,,
568,2025-02-07 23:33:31,2025-02-07 23:37:49,257.631,,,,,,,
569,2025-02-08 01:08:16,2025-02-08 01:12:33,257.019,,,,,,,
570,2025-02-08 02:43:01,2025-02-08 02:47:18,256.589,,,,,,,
571,2025-02-08 04:17:46,2025-02-08 04:22:02,256.336,,,,,,,
572,2025-02-08 05:52:30,2025-02-08 05:56:47,256.259,,,,,,,
573,2025-02-08 07:27:15,2025-02-08 07:31:31,256.354,,,,,,,
574,2025-02-08 09:01:59,2025-02-08 09:06:15,256.619,,,,,,,
575,2025-02-08 10:36:43,2025-02-08 10:41:00,257.051,,,,,,,
576,2025-02-08 12:11:27,2025-02-08 12:15:44,257.648,,,,,,,
577,2025-02-08 13:46:10,2025-02-08 13:50:29,258.41,,,,,,,
578,2025-02-08 15:20:54,2025-02-08 15:25:13,259.328,,,,,,,
579,2025-02-08 16:55:37,2025-02-08 16:59:57,260.416,,,,,,,
580,2025-02-08 18:30:20,2025-02-08 18:34:42,261.66,,,,,,,
581,2025-02-08 20:05:03,2025-02-08 20:09:26,263.062,,,,,,,
582,2025-02-08 21:39:47,2025-02-08 21:44:10,263.562,,,,,,,
583,2025-02-08 23:14:33,2025-02-08 23:18:55,261.978,,,,,,,
584,2025-02-09 00:49:19,2025-02-09 00:53:39,260.588,,,,,,,
585,2025-02-09 02:24:04,2025-02-09 02:28:24,259.408,,,,,,,
586,2025-02-09 03:58:50,2025-02-09 04:03:08,258.421,,,,,,,
587,2025-02-09 05:33:35,2025-02-09 05:37:52,257.624,,,,,,,
588,2025-02-09 07:08:20,2025-02-09 07:12:37,257.013,,,,,,,
589,2025-02-09 08:43:05,2025-02-09 08:47:21,256.584,,,,,,,
590,2025-02-09 10:17:49,2025-02-09 10:22:06,256.334,,,,,,,
591,2025-02-09 11:52:34,2025-02-09 11:56:50,256.258,,,,,,,
592,2025-02-09 13:27:18,2025-02-09 13:31:34,256.356,,,,,,,
593,2025-02-09 15:02:02,2025-02-09 15:06:19,256.623,,,,,,,
594,2025-02-09 16:36:46,2025-02-09 16:41:03,257.057,,,,,,,
595,2025-02-09 18:11:30,2025-02-09 18:15:47,257.656,,,,,,,
596,2025-02-09 19:46:13,2025-02-09 19:50:32,258.415,,,,,,,
597,2025-02-09 21:20:57,2025-02-09 21:25:16,259.343,,,,,,,
598,2025-02-09 22:55:40,2025-02-09 23:00:01,260.427,,,,,,,
599,2025-02-10 00:30:23,2025-02-10 00:34:45,261.675,,,,,,,
600,2025-02-10 02:05:06,2025-02-10 02:09:29,263.077,,,,,,,
601,2025-02-10 03:39:50,2025-02-10 03:44:14,263.545,,,,,,,
602,2025-02-10 05:14:36,2025-02-10 05:18:58,261.958,,,,,,,
603,2025-02-10 06:49:22,2025-02-10 06:53:43,260.576,,,,,,,
604,2025-02-10 08:24:08,2025-02-10 08:28:27,259.395,,,,,,,
605,2025-02-10 09:58:53,2025-02-10 10:03:11,258.41,,,,,,,
606,2025-02-10 11:33:38,2025-02-10 11:37:56,257.615,,,,,,,
607,2025-02-10 13:08:23,2025-02-10 13:12:40,257.004,,,,,,,
608,2025-02-10 14:43:08,2025-02-10 14:47:24,256.579,,,,,,,
609,2025-02-10 16:17:53,2025-02-10 16:22:09,256.331,,,,,,,
610,2025-02-10 17:52:37,2025-02-10 17:56:53,256.253,,,,,,,
611,2025-02-10 19:27:21,2025-02-10 19:31:38,256.355,,,,,,,
612,2025-02-10 21:02:05,2025-02-10 21:06:22,256.626,,,,,,,
613,2025-02-10 22:36:49,2025-02-10 22:41:06,257.06,,,,,,,
614,2025-02-11 00:11:33,2025-02-11 00:15:51,257.663,,,,,,,
615,2025-02-11 01:46:17,2025-02-11 01:50:35,258.425,,,,,,,
616,2025-02-11 03:21:00,2025-02-11 03:25:20,259.355,,,,,,,
617,2025-02-11 04:55:44,2025-02-11 05:00:04,260.442,,,,,,,
618,2025-02-11 06:30:27,2025-02-11 06:34:48,261.689,,,,,,,
619,2025-02-11 08:05:10,2025-02-11 08:09:33,263.096,,,,,,,
620,2025-02-11 09:39:54,2025-02-11 09:44:17,263.525,,,,,,,
621,2025-02-11 11:14:40,2025-02-11 11:19:02,261.94,,,,,,,
622,2025-02-11 12:49:25,2025-02-11 12:53:46,260.56,,,,,,,
623,2025-02-11 14:24:11,2025-02-11 14:28:30,259.382,,,,,,,
624,2025-02-11 15:58:56,2025-02-11 16:03:15,258.399,,,,,,,
625,2025-02-11 17:33:41,2025-02-11 17:37:59,257.601,,,,,,,
626,2025-02-11 19:08:26,2025-02-11 19:12:43,256.998,,,,,,,
627,2025-02-11 20:43:11,2025-02-11 20:47:28,256.575,,,,,,,
628,2025-02-11 22:17:56,2025-02-11 22:22:12,256.328,,,,,,,
629,2025-02-11 23:52:40,2025-02-11 23:56:57,256.256,,,,,,,
630,2025-02-12 01:27:25,2025-02-12 01:31:41,256.359,,,,,,,
631,2025-02-12 03:02:09,2025-02-12 03:06:25,256.629,,,,,,,
632,2025-02-12 04:36:53,2025-02-12 04:41:10,257.067,,,,,,,
633,2025-02-12 06:11:36,2025-02-12 06:15:54,257.671,,,,,,,
634,2025-02-12 07:46:20,2025-02-12 07:50:39,258.437,,,,,,,
635,2025-02-12 09:21:04,2025-02-12 09:25:23,259.366,,,,,,,
636,2025-02-12 10:55:47,2025-02-12 11:00:07,260.455,,,,,,,
637,2025-02-12 12:30:30,2025-02-12 12:34:52,261.702,,,,,,,
638,2025-02-12 14:05:13,2025-02-12 14:09:36,263.112,,,,,,,
639,2025-02-12 15:39:57,2025-02-12 15:44:20,263.505,,,,,,,
640,2025-02-12 17:14:43,2025-02-12 17:19:05,261.917,,,,,,,
641,2025-02-12 18:49:29,2025-02-12 18:53:49,260.545,,,,,,,
642,2025-02-12 20:24:14,2025-02-12 20:28:34,259.37,,,,,,,
643,2025-02-12 21:59:00,2025-02-12 22:03:18,258.387,,,,,,,
644,2025-02-12 23:33:45,2025-02-12 23:38:02,257.595,,,,,,,
645,2025-02-13 01:08:30,2025-02-13 01:12:47,256.992,,,,,,,
646,2025-02-13 02:43:15,2025-02-13 02:47:31,256.57,,,,,,,
647,2025-02-13 04:17:59,2025-02-13 04:22:16,256.326,,,,,,,
648,2025-02-13 05:52:44,2025-02-13 05:57:00,256.257,,,,,,,
649,2025-02-13 07:27:28,2025-02-13 07:31:44,256.36,,,,,,,
650,2025-02-13 09:02:12,2025-02-13 09:06:29,256.633,,,,,,,
651,2025-02-13 10:36:56,2025-02-13 10:41:13,257.073,,,,,,,
652,2025-02-13 12:11:40,2025-02-13 12:15:57,257.677,,,,,,,
653,2025-02-13 13:46:23,2025-02-13 13:50:42,258.447,,,,,,,
654,2025-02-13 15:21:07,2025-02-13 15:25:26,259.373,,,,,,,
655,2025-02-13 16:55:50,2025-02-13 17:00:11,260.469,,,,,,,
656,2025-02-13 18:30:33,2025-02-13 18:34:55,261.72,,,,,,,
657,2025-02-13 20:05:16,2025-02-13 20:09:39,263.129,,,,,,,
658,2025-02-13 21:40:00,2025-02-13 21:44:24,263.481,,,,,,,
659,2025-02-13 23:14:46,2025-02-13 23:19:08,261.905,,,,,,,
660,2025-02-14 00:49:32,2025-02-14 00:53:53,260.525,,,,,,,
661,2025-02-14 02:24:18,2025-02-14 02:28:37,259.355,,,,,,,
662,2025-02-14 03:59:03,2025-02-14 04:03:21,258.377,,,,,,,
663,2025-02-14 05:33:48,2025-02-14 05:38:06,257.589,,,,,,,
664,2025-02-14 07:08:33,2025-02-14 07:12:50,256.991,,,,,,,
665,2025-02-14 08:43:18,2025-02-14 08:47:34,256.566,,,,,,,
666,2025-02-14 10:18:03,2025-02-14 10:22:19,256.324,,,,,,,
667,2025-02-14 11:52:47,2025-02-14 11:57:03,256.257,,,,,,,
668,2025-02-14 13:27:31,2025-02-14 13:31:48,256.363,,,,,,,
669,2025-02-14 15:02:15,2025-02-14 15:06:32,256.637,,,,,,,
670,2025-02-14 16:36:59,2025-02-14 16:41:16,257.079,,,,,,,
671,2025-02-14 18:11:43,2025-02-14 18:16:01,257.686,,,,,,,
672,2025-02-14 19:46:27,2025-02-14 19:50:45,258.453,,,,,,,
673,2025-02-14 21:21:10,2025-02-14 21:25:30,259.389,,,,,,,
674,2025-02-14 22:55:53,2025-02-14 23:00:14,260.481,,,,,,,
675,2025-02-15 00:30:37,2025-02-15 00:34:58,261.736,,,,,,,
676,2025-02-15 02:05:20,2025-02-15 02:09:43,263.144,,,,,,,
677,2025-02-15 03:40:04,2025-02-15 03:44:27,263.465,,,,,,,
678,2025-02-15 05:14:50,2025-02-15 05:19:12,261.887,,,,,,,
679,2025-02-15 06:49:35,2025-02-15 06:53:56,260.515,,,,,,,
680,2025-02-15 08:24:21,2025-02-15 08:28:40,259.343,,,,,,,
681,2025-02-15 09:59:06,2025-02-15 10:03:25,258.367,,,,,,,
682,2025-02-15 11:33:51,2025-02-15 11:38:09,257.581,,,,,,,
683,2025-02-15 13:08:36,2025-02-15 13:12:53,256.978,,,,,,,
684,2025-02-15 14:43:21,2025-02-15 14:47:38,256.562,,,,,,,
685,2025-02-15 16:18:06,2025-02-15 16:22:22,256.323,,,,,,,
686,2025-02-15 17:52:50,2025-02-15 17:57:07,256.253,,,,,,,
687,2025-02-15 19:27:35,2025-02-15 19:31:51,256.363,,,,,,,
688,2025-02-15 21:02:19,2025-02-15 21:06:35,256.641,,,,,,,
689,2025-02-15 22:37:03,2025-02-15 22:41:20,257.083,,,,,,,
690,2025-02-16 00:11:46,2025-02-16 00:16:04,257.694,,,,,,,
691,2025-02-16 01:46:30,2025-02-16 01:50:49,258.464,,,,,,,
692,2025-02-16 03:21:14,2025-02-16 03:25:33,259.401,,,,,,,
693,2025-02-16 04:55:57,2025-02-16 05:00:17,260.496,,,,,,,
694,2025-02-16 06:30:40,2025-02-16 06:35:02,261.751,,,,,,,
695,2025-02-16 08:05:23,2025-02-16 08:09:46,263.165,,,,,,,
696,2025-02-16 09:40:07,2025-02-16 09:44:30,263.445,,,,,,,
697,2025-02-16 11:14:53,2025-02-16 11:19:15,261.87,,,,,,,
698,2025-02-16 12:49:39,2025-02-16 12:53:59,260.497,,,,,,,
699,2025-02-16 14:24:24,2025-02-16 14:28:44,259.331,,,,,,,
700,2025-02-16 15:59:10,2025-02-16 16:03:28,258.357,,,,,,,
701,2025-02-16 17:33:55,2025-02-16 17:38:12,257.568,,,,,,,
702,2025-02-16 19:08:40,2025-02-16 19:12:57,256.974,,,,,,,
703,2025-02-16 20:43:25,2025-02-16 20:47:41,256.559,,,,,,,
704,2025-02-16 22:18:09,2025-02-16 22:22:26,256.32,,,,,,,
705,2025-02-16 23:52:54,2025-02-16 23:57:10,256.256,,,,,,,
706,2025-02-17 01:27:38,2025-02-17 01:31:54,256.367,,,,,,,
707,2025-02-17 03:02:22,2025-02-17 03:06:39,256.646,,,,,,,
708,2025-02-17 04:37:06,2025-02-17 04:41:23,257.092,,,,,,,
709,2025-02-17 06:11:50,2025-02-17 06:16:07,257.703,,,,,,,
710,2025-02-17 07:46:33,2025-02-17 07:50:52,258.477,,,,,,,
711,2025-02-17 09:21:17,2025-02-17 09:25:36,259.413,,,,,,,
712,2025-02-17 10:56:00,2025-02-17 11:00:21,260.51,,,,,,,
713,2025-02-17 12:30:43,2025-02-17 12:35:05,261.765,,,,,,,
714,2025-02-17 14:05:26,2025-02-17 14:09:49,263.182,,,,,,,
715,2025-02-17 15:40:10,2025-02-17 15:44:34,263.426,,,,,,,
716,2025-02-17 17:14:56,2025-02-17 17:19:18,261.849,,,,,,,
717,2025-02-17 18:49:42,2025-02-17 18:54:03,260.486,,,,,,,
718,2025-02-17 20:24:28,2025-02-17 20:28:47,259.32,,,,,,,
719,2025-02-17 21:59:13,2025-02-17 22:03:31,258.346,,,,,,,
720,2025-02-17 23:33:58,2025-02-17 23:38:16,257.563,,,,,,,
721,2025-02-18 01:08:43,2025-02-18 01:13:00,256.969,,,,,,,
722,2025-02-18 02:43:28,2025-02-18 02:47:44,256.555,,,,,,,
723,2025-02-18 04:18:13,2025-02-18 04:22:29,256.319,,,,,,,
724,2025-02-18 05:52:57,2025-02-18 05:57:13,256.259,,,,,,,
725,2025-02-18 07:27:41,2025-02-18 07:31:58,256.37,,,,,,,
726,2025-02-18 09:02:25,2025-02-18 09:06:42,256.651,,,,,,,
727,2025-02-18 10:37:09,2025-02-18 10:41:26,257.099,,,,,,,
728,2025-02-18 12:11:53,2025-02-18 12:16:11,257.71,,,,,,,
729,2025-02-18 13:46:37,2025-02-18 13:50:55,258.487,,,,,,,
730,2025-02-18 15:21:20,2025-02-18 15:25:40,259.421,,,,,,,
731,2025-02-18 16:56:03,2025-02-18 17:00:24,260.525,,,,,,,
732,2025-02-18 18:30:47,2025-02-18 18:35:08,261.783,,,,,,,
733,2025-02-18 20:05:30,2025-02-18 20:09:53,263.2,,,,,,,
734,2025-02-18 21:40:14,2025-02-18 21:44:37,263.403,,,,,,,
735,2025-02-18 23:15:00,2025-02-18 23:19:21,261.837,,,,,,,
736,2025-02-19 00:49:45,2025-02-19 00:54:06,260.467,,,,,,,
737,2025-02-19 02:24:31,2025-02-19 02:28:50,259.305,,,,,,,
738,2025-02-19 03:59:16,2025-02-19 04:03:35,258.337,,,,,,,
739,2025-02-19 05:34:01,2025-02-19 05:38:19,257.557,,,,,,,
740,2025-02-19 07:08:46,2025-02-19 07:13:03,256.964,,,,,,,
741,2025-02-19 08:43:31,2025-02-19 08:47:48,256.552,,,,,,,
742,2025-02-19 10:18:16,2025-02-19 10:22:32,256.318,,,,,,,
743,2025-02-19 11:53:00,2025-02-19 11:57:17,256.259,,,,,,,
744,2025-02-19 13:27:45,2025-02-19 13:32:01,256.373,,,,,,,
745,2025-02-19 15:02:29,2025-02-19 15:06:45,256.656,,,,,,,
746,2025-02-19 16:37:13,2025-02-19 16:41:30,257.105,,,,,,,
747,2025-02-19 18:11:56,2025-02-19 18:16:14,257.72,,,,,,,
748,2025-02-19 19:46:40,2025-02-19 19:50:59,258.494,,,,,,,
749,2025-02-19 21:21:23,2025-02-19 21:25:43,259.438,,,,,,,
750,2025-02-19 22:56:07,2025-02-19 23:00:27,260.539,,,,,,,
751,2025-02-20 00:30:50,2025-02-20 00:35:12,261.8,,,,,,,
752,2025-02-20 02:05:33,2025-02-20 02:09:56,263.215,,,,,,,
753,2025-02-20 03:40:17,2025-02-20 03:44:40,263.388,,,,,,,
754,2025-02-20 05:15:03,2025-02-20 05:19:25,261.819,,,,,,,
755,2025-02-20 06:49:49,2025-02-20 06:54:09,260.457,,,,,,,
756,2025-02-20 08:24:34,2025-02-20 08:28:54,259.294,,,,,,,
757,2025-02-20 09:59:20,2025-02-20 10:03:38,258.327,,,,,,,
758,2025-02-20 11:34:05,2025-02-20 11:38:22,257.55,,,,,,,
759,2025-02-20 13:08:50,2025-02-20 13:13:07,256.956,,,,,,,
760,2025-02-20 14:43:35,2025-02-20 14:47:51,256.549,,,,,,,
761,2025-02-20 16:18:19,2025-02-20 16:22:36,256.317,,,,,,,
762,2025-02-20 17:53:04,2025-02-20 17:57:20,256.256,,,,,,,
763,2025-02-20 19:27:48,2025-02-20 19:32:04,256.373,,,,,,,
764,2025-02-20 21:02:32,2025-02-20 21:06:49,256.66,,,,,,,
765,2025-02-20 22:37:16,2025-02-20 22:41:33,257.109,,,,,,,
766,2025-02-21 00:12:00,2025-02-21 00:16:17,257.728,,,,,,,
767,2025-02-21 01:46:43,2025-02-21 01:51:02,258.505,,,,,,,
768,2025-02-21 03:21:27,2025-02-21 03:25:46,259.45,,,,,,,
769,2025-02-21 04:56:10,2025-02-21 05:00:31,260.553,,,,,,,
770,2025-02-21 06:30:53,2025-02-21 06:35:15,261.815,,,,,,,
771,2025-02-21 08:05:36,2025-02-21 08:09:59,263.236,,,,,,,
772,2025-02-21 09:40:20,2025-02-21 09:44:44,263.368,,,,,,,
773,2025-02-21 11:15:06,2025-02-21 11:19:28,261.803,,,,,,,
774,2025-02-21 12:49:52,2025-02-21 12:54:13,260.441,,,,,,,
775,2025-02-21 14:24:38,2025-02-21 14:28:57,259.282,,,,,,,
776,2025-02-21 15:59:23,2025-02-21 16:03:41,258.317,,,,,,,
777,2025-02-21 17:34:08,2025-02-21 17:38:26,257.537,,,,,,,
778,2025-02-21 19:08:53,2025-02-21 19:13:10,256.952,,,,,,,
779,2025-02-21 20:43:38,2025-02-21 20:47:54,256.545,,,,,,,
780,2025-02-21 22:18:23,2025-02-21 22:22:39,256.315,,,,,,,
781,2025-02-21 23:53:07,2025-02-21 23:57:23,256.259,,,,,,,
782,2025-02-22 01:27:51,2025-02-22 01:32:08,256.378,,,,,,,
783,2025-02-22 03:02:35,2025-02-22 03:06:52,256.664,,,,,,,
784,2025-02-22 04:37:19,2025-02-22 04:41:36,257.118,,,,,,,
785,2025-02-22 06:12:03,2025-02-22 06:16:21,257.737,,,,,,,
786,2025-02-22 07:46:47,2025-02-22 07:51:05,258.519,,,,,,,
787,2025-02-22 09:21:30,2025-02-22 09:25:50,259.462,,,,,,,
788,2025-02-22 10:56:13,2025-02-22 11:00:34,260.567,,,,,,,
789,2025-02-22 12:30:56,2025-02-22 12:35:18,261.829,,,,,,,
790,2025-02-22 14:05:39,2025-02-22 14:10:03,263.254,,,,,,,
791,2025-02-22 15:40:24,2025-02-22 15:44:47,263.349,,,,,,,
792,2025-02-22 17:15:10,2025-02-22 17:19:31,261.781,,,,,,,
793,2025-02-22 18:49:55,2025-02-22 18:54:16,260.428,,,,,,,
794,2025-02-22 20:24:41,2025-02-22 20:29:00,259.271,,,,,,,
795,2025-02-22 21:59:26,2025-02-22 22:03:45,258.306,,,,,,,
796,2025-02-22 23:34:11,2025-02-22 23:38:29,257.532,,,,,,,
797,2025-02-23 01:08:56,2025-02-23 01:13:13,256.947,,,,,,,
798,2025-02-23 02:43:41,2025-02-23 02:47:58,256.541,,,,,,,
799,2025-02-23 04:18:26,2025-02-23 04:22:42,256.314,,,,,,,
800,2025-02-23 05:53:10,2025-02-23 05:57:27,256.261,,,,,,,
801,2025-02-23 07:27:55,2025-02-23 07:32:11,256.38,,,,,,,
802,2025-02-23 09:02:39,2025-02-23 09:06:55,256.669,,,,,,,
803,2025-02-23 10:37:23,2025-02-23 10:41:40,257.124,,,,,,,
804,2025-02-23 12:12:06,2025-02-23 12:16:24,257.744,,,,,,,
805,2025-02-23 13:46:50,2025-02-23 13:51:08,258.528,,,,,,,
806,2025-02-23 15:21:33,2025-02-23 15:25:53,259.47,,,,,,,
807,2025-02-23 16:56:17,2025-02-23 17:00:37,260.58,,,,,,,
808,2025-02-23 18:31:00,2025-02-23 18:35:22,261.846,,,,,,,
809,2025-02-23 20:05:43,2025-02-23 20:10:06,263.271,,,,,,,
810,2025-02-23 21:40:27,2025-02-23 21:44:50,263.325,,,,,,,
811,2025-02-23 23:15:13,2025-02-23 23:19:35,261.769,,,,,,,
812,2025-02-24 00:49:59,2025-02-24 00:54:19,260.408,,,,,,,
813,2025-02-24 02:24:44,2025-02-24 02:29:04,259.256,,,,,,,
814,2025-02-24 03:59:30,2025-02-24 04:03:48,258.296,,,,,,,
815,2025-02-24 05:34:15,2025-02-24 05:38:32,257.526,,,,,,,
816,2025-02-24 07:09:00,2025-02-24 07:13:17,256.941,,,,,,,
817,2025-02-24 08:43:45,2025-02-24 08:48:01,256.537,,,,,,,
818,2025-02-24 10:18:29,2025-02-24 10:22:46,256.312,,,,,,,
819,2025-02-24 11:53:14,2025-02-24 11:57:30,256.261,,,,,,,
820,2025-02-24 13:27:58,2025-02-24 13:32:14,256.382,,,,,,,
821,2025-02-24 15:02:42,2025-02-24 15:06:59,256.673,,,,,,,
822,2025-02-24 16:37:26,2025-02-24 16:41:43,257.131,,,,,,,
823,2025-02-24 18:12:10,2025-02-24 18:16:27,257.753,,,,,,,
824,2025-02-24 19:46:53,2025-02-24 19:51:12,258.535,,,,,,,
825,2025-02-24 21:21:37,2025-02-24 21:25:56,259.485,,,,,,,
826,2025-02-24 22:56:20,2025-02-24 23:00:41,260.592,,,,,,,
827,2025-02-25 00:31:03,2025-02-25 00:35:25,261.862,,,,,,,
828,2025-02-25 02:05:46,2025-02-25 02:10:09,263.285,,,,,,,
829,2025-02-25 03:40:30,2025-02-25 03:44:54,263.309,,,,,,,
830,2025-02-25 05:15:16,2025-02-25 05:19:38,261.751,,,,,,,
831,2025-02-25 06:50:02,2025-02-25 06:54:23,260.398,,,,,,,
832,2025-02-25 08:24:48,2025-02-25 08:29:07,259.244,,,,,,,
833,2025-02-25 09:59:33,2025-02-25 10:03:51,258.286,,,,,,,
834,2025-02-25 11:34:18,2025-02-25 11:38:36,257.518,,,,,,,
835,2025-02-25 13:09:03,2025-02-25 13:13:20,256.932,,,,,,,
836,2025-02-25 14:43:48,2025-02-25 14:48:04,256.533,,,,,,,
837,2025-02-25 16:18:33,2025-02-25 16:22:49,256.31,,,,,,,
838,2025-02-25 17:53:17,2025-02-25 17:57:33,256.257,,,,,,,
839,2025-02-25 19:28:01,2025-02-25 19:32:18,256.382,,,,,,,
840,2025-02-25 21:02:45,2025-02-25 21:07:02,256.677,,,,,,,
841,2025-02-25 22:37:29,2025-02-25 22:41:46,257.134,,,,,,,
842,2025-02-26 00:12:13,2025-02-26 00:16:31,257.76,,,,,,,
843,2025-02-26 01:46:57,2025-02-26 01:51:15,258.545,,,,,,,
844,2025-02-26 03:21:40,2025-02-26 03:26:00,259.497,,,,,,,
845,2025-02-26 04:56:23,2025-02-26 05:00:44,260.608,,,,,,,
846,2025-02-26 06:31:06,2025-02-26 06:35:28,261.877,,,,,,,
847,2025-02-26 08:05:49,2025-02-26 08:10:13,263.306,,,,,,,
848,2025-02-26 09:40:34,2025-02-26 09:44:57,263.289,,,,,,,
849,2025-02-26 11:15:20,2025-02-26 11:19:41,261.733,,,,,,,
850,2025-02-26 12:50:05,2025-02-26 12:54:26,260.381,,,,,,,
851,2025-02-26 14:24:51,2025-02-26 14:29:10,259.232,,,,,,,
852,2025-02-26 15:59:36,2025-02-26 16:03:55,258.276,,,,,,,
853,2025-02-26 17:34:22,2025-02-26 17:38:39,257.505,,,,,,,
854,2025-02-26 19:09:06,2025-02-26 19:13:23,256.928,,,,,,,
855,2025-02-26 20:43:51,2025-02-26 20:48:08,256.529,,,,,,,
856,2025-02-26 22:18:36,2025-02-26 22:22:52,256.307,,,,,,,
857,2025-02-26 23:53:20,2025-02-26 23:57:37,256.26,,,,,,,
858,2025-02-27 01:28:05,2025-02-27 01:32:21,256.386,,,,,,,
859,2025-02-27 03:02:49,2025-02-27 03:07:05,256.681,,,,,,,
860,2025-02-27 04:37:33,2025-02-27 04:41:50,257.142,,,,,,,
861,2025-02-27 06:12:16,2025-02-27 06:16:34,257.768,,,,,,,
862,2025-02-27 07:47:00,2025-02-27 07:51:18,258.558,,,,,,,
863,2025-02-27 09:21:43,2025-02-27 09:26:03,259.509,,,,,,,
864,2025-02-27 10:56:27,2025-02-27 11:00:47,260.621,,,,,,,
865,2025-02-27 12:31:10,2025-02-27 12:35:32,261.891,,,,,,,
866,2025-02-27 14:05:53,2025-02-27 14:10:16,263.323,,,,,,,
867,2025-02-27 15:40:37,2025-02-27 15:45:00,263.27,,,,,,,
868,2025-02-27 17:15:23,2025-02-27 17:19:45,261.712,,,,,,,
869,2025-02-27 18:50:09,2025-02-27 18:54:29,260.368,,,,,,,
870,2025-02-27 20:24:54,2025-02-27 20:29:14,259.22,,,,,,,
871,2025-02-27 21:59:40,2025-02-27 22:03:58,258.265,,,,,,,
872,2025-02-27 23:34:25,2025-02-27 23:38:42,257.499,,,,,,,
873,2025-02-28 01:09:10,2025-02-28 01:13:27,256.922,,,,,,,
874,2025-02-28 02:43:55,2025-02-28 02:48:11,256.525,,,,,,,
875,2025-02-28 04:18:39,2025-02-28 04:22:55,256.306,,,,,,,
876,2025-02-28 05:53:24,2025-02-28 05:57:40,256.261,,,,,,,
877,2025-02-28 07:28:08,2025-02-28 07:32:24,256.389,,,,,,,
878,2025-02-28 09:02:52,2025-02-28 09:07:09,256.685,,,,,,,
879,2025-02-28 10:37:36,2025-02-28 10:41:53,257.149,,,,,,,
880,2025-02-28 12:12:20,2025-02-28 12:16:37,257.776,,,,,,,
881,2025-02-28 13:47:03,2025-02-28 13:51:22,258.568,,,,,,,
882,2025-02-28 15:21:47,2025-02-28 15:26:06,259.517,,,,,,,
883,2025-02-28 16:56:30,2025-02-28 17:00:51,260.635,,,,,,,
884,2025-02-28 18:31:13,2025-02-28 18:35:35,261.909,,,,,,,
885,2025-02-28 20:05:56,2025-02-28 20:10:19,263.34,,,,,,,
886,2025-02-28 21:40:40,2025-02-28 21:45:04,263.246,,,,,,,
887,2025-02-28 23:15:26,2025-02-28 23:19:48,261.7,,,,,,,
888,2025-03-01 00:50:12,2025-03-01 00:54:33,260.348,,,,,,,
889,2025-03-01 02:24:58,2025-03-01 02:29:17,259.206,,,,,,,
890,2025-03-01 03:59:43,2025-03-01 04:04:01,258.255,,,,,,,
891,2025-03-01 05:34:28,2025-03-01 05:38:46,257.493,,,,,,,
892,2025-03-01 07:09:13,2025-03-01 07:13:30,256.917,,,,,,,
893,2025-03-01 08:43:58,2025-03-01 08:48:14,256.522,,,,,,,
894,2025-03-01 10:18:43,2025-03-01 10:22:59,256.305,,,,,,,
895,2025-03-01 11:53:27,2025-03-01 11:57:43,256.262,,,,,,,
896,2025-03-01 13:28:11,2025-03-01 13:32:28,256.393,,,,,,,
897,2025-03-01 15:02:55,2025-03-01 15:07:12,256.69,,,,,,,
898,2025-03-01 16:37:39,2025-03-01 16:41:56,257.155,,,,,,,
899,2025-03-01 18:12:23,2025-03-01 18:16:41,257.785,,,,,,,
900,2025-03-01 19:47:07,2025-03-01 19:51:25,258.575,,,,,,,
901,2025-03-01 21:21:50,2025-03-01 21:26:10,259.533,,,,,,,
902,2025-03-01 22:56:33,2025-03-01 23:00:54,260.648,,,,,,,
903,2025-03-02 00:31:16,2025-03-02 00:35:38,261.925,,,,,,,
904,2025-03-02 02:05:59,2025-03-02 02:10:23,263.355,,,,,,,
905,2025-03-02 03:40:44,2025-03-02 03:45:07,263.231,,,,,,,
906,2025-03-02 05:15:30,2025-03-02 05:19:51,261.683,,,,,,,
907,2025-03-02 06:50:16,2025-03-02 06:54:36,260.339,,,,,,,
908,2025-03-02 08:25:01,2025-03-02 08:29:20,259.195,,,,,,,
909,2025-03-02 09:59:46,2025-03-02 10:04:05,258.246,,,,,,,
910,2025-03-02 11:34:32,2025-03-02 11:38:49,257.486,,,,,,,
911,2025-03-02 13:09:16,2025-03-02 13:13:33,256.909,,,,,,,
912,2025-03-02 14:44:01,2025-03-02 14:48:18,256.519,,,,,,,
913,2025-03-02 16:18:46,2025-03-02 16:23:02,256.304,,,,,,,
914,2025-03-02 17:53:30,2025-03-02 17:57:47,256.259,,,,,,,
915,2025-03-02 19:28:15,2025-03-02 19:32:31,256.393,,,,,,,
916,2025-03-02 21:02:59,2025-03-02 21:07:15,256.695,,,,,,,
917,2025-03-02 22:37:43,2025-03-02 22:42:00,257.16,,,,,,,
918,2025-03-03 00:12:26,2025-03-03 00:16:44,257.794,,,,,,,
919,2025-03-03 01:47:10,2025-03-03 01:51:28,258.586,,,,,,,
920,2025-03-03 03:21:53,2025-03-03 03:26:13,259.546,,,,,,,
921,2025-03-03 04:56:37,2025-03-03 05:00:57,260.664,,,,,,,
922,2025-03-03 06:31:20,2025-03-03 06:35:42,261.941,,,,,,,
923,2025-03-03 08:06:03,2025-03-03 08:10:26,263.377,,,,,,,
924,2025-03-03 09:40:47,2025-03-03 09:45:10,263.213,,,,,,,
925,2025-03-03 11:15:33,2025-03-03 11:19:55,261.667,,,,,,,
926,2025-03-03 12:50:19,2025-03-03 12:54:39,260.324,,,,,,,
927,2025-03-03 14:25:04,2025-03-03 14:29:24,259.184,,,,,,,
928,2025-03-03 15:59:50,2025-03-03 16:04:08,258.237,,,,,,,
929,2025-03-03 17:34:35,2025-03-03 17:38:52,257.475,,,,,,,
930,2025-03-03 19:09:20,2025-03-03 19:13:37,256.907,,,,,,,
931,2025-03-03 20:44:05,2025-03-03 20:48:21,256.516,,,,,,,
932,2025-03-03 22:18:49,2025-03-03 22:23:05,256.302,,,,,,,
933,2025-03-03 23:53:34,2025-03-03 23:57:50,256.264,,,,,,,
934,2025-03-04 01:28:18,2025-03-04 01:32:34,256.398,,,,,,,
935,2025-03-04 03:03:02,2025-03-04 03:07:19,256.701,,,,,,,
936,2025-03-04 04:37:46,2025-03-04 04:42:03,257.17,,,,,,,
937,2025-03-04 06:12:30,2025-03-04 06:16:47,257.804,,,,,,,
938,2025-03-04 07:47:13,2025-03-04 07:51:32,258.601,,,,,,,
939,2025-03-04 09:21:57,2025-03-04 09:26:16,259.56,,,,,,,
940,2025-03-04 10:56:40,2025-03-04 11:01:01,260.679,,,,,,,
941,2025-03-04 12:31:23,2025-03-04 12:35:45,261.956,,,,,,,
942,2025-03-04 14:06:06,2025-03-04 14:10:29,263.396,,,,,,,
943,2025-03-04 15:40:51,2025-03-04 15:45:14,263.195,,,,,,,
944,2025-03-04 17:15:36,2025-03-04 17:19:58,261.646,,,,,,,
945,2025-03-04 18:50:22,2025-03-04 18:54:43,260.312,,,,,,,
946,2025-03-04 20:25:08,2025-03-04 20:29:27,259.174,,,,,,,
947,2025-03-04 21:59:53,2025-03-04 22:04:11,258.227,,,,,,,
948,2025-03-04 23:34:38,2025-03-04 23:38:56,257.472,,,,,,,
949,2025-03-05 01:09:23,2025-03-05 01:13:40,256.902,,,,,,,
950,2025-03-05 02:44:08,2025-03-05 02:48:24,256.514,,,,,,,
951,2025-03-05 04:18:53,2025-03-05 04:23:09,256.303,,,,,,,
952,2025-03-05 05:53:37,2025-03-05 05:57:53,256.266,,,,,,,
953,2025-03-05 07:28:21,2025-03-05 07:32:38,256.401,,,,,,,
954,2025-03-05 09:03:05,2025-03-05 09:07:22,256.706,,,,,,,
955,2025-03-05 10:37:49,2025-03-05 10:42:06,257.177,,,,,,,
956,2025-03-05 12:12:33,2025-03-05 12:16:51,257.812,,,,,,,
957,2025-03-05 13:47:17,2025-03-05 13:51:35,258.612,,,,,,,
958,2025-03-05 15:22:00,2025-03-05 15:26:20,259.568,,,,,,,
959,2025-03-05 16:56:43,2025-03-05 17:01:04,260.694,,,,,,,
960,2025-03-05 18:31:26,2025-03-05 18:35:48,261.975,,,,,,,
961,2025-03-05 20:06:09,2025-03-05 20:10:33,263.414,,,,,,,
962,2025-03-05 21:40:54,2025-03-05 21:45:17,263.172,,,,,,,
963,2025-03-05 23:15:40,2025-03-05 23:20:01,261.637,,,,,,,
964,2025-03-06 00:50:26,2025-03-06 00:54:46,260.293,,,,,,,
965,2025-03-06 02:25:11,2025-03-06 02:29:30,259.16,,,,,,,
966,2025-03-06 03:59:56,2025-03-06 04:04:15,258.219,,,,,,,
967,2025-03-06 05:34:42,2025-03-06 05:38:59,257.467,,,,,,,
968,2025-03-06 07:09:26,2025-03-06 07:13:43,256.897,,,,,,,
969,2025-03-06 08:44:11,2025-03-06 08:48:28,256.511,,,,,,,
970,2025-03-06 10:18:56,2025-03-06 10:23:12,256.302,,,,,,,
971,2025-03-06 11:53:40,2025-03-06 11:57:57,256.267,,,,,,,
972,2025-03-06 13:28:25,2025-03-06 13:32:41,256.405,,,,,,,
973,2025-03-06 15:03:09,2025-03-06 15:07:25,256.711,,,,,,,
974,2025-03-06 16:37:53,2025-03-06 16:42:10,257.184,,,,,,,
975,2025-03-06 18:12:36,2025-03-06 18:16:54,257.822,,,,,,,
976,2025-03-06 19:47:20,2025-03-06 19:51:38,258.619,,,,,,,
977,2025-03-06 21:22:03,2025-03-06 21:26:23,259.585,,,,,,,
978,2025-03-06 22:56:47,2025-03-06 23:01:07,260.708,,,,,,,
979,2025-03-07 00:31:30,2025-03-07 00:35:52,261.992,,,,,,,
980,2025-03-07 02:06:13,2025-03-07 02:10:36,263.429,,,,,,,
981,2025-03-07 03:40:57,2025-03-07 03:45:20,263.158,,,,,,,
982,2025-03-07 05:15:43,2025-03-07 05:20:05,261.619,,,,,,,
983,2025-03-07 06:50:29,2025-03-07 06:54:49,260.284,,,,,,,
984,2025-03-07 08:25:14,2025-03-07 08:29:34,259.15,,,,,,,
985,2025-03-07 10:00:00,2025-03-07 10:04:18,258.209,,,,,,,
986,2025-03-07 11:34:45,2025-03-07 11:39:02,257.458,,,,,,,
987,2025-03-07 13:09:30,2025-03-07 13:13:47,256.89,,,,,,,
988,2025-03-07 14:44:15,2025-03-07 14:48:31,256.508,,,,,,,
989,2025-03-07 16:18:59,2025-03-07 16:23:15,256.301,,,,,,,
990,2025-03-07 17:53:44,2025-03-07 17:58:00,256.265,,,,,,,
991,2025-03-07 19:28:28,2025-03-07 19:32:44,256.406,,,,,,,
992,2025-03-07 21:03:12,2025-03-07 21:07:29,256.716,,,,,,,
993,2025-03-07 22:37:56,2025-03-07 22:42:13,257.188,,,,,,,
994,2025-03-08 00:12:40,2025-03-08 00:16:57,257.83,,,,,,,
995,2025-03-08 01:47:23,2025-03-08 01:51:42,258.63,,,,,,,
996,2025-03-08 03:22:07,2025-03-08 03:26:26,259.598,,,,,,,
997,2025-03-08 04:56:50,2025-03-08 05:01:11,260.723,,,,,,,
998,2025-03-08 06:31:33,2025-03-08 06:35:55,262.007,,,,,,,
999,2025-03-08 08:06:16,2025-03-08 08:10:39,263.451,,,,,,,
1000,2025-03-08 09:41:01,2025-03-08 09:45:24,263.139,,,,,,,
1001,2025-03-08 11:15:47,2025-03-08 11:20:08,261.602,,,,,,,
1002,2025-03-08 12:50:32,2025-03-08 12:54:52,260.269,,,,,,,
1003,2025-03-08 14:25:18,2025-03-08 14:29:37,259.138,,,,,,,
1004,2025-03-08 16:00:03,2025-03-08 16:04:21,258.2,,,,,,,
1005,2025-03-08 17:34:48,2025-03-08 17:39:06,257.446,,,,,,,
1006,2025-03-08 19:09:33,2025-03-08 19:13:50,256.887,,,,,,,
1007,2025-03-08 20:44:18,2025-03-08 20:48:34,256.505,,,,,,,
1008,2025-03-08 22:19:03,2025-03-08 22:23:19,256.299,,,,,,,
1009,2025-03-08 23:53:47,2025-03-08 23:58:03,256.268,,,,,,,
1010,2025-03-09 01:28:31,2025-03-09 01:32:48,256.411,,,,,,,
1011,2025-03-09 03:03:15,2025-03-09 03:07:32,256.721,,,,,,,
1012,2025-03-09 04:37:59,2025-03-09 04:42:16,257.198,,,,,,,
1013,2025-03-09 06:12:43,2025-03-09 06:17:01,257.839,,,,,,,
1014,2025-03-09 07:47:26,2025-03-09 07:51:45,258.644,,,,,,,
1015,2025-03-09 09:22:10,2025-03-09 09:26:30,259.61,,,,,,,
1016,2025-03-09 10:56:53,2025-03-09 11:01:14,260.737,,,,,,,
