3UCubedIntegratedSim/Reports & Plots/Area Target Access Data/CSV/Sat11.csv

Access,Start Time (UTCG),Stop Time (UTCG),Duration (sec),,,Global Statistics,,,,
1,2025-01-01 16:25:37,2025-01-01 16:31:21,343.96,,,Min Duration,2914,2025-07-12 08:02:33,2025-07-12 13:38:03,338.954
2,2025-01-01 18:00:21,2025-01-01 18:06:04,342.77,,,Max Duration,4784,2025-11-12 08:45:54,2025-11-12 08:51:41,346.929
3,2025-01-01 19:35:06,2025-01-01 19:40:48,341.74,,,Mean Duration,,,,341.624
4,2025-01-01 21:09:50,2025-01-01 21:15:31,340.88,,,Total Duration,,,,1895330.2
5,2025-01-01 22:44:35,2025-01-01 22:50:15,340.17,,,,,,,
6,2025-01-02 00:19:19,2025-01-02 00:24:59,339.64,,,,,,,
7,2025-01-02 01:54:03,2025-01-02 01:59:43,339.26,,,,,,,
8,2025-01-02 03:28:48,2025-01-02 03:34:27,339.06,,,,,,,
9,2025-01-02 05:03:32,2025-01-02 05:09:11,339.03,,,,,,,
10,2025-01-02 06:38:17,2025-01-02 06:43:56,339.17,,,,,,,
11,2025-01-02 08:13:01,2025-01-02 08:18:40,339.48,,,,,,,
12,2025-01-02 09:47:45,2025-01-02 09:53:25,339.98,,,,,,,
13,2025-01-02 11:22:30,2025-01-02 11:28:10,340.65,,,,,,,
14,2025-01-02 12:57:14,2025-01-02 13:02:56,341.52,,,,,,,
15,2025-01-02 14:31:58,2025-01-02 14:37:41,342.58,,,,,,,
16,2025-01-02 16:06:43,2025-01-02 16:12:27,343.84,,,,,,,
17,2025-01-02 17:41:27,2025-01-02 17:47:13,345.30,,,,,,,
18,2025-01-02 19:16:12,2025-01-02 19:21:58,346.79,,,,,,,
19,2025-01-02 20:50:56,2025-01-02 20:56:41,345.28,,,,,,,
20,2025-01-02 22:25:40,2025-01-02 22:31:24,343.94,,,,,,,
21,2025-01-03 00:00:25,2025-01-03 00:06:08,342.76,,,,,,,
22,2025-01-03 01:35:09,2025-01-03 01:40:51,341.73,,,,,,,
23,2025-01-03 03:09:54,2025-01-03 03:15:34,340.87,,,,,,,
24,2025-01-03 04:44:38,2025-01-03 04:50:18,340.17,,,,,,,
25,2025-01-03 06:19:22,2025-01-03 06:25:02,339.63,,,,,,,
26,2025-01-03 07:54:07,2025-01-03 07:59:46,339.26,,,,,,,
27,2025-01-03 09:28:51,2025-01-03 09:34:30,339.06,,,,,,,
28,2025-01-03 11:03:35,2025-01-03 11:09:15,339.02,,,,,,,
29,2025-01-03 12:38:20,2025-01-03 12:43:59,339.17,,,,,,,
30,2025-01-03 14:13:04,2025-01-03 14:18:44,339.49,,,,,,,
31,2025-01-03 15:47:49,2025-01-03 15:53:29,339.98,,,,,,,
32,2025-01-03 17:22:33,2025-01-03 17:28:14,340.67,,,,,,,
33,2025-01-03 18:57:17,2025-01-03 19:02:59,341.53,,,,,,,
34,2025-01-03 20:32:02,2025-01-03 20:37:44,342.60,,,,,,,
35,2025-01-03 22:06:46,2025-01-03 22:12:30,343.85,,,,,,,
36,2025-01-03 23:41:31,2025-01-03 23:47:16,345.31,,,,,,,
37,2025-01-04 01:16:15,2025-01-04 01:22:02,346.76,,,,,,,
38,2025-01-04 02:50:59,2025-01-04 02:56:45,345.27,,,,,,,
39,2025-01-04 04:25:44,2025-01-04 04:31:28,343.93,,,,,,,
40,2025-01-04 06:00:28,2025-01-04 06:06:11,342.74,,,,,,,
41,2025-01-04 07:35:13,2025-01-04 07:40:54,341.72,,,,,,,
42,2025-01-04 09:09:57,2025-01-04 09:15:38,340.86,,,,,,,
43,2025-01-04 10:44:41,2025-01-04 10:50:21,340.16,,,,,,,
44,2025-01-04 12:19:26,2025-01-04 12:25:05,339.63,,,,,,,
45,2025-01-04 13:54:10,2025-01-04 13:59:49,339.26,,,,,,,
46,2025-01-04 15:28:54,2025-01-04 15:34:33,339.06,,,,,,,
47,2025-01-04 17:03:39,2025-01-04 17:09:18,339.03,,,,,,,
48,2025-01-04 18:38:23,2025-01-04 18:44:02,339.17,,,,,,,
49,2025-01-04 20:13:08,2025-01-04 20:18:47,339.49,,,,,,,
50,2025-01-04 21:47:52,2025-01-04 21:53:32,339.99,,,,,,,
51,2025-01-04 23:22:36,2025-01-04 23:28:17,340.67,,,,,,,
52,2025-01-05 00:57:21,2025-01-05 01:03:02,341.55,,,,,,,
53,2025-01-05 02:32:05,2025-01-05 02:37:48,342.61,,,,,,,
54,2025-01-05 04:06:50,2025-01-05 04:12:33,343.87,,,,,,,
55,2025-01-05 05:41:34,2025-01-05 05:47:19,345.33,,,,,,,
56,2025-01-05 07:16:18,2025-01-05 07:22:05,346.75,,,,,,,
57,2025-01-05 08:51:03,2025-01-05 08:56:48,345.25,,,,,,,
58,2025-01-05 10:25:47,2025-01-05 10:31:31,343.91,,,,,,,
59,2025-01-05 12:00:31,2025-01-05 12:06:14,342.72,,,,,,,
60,2025-01-05 13:35:16,2025-01-05 13:40:58,341.71,,,,,,,
61,2025-01-05 15:10:00,2025-01-05 15:15:41,340.85,,,,,,,
62,2025-01-05 16:44:45,2025-01-05 16:50:25,340.15,,,,,,,
63,2025-01-05 18:19:29,2025-01-05 18:25:09,339.62,,,,,,,
64,2025-01-05 19:54:13,2025-01-05 19:59:53,339.25,,,,,,,
65,2025-01-05 21:28:58,2025-01-05 21:34:37,339.06,,,,,,,
66,2025-01-05 23:03:42,2025-01-05 23:09:21,339.03,,,,,,,
67,2025-01-06 00:38:27,2025-01-06 00:44:06,339.17,,,,,,,
68,2025-01-06 02:13:11,2025-01-06 02:18:50,339.49,,,,,,,
69,2025-01-06 03:47:55,2025-01-06 03:53:35,339.99,,,,,,,
70,2025-01-06 05:22:40,2025-01-06 05:28:20,340.68,,,,,,,
71,2025-01-06 06:57:24,2025-01-06 07:03:06,341.56,,,,,,,
72,2025-01-06 08:32:08,2025-01-06 08:37:51,342.62,,,,,,,
73,2025-01-06 10:06:53,2025-01-06 10:12:37,343.89,,,,,,,
74,2025-01-06 11:41:37,2025-01-06 11:47:23,345.35,,,,,,,
75,2025-01-06 13:16:22,2025-01-06 13:22:08,346.73,,,,,,,
76,2025-01-06 14:51:06,2025-01-06 14:56:51,345.23,,,,,,,
77,2025-01-06 16:25:50,2025-01-06 16:31:34,343.89,,,,,,,
78,2025-01-06 18:00:35,2025-01-06 18:06:17,342.72,,,,,,,
79,2025-01-06 19:35:19,2025-01-06 19:41:01,341.70,,,,,,,
80,2025-01-06 21:10:04,2025-01-06 21:15:44,340.84,,,,,,,
81,2025-01-06 22:44:48,2025-01-06 22:50:28,340.14,,,,,,,
82,2025-01-07 00:19:32,2025-01-07 00:25:12,339.62,,,,,,,
83,2025-01-07 01:54:17,2025-01-07 01:59:56,339.25,,,,,,,
84,2025-01-07 03:29:01,2025-01-07 03:34:40,339.05,,,,,,,
85,2025-01-07 05:03:45,2025-01-07 05:09:25,339.03,,,,,,,
86,2025-01-07 06:38:30,2025-01-07 06:44:09,339.18,,,,,,,
87,2025-01-07 08:13:14,2025-01-07 08:18:54,339.50,,,,,,,
88,2025-01-07 09:47:59,2025-01-07 09:53:39,340.01,,,,,,,
89,2025-01-07 11:22:43,2025-01-07 11:28:24,340.69,,,,,,,
90,2025-01-07 12:57:27,2025-01-07 13:03:09,341.57,,,,,,,
91,2025-01-07 14:32:12,2025-01-07 14:37:54,342.64,,,,,,,
92,2025-01-07 16:06:56,2025-01-07 16:12:40,343.90,,,,,,,
93,2025-01-07 17:41:41,2025-01-07 17:47:26,345.37,,,,,,,
94,2025-01-07 19:16:25,2025-01-07 19:22:12,346.71,,,,,,,
95,2025-01-07 20:51:09,2025-01-07 20:56:55,345.22,,,,,,,
96,2025-01-07 22:25:54,2025-01-07 22:31:38,343.88,,,,,,,
97,2025-01-08 00:00:38,2025-01-08 00:06:21,342.71,,,,,,,
98,2025-01-08 01:35:22,2025-01-08 01:41:04,341.69,,,,,,,
99,2025-01-08 03:10:07,2025-01-08 03:15:48,340.83,,,,,,,
100,2025-01-08 04:44:51,2025-01-08 04:50:31,340.14,,,,,,,
101,2025-01-08 06:19:36,2025-01-08 06:25:15,339.61,,,,,,,
102,2025-01-08 07:54:20,2025-01-08 07:59:59,339.24,,,,,,,
103,2025-01-08 09:29:04,2025-01-08 09:34:43,339.05,,,,,,,
104,2025-01-08 11:03:49,2025-01-08 11:09:28,339.03,,,,,,,
105,2025-01-08 12:38:33,2025-01-08 12:44:12,339.18,,,,,,,
106,2025-01-08 14:13:18,2025-01-08 14:18:57,339.51,,,,,,,
107,2025-01-08 15:48:02,2025-01-08 15:53:42,340.01,,,,,,,
108,2025-01-08 17:22:46,2025-01-08 17:28:27,340.70,,,,,,,
109,2025-01-08 18:57:31,2025-01-08 19:03:12,341.58,,,,,,,
110,2025-01-08 20:32:15,2025-01-08 20:37:58,342.65,,,,,,,
111,2025-01-08 22:07:00,2025-01-08 22:12:43,343.92,,,,,,,
112,2025-01-08 23:41:44,2025-01-08 23:47:29,345.39,,,,,,,
113,2025-01-09 01:16:28,2025-01-09 01:22:15,346.69,,,,,,,
114,2025-01-09 02:51:13,2025-01-09 02:56:58,345.20,,,,,,,
115,2025-01-09 04:25:57,2025-01-09 04:31:41,343.87,,,,,,,
116,2025-01-09 06:00:41,2025-01-09 06:06:24,342.69,,,,,,,
117,2025-01-09 07:35:26,2025-01-09 07:41:08,341.68,,,,,,,
118,2025-01-09 09:10:10,2025-01-09 09:15:51,340.82,,,,,,,
119,2025-01-09 10:44:55,2025-01-09 10:50:35,340.13,,,,,,,
120,2025-01-09 12:19:39,2025-01-09 12:25:19,339.61,,,,,,,
121,2025-01-09 13:54:23,2025-01-09 14:00:03,339.25,,,,,,,
122,2025-01-09 15:29:08,2025-01-09 15:34:47,339.05,,,,,,,
123,2025-01-09 17:03:52,2025-01-09 17:09:31,339.03,,,,,,,
124,2025-01-09 18:38:37,2025-01-09 18:44:16,339.18,,,,,,,
125,2025-01-09 20:13:21,2025-01-09 20:19:00,339.51,,,,,,,
126,2025-01-09 21:48:05,2025-01-09 21:53:45,340.02,,,,,,,
127,2025-01-09 23:22:50,2025-01-09 23:28:30,340.71,,,,,,,
128,2025-01-10 00:57:34,2025-01-10 01:03:16,341.60,,,,,,,
129,2025-01-10 02:32:18,2025-01-10 02:38:01,342.67,,,,,,,
130,2025-01-10 04:07:03,2025-01-10 04:12:47,343.94,,,,,,,
131,2025-01-10 05:41:47,2025-01-10 05:47:33,345.41,,,,,,,
132,2025-01-10 07:16:32,2025-01-10 07:22:18,346.67,,,,,,,
133,2025-01-10 08:51:16,2025-01-10 08:57:01,345.19,,,,,,,
134,2025-01-10 10:26:00,2025-01-10 10:31:44,343.85,,,,,,,
135,2025-01-10 12:00:45,2025-01-10 12:06:27,342.67,,,,,,,
136,2025-01-10 13:35:29,2025-01-10 13:41:11,341.67,,,,,,,
137,2025-01-10 15:10:14,2025-01-10 15:15:54,340.82,,,,,,,
138,2025-01-10 16:44:58,2025-01-10 16:50:38,340.13,,,,,,,
139,2025-01-10 18:19:42,2025-01-10 18:25:22,339.60,,,,,,,
140,2025-01-10 19:54:27,2025-01-10 20:00:06,339.24,,,,,,,
141,2025-01-10 21:29:11,2025-01-10 21:34:50,339.05,,,,,,,
142,2025-01-10 23:03:55,2025-01-10 23:09:35,339.03,,,,,,,
143,2025-01-11 00:38:40,2025-01-11 00:44:19,339.19,,,,,,,
144,2025-01-11 02:13:24,2025-01-11 02:19:04,339.52,,,,,,,
145,2025-01-11 03:48:09,2025-01-11 03:53:49,340.02,,,,,,,
146,2025-01-11 05:22:53,2025-01-11 05:28:34,340.72,,,,,,,
147,2025-01-11 06:57:37,2025-01-11 07:03:19,341.61,,,,,,,
148,2025-01-11 08:32:22,2025-01-11 08:38:04,342.68,,,,,,,
149,2025-01-11 10:07:06,2025-01-11 10:12:50,343.96,,,,,,,
150,2025-01-11 11:41:51,2025-01-11 11:47:36,345.43,,,,,,,
151,2025-01-11 13:16:35,2025-01-11 13:22:22,346.66,,,,,,,
152,2025-01-11 14:51:19,2025-01-11 14:57:04,345.16,,,,,,,
153,2025-01-11 16:26:04,2025-01-11 16:31:48,343.84,,,,,,,
154,2025-01-11 18:00:48,2025-01-11 18:06:31,342.67,,,,,,,
155,2025-01-11 19:35:32,2025-01-11 19:41:14,341.65,,,,,,,
156,2025-01-11 21:10:17,2025-01-11 21:15:58,340.81,,,,,,,
157,2025-01-11 22:45:01,2025-01-11 22:50:41,340.12,,,,,,,
158,2025-01-12 00:19:46,2025-01-12 00:25:25,339.60,,,,,,,
159,2025-01-12 01:54:30,2025-01-12 02:00:09,339.24,,,,,,,
160,2025-01-12 03:29:14,2025-01-12 03:34:53,339.05,,,,,,,
161,2025-01-12 05:03:59,2025-01-12 05:09:38,339.04,,,,,,,
162,2025-01-12 06:38:43,2025-01-12 06:44:22,339.19,,,,,,,
163,2025-01-12 08:13:28,2025-01-12 08:19:07,339.52,,,,,,,
164,2025-01-12 09:48:12,2025-01-12 09:53:52,340.04,,,,,,,
165,2025-01-12 11:22:56,2025-01-12 11:28:37,340.73,,,,,,,
166,2025-01-12 12:57:41,2025-01-12 13:03:22,341.61,,,,,,,
167,2025-01-12 14:32:25,2025-01-12 14:38:08,342.69,,,,,,,
168,2025-01-12 16:07:09,2025-01-12 16:12:53,343.97,,,,,,,
169,2025-01-12 17:41:54,2025-01-12 17:47:39,345.45,,,,,,,
170,2025-01-12 19:16:38,2025-01-12 19:22:25,346.64,,,,,,,
171,2025-01-12 20:51:23,2025-01-12 20:57:08,345.15,,,,,,,
172,2025-01-12 22:26:07,2025-01-12 22:31:51,343.82,,,,,,,
173,2025-01-13 00:00:51,2025-01-13 00:06:34,342.66,,,,,,,
174,2025-01-13 01:35:36,2025-01-13 01:41:17,341.64,,,,,,,
175,2025-01-13 03:10:20,2025-01-13 03:16:01,340.80,,,,,,,
176,2025-01-13 04:45:05,2025-01-13 04:50:45,340.12,,,,,,,
177,2025-01-13 06:19:49,2025-01-13 06:25:29,339.59,,,,,,,
178,2025-01-13 07:54:33,2025-01-13 08:00:13,339.24,,,,,,,
179,2025-01-13 09:29:18,2025-01-13 09:34:57,339.05,,,,,,,
180,2025-01-13 11:04:02,2025-01-13 11:09:41,339.04,,,,,,,
181,2025-01-13 12:38:47,2025-01-13 12:44:26,339.19,,,,,,,
182,2025-01-13 14:13:31,2025-01-13 14:19:10,339.53,,,,,,,
183,2025-01-13 15:48:15,2025-01-13 15:53:55,340.04,,,,,,,
184,2025-01-13 17:23:00,2025-01-13 17:28:40,340.74,,,,,,,
185,2025-01-13 18:57:44,2025-01-13 19:03:26,341.63,,,,,,,
186,2025-01-13 20:32:28,2025-01-13 20:38:11,342.71,,,,,,,
187,2025-01-13 22:07:13,2025-01-13 22:12:57,343.99,,,,,,,
188,2025-01-13 23:41:57,2025-01-13 23:47:43,345.47,,,,,,,
189,2025-01-14 01:16:42,2025-01-14 01:22:28,346.62,,,,,,,
190,2025-01-14 02:51:26,2025-01-14 02:57:11,345.14,,,,,,,
191,2025-01-14 04:26:10,2025-01-14 04:31:54,343.81,,,,,,,
192,2025-01-14 06:00:55,2025-01-14 06:06:37,342.65,,,,,,,
193,2025-01-14 07:35:39,2025-01-14 07:41:21,341.63,,,,,,,
194,2025-01-14 09:10:24,2025-01-14 09:16:04,340.79,,,,,,,
195,2025-01-14 10:45:08,2025-01-14 10:50:48,340.10,,,,,,,
196,2025-01-14 12:19:52,2025-01-14 12:25:32,339.59,,,,,,,
197,2025-01-14 13:54:37,2025-01-14 14:00:16,339.24,,,,,,,
198,2025-01-14 15:29:21,2025-01-14 15:35:00,339.05,,,,,,,
199,2025-01-14 17:04:05,2025-01-14 17:09:44,339.04,,,,,,,
200,2025-01-14 18:38:50,2025-01-14 18:44:29,339.20,,,,,,,
201,2025-01-14 20:13:34,2025-01-14 20:19:14,339.54,,,,,,,
202,2025-01-14 21:48:19,2025-01-14 21:53:59,340.05,,,,,,,
203,2025-01-14 23:23:03,2025-01-14 23:28:44,340.75,,,,,,,
204,2025-01-15 00:57:47,2025-01-15 01:03:29,341.65,,,,,,,
205,2025-01-15 02:32:32,2025-01-15 02:38:14,342.73,,,,,,,
206,2025-01-15 04:07:16,2025-01-15 04:13:00,344.01,,,,,,,
207,2025-01-15 05:42:01,2025-01-15 05:47:46,345.49,,,,,,,
208,2025-01-15 07:16:45,2025-01-15 07:22:32,346.60,,,,,,,
209,2025-01-15 08:51:29,2025-01-15 08:57:14,345.12,,,,,,,
210,2025-01-15 10:26:14,2025-01-15 10:31:57,343.79,,,,,,,
211,2025-01-15 12:00:58,2025-01-15 12:06:41,342.63,,,,,,,
212,2025-01-15 13:35:42,2025-01-15 13:41:24,341.63,,,,,,,
213,2025-01-15 15:10:27,2025-01-15 15:16:08,340.78,,,,,,,
214,2025-01-15 16:45:11,2025-01-15 16:50:51,340.10,,,,,,,
215,2025-01-15 18:19:56,2025-01-15 18:25:35,339.58,,,,,,,
216,2025-01-15 19:54:40,2025-01-15 20:00:19,339.23,,,,,,,
217,2025-01-15 21:29:24,2025-01-15 21:35:03,339.05,,,,,,,
218,2025-01-15 23:04:09,2025-01-15 23:09:48,339.04,,,,,,,
219,2025-01-16 00:38:53,2025-01-16 00:44:32,339.20,,,,,,,
220,2025-01-16 02:13:38,2025-01-16 02:19:17,339.54,,,,,,,
221,2025-01-16 03:48:22,2025-01-16 03:54:02,340.06,,,,,,,
222,2025-01-16 05:23:06,2025-01-16 05:28:47,340.76,,,,,,,
223,2025-01-16 06:57:51,2025-01-16 07:03:32,341.66,,,,,,,
224,2025-01-16 08:32:35,2025-01-16 08:38:18,342.74,,,,,,,
225,2025-01-16 10:07:19,2025-01-16 10:13:04,344.02,,,,,,,
226,2025-01-16 11:42:04,2025-01-16 11:47:49,345.50,,,,,,,
227,2025-01-16 13:16:48,2025-01-16 13:22:35,346.59,,,,,,,
228,2025-01-16 14:51:33,2025-01-16 14:57:18,345.10,,,,,,,
229,2025-01-16 16:26:17,2025-01-16 16:32:01,343.78,,,,,,,
230,2025-01-16 18:01:01,2025-01-16 18:06:44,342.62,,,,,,,
231,2025-01-16 19:35:46,2025-01-16 19:41:27,341.61,,,,,,,
232,2025-01-16 21:10:30,2025-01-16 21:16:11,340.77,,,,,,,
233,2025-01-16 22:45:15,2025-01-16 22:50:55,340.09,,,,,,,
234,2025-01-17 00:19:59,2025-01-17 00:25:39,339.58,,,,,,,
235,2025-01-17 01:54:43,2025-01-17 02:00:23,339.23,,,,,,,
236,2025-01-17 03:29:28,2025-01-17 03:35:07,339.05,,,,,,,
237,2025-01-17 05:04:12,2025-01-17 05:09:51,339.04,,,,,,,
238,2025-01-17 06:38:57,2025-01-17 06:44:36,339.21,,,,,,,
239,2025-01-17 08:13:41,2025-01-17 08:19:20,339.54,,,,,,,
240,2025-01-17 09:48:25,2025-01-17 09:54:05,340.07,,,,,,,
241,2025-01-17 11:23:10,2025-01-17 11:28:50,340.77,,,,,,,
242,2025-01-17 12:57:54,2025-01-17 13:03:36,341.66,,,,,,,
243,2025-01-17 14:32:38,2025-01-17 14:38:21,342.75,,,,,,,
244,2025-01-17 16:07:23,2025-01-17 16:13:07,344.04,,,,,,,
245,2025-01-17 17:42:07,2025-01-17 17:47:53,345.53,,,,,,,
246,2025-01-17 19:16:52,2025-01-17 19:22:38,346.57,,,,,,,
247,2025-01-17 20:51:36,2025-01-17 20:57:21,345.09,,,,,,,
248,2025-01-17 22:26:20,2025-01-17 22:32:04,343.77,,,,,,,
249,2025-01-18 00:01:05,2025-01-18 00:06:47,342.61,,,,,,,
250,2025-01-18 01:35:49,2025-01-18 01:41:31,341.60,,,,,,,
251,2025-01-18 03:10:34,2025-01-18 03:16:14,340.77,,,,,,,
252,2025-01-18 04:45:18,2025-01-18 04:50:58,340.09,,,,,,,
253,2025-01-18 06:20:02,2025-01-18 06:25:42,339.58,,,,,,,
254,2025-01-18 07:54:47,2025-01-18 08:00:26,339.22,,,,,,,
255,2025-01-18 09:29:31,2025-01-18 09:35:10,339.05,,,,,,,
256,2025-01-18 11:04:15,2025-01-18 11:09:54,339.04,,,,,,,
257,2025-01-18 12:39:00,2025-01-18 12:44:39,339.21,,,,,,,
258,2025-01-18 14:13:44,2025-01-18 14:19:24,339.55,,,,,,,
259,2025-01-18 15:48:29,2025-01-18 15:54:09,340.08,,,,,,,
260,2025-01-18 17:23:13,2025-01-18 17:28:54,340.78,,,,,,,
261,2025-01-18 18:57:57,2025-01-18 19:03:39,341.68,,,,,,,
262,2025-01-18 20:32:42,2025-01-18 20:38:25,342.77,,,,,,,
263,2025-01-18 22:07:26,2025-01-18 22:13:10,344.05,,,,,,,
264,2025-01-18 23:42:11,2025-01-18 23:47:56,345.55,,,,,,,
265,2025-01-19 01:16:55,2025-01-19 01:22:41,346.55,,,,,,,
266,2025-01-19 02:51:39,2025-01-19 02:57:24,345.08,,,,,,,
267,2025-01-19 04:26:24,2025-01-19 04:32:07,343.76,,,,,,,
268,2025-01-19 06:01:08,2025-01-19 06:06:51,342.60,,,,,,,
269,2025-01-19 07:35:52,2025-01-19 07:41:34,341.59,,,,,,,
270,2025-01-19 09:10:37,2025-01-19 09:16:18,340.76,,,,,,,
271,2025-01-19 10:45:21,2025-01-19 10:51:01,340.08,,,,,,,
272,2025-01-19 12:20:06,2025-01-19 12:25:45,339.57,,,,,,,
273,2025-01-19 13:54:50,2025-01-19 14:00:29,339.23,,,,,,,
274,2025-01-19 15:29:34,2025-01-19 15:35:13,339.05,,,,,,,
275,2025-01-19 17:04:19,2025-01-19 17:09:58,339.04,,,,,,,
276,2025-01-19 18:39:03,2025-01-19 18:44:42,339.21,,,,,,,
277,2025-01-19 20:13:48,2025-01-19 20:19:27,339.56,,,,,,,
278,2025-01-19 21:48:32,2025-01-19 21:54:12,340.08,,,,,,,
279,2025-01-19 23:23:16,2025-01-19 23:28:57,340.79,,,,,,,
280,2025-01-20 00:58:01,2025-01-20 01:03:42,341.69,,,,,,,
281,2025-01-20 02:32:45,2025-01-20 02:38:28,342.78,,,,,,,
282,2025-01-20 04:07:29,2025-01-20 04:13:14,344.07,,,,,,,
283,2025-01-20 05:42:14,2025-01-20 05:47:59,345.56,,,,,,,
284,2025-01-20 07:16:58,2025-01-20 07:22:45,346.53,,,,,,,
285,2025-01-20 08:51:43,2025-01-20 08:57:28,345.06,,,,,,,
286,2025-01-20 10:26:27,2025-01-20 10:32:11,343.74,,,,,,,
287,2025-01-20 12:01:11,2025-01-20 12:06:54,342.58,,,,,,,
288,2025-01-20 13:35:56,2025-01-20 13:41:37,341.58,,,,,,,
289,2025-01-20 15:10:40,2025-01-20 15:16:21,340.75,,,,,,,
290,2025-01-20 16:45:25,2025-01-20 16:51:05,340.07,,,,,,,
291,2025-01-20 18:20:09,2025-01-20 18:25:49,339.57,,,,,,,
292,2025-01-20 19:54:53,2025-01-20 20:00:33,339.22,,,,,,,
293,2025-01-20 21:29:38,2025-01-20 21:35:17,339.05,,,,,,,
294,2025-01-20 23:04:22,2025-01-20 23:10:01,339.04,,,,,,,
295,2025-01-21 00:39:06,2025-01-21 00:44:46,339.22,,,,,,,
296,2025-01-21 02:13:51,2025-01-21 02:19:30,339.56,,,,,,,
297,2025-01-21 03:48:35,2025-01-21 03:54:15,340.09,,,,,,,
298,2025-01-21 05:23:20,2025-01-21 05:29:00,340.80,,,,,,,
299,2025-01-21 06:58:04,2025-01-21 07:03:46,341.70,,,,,,,
300,2025-01-21 08:32:48,2025-01-21 08:38:31,342.79,,,,,,,
301,2025-01-21 10:07:33,2025-01-21 10:13:17,344.09,,,,,,,
302,2025-01-21 11:42:17,2025-01-21 11:48:03,345.58,,,,,,,
303,2025-01-21 13:17:02,2025-01-21 13:22:48,346.51,,,,,,,
304,2025-01-21 14:51:46,2025-01-21 14:57:31,345.04,,,,,,,
305,2025-01-21 16:26:30,2025-01-21 16:32:14,343.73,,,,,,,
306,2025-01-21 18:01:15,2025-01-21 18:06:57,342.57,,,,,,,
307,2025-01-21 19:35:59,2025-01-21 19:41:41,341.57,,,,,,,
308,2025-01-21 21:10:44,2025-01-21 21:16:24,340.74,,,,,,,
309,2025-01-21 22:45:28,2025-01-21 22:51:08,340.06,,,,,,,
310,2025-01-22 00:20:12,2025-01-22 00:25:52,339.56,,,,,,,
311,2025-01-22 01:54:57,2025-01-22 02:00:36,339.22,,,,,,,
312,2025-01-22 03:29:41,2025-01-22 03:35:20,339.04,,,,,,,
313,2025-01-22 05:04:25,2025-01-22 05:10:04,339.05,,,,,,,
314,2025-01-22 06:39:10,2025-01-22 06:44:49,339.22,,,,,,,
315,2025-01-22 08:13:54,2025-01-22 08:19:34,339.56,,,,,,,
316,2025-01-22 09:48:39,2025-01-22 09:54:19,340.10,,,,,,,
317,2025-01-22 11:23:23,2025-01-22 11:29:04,340.81,,,,,,,
318,2025-01-22 12:58:07,2025-01-22 13:03:49,341.71,,,,,,,
319,2025-01-22 14:32:52,2025-01-22 14:38:35,342.81,,,,,,,
320,2025-01-22 16:07:36,2025-01-22 16:13:20,344.10,,,,,,,
321,2025-01-22 17:42:21,2025-01-22 17:48:06,345.60,,,,,,,
322,2025-01-22 19:17:05,2025-01-22 19:22:51,346.50,,,,,,,
323,2025-01-22 20:51:49,2025-01-22 20:57:34,345.03,,,,,,,
324,2025-01-22 22:26:34,2025-01-22 22:32:17,343.71,,,,,,,
325,2025-01-23 00:01:18,2025-01-23 00:07:01,342.56,,,,,,,
326,2025-01-23 01:36:02,2025-01-23 01:41:44,341.56,,,,,,,
327,2025-01-23 03:10:47,2025-01-23 03:16:28,340.73,,,,,,,
328,2025-01-23 04:45:31,2025-01-23 04:51:11,340.06,,,,,,,
329,2025-01-23 06:20:16,2025-01-23 06:25:55,339.56,,,,,,,
330,2025-01-23 07:55:00,2025-01-23 08:00:39,339.21,,,,,,,
331,2025-01-23 09:29:44,2025-01-23 09:35:23,339.05,,,,,,,
332,2025-01-23 11:04:29,2025-01-23 11:10:08,339.04,,,,,,,
333,2025-01-23 12:39:13,2025-01-23 12:44:52,339.22,,,,,,,
334,2025-01-23 14:13:58,2025-01-23 14:19:37,339.57,,,,,,,
335,2025-01-23 15:48:42,2025-01-23 15:54:22,340.11,,,,,,,
336,2025-01-23 17:23:26,2025-01-23 17:29:07,340.82,,,,,,,
337,2025-01-23 18:58:11,2025-01-23 19:03:52,341.73,,,,,,,
338,2025-01-23 20:32:55,2025-01-23 20:38:38,342.83,,,,,,,
339,2025-01-23 22:07:39,2025-01-23 22:13:24,344.12,,,,,,,
340,2025-01-23 23:42:24,2025-01-23 23:48:09,345.63,,,,,,,
341,2025-01-24 01:17:08,2025-01-24 01:22:55,346.48,,,,,,,
342,2025-01-24 02:51:53,2025-01-24 02:57:38,345.01,,,,,,,
343,2025-01-24 04:26:37,2025-01-24 04:32:21,343.70,,,,,,,
344,2025-01-24 06:01:21,2025-01-24 06:07:04,342.55,,,,,,,
345,2025-01-24 07:36:06,2025-01-24 07:41:47,341.55,,,,,,,
346,2025-01-24 09:10:50,2025-01-24 09:16:31,340.72,,,,,,,
347,2025-01-24 10:45:35,2025-01-24 10:51:15,340.05,,,,,,,
348,2025-01-24 12:20:19,2025-01-24 12:25:58,339.55,,,,,,,
349,2025-01-24 13:55:03,2025-01-24 14:00:43,339.21,,,,,,,
350,2025-01-24 15:29:48,2025-01-24 15:35:27,339.05,,,,,,,
351,2025-01-24 17:04:32,2025-01-24 17:10:11,339.05,,,,,,,
352,2025-01-24 18:39:16,2025-01-24 18:44:56,339.23,,,,,,,
353,2025-01-24 20:14:01,2025-01-24 20:19:40,339.58,,,,,,,
354,2025-01-24 21:48:45,2025-01-24 21:54:25,340.11,,,,,,,
355,2025-01-24 23:23:30,2025-01-24 23:29:10,340.83,,,,,,,
356,2025-01-25 00:58:14,2025-01-25 01:03:56,341.74,,,,,,,
357,2025-01-25 02:32:58,2025-01-25 02:38:41,342.84,,,,,,,
358,2025-01-25 04:07:43,2025-01-25 04:13:27,344.14,,,,,,,
359,2025-01-25 05:42:27,2025-01-25 05:48:13,345.64,,,,,,,
360,2025-01-25 07:17:12,2025-01-25 07:22:58,346.46,,,,,,,
361,2025-01-25 08:51:56,2025-01-25 08:57:41,344.99,,,,,,,
362,2025-01-25 10:26:40,2025-01-25 10:32:24,343.68,,,,,,,
363,2025-01-25 12:01:25,2025-01-25 12:07:07,342.53,,,,,,,
364,2025-01-25 13:36:09,2025-01-25 13:41:51,341.54,,,,,,,
365,2025-01-25 15:10:53,2025-01-25 15:16:34,340.71,,,,,,,
366,2025-01-25 16:45:38,2025-01-25 16:51:18,340.05,,,,,,,
367,2025-01-25 18:20:22,2025-01-25 18:26:02,339.55,,,,,,,
368,2025-01-25 19:55:07,2025-01-25 20:00:46,339.21,,,,,,,
369,2025-01-25 21:29:51,2025-01-25 21:35:30,339.05,,,,,,,
370,2025-01-25 23:04:35,2025-01-25 23:10:14,339.05,,,,,,,
371,2025-01-26 00:39:20,2025-01-26 00:44:59,339.23,,,,,,,
372,2025-01-26 02:14:04,2025-01-26 02:19:44,339.58,,,,,,,
373,2025-01-26 03:48:49,2025-01-26 03:54:29,340.12,,,,,,,
374,2025-01-26 05:23:33,2025-01-26 05:29:14,340.84,,,,,,,
375,2025-01-26 06:58:17,2025-01-26 07:03:59,341.75,,,,,,,
376,2025-01-26 08:33:02,2025-01-26 08:38:45,342.85,,,,,,,
377,2025-01-26 10:07:46,2025-01-26 10:13:30,344.16,,,,,,,
378,2025-01-26 11:42:31,2025-01-26 11:48:16,345.66,,,,,,,
379,2025-01-26 13:17:15,2025-01-26 13:23:01,346.44,,,,,,,
380,2025-01-26 14:51:59,2025-01-26 14:57:44,344.97,,,,,,,
381,2025-01-26 16:26:44,2025-01-26 16:32:27,343.67,,,,,,,
382,2025-01-26 18:01:28,2025-01-26 18:07:11,342.52,,,,,,,
383,2025-01-26 19:36:12,2025-01-26 19:41:54,341.53,,,,,,,
384,2025-01-26 21:10:57,2025-01-26 21:16:38,340.71,,,,,,,
385,2025-01-26 22:45:41,2025-01-26 22:51:21,340.04,,,,,,,
386,2025-01-27 00:20:26,2025-01-27 00:26:05,339.54,,,,,,,
387,2025-01-27 01:55:10,2025-01-27 02:00:49,339.21,,,,,,,
388,2025-01-27 03:29:54,2025-01-27 03:35:33,339.04,,,,,,,
389,2025-01-27 05:04:39,2025-01-27 05:10:18,339.05,,,,,,,
390,2025-01-27 06:39:23,2025-01-27 06:45:02,339.23,,,,,,,
391,2025-01-27 08:14:08,2025-01-27 08:19:47,339.59,,,,,,,
392,2025-01-27 09:48:52,2025-01-27 09:54:32,340.13,,,,,,,
393,2025-01-27 11:23:36,2025-01-27 11:29:17,340.85,,,,,,,
394,2025-01-27 12:58:21,2025-01-27 13:04:02,341.76,,,,,,,
395,2025-01-27 14:33:05,2025-01-27 14:38:48,342.87,,,,,,,
396,2025-01-27 16:07:49,2025-01-27 16:13:34,344.17,,,,,,,
397,2025-01-27 17:42:34,2025-01-27 17:48:20,345.68,,,,,,,
398,2025-01-27 19:17:18,2025-01-27 19:23:05,346.43,,,,,,,
399,2025-01-27 20:52:03,2025-01-27 20:57:48,344.96,,,,,,,
400,2025-01-27 22:26:47,2025-01-27 22:32:31,343.65,,,,,,,
401,2025-01-28 00:01:31,2025-01-28 00:07:14,342.51,,,,,,,
402,2025-01-28 01:36:16,2025-01-28 01:41:57,341.52,,,,,,,
403,2025-01-28 03:11:00,2025-01-28 03:16:41,340.70,,,,,,,
404,2025-01-28 04:45:45,2025-01-28 04:51:25,340.04,,,,,,,
405,2025-01-28 06:20:29,2025-01-28 06:26:08,339.54,,,,,,,
406,2025-01-28 07:55:13,2025-01-28 08:00:53,339.20,,,,,,,
407,2025-01-28 09:29:58,2025-01-28 09:35:37,339.05,,,,,,,
408,2025-01-28 11:04:42,2025-01-28 11:10:21,339.05,,,,,,,
409,2025-01-28 12:39:26,2025-01-28 12:45:06,339.24,,,,,,,
410,2025-01-28 14:14:11,2025-01-28 14:19:50,339.60,,,,,,,
411,2025-01-28 15:48:55,2025-01-28 15:54:35,340.14,,,,,,,
412,2025-01-28 17:23:40,2025-01-28 17:29:20,340.86,,,,,,,
413,2025-01-28 18:58:24,2025-01-28 19:04:06,341.78,,,,,,,
414,2025-01-28 20:33:08,2025-01-28 20:38:51,342.88,,,,,,,
415,2025-01-28 22:07:53,2025-01-28 22:13:37,344.19,,,,,,,
416,2025-01-28 23:42:37,2025-01-28 23:48:23,345.70,,,,,,,
417,2025-01-29 01:17:22,2025-01-29 01:23:08,346.41,,,,,,,
418,2025-01-29 02:52:06,2025-01-29 02:57:51,344.95,,,,,,,
419,2025-01-29 04:26:50,2025-01-29 04:32:34,343.64,,,,,,,
420,2025-01-29 06:01:35,2025-01-29 06:07:17,342.50,,,,,,,
421,2025-01-29 07:36:19,2025-01-29 07:42:01,341.51,,,,,,,
422,2025-01-29 09:11:03,2025-01-29 09:16:44,340.69,,,,,,,
423,2025-01-29 10:45:48,2025-01-29 10:51:28,340.03,,,,,,,
424,2025-01-29 12:20:32,2025-01-29 12:26:12,339.53,,,,,,,
425,2025-01-29 13:55:17,2025-01-29 14:00:56,339.21,,,,,,,
426,2025-01-29 15:30:01,2025-01-29 15:35:40,339.05,,,,,,,
427,2025-01-29 17:04:45,2025-01-29 17:10:24,339.06,,,,,,,
428,2025-01-29 18:39:30,2025-01-29 18:45:09,339.24,,,,,,,
429,2025-01-29 20:14:14,2025-01-29 20:19:54,339.60,,,,,,,
430,2025-01-29 21:48:59,2025-01-29 21:54:39,340.14,,,,,,,
431,2025-01-29 23:23:43,2025-01-29 23:29:24,340.87,,,,,,,
432,2025-01-30 00:58:27,2025-01-30 01:04:09,341.79,,,,,,,
433,2025-01-30 02:33:12,2025-01-30 02:38:55,342.90,,,,,,,
434,2025-01-30 04:07:56,2025-01-30 04:13:40,344.21,,,,,,,
435,2025-01-30 05:42:41,2025-01-30 05:48:26,345.72,,,,,,,
436,2025-01-30 07:17:25,2025-01-30 07:23:11,346.39,,,,,,,
437,2025-01-30 08:52:09,2025-01-30 08:57:54,344.93,,,,,,,
438,2025-01-30 10:26:54,2025-01-30 10:32:37,343.62,,,,,,,
439,2025-01-30 12:01:38,2025-01-30 12:07:21,342.49,,,,,,,
440,2025-01-30 13:36:22,2025-01-30 13:42:04,341.50,,,,,,,
441,2025-01-30 15:11:07,2025-01-30 15:16:47,340.68,,,,,,,
442,2025-01-30 16:45:51,2025-01-30 16:51:31,340.02,,,,,,,
443,2025-01-30 18:20:36,2025-01-30 18:26:15,339.53,,,,,,,
444,2025-01-30 19:55:20,2025-01-30 20:00:59,339.20,,,,,,,
445,2025-01-30 21:30:04,2025-01-30 21:35:43,339.05,,,,,,,
446,2025-01-30 23:04:49,2025-01-30 23:10:28,339.05,,,,,,,
447,2025-01-31 00:39:33,2025-01-31 00:45:12,339.25,,,,,,,
448,2025-01-31 02:14:18,2025-01-31 02:19:57,339.61,,,,,,,
449,2025-01-31 03:49:02,2025-01-31 03:54:42,340.15,,,,,,,
450,2025-01-31 05:23:46,2025-01-31 05:29:27,340.88,,,,,,,
451,2025-01-31 06:58:31,2025-01-31 07:04:12,341.80,,,,,,,
452,2025-01-31 08:33:15,2025-01-31 08:38:58,342.91,,,,,,,
453,2025-01-31 10:07:59,2025-01-31 10:13:44,344.23,,,,,,,
454,2025-01-31 11:42:44,2025-01-31 11:48:30,345.74,,,,,,,
455,2025-01-31 13:17:28,2025-01-31 13:23:15,346.37,,,,,,,
456,2025-01-31 14:52:13,2025-01-31 14:57:58,344.91,,,,,,,
457,2025-01-31 16:26:57,2025-01-31 16:32:41,343.61,,,,,,,
458,2025-01-31 18:01:41,2025-01-31 18:07:24,342.47,,,,,,,
459,2025-01-31 19:36:26,2025-01-31 19:42:07,341.49,,,,,,,
460,2025-01-31 21:11:10,2025-01-31 21:16:51,340.67,,,,,,,
461,2025-01-31 22:45:55,2025-01-31 22:51:35,340.01,,,,,,,
462,2025-02-01 00:20:39,2025-02-01 00:26:18,339.53,,,,,,,
463,2025-02-01 01:55:23,2025-02-01 02:01:03,339.20,,,,,,,
464,2025-02-01 03:30:08,2025-02-01 03:35:47,339.04,,,,,,,
465,2025-02-01 05:04:52,2025-02-01 05:10:31,339.06,,,,,,,
466,2025-02-01 06:39:36,2025-02-01 06:45:16,339.25,,,,,,,
467,2025-02-01 08:14:21,2025-02-01 08:20:00,339.61,,,,,,,
468,2025-02-01 09:49:05,2025-02-01 09:54:45,340.16,,,,,,,
469,2025-02-01 11:23:50,2025-02-01 11:29:31,340.89,,,,,,,
470,2025-02-01 12:58:34,2025-02-01 13:04:16,341.81,,,,,,,
471,2025-02-01 14:33:18,2025-02-01 14:39:01,342.93,,,,,,,
472,2025-02-01 16:08:03,2025-02-01 16:13:47,344.24,,,,,,,
473,2025-02-01 17:42:47,2025-02-01 17:48:33,345.76,,,,,,,
474,2025-02-01 19:17:32,2025-02-01 19:23:18,346.36,,,,,,,
475,2025-02-01 20:52:16,2025-02-01 20:58:01,344.90,,,,,,,
476,2025-02-01 22:27:00,2025-02-01 22:32:44,343.60,,,,,,,
477,2025-02-02 00:01:45,2025-02-02 00:07:27,342.46,,,,,,,
478,2025-02-02 01:36:29,2025-02-02 01:42:11,341.48,,,,,,,
479,2025-02-02 03:11:13,2025-02-02 03:16:54,340.66,,,,,,,
480,2025-02-02 04:45:58,2025-02-02 04:51:38,340.01,,,,,,,
481,2025-02-02 06:20:42,2025-02-02 06:26:22,339.52,,,,,,,
482,2025-02-02 07:55:27,2025-02-02 08:01:06,339.19,,,,,,,
483,2025-02-02 09:30:11,2025-02-02 09:35:50,339.04,,,,,,,
484,2025-02-02 11:04:55,2025-02-02 11:10:34,339.06,,,,,,,
485,2025-02-02 12:39:40,2025-02-02 12:45:19,339.25,,,,,,,
486,2025-02-02 14:14:24,2025-02-02 14:20:04,339.62,,,,,,,
487,2025-02-02 15:49:09,2025-02-02 15:54:49,340.17,,,,,,,
488,2025-02-02 17:23:53,2025-02-02 17:29:34,340.90,,,,,,,
489,2025-02-02 18:58:37,2025-02-02 19:04:19,341.83,,,,,,,
490,2025-02-02 20:33:22,2025-02-02 20:39:05,342.94,,,,,,,
491,2025-02-02 22:08:06,2025-02-02 22:13:50,344.25,,,,,,,
492,2025-02-02 23:42:50,2025-02-02 23:48:36,345.78,,,,,,,
493,2025-02-03 01:17:35,2025-02-03 01:23:21,346.34,,,,,,,
494,2025-02-03 02:52:19,2025-02-03 02:58:04,344.89,,,,,,,
495,2025-02-03 04:27:04,2025-02-03 04:32:47,343.59,,,,,,,
496,2025-02-03 06:01:48,2025-02-03 06:07:30,342.45,,,,,,,
497,2025-02-03 07:36:32,2025-02-03 07:42:14,341.47,,,,,,,
498,2025-02-03 09:11:17,2025-02-03 09:16:57,340.66,,,,,,,
499,2025-02-03 10:46:01,2025-02-03 10:51:41,340.00,,,,,,,
500,2025-02-03 12:20:46,2025-02-03 12:26:25,339.52,,,,,,,
501,2025-02-03 13:55:30,2025-02-03 14:01:09,339.20,,,,,,,
502,2025-02-03 15:30:14,2025-02-03 15:35:53,339.04,,,,,,,
503,2025-02-03 17:04:59,2025-02-03 17:10:38,339.06,,,,,,,
504,2025-02-03 18:39:43,2025-02-03 18:45:22,339.26,,,,,,,
505,2025-02-03 20:14:28,2025-02-03 20:20:07,339.63,,,,,,,
506,2025-02-03 21:49:12,2025-02-03 21:54:52,340.18,,,,,,,
507,2025-02-03 23:23:56,2025-02-03 23:29:37,340.91,,,,,,,
508,2025-02-04 00:58:41,2025-02-04 01:04:22,341.84,,,,,,,
509,2025-02-04 02:33:25,2025-02-04 02:39:08,342.96,,,,,,,
510,2025-02-04 04:08:09,2025-02-04 04:13:54,344.28,,,,,,,
511,2025-02-04 05:42:54,2025-02-04 05:48:40,345.79,,,,,,,
512,2025-02-04 07:17:38,2025-02-04 07:23:25,346.32,,,,,,,
513,2025-02-04 08:52:23,2025-02-04 08:58:07,344.87,,,,,,,
514,2025-02-04 10:27:07,2025-02-04 10:32:51,343.57,,,,,,,
515,2025-02-04 12:01:51,2025-02-04 12:07:34,342.44,,,,,,,
516,2025-02-04 13:36:36,2025-02-04 13:42:17,341.46,,,,,,,
517,2025-02-04 15:11:20,2025-02-04 15:17:01,340.65,,,,,,,
518,2025-02-04 16:46:05,2025-02-04 16:51:45,340.00,,,,,,,
519,2025-02-04 18:20:49,2025-02-04 18:26:28,339.51,,,,,,,
520,2025-02-04 19:55:33,2025-02-04 20:01:12,339.19,,,,,,,
521,2025-02-04 21:30:18,2025-02-04 21:35:57,339.04,,,,,,,
522,2025-02-04 23:05:02,2025-02-04 23:10:41,339.06,,,,,,,
523,2025-02-05 00:39:46,2025-02-05 00:45:26,339.26,,,,,,,
524,2025-02-05 02:14:31,2025-02-05 02:20:10,339.63,,,,,,,
525,2025-02-05 03:49:15,2025-02-05 03:54:55,340.18,,,,,,,
526,2025-02-05 05:24:00,2025-02-05 05:29:41,340.92,,,,,,,
527,2025-02-05 06:58:44,2025-02-05 07:04:26,341.85,,,,,,,
528,2025-02-05 08:33:28,2025-02-05 08:39:11,342.97,,,,,,,
529,2025-02-05 10:08:13,2025-02-05 10:13:57,344.29,,,,,,,
530,2025-02-05 11:42:57,2025-02-05 11:48:43,345.81,,,,,,,
531,2025-02-05 13:17:42,2025-02-05 13:23:28,346.30,,,,,,,
532,2025-02-05 14:52:26,2025-02-05 14:58:11,344.85,,,,,,,
533,2025-02-05 16:27:10,2025-02-05 16:32:54,343.56,,,,,,,
534,2025-02-05 18:01:55,2025-02-05 18:07:37,342.42,,,,,,,
535,2025-02-05 19:36:39,2025-02-05 19:42:21,341.45,,,,,,,
536,2025-02-05 21:11:23,2025-02-05 21:17:04,340.64,,,,,,,
537,2025-02-05 22:46:08,2025-02-05 22:51:48,339.99,,,,,,,
538,2025-02-06 00:20:52,2025-02-06 00:26:32,339.51,,,,,,,
539,2025-02-06 01:55:37,2025-02-06 02:01:16,339.19,,,,,,,
540,2025-02-06 03:30:21,2025-02-06 03:36:00,339.04,,,,,,,
541,2025-02-06 05:05:05,2025-02-06 05:10:44,339.07,,,,,,,
542,2025-02-06 06:39:50,2025-02-06 06:45:29,339.26,,,,,,,
543,2025-02-06 08:14:34,2025-02-06 08:20:14,339.63,,,,,,,
544,2025-02-06 09:49:19,2025-02-06 09:54:59,340.19,,,,,,,
545,2025-02-06 11:24:03,2025-02-06 11:29:44,340.93,,,,,,,
546,2025-02-06 12:58:47,2025-02-06 13:04:29,341.86,,,,,,,
547,2025-02-06 14:33:32,2025-02-06 14:39:15,342.98,,,,,,,
548,2025-02-06 16:08:16,2025-02-06 16:14:00,344.31,,,,,,,
549,2025-02-06 17:43:00,2025-02-06 17:48:46,345.83,,,,,,,
550,2025-02-06 19:17:45,2025-02-06 19:23:31,346.29,,,,,,,
551,2025-02-06 20:52:29,2025-02-06 20:58:14,344.84,,,,,,,
552,2025-02-06 22:27:14,2025-02-06 22:32:57,343.54,,,,,,,
553,2025-02-07 00:01:58,2025-02-07 00:07:40,342.42,,,,,,,
554,2025-02-07 01:36:42,2025-02-07 01:42:24,341.44,,,,,,,
555,2025-02-07 03:11:27,2025-02-07 03:17:07,340.63,,,,,,,
556,2025-02-07 04:46:11,2025-02-07 04:51:51,339.99,,,,,,,
557,2025-02-07 06:20:56,2025-02-07 06:26:35,339.50,,,,,,,
558,2025-02-07 07:55:40,2025-02-07 08:01:19,339.18,,,,,,,
559,2025-02-07 09:30:24,2025-02-07 09:36:03,339.04,,,,,,,
560,2025-02-07 11:05:09,2025-02-07 11:10:48,339.06,,,,,,,
561,2025-02-07 12:39:53,2025-02-07 12:45:32,339.26,,,,,,,
562,2025-02-07 14:14:37,2025-02-07 14:20:17,339.64,,,,,,,
563,2025-02-07 15:49:22,2025-02-07 15:55:02,340.20,,,,,,,
564,2025-02-07 17:24:06,2025-02-07 17:29:47,340.94,,,,,,,
565,2025-02-07 18:58:51,2025-02-07 19:04:33,341.88,,,,,,,
566,2025-02-07 20:33:35,2025-02-07 20:39:18,343.00,,,,,,,
567,2025-02-07 22:08:19,2025-02-07 22:14:04,344.32,,,,,,,
568,2025-02-07 23:43:04,2025-02-07 23:48:50,345.86,,,,,,,
569,2025-02-08 01:17:48,2025-02-08 01:23:34,346.26,,,,,,,
570,2025-02-08 02:52:33,2025-02-08 02:58:17,344.82,,,,,,,
571,2025-02-08 04:27:17,2025-02-08 04:33:00,343.53,,,,,,,
572,2025-02-08 06:02:01,2025-02-08 06:07:44,342.40,,,,,,,
573,2025-02-08 07:36:46,2025-02-08 07:42:27,341.43,,,,,,,
574,2025-02-08 09:11:30,2025-02-08 09:17:11,340.62,,,,,,,
575,2025-02-08 10:46:15,2025-02-08 10:51:54,339.98,,,,,,,
576,2025-02-08 12:20:59,2025-02-08 12:26:38,339.50,,,,,,,
577,2025-02-08 13:55:43,2025-02-08 14:01:22,339.19,,,,,,,
578,2025-02-08 15:30:28,2025-02-08 15:36:07,339.04,,,,,,,
579,2025-02-08 17:05:12,2025-02-08 17:10:51,339.07,,,,,,,
580,2025-02-08 18:39:56,2025-02-08 18:45:36,339.27,,,,,,,
581,2025-02-08 20:14:41,2025-02-08 20:20:20,339.65,,,,,,,
582,2025-02-08 21:49:25,2025-02-08 21:55:05,340.21,,,,,,,
583,2025-02-08 23:24:10,2025-02-08 23:29:51,340.95,,,,,,,
584,2025-02-09 00:58:54,2025-02-09 01:04:36,341.89,,,,,,,
585,2025-02-09 02:33:38,2025-02-09 02:39:21,343.02,,,,,,,
586,2025-02-09 04:08:23,2025-02-09 04:14:07,344.34,,,,,,,
587,2025-02-09 05:43:07,2025-02-09 05:48:53,345.87,,,,,,,
588,2025-02-09 07:17:52,2025-02-09 07:23:38,346.25,,,,,,,
589,2025-02-09 08:52:36,2025-02-09 08:58:21,344.80,,,,,,,
590,2025-02-09 10:27:20,2025-02-09 10:33:04,343.51,,,,,,,
591,2025-02-09 12:02:05,2025-02-09 12:07:47,342.39,,,,,,,
592,2025-02-09 13:36:49,2025-02-09 13:42:30,341.42,,,,,,,
593,2025-02-09 15:11:33,2025-02-09 15:17:14,340.62,,,,,,,
594,2025-02-09 16:46:18,2025-02-09 16:51:58,339.97,,,,,,,
595,2025-02-09 18:21:02,2025-02-09 18:26:42,339.50,,,,,,,
596,2025-02-09 19:55:47,2025-02-09 20:01:26,339.18,,,,,,,
597,2025-02-09 21:30:31,2025-02-09 21:36:10,339.04,,,,,,,
598,2025-02-09 23:05:15,2025-02-09 23:10:54,339.07,,,,,,,
599,2025-02-10 00:40:00,2025-02-10 00:45:39,339.27,,,,,,,
600,2025-02-10 02:14:44,2025-02-10 02:20:24,339.65,,,,,,,
601,2025-02-10 03:49:29,2025-02-10 03:55:09,340.21,,,,,,,
602,2025-02-10 05:24:13,2025-02-10 05:29:54,340.96,,,,,,,
603,2025-02-10 06:58:57,2025-02-10 07:04:39,341.90,,,,,,,
604,2025-02-10 08:33:42,2025-02-10 08:39:25,343.03,,,,,,,
605,2025-02-10 10:08:26,2025-02-10 10:14:10,344.36,,,,,,,
606,2025-02-10 11:43:10,2025-02-10 11:48:56,345.89,,,,,,,
607,2025-02-10 13:17:55,2025-02-10 13:23:41,346.23,,,,,,,
608,2025-02-10 14:52:39,2025-02-10 14:58:24,344.78,,,,,,,
609,2025-02-10 16:27:24,2025-02-10 16:33:07,343.50,,,,,,,
610,2025-02-10 18:02:08,2025-02-10 18:07:50,342.38,,,,,,,
611,2025-02-10 19:36:52,2025-02-10 19:42:34,341.41,,,,,,,
612,2025-02-10 21:11:37,2025-02-10 21:17:17,340.61,,,,,,,
613,2025-02-10 22:46:21,2025-02-10 22:52:01,339.96,,,,,,,
614,2025-02-11 00:21:06,2025-02-11 00:26:45,339.49,,,,,,,
615,2025-02-11 01:55:50,2025-02-11 02:01:29,339.18,,,,,,,
616,2025-02-11 03:30:34,2025-02-11 03:36:13,339.04,,,,,,,
617,2025-02-11 05:05:19,2025-02-11 05:10:58,339.07,,,,,,,
618,2025-02-11 06:40:03,2025-02-11 06:45:42,339.28,,,,,,,
619,2025-02-11 08:14:47,2025-02-11 08:20:27,339.66,,,,,,,
620,2025-02-11 09:49:32,2025-02-11 09:55:12,340.23,,,,,,,
621,2025-02-11 11:24:16,2025-02-11 11:29:57,340.97,,,,,,,
622,2025-02-11 12:59:01,2025-02-11 13:04:43,341.91,,,,,,,
623,2025-02-11 14:33:45,2025-02-11 14:39:28,343.04,,,,,,,
624,2025-02-11 16:08:29,2025-02-11 16:14:14,344.38,,,,,,,
625,2025-02-11 17:43:14,2025-02-11 17:49:00,345.91,,,,,,,
626,2025-02-11 19:17:58,2025-02-11 19:23:44,346.22,,,,,,,
627,2025-02-11 20:52:43,2025-02-11 20:58:27,344.77,,,,,,,
628,2025-02-11 22:27:27,2025-02-11 22:33:10,343.49,,,,,,,
629,2025-02-12 00:02:11,2025-02-12 00:07:54,342.37,,,,,,,
630,2025-02-12 01:36:56,2025-02-12 01:42:37,341.40,,,,,,,
631,2025-02-12 03:11:40,2025-02-12 03:17:21,340.60,,,,,,,
632,2025-02-12 04:46:24,2025-02-12 04:52:04,339.96,,,,,,,
633,2025-02-12 06:21:09,2025-02-12 06:26:48,339.49,,,,,,,
634,2025-02-12 07:55:53,2025-02-12 08:01:32,339.18,,,,,,,
635,2025-02-12 09:30:38,2025-02-12 09:36:17,339.04,,,,,,,
636,2025-02-12 11:05:22,2025-02-12 11:11:01,339.07,,,,,,,
637,2025-02-12 12:40:06,2025-02-12 12:45:46,339.28,,,,,,,
638,2025-02-12 14:14:51,2025-02-12 14:20:30,339.67,,,,,,,
639,2025-02-12 15:49:35,2025-02-12 15:55:15,340.23,,,,,,,
640,2025-02-12 17:24:20,2025-02-12 17:30:01,340.98,,,,,,,
641,2025-02-12 18:59:04,2025-02-12 19:04:46,341.93,,,,,,,
642,2025-02-12 20:33:48,2025-02-12 20:39:31,343.06,,,,,,,
643,2025-02-12 22:08:33,2025-02-12 22:14:17,344.40,,,,,,,
644,2025-02-12 23:43:17,2025-02-12 23:49:03,345.94,,,,,,,
645,2025-02-13 01:18:02,2025-02-13 01:23:48,346.20,,,,,,,
646,2025-02-13 02:52:46,2025-02-13 02:58:31,344.76,,,,,,,
647,2025-02-13 04:27:30,2025-02-13 04:33:14,343.48,,,,,,,
648,2025-02-13 06:02:15,2025-02-13 06:07:57,342.36,,,,,,,
649,2025-02-13 07:36:59,2025-02-13 07:42:40,341.39,,,,,,,
650,2025-02-13 09:11:43,2025-02-13 09:17:24,340.59,,,,,,,
651,2025-02-13 10:46:28,2025-02-13 10:52:08,339.95,,,,,,,
652,2025-02-13 12:21:12,2025-02-13 12:26:52,339.48,,,,,,,
653,2025-02-13 13:55:57,2025-02-13 14:01:36,339.18,,,,,,,
654,2025-02-13 15:30:41,2025-02-13 15:36:20,339.04,,,,,,,
655,2025-02-13 17:05:25,2025-02-13 17:11:04,339.08,,,,,,,
656,2025-02-13 18:40:10,2025-02-13 18:45:49,339.29,,,,,,,
657,2025-02-13 20:14:54,2025-02-13 20:20:34,339.67,,,,,,,
658,2025-02-13 21:49:39,2025-02-13 21:55:19,340.24,,,,,,,
659,2025-02-13 23:24:23,2025-02-13 23:30:04,340.99,,,,,,,
660,2025-02-14 00:59:07,2025-02-14 01:04:49,341.94,,,,,,,
661,2025-02-14 02:33:52,2025-02-14 02:39:35,343.08,,,,,,,
662,2025-02-14 04:08:36,2025-02-14 04:14:20,344.42,,,,,,,
663,2025-02-14 05:43:20,2025-02-14 05:49:06,345.95,,,,,,,
664,2025-02-14 07:18:05,2025-02-14 07:23:51,346.18,,,,,,,
665,2025-02-14 08:52:49,2025-02-14 08:58:34,344.74,,,,,,,
666,2025-02-14 10:27:34,2025-02-14 10:33:17,343.46,,,,,,,
667,2025-02-14 12:02:18,2025-02-14 12:08:00,342.34,,,,,,,
668,2025-02-14 13:37:02,2025-02-14 13:42:44,341.38,,,,,,,
669,2025-02-14 15:11:47,2025-02-14 15:17:27,340.58,,,,,,,
670,2025-02-14 16:46:31,2025-02-14 16:52:11,339.95,,,,,,,
671,2025-02-14 18:21:16,2025-02-14 18:26:55,339.48,,,,,,,
672,2025-02-14 19:56:00,2025-02-14 20:01:39,339.18,,,,,,,
673,2025-02-14 21:30:44,2025-02-14 21:36:23,339.04,,,,,,,
674,2025-02-14 23:05:29,2025-02-14 23:11:08,339.07,,,,,,,
675,2025-02-15 00:40:13,2025-02-15 00:45:52,339.29,,,,,,,
676,2025-02-15 02:14:57,2025-02-15 02:20:37,339.68,,,,,,,
677,2025-02-15 03:49:42,2025-02-15 03:55:22,340.25,,,,,,,
678,2025-02-15 05:24:26,2025-02-15 05:30:07,341.01,,,,,,,
679,2025-02-15 06:59:11,2025-02-15 07:04:53,341.95,,,,,,,
680,2025-02-15 08:33:55,2025-02-15 08:39:38,343.09,,,,,,,
681,2025-02-15 10:08:39,2025-02-15 10:14:24,344.43,,,,,,,
682,2025-02-15 11:43:24,2025-02-15 11:49:10,345.97,,,,,,,
683,2025-02-15 13:18:08,2025-02-15 13:23:54,346.16,,,,,,,
684,2025-02-15 14:52:53,2025-02-15 14:58:37,344.73,,,,,,,
685,2025-02-15 16:27:37,2025-02-15 16:33:20,343.45,,,,,,,
686,2025-02-15 18:02:21,2025-02-15 18:08:04,342.33,,,,,,,
687,2025-02-15 19:37:06,2025-02-15 19:42:47,341.37,,,,,,,
688,2025-02-15 21:11:50,2025-02-15 21:17:31,340.58,,,,,,,
689,2025-02-15 22:46:34,2025-02-15 22:52:14,339.94,,,,,,,
690,2025-02-16 00:21:19,2025-02-16 00:26:58,339.47,,,,,,,
691,2025-02-16 01:56:03,2025-02-16 02:01:42,339.17,,,,,,,
692,2025-02-16 03:30:48,2025-02-16 03:36:27,339.04,,,,,,,
693,2025-02-16 05:05:32,2025-02-16 05:11:11,339.08,,,,,,,
694,2025-02-16 06:40:16,2025-02-16 06:45:56,339.29,,,,,,,
695,2025-02-16 08:15:01,2025-02-16 08:20:40,339.68,,,,,,,
696,2025-02-16 09:49:45,2025-02-16 09:55:25,340.26,,,,,,,
697,2025-02-16 11:24:30,2025-02-16 11:30:11,341.01,,,,,,,
698,2025-02-16 12:59:14,2025-02-16 13:04:56,341.96,,,,,,,
699,2025-02-16 14:33:58,2025-02-16 14:39:41,343.10,,,,,,,
700,2025-02-16 16:08:43,2025-02-16 16:14:27,344.45,,,,,,,
701,2025-02-16 17:43:27,2025-02-16 17:49:13,345.99,,,,,,,
702,2025-02-16 19:18:12,2025-02-16 19:23:58,346.15,,,,,,,
703,2025-02-16 20:52:56,2025-02-16 20:58:41,344.71,,,,,,,
704,2025-02-16 22:27:40,2025-02-16 22:33:24,343.43,,,,,,,
705,2025-02-17 00:02:25,2025-02-17 00:08:07,342.32,,,,,,,
706,2025-02-17 01:37:09,2025-02-17 01:42:50,341.36,,,,,,,
707,2025-02-17 03:11:53,2025-02-17 03:17:34,340.57,,,,,,,
708,2025-02-17 04:46:38,2025-02-17 04:52:18,339.94,,,,,,,
709,2025-02-17 06:21:22,2025-02-17 06:27:02,339.47,,,,,,,
710,2025-02-17 07:56:07,2025-02-17 08:01:46,339.17,,,,,,,
711,2025-02-17 09:30:51,2025-02-17 09:36:30,339.04,,,,,,,
712,2025-02-17 11:05:35,2025-02-17 11:11:14,339.08,,,,,,,
713,2025-02-17 12:40:20,2025-02-17 12:45:59,339.29,,,,,,,
714,2025-02-17 14:15:04,2025-02-17 14:20:44,339.69,,,,,,,
715,2025-02-17 15:49:49,2025-02-17 15:55:29,340.26,,,,,,,
716,2025-02-17 17:24:33,2025-02-17 17:30:14,341.02,,,,,,,
717,2025-02-17 18:59:17,2025-02-17 19:04:59,341.98,,,,,,,
718,2025-02-17 20:34:02,2025-02-17 20:39:45,343.12,,,,,,,
719,2025-02-17 22:08:46,2025-02-17 22:14:31,344.46,,,,,,,
720,2025-02-17 23:43:30,2025-02-17 23:49:16,346.01,,,,,,,
721,2025-02-18 01:18:15,2025-02-18 01:24:01,346.13,,,,,,,
722,2025-02-18 02:52:59,2025-02-18 02:58:44,344.70,,,,,,,
723,2025-02-18 04:27:44,2025-02-18 04:33:27,343.42,,,,,,,
724,2025-02-18 06:02:28,2025-02-18 06:08:10,342.31,,,,,,,
725,2025-02-18 07:37:12,2025-02-18 07:42:54,341.35,,,,,,,
726,2025-02-18 09:11:57,2025-02-18 09:17:37,340.56,,,,,,,
727,2025-02-18 10:46:41,2025-02-18 10:52:21,339.93,,,,,,,
728,2025-02-18 12:21:26,2025-02-18 12:27:05,339.46,,,,,,,
729,2025-02-18 13:56:10,2025-02-18 14:01:49,339.17,,,,,,,
730,2025-02-18 15:30:54,2025-02-18 15:36:33,339.04,,,,,,,
731,2025-02-18 17:05:39,2025-02-18 17:11:18,339.08,,,,,,,
732,2025-02-18 18:40:23,2025-02-18 18:46:02,339.30,,,,,,,
733,2025-02-18 20:15:07,2025-02-18 20:20:47,339.70,,,,,,,
734,2025-02-18 21:49:52,2025-02-18 21:55:32,340.27,,,,,,,
735,2025-02-18 23:24:36,2025-02-18 23:30:17,341.03,,,,,,,
736,2025-02-19 00:59:21,2025-02-19 01:05:03,341.99,,,,,,,
737,2025-02-19 02:34:05,2025-02-19 02:39:48,343.13,,,,,,,
738,2025-02-19 04:08:49,2025-02-19 04:14:34,344.48,,,,,,,
739,2025-02-19 05:43:34,2025-02-19 05:49:20,346.03,,,,,,,
740,2025-02-19 07:18:18,2025-02-19 07:24:04,346.11,,,,,,,
741,2025-02-19 08:53:03,2025-02-19 08:58:47,344.68,,,,,,,
742,2025-02-19 10:27:47,2025-02-19 10:33:30,343.41,,,,,,,
743,2025-02-19 12:02:31,2025-02-19 12:08:14,342.29,,,,,,,
744,2025-02-19 13:37:16,2025-02-19 13:42:57,341.34,,,,,,,
745,2025-02-19 15:12:00,2025-02-19 15:17:41,340.55,,,,,,,
746,2025-02-19 16:46:44,2025-02-19 16:52:24,339.92,,,,,,,
747,2025-02-19 18:21:29,2025-02-19 18:27:08,339.46,,,,,,,
748,2025-02-19 19:56:13,2025-02-19 20:01:52,339.16,,,,,,,
749,2025-02-19 21:30:58,2025-02-19 21:36:37,339.04,,,,,,,
750,2025-02-19 23:05:42,2025-02-19 23:11:21,339.08,,,,,,,
751,2025-02-20 00:40:26,2025-02-20 00:46:06,339.30,,,,,,,
752,2025-02-20 02:15:11,2025-02-20 02:20:50,339.70,,,,,,,
753,2025-02-20 03:49:55,2025-02-20 03:55:35,340.28,,,,,,,
754,2025-02-20 05:24:40,2025-02-20 05:30:21,341.04,,,,,,,
755,2025-02-20 06:59:24,2025-02-20 07:05:06,342.00,,,,,,,
756,2025-02-20 08:34:08,2025-02-20 08:39:51,343.15,,,,,,,
757,2025-02-20 10:08:53,2025-02-20 10:14:37,344.50,,,,,,,
758,2025-02-20 11:43:37,2025-02-20 11:49:23,346.05,,,,,,,
759,2025-02-20 13:18:21,2025-02-20 13:24:08,346.09,,,,,,,
760,2025-02-20 14:53:06,2025-02-20 14:58:51,344.66,,,,,,,
761,2025-02-20 16:27:50,2025-02-20 16:33:34,343.39,,,,,,,
762,2025-02-20 18:02:35,2025-02-20 18:08:17,342.28,,,,,,,
763,2025-02-20 19:37:19,2025-02-20 19:43:00,341.33,,,,,,,
764,2025-02-20 21:12:03,2025-02-20 21:17:44,340.54,,,,,,,
765,2025-02-20 22:46:48,2025-02-20 22:52:28,339.91,,,,,,,
766,2025-02-21 00:21:32,2025-02-21 00:27:12,339.46,,,,,,,
767,2025-02-21 01:56:17,2025-02-21 02:01:56,339.16,,,,,,,
768,2025-02-21 03:31:01,2025-02-21 03:36:40,339.03,,,,,,,
769,2025-02-21 05:05:45,2025-02-21 05:11:24,339.09,,,,,,,
770,2025-02-21 06:40:30,2025-02-21 06:46:09,339.31,,,,,,,
771,2025-02-21 08:15:14,2025-02-21 08:20:54,339.70,,,,,,,
772,2025-02-21 09:49:59,2025-02-21 09:55:39,340.29,,,,,,,
773,2025-02-21 11:24:43,2025-02-21 11:30:24,341.05,,,,,,,
774,2025-02-21 12:59:27,2025-02-21 13:05:09,342.01,,,,,,,
775,2025-02-21 14:34:12,2025-02-21 14:39:55,343.16,,,,,,,
776,2025-02-21 16:08:56,2025-02-21 16:14:41,344.51,,,,,,,
777,2025-02-21 17:43:40,2025-02-21 17:49:27,346.07,,,,,,,
778,2025-02-21 19:18:25,2025-02-21 19:24:11,346.08,,,,,,,
779,2025-02-21 20:53:09,2025-02-21 20:58:54,344.65,,,,,,,
780,2025-02-21 22:27:54,2025-02-21 22:33:37,343.38,,,,,,,
781,2025-02-22 00:02:38,2025-02-22 00:08:20,342.27,,,,,,,
782,2025-02-22 01:37:22,2025-02-22 01:43:04,341.32,,,,,,,
783,2025-02-22 03:12:07,2025-02-22 03:17:47,340.53,,,,,,,
784,2025-02-22 04:46:51,2025-02-22 04:52:31,339.91,,,,,,,
785,2025-02-22 06:21:36,2025-02-22 06:27:15,339.45,,,,,,,
786,2025-02-22 07:56:20,2025-02-22 08:01:59,339.16,,,,,,,
787,2025-02-22 09:31:04,2025-02-22 09:36:43,339.04,,,,,,,
788,2025-02-22 11:05:49,2025-02-22 11:11:28,339.08,,,,,,,
789,2025-02-22 12:40:33,2025-02-22 12:46:12,339.31,,,,,,,
790,2025-02-22 14:15:17,2025-02-22 14:20:57,339.71,,,,,,,
791,2025-02-22 15:50:02,2025-02-22 15:55:42,340.30,,,,,,,
792,2025-02-22 17:24:46,2025-02-22 17:30:27,341.07,,,,,,,
793,2025-02-22 18:59:31,2025-02-22 19:05:13,342.02,,,,,,,
794,2025-02-22 20:34:15,2025-02-22 20:39:58,343.18,,,,,,,
795,2025-02-22 22:08:59,2025-02-22 22:14:44,344.53,,,,,,,
796,2025-02-22 23:43:44,2025-02-22 23:49:30,346.09,,,,,,,
797,2025-02-23 01:18:28,2025-02-23 01:24:14,346.06,,,,,,,
798,2025-02-23 02:53:13,2025-02-23 02:58:57,344.63,,,,,,,
799,2025-02-23 04:27:57,2025-02-23 04:33:40,343.37,,,,,,,
800,2025-02-23 06:02:41,2025-02-23 06:08:24,342.26,,,,,,,
801,2025-02-23 07:37:26,2025-02-23 07:43:07,341.31,,,,,,,
802,2025-02-23 09:12:10,2025-02-23 09:17:51,340.53,,,,,,,
803,2025-02-23 10:46:54,2025-02-23 10:52:34,339.90,,,,,,,
804,2025-02-23 12:21:39,2025-02-23 12:27:18,339.45,,,,,,,
805,2025-02-23 13:56:23,2025-02-23 14:02:02,339.16,,,,,,,
806,2025-02-23 15:31:08,2025-02-23 15:36:47,339.04,,,,,,,
807,2025-02-23 17:05:52,2025-02-23 17:11:31,339.09,,,,,,,
808,2025-02-23 18:40:36,2025-02-23 18:46:16,339.31,,,,,,,
809,2025-02-23 20:15:21,2025-02-23 20:21:01,339.72,,,,,,,
810,2025-02-23 21:50:05,2025-02-23 21:55:45,340.31,,,,,,,
811,2025-02-23 23:24:50,2025-02-23 23:30:31,341.07,,,,,,,
812,2025-02-24 00:59:34,2025-02-24 01:05:16,342.04,,,,,,,
813,2025-02-24 02:34:18,2025-02-24 02:40:02,343.19,,,,,,,
814,2025-02-24 04:09:03,2025-02-24 04:14:47,344.55,,,,,,,
815,2025-02-24 05:43:47,2025-02-24 05:49:33,346.11,,,,,,,
816,2025-02-24 07:18:31,2025-02-24 07:24:18,346.04,,,,,,,
817,2025-02-24 08:53:16,2025-02-24 08:59:00,344.62,,,,,,,
818,2025-02-24 10:28:00,2025-02-24 10:33:44,343.35,,,,,,,
819,2025-02-24 12:02:45,2025-02-24 12:08:27,342.24,,,,,,,
820,2025-02-24 13:37:29,2025-02-24 13:43:10,341.30,,,,,,,
821,2025-02-24 15:12:13,2025-02-24 15:17:54,340.52,,,,,,,
822,2025-02-24 16:46:58,2025-02-24 16:52:38,339.90,,,,,,,
823,2025-02-24 18:21:42,2025-02-24 18:27:22,339.44,,,,,,,
824,2025-02-24 19:56:27,2025-02-24 20:02:06,339.16,,,,,,,
825,2025-02-24 21:31:11,2025-02-24 21:36:50,339.04,,,,,,,
826,2025-02-24 23:05:55,2025-02-24 23:11:34,339.09,,,,,,,
827,2025-02-25 00:40:40,2025-02-25 00:46:19,339.32,,,,,,,
828,2025-02-25 02:15:24,2025-02-25 02:21:04,339.72,,,,,,,
829,2025-02-25 03:50:09,2025-02-25 03:55:49,340.31,,,,,,,
830,2025-02-25 05:24:53,2025-02-25 05:30:34,341.09,,,,,,,
831,2025-02-25 06:59:37,2025-02-25 07:05:19,342.05,,,,,,,
832,2025-02-25 08:34:22,2025-02-25 08:40:05,343.20,,,,,,,
833,2025-02-25 10:09:06,2025-02-25 10:14:51,344.57,,,,,,,
834,2025-02-25 11:43:50,2025-02-25 11:49:37,346.13,,,,,,,
835,2025-02-25 13:18:35,2025-02-25 13:24:21,346.02,,,,,,,
836,2025-02-25 14:53:19,2025-02-25 14:59:04,344.60,,,,,,,
837,2025-02-25 16:28:04,2025-02-25 16:33:47,343.34,,,,,,,
838,2025-02-25 18:02:48,2025-02-25 18:08:30,342.23,,,,,,,
839,2025-02-25 19:37:32,2025-02-25 19:43:14,341.29,,,,,,,
840,2025-02-25 21:12:17,2025-02-25 21:17:57,340.51,,,,,,,
841,2025-02-25 22:47:01,2025-02-25 22:52:41,339.89,,,,,,,
842,2025-02-26 00:21:46,2025-02-26 00:27:25,339.44,,,,,,,
843,2025-02-26 01:56:30,2025-02-26 02:02:09,339.15,,,,,,,
844,2025-02-26 03:31:14,2025-02-26 03:36:53,339.03,,,,,,,
845,2025-02-26 05:05:59,2025-02-26 05:11:38,339.09,,,,,,,
846,2025-02-26 06:40:43,2025-02-26 06:46:22,339.32,,,,,,,
847,2025-02-26 08:15:27,2025-02-26 08:21:07,339.73,,,,,,,
848,2025-02-26 09:50:12,2025-02-26 09:55:52,340.32,,,,,,,
849,2025-02-26 11:24:56,2025-02-26 11:30:37,341.09,,,,,,,
850,2025-02-26 12:59:41,2025-02-26 13:05:23,342.06,,,,,,,
851,2025-02-26 14:34:25,2025-02-26 14:40:08,343.22,,,,,,,
852,2025-02-26 16:09:09,2025-02-26 16:14:54,344.58,,,,,,,
853,2025-02-26 17:43:54,2025-02-26 17:49:40,346.15,,,,,,,
854,2025-02-26 19:18:38,2025-02-26 19:24:24,346.01,,,,,,,
855,2025-02-26 20:53:23,2025-02-26 20:59:07,344.59,,,,,,,
856,2025-02-26 22:28:07,2025-02-26 22:33:50,343.32,,,,,,,
857,2025-02-27 00:02:51,2025-02-27 00:08:34,342.22,,,,,,,
858,2025-02-27 01:37:36,2025-02-27 01:43:17,341.28,,,,,,,
859,2025-02-27 03:12:20,2025-02-27 03:18:01,340.50,,,,,,,
860,2025-02-27 04:47:04,2025-02-27 04:52:44,339.89,,,,,,,
861,2025-02-27 06:21:49,2025-02-27 06:27:28,339.44,,,,,,,
862,2025-02-27 07:56:33,2025-02-27 08:02:12,339.15,,,,,,,
863,2025-02-27 09:31:18,2025-02-27 09:36:57,339.04,,,,,,,
864,2025-02-27 11:06:02,2025-02-27 11:11:41,339.09,,,,,,,
865,2025-02-27 12:40:46,2025-02-27 12:46:26,339.33,,,,,,,
866,2025-02-27 14:15:31,2025-02-27 14:21:11,339.74,,,,,,,
867,2025-02-27 15:50:15,2025-02-27 15:55:55,340.33,,,,,,,
868,2025-02-27 17:25:00,2025-02-27 17:30:41,341.11,,,,,,,
869,2025-02-27 18:59:44,2025-02-27 19:05:26,342.08,,,,,,,
870,2025-02-27 20:34:28,2025-02-27 20:40:12,343.24,,,,,,,
871,2025-02-27 22:09:13,2025-02-27 22:14:57,344.60,,,,,,,
872,2025-02-27 23:43:57,2025-02-27 23:49:43,346.17,,,,,,,
873,2025-02-28 01:18:41,2025-02-28 01:24:27,345.99,,,,,,,
874,2025-02-28 02:53:26,2025-02-28 02:59:10,344.57,,,,,,,
875,2025-02-28 04:28:10,2025-02-28 04:33:54,343.31,,,,,,,
876,2025-02-28 06:02:55,2025-02-28 06:08:37,342.21,,,,,,,
877,2025-02-28 07:37:39,2025-02-28 07:43:20,341.27,,,,,,,
878,2025-02-28 09:12:23,2025-02-28 09:18:04,340.50,,,,,,,
879,2025-02-28 10:47:08,2025-02-28 10:52:48,339.88,,,,,,,
880,2025-02-28 12:21:52,2025-02-28 12:27:32,339.43,,,,,,,
881,2025-02-28 13:56:37,2025-02-28 14:02:16,339.15,,,,,,,
882,2025-02-28 15:31:21,2025-02-28 15:37:00,339.04,,,,,,,
883,2025-02-28 17:06:05,2025-02-28 17:11:44,339.10,,,,,,,
884,2025-02-28 18:40:50,2025-02-28 18:46:29,339.33,,,,,,,
885,2025-02-28 20:15:34,2025-02-28 20:21:14,339.74,,,,,,,
886,2025-02-28 21:50:18,2025-02-28 21:55:59,340.34,,,,,,,
887,2025-02-28 23:25:03,2025-02-28 23:30:44,341.11,,,,,,,
888,2025-03-01 00:59:47,2025-03-01 01:05:29,342.09,,,,,,,
889,2025-03-01 02:34:32,2025-03-01 02:40:15,343.25,,,,,,,
890,2025-03-01 04:09:16,2025-03-01 04:15:01,344.62,,,,,,,
891,2025-03-01 05:44:00,2025-03-01 05:49:47,346.19,,,,,,,
892,2025-03-01 07:18:45,2025-03-01 07:24:31,345.97,,,,,,,
893,2025-03-01 08:53:29,2025-03-01 08:59:14,344.55,,,,,,,
894,2025-03-01 10:28:14,2025-03-01 10:33:57,343.30,,,,,,,
895,2025-03-01 12:02:58,2025-03-01 12:08:40,342.20,,,,,,,
896,2025-03-01 13:37:42,2025-03-01 13:43:24,341.26,,,,,,,
897,2025-03-01 15:12:27,2025-03-01 15:18:07,340.49,,,,,,,
898,2025-03-01 16:47:11,2025-03-01 16:52:51,339.87,,,,,,,
899,2025-03-01 18:21:56,2025-03-01 18:27:35,339.43,,,,,,,
900,2025-03-01 19:56:40,2025-03-01 20:02:19,339.15,,,,,,,
901,2025-03-01 21:31:24,2025-03-01 21:37:03,339.04,,,,,,,
902,2025-03-01 23:06:09,2025-03-01 23:11:48,339.10,,,,,,,
903,2025-03-02 00:40:53,2025-03-02 00:46:32,339.34,,,,,,,
904,2025-03-02 02:15:37,2025-03-02 02:21:17,339.75,,,,,,,
905,2025-03-02 03:50:22,2025-03-02 03:56:02,340.34,,,,,,,
906,2025-03-02 05:25:06,2025-03-02 05:30:47,341.13,,,,,,,
907,2025-03-02 06:59:51,2025-03-02 07:05:33,342.10,,,,,,,
908,2025-03-02 08:34:35,2025-03-02 08:40:18,343.26,,,,,,,
909,2025-03-02 10:09:19,2025-03-02 10:15:04,344.64,,,,,,,
910,2025-03-02 11:44:04,2025-03-02 11:49:50,346.20,,,,,,,
911,2025-03-02 13:18:48,2025-03-02 13:24:34,345.95,,,,,,,
912,2025-03-02 14:53:33,2025-03-02 14:59:17,344.54,,,,,,,
913,2025-03-02 16:28:17,2025-03-02 16:34:00,343.28,,,,,,,
914,2025-03-02 18:03:01,2025-03-02 18:08:43,342.18,,,,,,,
915,2025-03-02 19:37:46,2025-03-02 19:43:27,341.25,,,,,,,
916,2025-03-02 21:12:30,2025-03-02 21:18:11,340.48,,,,,,,
917,2025-03-02 22:47:14,2025-03-02 22:52:54,339.86,,,,,,,
918,2025-03-03 00:21:59,2025-03-03 00:27:38,339.42,,,,,,,
919,2025-03-03 01:56:43,2025-03-03 02:02:22,339.14,,,,,,,
920,2025-03-03 03:31:28,2025-03-03 03:37:07,339.03,,,,,,,
921,2025-03-03 05:06:12,2025-03-03 05:11:51,339.10,,,,,,,
922,2025-03-03 06:40:56,2025-03-03 06:46:36,339.34,,,,,,,
923,2025-03-03 08:15:41,2025-03-03 08:21:21,339.75,,,,,,,
924,2025-03-03 09:50:25,2025-03-03 09:56:06,340.35,,,,,,,
925,2025-03-03 11:25:10,2025-03-03 11:30:51,341.13,,,,,,,
926,2025-03-03 12:59:54,2025-03-03 13:05:36,342.11,,,,,,,
927,2025-03-03 14:34:38,2025-03-03 14:40:22,343.28,,,,,,,
928,2025-03-03 16:09:23,2025-03-03 16:15:07,344.65,,,,,,,
929,2025-03-03 17:44:07,2025-03-03 17:49:53,346.23,,,,,,,
930,2025-03-03 19:18:51,2025-03-03 19:24:37,345.94,,,,,,,
931,2025-03-03 20:53:36,2025-03-03 20:59:20,344.52,,,,,,,
932,2025-03-03 22:28:20,2025-03-03 22:34:04,343.27,,,,,,,
933,2025-03-04 00:03:05,2025-03-04 00:08:47,342.17,,,,,,,
934,2025-03-04 01:37:49,2025-03-04 01:43:30,341.24,,,,,,,
935,2025-03-04 03:12:33,2025-03-04 03:18:14,340.47,,,,,,,
936,2025-03-04 04:47:18,2025-03-04 04:52:58,339.86,,,,,,,
937,2025-03-04 06:22:02,2025-03-04 06:27:42,339.42,,,,,,,
938,2025-03-04 07:56:47,2025-03-04 08:02:26,339.14,,,,,,,
939,2025-03-04 09:31:31,2025-03-04 09:37:10,339.04,,,,,,,
940,2025-03-04 11:06:15,2025-03-04 11:11:54,339.10,,,,,,,
941,2025-03-04 12:41:00,2025-03-04 12:46:39,339.34,,,,,,,
942,2025-03-04 14:15:44,2025-03-04 14:21:24,339.76,,,,,,,
943,2025-03-04 15:50:28,2025-03-04 15:56:09,340.36,,,,,,,
944,2025-03-04 17:25:13,2025-03-04 17:30:54,341.15,,,,,,,
945,2025-03-04 18:59:57,2025-03-04 19:05:39,342.12,,,,,,,
946,2025-03-04 20:34:42,2025-03-04 20:40:25,343.30,,,,,,,
947,2025-03-04 22:09:26,2025-03-04 22:15:11,344.67,,,,,,,
948,2025-03-04 23:44:10,2025-03-04 23:49:57,346.25,,,,,,,
949,2025-03-05 01:18:55,2025-03-05 01:24:41,345.92,,,,,,,
950,2025-03-05 02:53:39,2025-03-05 02:59:24,344.51,,,,,,,
951,2025-03-05 04:28:24,2025-03-05 04:34:07,343.26,,,,,,,
952,2025-03-05 06:03:08,2025-03-05 06:08:50,342.16,,,,,,,
953,2025-03-05 07:37:52,2025-03-05 07:43:34,341.23,,,,,,,
954,2025-03-05 09:12:37,2025-03-05 09:18:17,340.46,,,,,,,
955,2025-03-05 10:47:21,2025-03-05 10:53:01,339.85,,,,,,,
956,2025-03-05 12:22:05,2025-03-05 12:27:45,339.41,,,,,,,
957,2025-03-05 13:56:50,2025-03-05 14:02:29,339.14,,,,,,,
958,2025-03-05 15:31:34,2025-03-05 15:37:13,339.04,,,,,,,
959,2025-03-05 17:06:19,2025-03-05 17:11:58,339.10,,,,,,,
960,2025-03-05 18:41:03,2025-03-05 18:46:42,339.35,,,,,,,
961,2025-03-05 20:15:47,2025-03-05 20:21:27,339.77,,,,,,,
962,2025-03-05 21:50:32,2025-03-05 21:56:12,340.37,,,,,,,
963,2025-03-05 23:25:16,2025-03-05 23:30:57,341.15,,,,,,,
964,2025-03-06 01:00:01,2025-03-06 01:05:43,342.14,,,,,,,
965,2025-03-06 02:34:45,2025-03-06 02:40:28,343.31,,,,,,,
966,2025-03-06 04:09:29,2025-03-06 04:15:14,344.68,,,,,,,
967,2025-03-06 05:44:14,2025-03-06 05:50:00,346.26,,,,,,,
968,2025-03-06 07:18:58,2025-03-06 07:24:44,345.90,,,,,,,
969,2025-03-06 08:53:43,2025-03-06 08:59:27,344.49,,,,,,,
970,2025-03-06 10:28:27,2025-03-06 10:34:10,343.24,,,,,,,
971,2025-03-06 12:03:11,2025-03-06 12:08:53,342.15,,,,,,,
972,2025-03-06 13:37:56,2025-03-06 13:43:37,341.22,,,,,,,
973,2025-03-06 15:12:40,2025-03-06 15:18:21,340.45,,,,,,,
974,2025-03-06 16:47:24,2025-03-06 16:53:04,339.85,,,,,,,
975,2025-03-06 18:22:09,2025-03-06 18:27:48,339.41,,,,,,,
976,2025-03-06 19:56:53,2025-03-06 20:02:32,339.14,,,,,,,
977,2025-03-06 21:31:38,2025-03-06 21:37:17,339.04,,,,,,,
978,2025-03-06 23:06:22,2025-03-06 23:12:01,339.10,,,,,,,
979,2025-03-07 00:41:06,2025-03-07 00:46:46,339.35,,,,,,,
980,2025-03-07 02:15:51,2025-03-07 02:21:31,339.77,,,,,,,
981,2025-03-07 03:50:35,2025-03-07 03:56:16,340.37,,,,,,,
982,2025-03-07 05:25:20,2025-03-07 05:31:01,341.17,,,,,,,
983,2025-03-07 07:00:04,2025-03-07 07:05:46,342.15,,,,,,,
984,2025-03-07 08:34:48,2025-03-07 08:40:32,343.32,,,,,,,
985,2025-03-07 10:09:33,2025-03-07 10:15:17,344.70,,,,,,,
986,2025-03-07 11:44:17,2025-03-07 11:50:03,346.28,,,,,,,
987,2025-03-07 13:19:01,2025-03-07 13:24:47,345.88,,,,,,,
988,2025-03-07 14:53:46,2025-03-07 14:59:30,344.47,,,,,,,
989,2025-03-07 16:28:30,2025-03-07 16:34:13,343.23,,,,,,,
990,2025-03-07 18:03:15,2025-03-07 18:08:57,342.14,,,,,,,
991,2025-03-07 19:37:59,2025-03-07 19:43:40,341.21,,,,,,,
992,2025-03-07 21:12:43,2025-03-07 21:18:24,340.44,,,,,,,
993,2025-03-07 22:47:28,2025-03-07 22:53:08,339.84,,,,,,,
994,2025-03-08 00:22:12,2025-03-08 00:27:52,339.41,,,,,,,
995,2025-03-08 01:56:57,2025-03-08 02:02:36,339.13,,,,,,,
996,2025-03-08 03:31:41,2025-03-08 03:37:20,339.03,,,,,,,
997,2025-03-08 05:06:25,2025-03-08 05:12:04,339.11,,,,,,,
998,2025-03-08 06:41:10,2025-03-08 06:46:49,339.35,,,,,,,
999,2025-03-08 08:15:54,2025-03-08 08:21:34,339.77,,,,,,,
1000,2025-03-08 09:50:38,2025-03-08 09:56:19,340.39,,,,,,,
1001,2025-03-08 11:25:23,2025-03-08 11:31:04,341.17,,,,,,,
1002,2025-03-08 13:00:07,2025-03-08 13:05:49,342.16,,,,,,,
1003,2025-03-08 14:34:52,2025-03-08 14:40:35,343.34,,,,,,,
1004,2025-03-08 16:09:36,2025-03-08 16:15:21,344.72,,,,,,,
1005,2025-03-08 17:44:20,2025-03-08 17:50:07,346.30,,,,,,,
1006,2025-03-08 19:19:05,2025-03-08 19:24:51,345.87,,,,,,,
1007,2025-03-08 20:53:49,2025-03-08 20:59:34,344.46,,,,,,,
1008,2025-03-08 22:28:34,2025-03-08 22:34:17,343.21,,,,,,,
1009,2025-03-09 00:03:18,2025-03-09 00:09:00,342.13,,,,,,,
1010,2025-03-09 01:38:02,2025-03-09 01:43:44,341.20,,,,,,,
1011,2025-03-09 03:12:47,2025-03-09 03:18:27,340.44,,,,,,,
1012,2025-03-09 04:47:31,2025-03-09 04:53:11,339.84,,,,,,,
1013,2025-03-09 06:22:15,2025-03-09 06:27:55,339.40,,,,,,,
1014,2025-03-09 07:57:00,2025-03-09 08:02:39,339.13,,,,,,,
1015,2025-03-09 09:31:44,2025-03-09 09:37:23,339.03,,,,,,,
1016,2025-03-09 11:06:29,2025-03-09 11:12:08,339.10,,,,,,,
1017,2025-03-09 12:41:13,2025-03-09 12:46:52,339.36,,,,,,,
1018,2025-03-09 14:15:57,2025-03-09 14:21:37,339.78,,,,,,,
1019,2025-03-09 15:50:42,2025-03-09 15:56:22,340.39,,,,,,,
1020,2025-03-09 17:25:26,2025-03-09 17:31:07,341.19,,,,,,,
1021,2025-03-09 19:00:11,2025-03-09 19:05:53,342.18,,,,,,,
1022,2025-03-09 20:34:55,2025-03-09 20:40:38,343.36,,,,,,,
1023,2025-03-09 22:09:39,2025-03-09 22:15:24,344.73,,,,,,,
1024,2025-03-09 23:44:24,2025-03-09 23:50:10,346.33,,,,,,,
1025,2025-03-10 01:19:08,2025-03-10 01:24:54,345.85,,,,,,,
1026,2025-03-10 02:53:53,2025-03-10 02:59:37,344.45,,,,,,,
1027,2025-03-10 04:28:37,2025-03-10 04:34:20,343.20,,,,,,,
1028,2025-03-10 06:03:21,2025-03-10 06:09:03,342.12,,,,,,,
1029,2025-03-10 07:38:06,2025-03-10 07:43:47,341.19,,,,,,,
1030,2025-03-10 09:12:50,2025-03-10 09:18:30,340.43,,,,,,,
1031,2025-03-10 10:47:34,2025-03-10 10:53:14,339.83,,,,,,,
