3UCubedIntegratedSim/Reports & Plots/Area Target Access Data/CSV/Sat12.csv

Access,Start Time (UTCG),Stop Time (UTCG),Duration (sec),,,,,,
1,2025-01-01 16:27:00,2025-01-01 16:31:16,256.425,,Global Statistics,,,,
2,2025-01-01 18:01:44,2025-01-01 18:06:00,256.277,,Min Duration,2699,2025-06-28 04:34:53,2025-06-28 04:39:09,256.185
3,2025-01-01 19:36:29,2025-01-01 19:40:45,256.299,,Max Duration,4265,2025-10-09 05:17:21,2025-10-09 05:21:45,264.148
4,2025-01-01 21:11:13,2025-01-01 21:15:29,256.497,,Mean Duration,,,,258.878
5,2025-01-01 22:45:57,2025-01-01 22:50:14,256.869,,Total Duration,,,,1436257.117
6,2025-01-02 00:20:42,2025-01-02 00:24:59,257.425,,,,,,
7,2025-01-02 01:55:26,2025-01-02 01:59:44,258.164,,,,,,
8,2025-01-02 03:30:11,2025-01-02 03:34:30,259.098,,,,,,
9,2025-01-02 05:04:55,2025-01-02 05:09:15,260.219,,,,,,
10,2025-01-02 06:39:39,2025-01-02 06:44:01,261.544,,,,,,
11,2025-01-02 08:14:24,2025-01-02 08:18:47,263.068,,,,,,
12,2025-01-02 09:49:08,2025-01-02 09:53:32,263.519,,,,,,
13,2025-01-02 11:23:52,2025-01-02 11:28:15,262.067,,,,,,
14,2025-01-02 12:58:37,2025-01-02 13:02:58,260.779,,,,,,
15,2025-01-02 14:33:21,2025-01-02 14:37:41,259.651,,,,,,
16,2025-01-02 16:08:06,2025-01-02 16:12:24,258.679,,,,,,
17,2025-01-02 17:42:50,2025-01-02 17:47:08,257.864,,,,,,
18,2025-01-02 19:17:34,2025-01-02 19:21:52,257.218,,,,,,
19,2025-01-02 20:52:19,2025-01-02 20:56:36,256.738,,,,,,
20,2025-01-02 22:27:03,2025-01-02 22:31:20,256.424,,,,,,
21,2025-01-03 00:01:48,2025-01-03 00:06:04,256.275,,,,,,
22,2025-01-03 01:36:32,2025-01-03 01:40:48,256.302,,,,,,
23,2025-01-03 03:11:16,2025-01-03 03:15:33,256.498,,,,,,
24,2025-01-03 04:46:01,2025-01-03 04:50:18,256.875,,,,,,
25,2025-01-03 06:20:45,2025-01-03 06:25:03,257.434,,,,,,
26,2025-01-03 07:55:29,2025-01-03 07:59:48,258.179,,,,,,
27,2025-01-03 09:30:14,2025-01-03 09:34:33,259.111,,,,,,
28,2025-01-03 11:04:58,2025-01-03 11:09:18,260.238,,,,,,
29,2025-01-03 12:39:43,2025-01-03 12:44:04,261.559,,,,,,
30,2025-01-03 14:14:27,2025-01-03 14:18:50,263.089,,,,,,
31,2025-01-03 15:49:11,2025-01-03 15:53:35,263.504,,,,,,
32,2025-01-03 17:23:56,2025-01-03 17:28:18,262.054,,,,,,
33,2025-01-03 18:58:40,2025-01-03 19:03:01,260.769,,,,,,
34,2025-01-03 20:33:25,2025-01-03 20:37:44,259.634,,,,,,
35,2025-01-03 22:08:09,2025-01-03 22:12:28,258.667,,,,,,
36,2025-01-03 23:42:53,2025-01-03 23:47:11,257.854,,,,,,
37,2025-01-04 01:17:38,2025-01-04 01:21:55,257.214,,,,,,
38,2025-01-04 02:52:22,2025-01-04 02:56:39,256.737,,,,,,
39,2025-01-04 04:27:06,2025-01-04 04:31:23,256.418,,,,,,
40,2025-01-04 06:01:51,2025-01-04 06:06:07,256.278,,,,,,
41,2025-01-04 07:36:35,2025-01-04 07:40:52,256.303,,,,,,
42,2025-01-04 09:11:20,2025-01-04 09:15:36,256.505,,,,,,
43,2025-01-04 10:46:04,2025-01-04 10:50:21,256.885,,,,,,
44,2025-01-04 12:20:48,2025-01-04 12:25:06,257.441,,,,,,
45,2025-01-04 13:55:33,2025-01-04 13:59:51,258.19,,,,,,
46,2025-01-04 15:30:17,2025-01-04 15:34:36,259.125,,,,,,
47,2025-01-04 17:05:02,2025-01-04 17:09:22,260.249,,,,,,
48,2025-01-04 18:39:46,2025-01-04 18:44:08,261.578,,,,,,
49,2025-01-04 20:14:30,2025-01-04 20:18:53,263.111,,,,,,
50,2025-01-04 21:49:15,2025-01-04 21:53:38,263.488,,,,,,
51,2025-01-04 23:23:59,2025-01-04 23:28:21,262.038,,,,,,
52,2025-01-05 00:58:44,2025-01-05 01:03:04,260.751,,,,,,
53,2025-01-05 02:33:28,2025-01-05 02:37:48,259.63,,,,,,
54,2025-01-05 04:08:12,2025-01-05 04:12:31,258.654,,,,,,
55,2025-01-05 05:42:57,2025-01-05 05:47:15,257.852,,,,,,
56,2025-01-05 07:17:41,2025-01-05 07:21:58,257.208,,,,,,
57,2025-01-05 08:52:25,2025-01-05 08:56:42,256.73,,,,,,
58,2025-01-05 10:27:10,2025-01-05 10:31:26,256.42,,,,,,
59,2025-01-05 12:01:54,2025-01-05 12:06:10,256.274,,,,,,
60,2025-01-05 13:36:39,2025-01-05 13:40:55,256.307,,,,,,
61,2025-01-05 15:11:23,2025-01-05 15:15:39,256.506,,,,,,
62,2025-01-05 16:46:07,2025-01-05 16:50:24,256.888,,,,,,
63,2025-01-05 18:20:52,2025-01-05 18:25:09,257.451,,,,,,
64,2025-01-05 19:55:36,2025-01-05 19:59:54,258.199,,,,,,
65,2025-01-05 21:30:21,2025-01-05 21:34:40,259.136,,,,,,
66,2025-01-05 23:05:05,2025-01-05 23:09:25,260.264,,,,,,
67,2025-01-06 00:39:49,2025-01-06 00:44:11,261.597,,,,,,
68,2025-01-06 02:14:34,2025-01-06 02:18:57,263.132,,,,,,
69,2025-01-06 03:49:18,2025-01-06 03:53:42,263.463,,,,,,
70,2025-01-06 05:24:02,2025-01-06 05:28:24,262.024,,,,,,
71,2025-01-06 06:58:47,2025-01-06 07:03:08,260.74,,,,,,
72,2025-01-06 08:33:31,2025-01-06 08:37:51,259.614,,,,,,
73,2025-01-06 10:08:16,2025-01-06 10:12:34,258.647,,,,,,
74,2025-01-06 11:43:00,2025-01-06 11:47:18,257.841,,,,,,
75,2025-01-06 13:17:44,2025-01-06 13:22:02,257.203,,,,,,
76,2025-01-06 14:52:29,2025-01-06 14:56:45,256.725,,,,,,
77,2025-01-06 16:27:13,2025-01-06 16:31:30,256.416,,,,,,
78,2025-01-06 18:01:58,2025-01-06 18:06:14,256.276,,,,,,
79,2025-01-06 19:36:42,2025-01-06 19:40:58,256.307,,,,,,
80,2025-01-06 21:11:26,2025-01-06 21:15:43,256.513,,,,,,
81,2025-01-06 22:46:11,2025-01-06 22:50:28,256.893,,,,,,
82,2025-01-07 00:20:55,2025-01-07 00:25:13,257.458,,,,,,
83,2025-01-07 01:55:39,2025-01-07 01:59:58,258.206,,,,,,
84,2025-01-07 03:30:24,2025-01-07 03:34:43,259.149,,,,,,
85,2025-01-07 05:05:08,2025-01-07 05:09:29,260.278,,,,,,
86,2025-01-07 06:39:53,2025-01-07 06:44:14,261.613,,,,,,
87,2025-01-07 08:14:37,2025-01-07 08:19:00,263.147,,,,,,
88,2025-01-07 09:49:21,2025-01-07 09:53:45,263.45,,,,,,
89,2025-01-07 11:24:06,2025-01-07 11:28:28,262.005,,,,,,
90,2025-01-07 12:58:50,2025-01-07 13:03:11,260.727,,,,,,
91,2025-01-07 14:33:35,2025-01-07 14:37:54,259.604,,,,,,
92,2025-01-07 16:08:19,2025-01-07 16:12:38,258.639,,,,,,
93,2025-01-07 17:43:03,2025-01-07 17:47:21,257.832,,,,,,
94,2025-01-07 19:17:48,2025-01-07 19:22:05,257.194,,,,,,
95,2025-01-07 20:52:32,2025-01-07 20:56:49,256.721,,,,,,
96,2025-01-07 22:27:16,2025-01-07 22:31:33,256.415,,,,,,
97,2025-01-08 00:02:01,2025-01-08 00:06:17,256.275,,,,,,
98,2025-01-08 01:36:45,2025-01-08 01:41:02,256.31,,,,,,
99,2025-01-08 03:11:30,2025-01-08 03:15:46,256.514,,,,,,
100,2025-01-08 04:46:14,2025-01-08 04:50:31,256.899,,,,,,
101,2025-01-08 06:20:58,2025-01-08 06:25:16,257.466,,,,,,
102,2025-01-08 07:55:43,2025-01-08 08:00:01,258.22,,,,,,
103,2025-01-08 09:30:27,2025-01-08 09:34:46,259.161,,,,,,
104,2025-01-08 11:05:12,2025-01-08 11:09:32,260.297,,,,,,
105,2025-01-08 12:39:56,2025-01-08 12:44:18,261.628,,,,,,
106,2025-01-08 14:14:40,2025-01-08 14:19:04,263.168,,,,,,
107,2025-01-08 15:49:25,2025-01-08 15:53:48,263.434,,,,,,
108,2025-01-08 17:24:09,2025-01-08 17:28:31,261.996,,,,,,
109,2025-01-08 18:58:53,2025-01-08 19:03:14,260.714,,,,,,
110,2025-01-08 20:33:38,2025-01-08 20:37:57,259.587,,,,,,
111,2025-01-08 22:08:22,2025-01-08 22:12:41,258.628,,,,,,
112,2025-01-08 23:43:07,2025-01-08 23:47:24,257.822,,,,,,
113,2025-01-09 01:17:51,2025-01-09 01:22:08,257.19,,,,,,
114,2025-01-09 02:52:35,2025-01-09 02:56:52,256.72,,,,,,
115,2025-01-09 04:27:20,2025-01-09 04:31:36,256.409,,,,,,
116,2025-01-09 06:02:04,2025-01-09 06:06:20,256.277,,,,,,
117,2025-01-09 07:36:49,2025-01-09 07:41:05,256.311,,,,,,
118,2025-01-09 09:11:33,2025-01-09 09:15:49,256.521,,,,,,
119,2025-01-09 10:46:17,2025-01-09 10:50:34,256.91,,,,,,
120,2025-01-09 12:21:02,2025-01-09 12:25:19,257.478,,,,,,
121,2025-01-09 13:55:46,2025-01-09 14:00:04,258.232,,,,,,
122,2025-01-09 15:30:31,2025-01-09 15:34:50,259.175,,,,,,
123,2025-01-09 17:05:15,2025-01-09 17:09:35,260.309,,,,,,
124,2025-01-09 18:39:59,2025-01-09 18:44:21,261.651,,,,,,
125,2025-01-09 20:14:44,2025-01-09 20:19:07,263.19,,,,,,
126,2025-01-09 21:49:28,2025-01-09 21:53:51,263.418,,,,,,
127,2025-01-09 23:24:12,2025-01-09 23:28:34,261.977,,,,,,
128,2025-01-10 00:58:57,2025-01-10 01:03:18,260.697,,,,,,
129,2025-01-10 02:33:41,2025-01-10 02:38:01,259.579,,,,,,
130,2025-01-10 04:08:26,2025-01-10 04:12:44,258.615,,,,,,
131,2025-01-10 05:43:10,2025-01-10 05:47:28,257.82,,,,,,
132,2025-01-10 07:17:54,2025-01-10 07:22:12,257.184,,,,,,
133,2025-01-10 08:52:39,2025-01-10 08:56:55,256.714,,,,,,
134,2025-01-10 10:27:23,2025-01-10 10:31:40,256.412,,,,,,
135,2025-01-10 12:02:08,2025-01-10 12:06:24,256.274,,,,,,
136,2025-01-10 13:36:52,2025-01-10 13:41:08,256.315,,,,,,
137,2025-01-10 15:11:36,2025-01-10 15:15:53,256.522,,,,,,
138,2025-01-10 16:46:21,2025-01-10 16:50:38,256.913,,,,,,
139,2025-01-10 18:21:05,2025-01-10 18:25:23,257.484,,,,,,
140,2025-01-10 19:55:49,2025-01-10 20:00:08,258.241,,,,,,
141,2025-01-10 21:30:34,2025-01-10 21:34:53,259.188,,,,,,
142,2025-01-10 23:05:18,2025-01-10 23:09:39,260.325,,,,,,
143,2025-01-11 00:40:03,2025-01-11 00:44:24,261.667,,,,,,
144,2025-01-11 02:14:47,2025-01-11 02:19:10,263.212,,,,,,
145,2025-01-11 03:49:31,2025-01-11 03:53:55,263.399,,,,,,
146,2025-01-11 05:24:16,2025-01-11 05:28:38,261.963,,,,,,
147,2025-01-11 06:59:00,2025-01-11 07:03:21,260.687,,,,,,
148,2025-01-11 08:33:45,2025-01-11 08:38:04,259.568,,,,,,
149,2025-01-11 10:08:29,2025-01-11 10:12:48,258.608,,,,,,
150,2025-01-11 11:43:13,2025-01-11 11:47:31,257.81,,,,,,
151,2025-01-11 13:17:58,2025-01-11 13:22:15,257.18,,,,,,
152,2025-01-11 14:52:42,2025-01-11 14:56:59,256.709,,,,,,
153,2025-01-11 16:27:26,2025-01-11 16:31:43,256.409,,,,,,
154,2025-01-11 18:02:11,2025-01-11 18:06:27,256.277,,,,,,
155,2025-01-11 19:36:55,2025-01-11 19:41:12,256.316,,,,,,
156,2025-01-11 21:11:40,2025-01-11 21:15:56,256.531,,,,,,
157,2025-01-11 22:46:24,2025-01-11 22:50:41,256.919,,,,,,
158,2025-01-12 00:21:08,2025-01-12 00:25:26,257.493,,,,,,
159,2025-01-12 01:55:53,2025-01-12 02:00:11,258.249,,,,,,
160,2025-01-12 03:30:37,2025-01-12 03:34:56,259.201,,,,,,
161,2025-01-12 05:05:22,2025-01-12 05:09:42,260.34,,,,,,
162,2025-01-12 06:40:06,2025-01-12 06:44:28,261.684,,,,,,
163,2025-01-12 08:14:50,2025-01-12 08:19:14,263.228,,,,,,
164,2025-01-12 09:49:35,2025-01-12 09:53:58,263.382,,,,,,
165,2025-01-12 11:24:19,2025-01-12 11:28:41,261.945,,,,,,
166,2025-01-12 12:59:03,2025-01-12 13:03:24,260.675,,,,,,
167,2025-01-12 14:33:48,2025-01-12 14:38:07,259.558,,,,,,
168,2025-01-12 16:08:32,2025-01-12 16:12:51,258.601,,,,,,
169,2025-01-12 17:43:17,2025-01-12 17:47:34,257.802,,,,,,
170,2025-01-12 19:18:01,2025-01-12 19:22:18,257.172,,,,,,
171,2025-01-12 20:52:45,2025-01-12 20:57:02,256.707,,,,,,
172,2025-01-12 22:27:30,2025-01-12 22:31:46,256.409,,,,,,
173,2025-01-13 00:02:14,2025-01-13 00:06:30,256.276,,,,,,
174,2025-01-13 01:36:59,2025-01-13 01:41:15,256.32,,,,,,
175,2025-01-13 03:11:43,2025-01-13 03:15:59,256.532,,,,,,
176,2025-01-13 04:46:27,2025-01-13 04:50:44,256.926,,,,,,
177,2025-01-13 06:21:12,2025-01-13 06:25:29,257.501,,,,,,
178,2025-01-13 07:55:56,2025-01-13 08:00:14,258.264,,,,,,
179,2025-01-13 09:30:40,2025-01-13 09:35:00,259.215,,,,,,
180,2025-01-13 11:05:25,2025-01-13 11:09:45,260.36,,,,,,
181,2025-01-13 12:40:09,2025-01-13 12:44:31,261.7,,,,,,
182,2025-01-13 14:14:54,2025-01-13 14:19:17,263.25,,,,,,
183,2025-01-13 15:49:38,2025-01-13 15:54:01,263.367,,,,,,
184,2025-01-13 17:24:22,2025-01-13 17:28:44,261.937,,,,,,
185,2025-01-13 18:59:07,2025-01-13 19:03:27,260.662,,,,,,
186,2025-01-13 20:33:51,2025-01-13 20:38:11,259.542,,,,,,
187,2025-01-13 22:08:36,2025-01-13 22:12:54,258.591,,,,,,
188,2025-01-13 23:43:20,2025-01-13 23:47:38,257.793,,,,,,
189,2025-01-14 01:18:04,2025-01-14 01:22:22,257.168,,,,,,
190,2025-01-14 02:52:49,2025-01-14 02:57:05,256.706,,,,,,
191,2025-01-14 04:27:33,2025-01-14 04:31:50,256.403,,,,,,
192,2025-01-14 06:02:18,2025-01-14 06:06:34,256.279,,,,,,
193,2025-01-14 07:37:02,2025-01-14 07:41:18,256.321,,,,,,
194,2025-01-14 09:11:46,2025-01-14 09:16:03,256.54,,,,,,
195,2025-01-14 10:46:31,2025-01-14 10:50:48,256.937,,,,,,
196,2025-01-14 12:21:15,2025-01-14 12:25:33,257.51,,,,,,
197,2025-01-14 13:55:59,2025-01-14 14:00:18,258.277,,,,,,
198,2025-01-14 15:30:44,2025-01-14 15:35:03,259.229,,,,,,
199,2025-01-14 17:05:28,2025-01-14 17:09:49,260.372,,,,,,
200,2025-01-14 18:40:13,2025-01-14 18:44:34,261.721,,,,,,
201,2025-01-14 20:14:57,2025-01-14 20:19:20,263.273,,,,,,
202,2025-01-14 21:49:41,2025-01-14 21:54:05,263.352,,,,,,
203,2025-01-14 23:24:26,2025-01-14 23:28:48,261.917,,,,,,
204,2025-01-15 00:59:10,2025-01-15 01:03:31,260.646,,,,,,
205,2025-01-15 02:33:55,2025-01-15 02:38:14,259.535,,,,,,
206,2025-01-15 04:08:39,2025-01-15 04:12:57,258.579,,,,,,
207,2025-01-15 05:43:23,2025-01-15 05:47:41,257.792,,,,,,
208,2025-01-15 07:18:08,2025-01-15 07:22:25,257.163,,,,,,
209,2025-01-15 08:52:52,2025-01-15 08:57:09,256.701,,,,,,
210,2025-01-15 10:27:36,2025-01-15 10:31:53,256.407,,,,,,
211,2025-01-15 12:02:21,2025-01-15 12:06:37,256.277,,,,,,
212,2025-01-15 13:37:05,2025-01-15 13:41:22,256.325,,,,,,
213,2025-01-15 15:11:50,2025-01-15 15:16:06,256.541,,,,,,
214,2025-01-15 16:46:34,2025-01-15 16:50:51,256.94,,,,,,
215,2025-01-15 18:21:18,2025-01-15 18:25:36,257.52,,,,,,
216,2025-01-15 19:56:03,2025-01-15 20:00:21,258.286,,,,,,
217,2025-01-15 21:30:47,2025-01-15 21:35:06,259.242,,,,,,
218,2025-01-15 23:05:32,2025-01-15 23:09:52,260.388,,,,,,
219,2025-01-16 00:40:16,2025-01-16 00:44:38,261.74,,,,,,
220,2025-01-16 02:15:00,2025-01-16 02:19:24,263.294,,,,,,
221,2025-01-16 03:49:45,2025-01-16 03:54:08,263.332,,,,,,
222,2025-01-16 05:24:29,2025-01-16 05:28:51,261.907,,,,,,
223,2025-01-16 06:59:13,2025-01-16 07:03:34,260.635,,,,,,
224,2025-01-16 08:33:58,2025-01-16 08:38:17,259.524,,,,,,
225,2025-01-16 10:08:42,2025-01-16 10:13:01,258.573,,,,,,
226,2025-01-16 11:43:27,2025-01-16 11:47:44,257.781,,,,,,
227,2025-01-16 13:18:11,2025-01-16 13:22:28,257.159,,,,,,
228,2025-01-16 14:52:55,2025-01-16 14:57:12,256.696,,,,,,
229,2025-01-16 16:27:40,2025-01-16 16:31:56,256.403,,,,,,
230,2025-01-16 18:02:24,2025-01-16 18:06:40,256.279,,,,,,
231,2025-01-16 19:37:09,2025-01-16 19:41:25,256.327,,,,,,
232,2025-01-16 21:11:53,2025-01-16 21:16:09,256.549,,,,,,
233,2025-01-16 22:46:37,2025-01-16 22:50:54,256.946,,,,,,
234,2025-01-17 00:21:22,2025-01-17 00:25:39,257.529,,,,,,
235,2025-01-17 01:56:06,2025-01-17 02:00:24,258.294,,,,,,
236,2025-01-17 03:30:50,2025-01-17 03:35:10,259.255,,,,,,
237,2025-01-17 05:05:35,2025-01-17 05:09:55,260.407,,,,,,
238,2025-01-17 06:40:19,2025-01-17 06:44:41,261.756,,,,,,
239,2025-01-17 08:15:04,2025-01-17 08:19:27,263.31,,,,,,
240,2025-01-17 09:49:48,2025-01-17 09:54:11,263.315,,,,,,
241,2025-01-17 11:24:32,2025-01-17 11:28:54,261.885,,,,,,
242,2025-01-17 12:59:17,2025-01-17 13:03:37,260.622,,,,,,
243,2025-01-17 14:34:01,2025-01-17 14:38:21,259.514,,,,,,
244,2025-01-17 16:08:46,2025-01-17 16:13:04,258.564,,,,,,
245,2025-01-17 17:43:30,2025-01-17 17:47:48,257.772,,,,,,
246,2025-01-17 19:18:14,2025-01-17 19:22:31,257.15,,,,,,
247,2025-01-17 20:52:59,2025-01-17 20:57:15,256.693,,,,,,
248,2025-01-17 22:27:43,2025-01-17 22:32:00,256.403,,,,,,
249,2025-01-18 00:02:27,2025-01-18 00:06:44,256.278,,,,,,
250,2025-01-18 01:37:12,2025-01-18 01:41:28,256.33,,,,,,
251,2025-01-18 03:11:56,2025-01-18 03:16:13,256.551,,,,,,
252,2025-01-18 04:46:41,2025-01-18 04:50:58,256.952,,,,,,
253,2025-01-18 06:21:25,2025-01-18 06:25:43,257.536,,,,,,
254,2025-01-18 07:56:09,2025-01-18 08:00:28,258.308,,,,,,
255,2025-01-18 09:30:54,2025-01-18 09:35:13,259.267,,,,,,
256,2025-01-18 11:05:38,2025-01-18 11:09:59,260.422,,,,,,
257,2025-01-18 12:40:23,2025-01-18 12:44:44,261.772,,,,,,
258,2025-01-18 14:15:07,2025-01-18 14:19:30,263.331,,,,,,
259,2025-01-18 15:49:51,2025-01-18 15:54:15,263.3,,,,,,
260,2025-01-18 17:24:36,2025-01-18 17:28:58,261.877,,,,,,
261,2025-01-18 18:59:20,2025-01-18 19:03:41,260.609,,,,,,
262,2025-01-18 20:34:05,2025-01-18 20:38:24,259.497,,,,,,
263,2025-01-18 22:08:49,2025-01-18 22:13:07,258.553,,,,,,
264,2025-01-18 23:43:33,2025-01-18 23:47:51,257.763,,,,,,
265,2025-01-19 01:18:18,2025-01-19 01:22:35,257.146,,,,,,
266,2025-01-19 02:53:02,2025-01-19 02:57:19,256.691,,,,,,
267,2025-01-19 04:27:46,2025-01-19 04:32:03,256.396,,,,,,
268,2025-01-19 06:02:31,2025-01-19 06:06:47,256.28,,,,,,
269,2025-01-19 07:37:15,2025-01-19 07:41:32,256.33,,,,,,
270,2025-01-19 09:12:00,2025-01-19 09:16:16,256.557,,,,,,
271,2025-01-19 10:46:44,2025-01-19 10:51:01,256.963,,,,,,
272,2025-01-19 12:21:28,2025-01-19 12:25:46,257.544,,,,,,
273,2025-01-19 13:56:13,2025-01-19 14:00:31,258.32,,,,,,
274,2025-01-19 15:30:57,2025-01-19 15:35:16,259.281,,,,,,
275,2025-01-19 17:05:42,2025-01-19 17:10:02,260.433,,,,,,
276,2025-01-19 18:40:26,2025-01-19 18:44:48,261.791,,,,,,
277,2025-01-19 20:15:10,2025-01-19 20:19:34,263.353,,,,,,
278,2025-01-19 21:49:55,2025-01-19 21:54:18,263.284,,,,,,
279,2025-01-19 23:24:39,2025-01-19 23:29:01,261.856,,,,,,
280,2025-01-20 00:59:23,2025-01-20 01:03:44,260.592,,,,,,
281,2025-01-20 02:34:08,2025-01-20 02:38:27,259.488,,,,,,
282,2025-01-20 04:08:52,2025-01-20 04:13:11,258.54,,,,,,
283,2025-01-20 05:43:37,2025-01-20 05:47:54,257.761,,,,,,
284,2025-01-20 07:18:21,2025-01-20 07:22:38,257.139,,,,,,
285,2025-01-20 08:53:05,2025-01-20 08:57:22,256.685,,,,,,
286,2025-01-20 10:27:50,2025-01-20 10:32:06,256.399,,,,,,
287,2025-01-20 12:02:34,2025-01-20 12:06:50,256.277,,,,,,
288,2025-01-20 13:37:19,2025-01-20 13:41:35,256.334,,,,,,
289,2025-01-20 15:12:03,2025-01-20 15:16:19,256.558,,,,,,
290,2025-01-20 16:46:47,2025-01-20 16:51:04,256.965,,,,,,
291,2025-01-20 18:21:32,2025-01-20 18:25:49,257.554,,,,,,
292,2025-01-20 19:56:16,2025-01-20 20:00:34,258.328,,,,,,
293,2025-01-20 21:31:00,2025-01-20 21:35:20,259.293,,,,,,
294,2025-01-20 23:05:45,2025-01-20 23:10:05,260.449,,,,,,
295,2025-01-21 00:40:29,2025-01-21 00:44:51,261.81,,,,,,
296,2025-01-21 02:15:14,2025-01-21 02:19:37,263.374,,,,,,
297,2025-01-21 03:49:58,2025-01-21 03:54:21,263.263,,,,,,
298,2025-01-21 05:24:42,2025-01-21 05:29:04,261.846,,,,,,
299,2025-01-21 06:59:27,2025-01-21 07:03:47,260.582,,,,,,
300,2025-01-21 08:34:11,2025-01-21 08:38:31,259.477,,,,,,
301,2025-01-21 10:08:56,2025-01-21 10:13:14,258.531,,,,,,
302,2025-01-21 11:43:40,2025-01-21 11:47:58,257.75,,,,,,
303,2025-01-21 13:18:24,2025-01-21 13:22:41,257.135,,,,,,
304,2025-01-21 14:53:09,2025-01-21 14:57:25,256.68,,,,,,
305,2025-01-21 16:27:53,2025-01-21 16:32:09,256.395,,,,,,
306,2025-01-21 18:02:37,2025-01-21 18:06:54,256.279,,,,,,
307,2025-01-21 19:37:22,2025-01-21 19:41:38,256.334,,,,,,
308,2025-01-21 21:12:06,2025-01-21 21:16:23,256.565,,,,,,
309,2025-01-21 22:46:51,2025-01-21 22:51:08,256.971,,,,,,
310,2025-01-22 00:21:35,2025-01-22 00:25:53,257.562,,,,,,
311,2025-01-22 01:56:19,2025-01-22 02:00:38,258.336,,,,,,
312,2025-01-22 03:31:04,2025-01-22 03:35:23,259.306,,,,,,
313,2025-01-22 05:05:48,2025-01-22 05:10:09,260.466,,,,,,
314,2025-01-22 06:40:33,2025-01-22 06:44:54,261.826,,,,,,
315,2025-01-22 08:15:17,2025-01-22 08:19:40,263.389,,,,,,
316,2025-01-22 09:50:01,2025-01-22 09:54:25,263.245,,,,,,
317,2025-01-22 11:24:46,2025-01-22 11:29:08,261.824,,,,,,
318,2025-01-22 12:59:30,2025-01-22 13:03:51,260.568,,,,,,
319,2025-01-22 14:34:14,2025-01-22 14:38:34,259.467,,,,,,
320,2025-01-22 16:08:59,2025-01-22 16:13:17,258.525,,,,,,
321,2025-01-22 17:43:43,2025-01-22 17:48:01,257.741,,,,,,
322,2025-01-22 19:18:28,2025-01-22 19:22:45,257.126,,,,,,
323,2025-01-22 20:53:12,2025-01-22 20:57:29,256.677,,,,,,
324,2025-01-22 22:27:56,2025-01-22 22:32:13,256.394,,,,,,
325,2025-01-23 00:02:41,2025-01-23 00:06:57,256.278,,,,,,
326,2025-01-23 01:37:25,2025-01-23 01:41:42,256.337,,,,,,
327,2025-01-23 03:12:10,2025-01-23 03:16:26,256.567,,,,,,
328,2025-01-23 04:46:54,2025-01-23 04:51:11,256.977,,,,,,
329,2025-01-23 06:21:38,2025-01-23 06:25:56,257.569,,,,,,
330,2025-01-23 07:56:23,2025-01-23 08:00:41,258.35,,,,,,
331,2025-01-23 09:31:07,2025-01-23 09:35:26,259.318,,,,,,
332,2025-01-23 11:05:52,2025-01-23 11:10:12,260.482,,,,,,
333,2025-01-23 12:40:36,2025-01-23 12:44:58,261.841,,,,,,
334,2025-01-23 14:15:20,2025-01-23 14:19:44,263.41,,,,,,
335,2025-01-23 15:50:05,2025-01-23 15:54:28,263.23,,,,,,
336,2025-01-23 17:24:49,2025-01-23 17:29:11,261.815,,,,,,
337,2025-01-23 18:59:33,2025-01-23 19:03:54,260.555,,,,,,
338,2025-01-23 20:34:18,2025-01-23 20:38:37,259.45,,,,,,
339,2025-01-23 22:09:02,2025-01-23 22:13:21,258.514,,,,,,
340,2025-01-23 23:43:47,2025-01-23 23:48:04,257.731,,,,,,
341,2025-01-24 01:18:31,2025-01-24 01:22:48,257.122,,,,,,
342,2025-01-24 02:53:15,2025-01-24 02:57:32,256.675,,,,,,
343,2025-01-24 04:28:00,2025-01-24 04:32:16,256.388,,,,,,
344,2025-01-24 06:02:44,2025-01-24 06:07:00,256.28,,,,,,
345,2025-01-24 07:37:29,2025-01-24 07:41:45,256.338,,,,,,
346,2025-01-24 09:12:13,2025-01-24 09:16:29,256.574,,,,,,
347,2025-01-24 10:46:57,2025-01-24 10:51:14,256.987,,,,,,
348,2025-01-24 12:21:42,2025-01-24 12:25:59,257.577,,,,,,
349,2025-01-24 13:56:26,2025-01-24 14:00:44,258.362,,,,,,
350,2025-01-24 15:31:10,2025-01-24 15:35:30,259.333,,,,,,
351,2025-01-24 17:05:55,2025-01-24 17:10:15,260.493,,,,,,
352,2025-01-24 18:40:39,2025-01-24 18:45:01,261.86,,,,,,
353,2025-01-24 20:15:24,2025-01-24 20:19:47,263.433,,,,,,
354,2025-01-24 21:50:08,2025-01-24 21:54:31,263.215,,,,,,
355,2025-01-24 23:24:52,2025-01-24 23:29:14,261.795,,,,,,
356,2025-01-25 00:59:37,2025-01-25 01:03:57,260.538,,,,,,
357,2025-01-25 02:34:21,2025-01-25 02:38:41,259.442,,,,,,
358,2025-01-25 04:09:06,2025-01-25 04:13:24,258.501,,,,,,
359,2025-01-25 05:43:50,2025-01-25 05:48:08,257.729,,,,,,
360,2025-01-25 07:18:34,2025-01-25 07:22:51,257.116,,,,,,
361,2025-01-25 08:53:19,2025-01-25 08:57:35,256.67,,,,,,
362,2025-01-25 10:28:03,2025-01-25 10:32:19,256.391,,,,,,
363,2025-01-25 12:02:47,2025-01-25 12:07:04,256.277,,,,,,
364,2025-01-25 13:37:32,2025-01-25 13:41:48,256.342,,,,,,
365,2025-01-25 15:12:16,2025-01-25 15:16:33,256.575,,,,,,
366,2025-01-25 16:47:01,2025-01-25 16:51:18,256.991,,,,,,
367,2025-01-25 18:21:45,2025-01-25 18:26:03,257.588,,,,,,
368,2025-01-25 19:56:29,2025-01-25 20:00:48,258.371,,,,,,
369,2025-01-25 21:31:14,2025-01-25 21:35:33,259.345,,,,,,
370,2025-01-25 23:05:58,2025-01-25 23:10:19,260.51,,,,,,
371,2025-01-26 00:40:43,2025-01-26 00:45:04,261.881,,,,,,
372,2025-01-26 02:15:27,2025-01-26 02:19:50,263.455,,,,,,
373,2025-01-26 03:50:11,2025-01-26 03:54:35,263.195,,,,,,
374,2025-01-26 05:24:56,2025-01-26 05:29:18,261.785,,,,,,
375,2025-01-26 06:59:40,2025-01-26 07:04:01,260.528,,,,,,
376,2025-01-26 08:34:24,2025-01-26 08:38:44,259.431,,,,,,
377,2025-01-26 10:09:09,2025-01-26 10:13:27,258.497,,,,,,
378,2025-01-26 11:43:53,2025-01-26 11:48:11,257.719,,,,,,
379,2025-01-26 13:18:38,2025-01-26 13:22:55,257.112,,,,,,
380,2025-01-26 14:53:22,2025-01-26 14:57:39,256.665,,,,,,
381,2025-01-26 16:28:06,2025-01-26 16:32:23,256.388,,,,,,
382,2025-01-26 18:02:51,2025-01-26 18:07:07,256.28,,,,,,
383,2025-01-26 19:37:35,2025-01-26 19:41:52,256.344,,,,,,
384,2025-01-26 21:12:20,2025-01-26 21:16:36,256.583,,,,,,
385,2025-01-26 22:47:04,2025-01-26 22:51:21,256.997,,,,,,
386,2025-01-27 00:21:48,2025-01-27 00:26:06,257.597,,,,,,
387,2025-01-27 01:56:33,2025-01-27 02:00:51,258.38,,,,,,
388,2025-01-27 03:31:17,2025-01-27 03:35:36,259.358,,,,,,
389,2025-01-27 05:06:02,2025-01-27 05:10:22,260.527,,,,,,
390,2025-01-27 06:40:46,2025-01-27 06:45:08,261.898,,,,,,
391,2025-01-27 08:15:30,2025-01-27 08:19:54,263.471,,,,,,
392,2025-01-27 09:50:15,2025-01-27 09:54:38,263.178,,,,,,
393,2025-01-27 11:24:59,2025-01-27 11:29:21,261.763,,,,,,
394,2025-01-27 12:59:43,2025-01-27 13:04:04,260.515,,,,,,
395,2025-01-27 14:34:28,2025-01-27 14:38:47,259.422,,,,,,
396,2025-01-27 16:09:12,2025-01-27 16:13:31,258.488,,,,,,
397,2025-01-27 17:43:57,2025-01-27 17:48:14,257.711,,,,,,
398,2025-01-27 19:18:41,2025-01-27 19:22:58,257.104,,,,,,
399,2025-01-27 20:53:25,2025-01-27 20:57:42,256.663,,,,,,
400,2025-01-27 22:28:10,2025-01-27 22:32:26,256.388,,,,,,
401,2025-01-28 00:02:54,2025-01-28 00:07:10,256.28,,,,,,
402,2025-01-28 01:37:39,2025-01-28 01:41:55,256.348,,,,,,
403,2025-01-28 03:12:23,2025-01-28 03:16:39,256.585,,,,,,
404,2025-01-28 04:47:07,2025-01-28 04:51:24,257.004,,,,,,
405,2025-01-28 06:21:52,2025-01-28 06:26:09,257.605,,,,,,
406,2025-01-28 07:56:36,2025-01-28 08:00:54,258.395,,,,,,
407,2025-01-28 09:31:20,2025-01-28 09:35:40,259.371,,,,,,
408,2025-01-28 11:06:05,2025-01-28 11:10:25,260.545,,,,,,
409,2025-01-28 12:40:49,2025-01-28 12:45:11,261.914,,,,,,
410,2025-01-28 14:15:34,2025-01-28 14:19:57,263.493,,,,,,
411,2025-01-28 15:50:18,2025-01-28 15:54:41,263.164,,,,,,
412,2025-01-28 17:25:02,2025-01-28 17:29:24,261.756,,,,,,
413,2025-01-28 18:59:47,2025-01-28 19:04:07,260.503,,,,,,
414,2025-01-28 20:34:31,2025-01-28 20:38:51,259.406,,,,,,
415,2025-01-28 22:09:16,2025-01-28 22:13:34,258.477,,,,,,
416,2025-01-28 23:44:00,2025-01-28 23:48:18,257.702,,,,,,
417,2025-01-29 01:18:44,2025-01-29 01:23:01,257.101,,,,,,
418,2025-01-29 02:53:29,2025-01-29 02:57:45,256.662,,,,,,
419,2025-01-29 04:28:13,2025-01-29 04:32:29,256.383,,,,,,
420,2025-01-29 06:02:57,2025-01-29 06:07:14,256.283,,,,,,
421,2025-01-29 07:37:42,2025-01-29 07:41:58,256.349,,,,,,
422,2025-01-29 09:12:26,2025-01-29 09:16:43,256.593,,,,,,
423,2025-01-29 10:47:11,2025-01-29 10:51:28,257.017,,,,,,
424,2025-01-29 12:21:55,2025-01-29 12:26:13,257.614,,,,,,
425,2025-01-29 13:56:39,2025-01-29 14:00:58,258.407,,,,,,
426,2025-01-29 15:31:24,2025-01-29 15:35:43,259.387,,,,,,
427,2025-01-29 17:06:08,2025-01-29 17:10:29,260.561,,,,,,
428,2025-01-29 18:40:53,2025-01-29 18:45:14,261.934,,,,,,
429,2025-01-29 20:15:37,2025-01-29 20:20:00,263.516,,,,,,
430,2025-01-29 21:50:21,2025-01-29 21:54:44,263.148,,,,,,
431,2025-01-29 23:25:06,2025-01-29 23:29:27,261.736,,,,,,
432,2025-01-30 00:59:50,2025-01-30 01:04:11,260.487,,,,,,
433,2025-01-30 02:34:34,2025-01-30 02:38:54,259.398,,,,,,
434,2025-01-30 04:09:19,2025-01-30 04:13:37,258.465,,,,,,
435,2025-01-30 05:44:03,2025-01-30 05:48:21,257.701,,,,,,
436,2025-01-30 07:18:48,2025-01-30 07:23:05,257.095,,,,,,
437,2025-01-30 08:53:32,2025-01-30 08:57:49,256.659,,,,,,
438,2025-01-30 10:28:16,2025-01-30 10:32:33,256.386,,,,,,
439,2025-01-30 12:03:01,2025-01-30 12:07:17,256.28,,,,,,
440,2025-01-30 13:37:45,2025-01-30 13:42:02,256.353,,,,,,
441,2025-01-30 15:12:30,2025-01-30 15:16:46,256.594,,,,,,
442,2025-01-30 16:47:14,2025-01-30 16:51:31,257.019,,,,,,
443,2025-01-30 18:21:58,2025-01-30 18:26:16,257.624,,,,,,
444,2025-01-30 19:56:43,2025-01-30 20:01:01,258.417,,,,,,
445,2025-01-30 21:31:27,2025-01-30 21:35:47,259.4,,,,,,
446,2025-01-30 23:06:11,2025-01-30 23:10:32,260.578,,,,,,
447,2025-01-31 00:40:56,2025-01-31 00:45:18,261.955,,,,,,
448,2025-01-31 02:15:40,2025-01-31 02:20:04,263.538,,,,,,
449,2025-01-31 03:50:25,2025-01-31 03:54:48,263.129,,,,,,
450,2025-01-31 05:25:09,2025-01-31 05:29:31,261.726,,,,,,
451,2025-01-31 06:59:53,2025-01-31 07:04:14,260.476,,,,,,
452,2025-01-31 08:34:38,2025-01-31 08:38:57,259.388,,,,,,
453,2025-01-31 10:09:22,2025-01-31 10:13:41,258.461,,,,,,
454,2025-01-31 11:44:07,2025-01-31 11:48:24,257.691,,,,,,
455,2025-01-31 13:18:51,2025-01-31 13:23:08,257.091,,,,,,
456,2025-01-31 14:53:35,2025-01-31 14:57:52,256.652,,,,,,
457,2025-01-31 16:28:20,2025-01-31 16:32:36,256.383,,,,,,
458,2025-01-31 18:03:04,2025-01-31 18:07:20,256.283,,,,,,
459,2025-01-31 19:37:49,2025-01-31 19:42:05,256.355,,,,,,
460,2025-01-31 21:12:33,2025-01-31 21:16:49,256.602,,,,,,
461,2025-01-31 22:47:17,2025-01-31 22:51:34,257.024,,,,,,
462,2025-02-01 00:22:02,2025-02-01 00:26:19,257.633,,,,,,
463,2025-02-01 01:56:46,2025-02-01 02:01:04,258.425,,,,,,
464,2025-02-01 03:31:30,2025-02-01 03:35:50,259.413,,,,,,
465,2025-02-01 05:06:15,2025-02-01 05:10:35,260.593,,,,,,
466,2025-02-01 06:40:59,2025-02-01 06:45:21,261.971,,,,,,
467,2025-02-01 08:15:44,2025-02-01 08:20:07,263.553,,,,,,
468,2025-02-01 09:50:28,2025-02-01 09:54:51,263.111,,,,,,
469,2025-02-01 11:25:12,2025-02-01 11:29:34,261.704,,,,,,
470,2025-02-01 12:59:57,2025-02-01 13:04:17,260.464,,,,,,
471,2025-02-01 14:34:41,2025-02-01 14:39:01,259.378,,,,,,
472,2025-02-01 16:09:26,2025-02-01 16:13:44,258.451,,,,,,
473,2025-02-01 17:44:10,2025-02-01 17:48:28,257.682,,,,,,
474,2025-02-01 19:18:54,2025-02-01 19:23:11,257.082,,,,,,
475,2025-02-01 20:53:39,2025-02-01 20:57:55,256.649,,,,,,
476,2025-02-01 22:28:23,2025-02-01 22:32:39,256.383,,,,,,
477,2025-02-02 00:03:07,2025-02-02 00:07:24,256.282,,,,,,
478,2025-02-02 01:37:52,2025-02-02 01:42:08,256.358,,,,,,
479,2025-02-02 03:12:36,2025-02-02 03:16:53,256.604,,,,,,
480,2025-02-02 04:47:21,2025-02-02 04:51:38,257.031,,,,,,
481,2025-02-02 06:22:05,2025-02-02 06:26:23,257.64,,,,,,
482,2025-02-02 07:56:49,2025-02-02 08:01:08,258.439,,,,,,
483,2025-02-02 09:31:34,2025-02-02 09:35:53,259.424,,,,,,
484,2025-02-02 11:06:18,2025-02-02 11:10:39,260.608,,,,,,
485,2025-02-02 12:41:03,2025-02-02 12:45:25,261.986,,,,,,
486,2025-02-02 14:15:47,2025-02-02 14:20:10,263.574,,,,,,
487,2025-02-02 15:50:31,2025-02-02 15:54:54,263.096,,,,,,
488,2025-02-02 17:25:16,2025-02-02 17:29:37,261.695,,,,,,
489,2025-02-02 19:00:00,2025-02-02 19:04:21,260.45,,,,,,
490,2025-02-02 20:34:44,2025-02-02 20:39:04,259.361,,,,,,
491,2025-02-02 22:09:29,2025-02-02 22:13:47,258.439,,,,,,
492,2025-02-02 23:44:13,2025-02-02 23:48:31,257.672,,,,,,
493,2025-02-03 01:18:58,2025-02-03 01:23:15,257.078,,,,,,
494,2025-02-03 02:53:42,2025-02-03 02:57:59,256.647,,,,,,
495,2025-02-03 04:28:26,2025-02-03 04:32:43,256.376,,,,,,
496,2025-02-03 06:03:11,2025-02-03 06:07:27,256.284,,,,,,
497,2025-02-03 07:37:55,2025-02-03 07:42:12,256.358,,,,,,
498,2025-02-03 09:12:40,2025-02-03 09:16:56,256.61,,,,,,
499,2025-02-03 10:47:24,2025-02-03 10:51:41,257.041,,,,,,
500,2025-02-03 12:22:08,2025-02-03 12:26:26,257.648,,,,,,
501,2025-02-03 13:56:53,2025-02-03 14:01:11,258.45,,,,,,
502,2025-02-03 15:31:37,2025-02-03 15:35:57,259.439,,,,,,
503,2025-02-03 17:06:21,2025-02-03 17:10:42,260.622,,,,,,
504,2025-02-03 18:41:06,2025-02-03 18:45:28,262.005,,,,,,
505,2025-02-03 20:15:50,2025-02-03 20:20:14,263.596,,,,,,
506,2025-02-03 21:50:35,2025-02-03 21:54:58,263.08,,,,,,
507,2025-02-03 23:25:19,2025-02-03 23:29:41,261.675,,,,,,
508,2025-02-04 01:00:03,2025-02-04 01:04:24,260.434,,,,,,
509,2025-02-04 02:34:48,2025-02-04 02:39:07,259.352,,,,,,
510,2025-02-04 04:09:32,2025-02-04 04:13:51,258.426,,,,,,
511,2025-02-04 05:44:17,2025-02-04 05:48:34,257.67,,,,,,
512,2025-02-04 07:19:01,2025-02-04 07:23:18,257.072,,,,,,
513,2025-02-04 08:53:45,2025-02-04 08:58:02,256.641,,,,,,
514,2025-02-04 10:28:30,2025-02-04 10:32:46,256.379,,,,,,
515,2025-02-04 12:03:14,2025-02-04 12:07:30,256.281,,,,,,
516,2025-02-04 13:37:58,2025-02-04 13:42:15,256.362,,,,,,
517,2025-02-04 15:12:43,2025-02-04 15:16:59,256.611,,,,,,
518,2025-02-04 16:47:27,2025-02-04 16:51:44,257.044,,,,,,
519,2025-02-04 18:22:12,2025-02-04 18:26:29,257.658,,,,,,
520,2025-02-04 19:56:56,2025-02-04 20:01:14,258.459,,,,,,
521,2025-02-04 21:31:40,2025-02-04 21:36:00,259.451,,,,,,
522,2025-02-04 23:06:25,2025-02-04 23:10:45,260.634,,,,,,
523,2025-02-05 00:41:09,2025-02-05 00:45:31,262.021,,,,,,
524,2025-02-05 02:15:54,2025-02-05 02:20:17,263.618,,,,,,
525,2025-02-05 03:50:38,2025-02-05 03:55:01,263.06,,,,,,
526,2025-02-05 05:25:22,2025-02-05 05:29:44,261.666,,,,,,
527,2025-02-05 07:00:07,2025-02-05 07:04:27,260.422,,,,,,
528,2025-02-05 08:34:51,2025-02-05 08:39:10,259.341,,,,,,
529,2025-02-05 10:09:36,2025-02-05 10:13:54,258.421,,,,,,
530,2025-02-05 11:44:20,2025-02-05 11:48:38,257.659,,,,,,
531,2025-02-05 13:19:04,2025-02-05 13:23:21,257.068,,,,,,
532,2025-02-05 14:53:49,2025-02-05 14:58:05,256.636,,,,,,
533,2025-02-05 16:28:33,2025-02-05 16:32:49,256.375,,,,,,
534,2025-02-05 18:03:17,2025-02-05 18:07:34,256.282,,,,,,
535,2025-02-05 19:38:02,2025-02-05 19:42:18,256.363,,,,,,
536,2025-02-05 21:12:46,2025-02-05 21:17:03,256.618,,,,,,
537,2025-02-05 22:47:31,2025-02-05 22:51:48,257.049,,,,,,
538,2025-02-06 00:22:15,2025-02-06 00:26:33,257.666,,,,,,
539,2025-02-06 01:56:59,2025-02-06 02:01:18,258.467,,,,,,
540,2025-02-06 03:31:44,2025-02-06 03:36:03,259.464,,,,,,
541,2025-02-06 05:06:28,2025-02-06 05:10:49,260.652,,,,,,
542,2025-02-06 06:41:13,2025-02-06 06:45:35,262.041,,,,,,
543,2025-02-06 08:15:57,2025-02-06 08:20:21,263.633,,,,,,
544,2025-02-06 09:50:41,2025-02-06 09:55:04,263.042,,,,,,
545,2025-02-06 11:25:26,2025-02-06 11:29:47,261.642,,,,,,
546,2025-02-06 13:00:10,2025-02-06 13:04:30,260.409,,,,,,
547,2025-02-06 14:34:54,2025-02-06 14:39:14,259.331,,,,,,
548,2025-02-06 16:09:39,2025-02-06 16:13:57,258.411,,,,,,
549,2025-02-06 17:44:23,2025-02-06 17:48:41,257.65,,,,,,
550,2025-02-06 19:19:08,2025-02-06 19:23:25,257.059,,,,,,
551,2025-02-06 20:53:52,2025-02-06 20:58:09,256.633,,,,,,
552,2025-02-06 22:28:36,2025-02-06 22:32:53,256.374,,,,,,
553,2025-02-07 00:03:21,2025-02-07 00:07:37,256.282,,,,,,
554,2025-02-07 01:38:05,2025-02-07 01:42:22,256.366,,,,,,
555,2025-02-07 03:12:50,2025-02-07 03:17:06,256.62,,,,,,
556,2025-02-07 04:47:34,2025-02-07 04:51:51,257.056,,,,,,
557,2025-02-07 06:22:18,2025-02-07 06:26:36,257.673,,,,,,
558,2025-02-07 07:57:03,2025-02-07 08:01:21,258.481,,,,,,
559,2025-02-07 09:31:47,2025-02-07 09:36:07,259.48,,,,,,
560,2025-02-07 11:06:31,2025-02-07 11:10:52,260.668,,,,,,
561,2025-02-07 12:41:16,2025-02-07 12:45:38,262.056,,,,,,
562,2025-02-07 14:16:00,2025-02-07 14:20:24,263.654,,,,,,
563,2025-02-07 15:50:45,2025-02-07 15:55:08,263.031,,,,,,
564,2025-02-07 17:25:29,2025-02-07 17:29:51,261.634,,,,,,
565,2025-02-07 19:00:13,2025-02-07 19:04:34,260.396,,,,,,
566,2025-02-07 20:34:58,2025-02-07 20:39:17,259.314,,,,,,
567,2025-02-07 22:09:42,2025-02-07 22:14:01,258.401,,,,,,
568,2025-02-07 23:44:27,2025-02-07 23:48:44,257.642,,,,,,
569,2025-02-08 01:19:11,2025-02-08 01:23:28,257.055,,,,,,
570,2025-02-08 02:53:55,2025-02-08 02:58:12,256.631,,,,,,
571,2025-02-08 04:28:40,2025-02-08 04:32:56,256.368,,,,,,
572,2025-02-08 06:03:24,2025-02-08 06:07:40,256.284,,,,,,
573,2025-02-08 07:38:08,2025-02-08 07:42:25,256.367,,,,,,
574,2025-02-08 09:12:53,2025-02-08 09:17:09,256.627,,,,,,
575,2025-02-08 10:47:37,2025-02-08 10:51:54,257.066,,,,,,
576,2025-02-08 12:22:22,2025-02-08 12:26:39,257.682,,,,,,
577,2025-02-08 13:57:06,2025-02-08 14:01:25,258.493,,,,,,
578,2025-02-08 15:31:50,2025-02-08 15:36:10,259.491,,,,,,
579,2025-02-08 17:06:35,2025-02-08 17:10:55,260.683,,,,,,
580,2025-02-08 18:41:19,2025-02-08 18:45:41,262.076,,,,,,
581,2025-02-08 20:16:04,2025-02-08 20:20:27,263.677,,,,,,
582,2025-02-08 21:50:48,2025-02-08 21:55:11,263.012,,,,,,
583,2025-02-08 23:25:32,2025-02-08 23:29:54,261.615,,,,,,
584,2025-02-09 01:00:17,2025-02-09 01:04:37,260.38,,,,,,
585,2025-02-09 02:35:01,2025-02-09 02:39:20,259.307,,,,,,
586,2025-02-09 04:09:46,2025-02-09 04:14:04,258.388,,,,,,
587,2025-02-09 05:44:30,2025-02-09 05:48:48,257.64,,,,,,
588,2025-02-09 07:19:14,2025-02-09 07:23:31,257.049,,,,,,
589,2025-02-09 08:53:59,2025-02-09 08:58:15,256.626,,,,,,
590,2025-02-09 10:28:43,2025-02-09 10:32:59,256.372,,,,,,
591,2025-02-09 12:03:27,2025-02-09 12:07:44,256.282,,,,,,
592,2025-02-09 13:38:12,2025-02-09 13:42:28,256.371,,,,,,
593,2025-02-09 15:12:56,2025-02-09 15:17:13,256.628,,,,,,
594,2025-02-09 16:47:41,2025-02-09 16:51:58,257.07,,,,,,
595,2025-02-09 18:22:25,2025-02-09 18:26:43,257.693,,,,,,
596,2025-02-09 19:57:09,2025-02-09 20:01:28,258.503,,,,,,
597,2025-02-09 21:31:54,2025-02-09 21:36:13,259.504,,,,,,
598,2025-02-09 23:06:38,2025-02-09 23:10:59,260.697,,,,,,
599,2025-02-10 00:41:23,2025-02-10 00:45:45,262.096,,,,,,
600,2025-02-10 02:16:07,2025-02-10 02:20:31,263.7,,,,,,
601,2025-02-10 03:50:51,2025-02-10 03:55:14,262.992,,,,,,
602,2025-02-10 05:25:36,2025-02-10 05:29:57,261.605,,,,,,
603,2025-02-10 07:00:20,2025-02-10 07:04:40,260.37,,,,,,
604,2025-02-10 08:35:04,2025-02-10 08:39:24,259.291,,,,,,
605,2025-02-10 10:09:49,2025-02-10 10:14:07,258.384,,,,,,
606,2025-02-10 11:44:33,2025-02-10 11:48:51,257.63,,,,,,
607,2025-02-10 13:19:18,2025-02-10 13:23:35,257.046,,,,,,
608,2025-02-10 14:54:02,2025-02-10 14:58:19,256.622,,,,,,
609,2025-02-10 16:28:46,2025-02-10 16:33:03,256.369,,,,,,
610,2025-02-10 18:03:31,2025-02-10 18:07:47,256.285,,,,,,
611,2025-02-10 19:38:15,2025-02-10 19:42:32,256.373,,,,,,
612,2025-02-10 21:13:00,2025-02-10 21:17:16,256.637,,,,,,
613,2025-02-10 22:47:44,2025-02-10 22:52:01,257.076,,,,,,
614,2025-02-11 00:22:28,2025-02-11 00:26:46,257.702,,,,,,
615,2025-02-11 01:57:13,2025-02-11 02:01:31,258.512,,,,,,
616,2025-02-11 03:31:57,2025-02-11 03:36:17,259.518,,,,,,
617,2025-02-11 05:06:41,2025-02-11 05:11:02,260.715,,,,,,
618,2025-02-11 06:41:26,2025-02-11 06:45:48,262.113,,,,,,
619,2025-02-11 08:16:10,2025-02-11 08:20:34,263.715,,,,,,
620,2025-02-11 09:50:55,2025-02-11 09:55:18,262.975,,,,,,
621,2025-02-11 11:25:39,2025-02-11 11:30:01,261.583,,,,,,
622,2025-02-11 13:00:23,2025-02-11 13:04:44,260.355,,,,,,
623,2025-02-11 14:35:08,2025-02-11 14:39:27,259.287,,,,,,
624,2025-02-11 16:09:52,2025-02-11 16:14:11,258.375,,,,,,
625,2025-02-11 17:44:37,2025-02-11 17:48:54,257.621,,,,,,
626,2025-02-11 19:19:21,2025-02-11 19:23:38,257.038,,,,,,
627,2025-02-11 20:54:05,2025-02-11 20:58:22,256.62,,,,,,
628,2025-02-11 22:28:50,2025-02-11 22:33:06,256.369,,,,,,
629,2025-02-12 00:03:34,2025-02-12 00:07:50,256.285,,,,,,
630,2025-02-12 01:38:18,2025-02-12 01:42:35,256.376,,,,,,
631,2025-02-12 03:13:03,2025-02-12 03:17:20,256.639,,,,,,
632,2025-02-12 04:47:47,2025-02-12 04:52:04,257.083,,,,,,
633,2025-02-12 06:22:32,2025-02-12 06:26:49,257.71,,,,,,
634,2025-02-12 07:57:16,2025-02-12 08:01:35,258.527,,,,,,
635,2025-02-12 09:32:00,2025-02-12 09:36:20,259.533,,,,,,
636,2025-02-12 11:06:45,2025-02-12 11:11:06,260.732,,,,,,
637,2025-02-12 12:41:29,2025-02-12 12:45:51,262.129,,,,,,
638,2025-02-12 14:16:14,2025-02-12 14:20:37,263.737,,,,,,
639,2025-02-12 15:50:58,2025-02-12 15:55:21,262.965,,,,,,
640,2025-02-12 17:25:42,2025-02-12 17:30:04,261.575,,,,,,
641,2025-02-12 19:00:27,2025-02-12 19:04:47,260.345,,,,,,
642,2025-02-12 20:35:11,2025-02-12 20:39:30,259.271,,,,,,
643,2025-02-12 22:09:55,2025-02-12 22:14:14,258.364,,,,,,
644,2025-02-12 23:44:40,2025-02-12 23:48:57,257.618,,,,,,
645,2025-02-13 01:19:24,2025-02-13 01:23:41,257.034,,,,,,
646,2025-02-13 02:54:09,2025-02-13 02:58:25,256.618,,,,,,
647,2025-02-13 04:28:53,2025-02-13 04:33:09,256.363,,,,,,
648,2025-02-13 06:03:37,2025-02-13 06:07:54,256.287,,,,,,
649,2025-02-13 07:38:22,2025-02-13 07:42:38,256.378,,,,,,
650,2025-02-13 09:13:06,2025-02-13 09:17:23,256.647,,,,,,
651,2025-02-13 10:47:51,2025-02-13 10:52:08,257.094,,,,,,
652,2025-02-13 12:22:35,2025-02-13 12:26:53,257.719,,,,,,
653,2025-02-13 13:57:19,2025-02-13 14:01:38,258.539,,,,,,
654,2025-02-13 15:32:04,2025-02-13 15:36:23,259.546,,,,,,
655,2025-02-13 17:06:48,2025-02-13 17:11:09,260.746,,,,,,
656,2025-02-13 18:41:33,2025-02-13 18:45:55,262.149,,,,,,
657,2025-02-13 20:16:17,2025-02-13 20:20:41,263.76,,,,,,
658,2025-02-13 21:51:01,2025-02-13 21:55:24,262.945,,,,,,
659,2025-02-13 23:25:46,2025-02-13 23:30:07,261.555,,,,,,
660,2025-02-14 01:00:30,2025-02-14 01:04:50,260.329,,,,,,
661,2025-02-14 02:35:14,2025-02-14 02:39:34,259.263,,,,,,
662,2025-02-14 04:09:59,2025-02-14 04:14:17,258.352,,,,,,
663,2025-02-14 05:44:43,2025-02-14 05:49:01,257.611,,,,,,
664,2025-02-14 07:19:28,2025-02-14 07:23:45,257.028,,,,,,
665,2025-02-14 08:54:12,2025-02-14 08:58:29,256.613,,,,,,
666,2025-02-14 10:28:56,2025-02-14 10:33:13,256.366,,,,,,
667,2025-02-14 12:03:41,2025-02-14 12:07:57,256.284,,,,,,
668,2025-02-14 13:38:25,2025-02-14 13:42:42,256.382,,,,,,
669,2025-02-14 15:13:10,2025-02-14 15:17:26,256.647,,,,,,
670,2025-02-14 16:47:54,2025-02-14 16:52:11,257.097,,,,,,
671,2025-02-14 18:22:38,2025-02-14 18:26:56,257.729,,,,,,
672,2025-02-14 19:57:23,2025-02-14 20:01:41,258.548,,,,,,
673,2025-02-14 21:32:07,2025-02-14 21:36:27,259.558,,,,,,
674,2025-02-14 23:06:51,2025-02-14 23:11:12,260.76,,,,,,
675,2025-02-15 00:41:36,2025-02-15 00:45:58,262.167,,,,,,
676,2025-02-15 02:16:20,2025-02-15 02:20:44,263.782,,,,,,
677,2025-02-15 03:51:05,2025-02-15 03:55:28,262.925,,,,,,
678,2025-02-15 05:25:49,2025-02-15 05:30:11,261.545,,,,,,
679,2025-02-15 07:00:33,2025-02-15 07:04:54,260.314,,,,,,
680,2025-02-15 08:35:18,2025-02-15 08:39:37,259.246,,,,,,
681,2025-02-15 10:10:02,2025-02-15 10:14:20,258.346,,,,,,
682,2025-02-15 11:44:47,2025-02-15 11:49:04,257.6,,,,,,
683,2025-02-15 13:19:31,2025-02-15 13:23:48,257.028,,,,,,
684,2025-02-15 14:54:15,2025-02-15 14:58:32,256.608,,,,,,
685,2025-02-15 16:29:00,2025-02-15 16:33:16,256.363,,,,,,
686,2025-02-15 18:03:44,2025-02-15 18:08:00,256.286,,,,,,
687,2025-02-15 19:38:28,2025-02-15 19:42:45,256.383,,,,,,
688,2025-02-15 21:13:13,2025-02-15 21:17:30,256.655,,,,,,
689,2025-02-15 22:47:57,2025-02-15 22:52:14,257.103,,,,,,
690,2025-02-16 00:22:42,2025-02-16 00:26:59,257.737,,,,,,
691,2025-02-16 01:57:26,2025-02-16 02:01:45,258.555,,,,,,
692,2025-02-16 03:32:10,2025-02-16 03:36:30,259.57,,,,,,
693,2025-02-16 05:06:55,2025-02-16 05:11:16,260.776,,,,,,
694,2025-02-16 06:41:39,2025-02-16 06:46:01,262.185,,,,,,
695,2025-02-16 08:16:24,2025-02-16 08:20:47,263.797,,,,,,
696,2025-02-16 09:51:08,2025-02-16 09:55:31,262.908,,,,,,
697,2025-02-16 11:25:52,2025-02-16 11:30:14,261.523,,,,,,
698,2025-02-16 13:00:37,2025-02-16 13:04:57,260.302,,,,,,
699,2025-02-16 14:35:21,2025-02-16 14:39:40,259.236,,,,,,
700,2025-02-16 16:10:05,2025-02-16 16:14:24,258.337,,,,,,
701,2025-02-16 17:44:50,2025-02-16 17:49:07,257.591,,,,,,
702,2025-02-16 19:19:34,2025-02-16 19:23:51,257.015,,,,,,
703,2025-02-16 20:54:19,2025-02-16 20:58:35,256.605,,,,,,
704,2025-02-16 22:29:03,2025-02-16 22:33:19,256.362,,,,,,
705,2025-02-17 00:03:47,2025-02-17 00:08:04,256.285,,,,,,
706,2025-02-17 01:38:32,2025-02-17 01:42:48,256.384,,,,,,
707,2025-02-17 03:13:16,2025-02-17 03:17:33,256.66,,,,,,
708,2025-02-17 04:48:01,2025-02-17 04:52:18,257.109,,,,,,
709,2025-02-17 06:22:45,2025-02-17 06:27:03,257.744,,,,,,
710,2025-02-17 07:57:29,2025-02-17 08:01:48,258.57,,,,,,
711,2025-02-17 09:32:14,2025-02-17 09:36:33,259.585,,,,,,
712,2025-02-17 11:06:58,2025-02-17 11:11:19,260.793,,,,,,
713,2025-02-17 12:41:42,2025-02-17 12:46:05,262.2,,,,,,
714,2025-02-17 14:16:27,2025-02-17 14:20:51,263.818,,,,,,
715,2025-02-17 15:51:11,2025-02-17 15:55:34,262.896,,,,,,
716,2025-02-17 17:25:56,2025-02-17 17:30:17,261.514,,,,,,
717,2025-02-17 19:00:40,2025-02-17 19:05:00,260.291,,,,,,
718,2025-02-17 20:35:24,2025-02-17 20:39:44,259.224,,,,,,
719,2025-02-17 22:10:09,2025-02-17 22:14:27,258.325,,,,,,
720,2025-02-17 23:44:53,2025-02-17 23:49:11,257.586,,,,,,
721,2025-02-18 01:19:38,2025-02-18 01:23:55,257.011,,,,,,
722,2025-02-18 02:54:22,2025-02-18 02:58:39,256.602,,,,,,
723,2025-02-18 04:29:06,2025-02-18 04:33:23,256.355,,,,,,
724,2025-02-18 06:03:51,2025-02-18 06:08:07,256.287,,,,,,
725,2025-02-18 07:38:35,2025-02-18 07:42:52,256.386,,,,,,
726,2025-02-18 09:13:20,2025-02-18 09:17:36,256.663,,,,,,
727,2025-02-18 10:48:04,2025-02-18 10:52:21,257.119,,,,,,
728,2025-02-18 12:22:48,2025-02-18 12:27:06,257.752,,,,,,
729,2025-02-18 13:57:33,2025-02-18 14:01:51,258.581,,,,,,
730,2025-02-18 15:32:17,2025-02-18 15:36:37,259.597,,,,,,
731,2025-02-18 17:07:01,2025-02-18 17:11:22,260.806,,,,,,
732,2025-02-18 18:41:46,2025-02-18 18:46:08,262.219,,,,,,
733,2025-02-18 20:16:30,2025-02-18 20:20:54,263.84,,,,,,
734,2025-02-18 21:51:15,2025-02-18 21:55:37,262.876,,,,,,
735,2025-02-18 23:25:59,2025-02-18 23:30:20,261.494,,,,,,
736,2025-02-19 01:00:43,2025-02-19 01:05:04,260.274,,,,,,
737,2025-02-19 02:35:28,2025-02-19 02:39:47,259.216,,,,,,
738,2025-02-19 04:10:12,2025-02-19 04:14:30,258.312,,,,,,
739,2025-02-19 05:44:57,2025-02-19 05:49:14,257.579,,,,,,
740,2025-02-19 07:19:41,2025-02-19 07:23:58,257.004,,,,,,
741,2025-02-19 08:54:25,2025-02-19 08:58:42,256.597,,,,,,
742,2025-02-19 10:29:10,2025-02-19 10:33:26,256.358,,,,,,
743,2025-02-19 12:03:54,2025-02-19 12:08:10,256.284,,,,,,
744,2025-02-19 13:38:38,2025-02-19 13:42:55,256.39,,,,,,
745,2025-02-19 15:13:23,2025-02-19 15:17:40,256.663,,,,,,
746,2025-02-19 16:48:07,2025-02-19 16:52:24,257.122,,,,,,
747,2025-02-19 18:22:52,2025-02-19 18:27:09,257.762,,,,,,
748,2025-02-19 19:57:36,2025-02-19 20:01:55,258.589,,,,,,
749,2025-02-19 21:32:20,2025-02-19 21:36:40,259.609,,,,,,
750,2025-02-19 23:07:05,2025-02-19 23:11:26,260.82,,,,,,
751,2025-02-20 00:41:49,2025-02-20 00:46:11,262.237,,,,,,
752,2025-02-20 02:16:34,2025-02-20 02:20:57,263.862,,,,,,
753,2025-02-20 03:51:18,2025-02-20 03:55:41,262.856,,,,,,
754,2025-02-20 05:26:02,2025-02-20 05:30:24,261.483,,,,,,
755,2025-02-20 07:00:47,2025-02-20 07:05:07,260.259,,,,,,
756,2025-02-20 08:35:31,2025-02-20 08:39:50,259.199,,,,,,
757,2025-02-20 10:10:15,2025-02-20 10:14:34,258.306,,,,,,
758,2025-02-20 11:45:00,2025-02-20 11:49:17,257.568,,,,,,
759,2025-02-20 13:19:44,2025-02-20 13:24:01,257,,,,,,
760,2025-02-20 14:54:29,2025-02-20 14:58:45,256.591,,,,,,
761,2025-02-20 16:29:13,2025-02-20 16:33:29,256.354,,,,,,
762,2025-02-20 18:03:57,2025-02-20 18:08:14,256.286,,,,,,
763,2025-02-20 19:38:42,2025-02-20 19:42:58,256.39,,,,,,
764,2025-02-20 21:13:26,2025-02-20 21:17:43,256.671,,,,,,
765,2025-02-20 22:48:11,2025-02-20 22:52:28,257.127,,,,,,
766,2025-02-21 00:22:55,2025-02-21 00:27:13,257.77,,,,,,
767,2025-02-21 01:57:39,2025-02-21 02:01:58,258.597,,,,,,
768,2025-02-21 03:32:24,2025-02-21 03:36:43,259.621,,,,,,
769,2025-02-21 05:07:08,2025-02-21 05:11:29,260.838,,,,,,
770,2025-02-21 06:41:52,2025-02-21 06:46:15,262.255,,,,,,
771,2025-02-21 08:16:37,2025-02-21 08:21:01,263.876,,,,,,
772,2025-02-21 09:51:21,2025-02-21 09:55:44,262.843,,,,,,
773,2025-02-21 11:26:06,2025-02-21 11:30:27,261.461,,,,,,
774,2025-02-21 13:00:50,2025-02-21 13:05:10,260.247,,,,,,
775,2025-02-21 14:35:34,2025-02-21 14:39:54,259.194,,,,,,
776,2025-02-21 16:10:19,2025-02-21 16:14:37,258.297,,,,,,
777,2025-02-21 17:45:03,2025-02-21 17:49:21,257.559,,,,,,
778,2025-02-21 19:19:48,2025-02-21 19:24:05,256.991,,,,,,
779,2025-02-21 20:54:32,2025-02-21 20:58:49,256.588,,,,,,
780,2025-02-21 22:29:16,2025-02-21 22:33:33,256.353,,,,,,
781,2025-02-22 00:04:01,2025-02-22 00:08:17,256.285,,,,,,
782,2025-02-22 01:38:45,2025-02-22 01:43:02,256.396,,,,,,
783,2025-02-22 03:13:30,2025-02-22 03:17:46,256.672,,,,,,
784,2025-02-22 04:48:14,2025-02-22 04:52:31,257.134,,,,,,
785,2025-02-22 06:22:58,2025-02-22 06:27:16,257.777,,,,,,
786,2025-02-22 07:57:43,2025-02-22 08:02:01,258.612,,,,,,
787,2025-02-22 09:32:27,2025-02-22 09:36:47,259.635,,,,,,
788,2025-02-22 11:07:11,2025-02-22 11:11:32,260.854,,,,,,
789,2025-02-22 12:41:56,2025-02-22 12:46:18,262.27,,,,,,
790,2025-02-22 14:16:40,2025-02-22 14:21:04,263.902,,,,,,
791,2025-02-22 15:51:25,2025-02-22 15:55:47,262.827,,,,,,
792,2025-02-22 17:26:09,2025-02-22 17:30:30,261.452,,,,,,
793,2025-02-22 19:00:53,2025-02-22 19:05:14,260.237,,,,,,
794,2025-02-22 20:35:38,2025-02-22 20:39:57,259.178,,,,,,
795,2025-02-22 22:10:22,2025-02-22 22:14:40,258.286,,,,,,
796,2025-02-22 23:45:07,2025-02-22 23:49:24,257.555,,,,,,
797,2025-02-23 01:19:51,2025-02-23 01:24:08,256.987,,,,,,
798,2025-02-23 02:54:35,2025-02-23 02:58:52,256.586,,,,,,
799,2025-02-23 04:29:20,2025-02-23 04:33:36,256.347,,,,,,
800,2025-02-23 06:04:04,2025-02-23 06:08:20,256.287,,,,,,
801,2025-02-23 07:38:48,2025-02-23 07:43:05,256.395,,,,,,
802,2025-02-23 09:13:33,2025-02-23 09:17:50,256.68,,,,,,
803,2025-02-23 10:48:17,2025-02-23 10:52:34,257.144,,,,,,
804,2025-02-23 12:23:02,2025-02-23 12:27:19,257.786,,,,,,
805,2025-02-23 13:57:46,2025-02-23 14:02:05,258.624,,,,,,
806,2025-02-23 15:32:30,2025-02-23 15:36:50,259.649,,,,,,
807,2025-02-23 17:07:15,2025-02-23 17:11:36,260.866,,,,,,
808,2025-02-23 18:41:59,2025-02-23 18:46:21,262.29,,,,,,
809,2025-02-23 20:16:44,2025-02-23 20:21:07,263.92,,,,,,
810,2025-02-23 21:51:28,2025-02-23 21:55:51,262.808,,,,,,
811,2025-02-23 23:26:12,2025-02-23 23:30:34,261.433,,,,,,
812,2025-02-24 01:00:57,2025-02-24 01:05:17,260.221,,,,,,
813,2025-02-24 02:35:41,2025-02-24 02:40:00,259.17,,,,,,
814,2025-02-24 04:10:25,2025-02-24 04:14:44,258.274,,,,,,
815,2025-02-24 05:45:10,2025-02-24 05:49:27,257.548,,,,,,
816,2025-02-24 07:19:54,2025-02-24 07:24:11,256.981,,,,,,
817,2025-02-24 08:54:39,2025-02-24 08:58:55,256.582,,,,,,
818,2025-02-24 10:29:23,2025-02-24 10:33:39,256.351,,,,,,
819,2025-02-24 12:04:07,2025-02-24 12:08:24,256.285,,,,,,
820,2025-02-24 13:38:52,2025-02-24 13:43:08,256.399,,,,,,
821,2025-02-24 15:13:36,2025-02-24 15:17:53,256.681,,,,,,
822,2025-02-24 16:48:21,2025-02-24 16:52:38,257.148,,,,,,
823,2025-02-24 18:23:05,2025-02-24 18:27:23,257.797,,,,,,
824,2025-02-24 19:57:49,2025-02-24 20:02:08,258.633,,,,,,
825,2025-02-24 21:32:34,2025-02-24 21:36:53,259.661,,,,,,
826,2025-02-24 23:07:18,2025-02-24 23:11:39,260.882,,,,,,
827,2025-02-25 00:42:02,2025-02-25 00:46:25,262.31,,,,,,
828,2025-02-25 02:16:47,2025-02-25 02:21:11,263.943,,,,,,
829,2025-02-25 03:51:31,2025-02-25 03:55:54,262.788,,,,,,
830,2025-02-25 05:26:16,2025-02-25 05:30:37,261.423,,,,,,
831,2025-02-25 07:01:00,2025-02-25 07:05:20,260.206,,,,,,
832,2025-02-25 08:35:44,2025-02-25 08:40:04,259.159,,,,,,
833,2025-02-25 10:10:29,2025-02-25 10:14:47,258.269,,,,,,
834,2025-02-25 11:45:13,2025-02-25 11:49:31,257.538,,,,,,
835,2025-02-25 13:19:58,2025-02-25 13:24:15,256.978,,,,,,
836,2025-02-25 14:54:42,2025-02-25 14:58:59,256.577,,,,,,
837,2025-02-25 16:29:26,2025-02-25 16:33:43,256.348,,,,,,
838,2025-02-25 18:04:11,2025-02-25 18:08:27,256.287,,,,,,
839,2025-02-25 19:38:55,2025-02-25 19:43:12,256.4,,,,,,
840,2025-02-25 21:13:39,2025-02-25 21:17:56,256.69,,,,,,
841,2025-02-25 22:48:24,2025-02-25 22:52:41,257.154,,,,,,
842,2025-02-26 00:23:08,2025-02-26 00:27:26,257.806,,,,,,
843,2025-02-26 01:57:53,2025-02-26 02:02:11,258.642,,,,,,
844,2025-02-26 03:32:37,2025-02-26 03:36:57,259.675,,,,,,
845,2025-02-26 05:07:21,2025-02-26 05:11:42,260.901,,,,,,
846,2025-02-26 06:42:06,2025-02-26 06:46:28,262.328,,,,,,
847,2025-02-26 08:16:50,2025-02-26 08:21:14,263.964,,,,,,
848,2025-02-26 09:51:35,2025-02-26 09:55:57,262.771,,,,,,
849,2025-02-26 11:26:19,2025-02-26 11:30:40,261.401,,,,,,
850,2025-02-26 13:01:03,2025-02-26 13:05:24,260.194,,,,,,
851,2025-02-26 14:35:48,2025-02-26 14:40:07,259.149,,,,,,
852,2025-02-26 16:10:32,2025-02-26 16:14:50,258.261,,,,,,
853,2025-02-26 17:45:17,2025-02-26 17:49:34,257.53,,,,,,
854,2025-02-26 19:20:01,2025-02-26 19:24:18,256.969,,,,,,
855,2025-02-26 20:54:45,2025-02-26 20:59:02,256.575,,,,,,
856,2025-02-26 22:29:30,2025-02-26 22:33:46,256.348,,,,,,
857,2025-02-27 00:04:14,2025-02-27 00:08:30,256.288,,,,,,
858,2025-02-27 01:38:58,2025-02-27 01:43:15,256.406,,,,,,
859,2025-02-27 03:13:43,2025-02-27 03:18:00,256.692,,,,,,
860,2025-02-27 04:48:27,2025-02-27 04:52:44,257.161,,,,,,
861,2025-02-27 06:23:12,2025-02-27 06:27:29,257.813,,,,,,
862,2025-02-27 07:57:56,2025-02-27 08:02:15,258.657,,,,,,
863,2025-02-27 09:32:40,2025-02-27 09:37:00,259.689,,,,,,
864,2025-02-27 11:07:25,2025-02-27 11:11:46,260.917,,,,,,
865,2025-02-27 12:42:09,2025-02-27 12:46:31,262.343,,,,,,
866,2025-02-27 14:16:54,2025-02-27 14:21:18,263.985,,,,,,
867,2025-02-27 15:51:38,2025-02-27 15:56:01,262.76,,,,,,
868,2025-02-27 17:26:22,2025-02-27 17:30:44,261.393,,,,,,
869,2025-02-27 19:01:07,2025-02-27 19:05:27,260.185,,,,,,
870,2025-02-27 20:35:51,2025-02-27 20:40:10,259.133,,,,,,
871,2025-02-27 22:10:35,2025-02-27 22:14:54,258.25,,,,,,
872,2025-02-27 23:45:20,2025-02-27 23:49:37,257.526,,,,,,
873,2025-02-28 01:20:04,2025-02-28 01:24:21,256.965,,,,,,
874,2025-02-28 02:54:49,2025-02-28 02:59:05,256.573,,,,,,
875,2025-02-28 04:29:33,2025-02-28 04:33:49,256.342,,,,,,
876,2025-02-28 06:04:17,2025-02-28 06:08:34,256.29,,,,,,
877,2025-02-28 07:39:02,2025-02-28 07:43:18,256.405,,,,,,
878,2025-02-28 09:13:46,2025-02-28 09:18:03,256.699,,,,,,
879,2025-02-28 10:48:31,2025-02-28 10:52:48,257.172,,,,,,
880,2025-02-28 12:23:15,2025-02-28 12:27:33,257.822,,,,,,
881,2025-02-28 13:57:59,2025-02-28 14:02:18,258.669,,,,,,
882,2025-02-28 15:32:44,2025-02-28 15:37:03,259.703,,,,,,
883,2025-02-28 17:07:28,2025-02-28 17:11:49,260.929,,,,,,
884,2025-02-28 18:42:12,2025-02-28 18:46:35,262.363,,,,,,
885,2025-02-28 20:16:57,2025-02-28 20:21:21,264.008,,,,,,
886,2025-02-28 21:51:41,2025-02-28 21:56:04,262.741,,,,,,
887,2025-02-28 23:26:26,2025-02-28 23:30:47,261.373,,,,,,
888,2025-03-01 01:01:10,2025-03-01 01:05:30,260.169,,,,,,
889,2025-03-01 02:35:54,2025-03-01 02:40:14,259.125,,,,,,
890,2025-03-01 04:10:39,2025-03-01 04:14:57,258.237,,,,,,
891,2025-03-01 05:45:23,2025-03-01 05:49:41,257.519,,,,,,
892,2025-03-01 07:20:08,2025-03-01 07:24:25,256.96,,,,,,
893,2025-03-01 08:54:52,2025-03-01 08:59:09,256.568,,,,,,
894,2025-03-01 10:29:36,2025-03-01 10:33:53,256.345,,,,,,
895,2025-03-01 12:04:21,2025-03-01 12:08:37,256.287,,,,,,
896,2025-03-01 13:39:05,2025-03-01 13:43:22,256.409,,,,,,
897,2025-03-01 15:13:49,2025-03-01 15:18:06,256.699,,,,,,
898,2025-03-01 16:48:34,2025-03-01 16:52:51,257.175,,,,,,
899,2025-03-01 18:23:18,2025-03-01 18:27:36,257.832,,,,,,
900,2025-03-01 19:58:03,2025-03-01 20:02:21,258.678,,,,,,
901,2025-03-01 21:32:47,2025-03-01 21:37:07,259.715,,,,,,
902,2025-03-01 23:07:31,2025-03-01 23:11:52,260.945,,,,,,
903,2025-03-02 00:42:16,2025-03-02 00:46:38,262.383,,,,,,
904,2025-03-02 02:17:00,2025-03-02 02:21:24,264.026,,,,,,
905,2025-03-02 03:51:45,2025-03-02 03:56:07,262.721,,,,,,
906,2025-03-02 05:26:29,2025-03-02 05:30:50,261.358,,,,,,
907,2025-03-02 07:01:13,2025-03-02 07:05:33,260.153,,,,,,
908,2025-03-02 08:35:58,2025-03-02 08:40:17,259.114,,,,,,
909,2025-03-02 10:10:42,2025-03-02 10:15:00,258.231,,,,,,
910,2025-03-02 11:45:27,2025-03-02 11:49:44,257.508,,,,,,
911,2025-03-02 13:20:11,2025-03-02 13:24:28,256.955,,,,,,
912,2025-03-02 14:54:55,2025-03-02 14:59:12,256.562,,,,,,
913,2025-03-02 16:29:40,2025-03-02 16:33:56,256.341,,,,,,
914,2025-03-02 18:04:24,2025-03-02 18:08:40,256.289,,,,,,
915,2025-03-02 19:39:08,2025-03-02 19:43:25,256.41,,,,,,
916,2025-03-02 21:13:53,2025-03-02 21:18:10,256.707,,,,,,
917,2025-03-02 22:48:37,2025-03-02 22:52:54,257.18,,,,,,
918,2025-03-03 00:23:22,2025-03-03 00:27:39,257.84,,,,,,
919,2025-03-03 01:58:06,2025-03-03 02:02:25,258.685,,,,,,
920,2025-03-03 03:32:50,2025-03-03 03:37:10,259.727,,,,,,
921,2025-03-03 05:07:35,2025-03-03 05:11:56,260.962,,,,,,
922,2025-03-03 06:42:19,2025-03-03 06:46:42,262.399,,,,,,
923,2025-03-03 08:17:04,2025-03-03 08:21:28,264.044,,,,,,
924,2025-03-03 09:51:48,2025-03-03 09:56:11,262.703,,,,,,
925,2025-03-03 11:26:32,2025-03-03 11:30:54,261.34,,,,,,
926,2025-03-03 13:01:17,2025-03-03 13:05:37,260.14,,,,,,
927,2025-03-03 14:36:01,2025-03-03 14:40:20,259.103,,,,,,
928,2025-03-03 16:10:45,2025-03-03 16:15:04,258.222,,,,,,
929,2025-03-03 17:45:30,2025-03-03 17:49:47,257.499,,,,,,
930,2025-03-03 19:20:14,2025-03-03 19:24:31,256.946,,,,,,
931,2025-03-03 20:54:59,2025-03-03 20:59:15,256.559,,,,,,
932,2025-03-03 22:29:43,2025-03-03 22:33:59,256.34,,,,,,
933,2025-03-04 00:04:27,2025-03-04 00:08:44,256.288,,,,,,
934,2025-03-04 01:39:12,2025-03-04 01:43:28,256.414,,,,,,
935,2025-03-04 03:13:56,2025-03-04 03:18:13,256.708,,,,,,
936,2025-03-04 04:48:41,2025-03-04 04:52:58,257.186,,,,,,
937,2025-03-04 06:23:25,2025-03-04 06:27:43,257.846,,,,,,
938,2025-03-04 07:58:09,2025-03-04 08:02:28,258.699,,,,,,
939,2025-03-04 09:32:54,2025-03-04 09:37:13,259.742,,,,,,
940,2025-03-04 11:07:38,2025-03-04 11:11:59,260.978,,,,,,
941,2025-03-04 12:42:22,2025-03-04 12:46:45,262.413,,,,,,
942,2025-03-04 14:17:07,2025-03-04 14:21:31,264.065,,,,,,
943,2025-03-04 15:51:51,2025-03-04 15:56:14,262.691,,,,,,
944,2025-03-04 17:26:36,2025-03-04 17:30:57,261.331,,,,,,
945,2025-03-04 19:01:20,2025-03-04 19:05:40,260.131,,,,,,
946,2025-03-04 20:36:04,2025-03-04 20:40:23,259.086,,,,,,
947,2025-03-04 22:10:49,2025-03-04 22:15:07,258.21,,,,,,
948,2025-03-04 23:45:33,2025-03-04 23:49:51,257.496,,,,,,
949,2025-03-05 01:20:18,2025-03-05 01:24:34,256.94,,,,,,
950,2025-03-05 02:55:02,2025-03-05 02:59:18,256.556,,,,,,
951,2025-03-05 04:29:46,2025-03-05 04:34:03,256.333,,,,,,
952,2025-03-05 06:04:31,2025-03-05 06:08:47,256.289,,,,,,
953,2025-03-05 07:39:15,2025-03-05 07:43:32,256.413,,,,,,
954,2025-03-05 09:13:59,2025-03-05 09:18:16,256.714,,,,,,
955,2025-03-05 10:48:44,2025-03-05 10:53:01,257.196,,,,,,
956,2025-03-05 12:23:28,2025-03-05 12:27:46,257.855,,,,,,
957,2025-03-05 13:58:13,2025-03-05 14:02:31,258.707,,,,,,
958,2025-03-05 15:32:57,2025-03-05 15:37:17,259.753,,,,,,
959,2025-03-05 17:07:41,2025-03-05 17:12:02,260.995,,,,,,
960,2025-03-05 18:42:26,2025-03-05 18:46:48,262.436,,,,,,
961,2025-03-05 20:17:10,2025-03-05 20:21:34,264.085,,,,,,
962,2025-03-05 21:51:55,2025-03-05 21:56:17,262.67,,,,,,
963,2025-03-05 23:26:39,2025-03-05 23:31:00,261.31,,,,,,
964,2025-03-06 01:01:23,2025-03-06 01:05:43,260.114,,,,,,
965,2025-03-06 02:36:08,2025-03-06 02:40:27,259.078,,,,,,
966,2025-03-06 04:10:52,2025-03-06 04:15:10,258.197,,,,,,
967,2025-03-06 05:45:36,2025-03-06 05:49:54,257.487,,,,,,
968,2025-03-06 07:20:21,2025-03-06 07:24:38,256.935,,,,,,
969,2025-03-06 08:55:05,2025-03-06 08:59:22,256.551,,,,,,
970,2025-03-06 10:29:50,2025-03-06 10:34:06,256.336,,,,,,
971,2025-03-06 12:04:34,2025-03-06 12:08:50,256.286,,,,,,
972,2025-03-06 13:39:18,2025-03-06 13:43:35,256.416,,,,,,
973,2025-03-06 15:14:03,2025-03-06 15:18:20,256.719,,,,,,
974,2025-03-06 16:48:47,2025-03-06 16:53:04,257.198,,,,,,
975,2025-03-06 18:23:32,2025-03-06 18:27:49,257.865,,,,,,
976,2025-03-06 19:58:16,2025-03-06 20:02:35,258.719,,,,,,
977,2025-03-06 21:33:00,2025-03-06 21:37:20,259.765,,,,,,
978,2025-03-06 23:07:45,2025-03-06 23:12:06,261.005,,,,,,
979,2025-03-07 00:42:29,2025-03-07 00:46:52,262.45,,,,,,
980,2025-03-07 02:17:14,2025-03-07 02:21:38,264.105,,,,,,
981,2025-03-07 03:51:58,2025-03-07 03:56:21,262.651,,,,,,
982,2025-03-07 05:26:42,2025-03-07 05:31:04,261.295,,,,,,
983,2025-03-07 07:01:27,2025-03-07 07:05:47,260.098,,,,,,
984,2025-03-07 08:36:11,2025-03-07 08:40:30,259.066,,,,,,
985,2025-03-07 10:10:55,2025-03-07 10:15:14,258.191,,,,,,
986,2025-03-07 11:45:40,2025-03-07 11:49:57,257.476,,,,,,
987,2025-03-07 13:20:24,2025-03-07 13:24:41,256.931,,,,,,
988,2025-03-07 14:55:09,2025-03-07 14:59:25,256.545,,,,,,
989,2025-03-07 16:29:53,2025-03-07 16:34:09,256.332,,,,,,
990,2025-03-07 18:04:37,2025-03-07 18:08:54,256.288,,,,,,
991,2025-03-07 19:39:22,2025-03-07 19:43:38,256.421,,,,,,
992,2025-03-07 21:14:06,2025-03-07 21:18:23,256.723,,,,,,
993,2025-03-07 22:48:51,2025-03-07 22:53:08,257.204,,,,,,
994,2025-03-08 00:23:35,2025-03-08 00:27:53,257.873,,,,,,
995,2025-03-08 01:58:19,2025-03-08 02:02:38,258.727,,,,,,
996,2025-03-08 03:33:04,2025-03-08 03:37:23,259.778,,,,,,
997,2025-03-08 05:07:48,2025-03-08 05:12:09,261.021,,,,,,
998,2025-03-08 06:42:32,2025-03-08 06:46:55,262.468,,,,,,
999,2025-03-08 08:17:17,2025-03-08 08:21:41,264.124,,,,,,
1000,2025-03-08 09:52:01,2025-03-08 09:56:24,262.633,,,,,,
1001,2025-03-08 11:26:46,2025-03-08 11:31:07,261.278,,,,,,
1002,2025-03-08 13:01:30,2025-03-08 13:05:50,260.085,,,,,,
1003,2025-03-08 14:36:14,2025-03-08 14:40:33,259.056,,,,,,
1004,2025-03-08 16:10:59,2025-03-08 16:15:17,258.182,,,,,,
1005,2025-03-08 17:45:43,2025-03-08 17:50:01,257.467,,,,,,
1006,2025-03-08 19:20:28,2025-03-08 19:24:44,256.922,,,,,,
1007,2025-03-08 20:55:12,2025-03-08 20:59:28,256.543,,,,,,
1008,2025-03-08 22:29:56,2025-03-08 22:34:13,256.332,,,,,,
1009,2025-03-09 00:04:41,2025-03-09 00:08:57,256.287,,,,,,
1010,2025-03-09 01:39:25,2025-03-09 01:43:42,256.421,,,,,,
1011,2025-03-09 03:14:09,2025-03-09 03:18:26,256.724,,,,,,
1012,2025-03-09 04:48:54,2025-03-09 04:53:11,257.211,,,,,,
1013,2025-03-09 06:23:38,2025-03-09 06:27:56,257.882,,,,,,
1014,2025-03-09 07:58:23,2025-03-09 08:02:41,258.742,,,,,,
1015,2025-03-09 09:33:07,2025-03-09 09:37:27,259.793,,,,,,
1016,2025-03-09 11:07:51,2025-03-09 11:12:12,261.039,,,,,,
1017,2025-03-09 12:42:36,2025-03-09 12:46:58,262.484,,,,,,
1018,2025-03-09 14:17:20,2025-03-09 14:21:44,264.13,,,,,,
1019,2025-03-09 15:52:05,2025-03-09 15:56:27,262.622,,,,,,
1020,2025-03-09 17:26:49,2025-03-09 17:31:10,261.265,,,,,,
1021,2025-03-09 19:01:33,2025-03-09 19:05:53,260.077,,,,,,
1022,2025-03-09 20:36:18,2025-03-09 20:40:37,259.04,,,,,,
1023,2025-03-09 22:11:02,2025-03-09 22:15:20,258.172,,,,,,
1024,2025-03-09 23:45:46,2025-03-09 23:50:04,257.464,,,,,,
1025,2025-03-10 01:20:31,2025-03-10 01:24:48,256.917,,,,,,
1026,2025-03-10 02:55:15,2025-03-10 02:59:32,256.541,,,,,,
1027,2025-03-10 04:30:00,2025-03-10 04:34:16,256.326,,,,,,
1028,2025-03-10 06:04:44,2025-03-10 06:09:00,256.29,,,,,,
1029,2025-03-10 07:39:28,2025-03-10 07:43:45,256.422,,,,,,
1030,2025-03-10 09:14:13,2025-03-10 09:18:30,256.732,,,,,,
1031,2025-03-10 10:48:57,2025-03-10 10:53:14,257.222,,,,,,
1032,2025-03-10 12:23:42,2025-03-10 12:27:59,257.889,,,,,,
1033,2025-03-10 13:58:26,2025-03-10 14:02:45,258.751,,,,,,
