3UCubedIntegratedSim/Reports & Plots/Area Target Access Data/CSV/Sat1.csv

Access,Start Time (UTCG),Stop Time (UTCG),Duration (sec)
1,2025-01-01 16:16,2025-01-01 16:21,341.16
2,2025-01-01 17:50,2025-01-01 17:56,342.078
3,2025-01-01 19:25,2025-01-01 19:31,343.159
4,2025-01-01 21:00,2025-01-01 21:05,344.401
5,2025-01-01 22:34,2025-01-01 22:40,345.801
6,2025-01-02 00:09,2025-01-02 00:15,346.374
7,2025-01-02 01:44,2025-01-02 01:50,344.782
8,2025-01-02 03:19,2025-01-02 03:24,343.39
9,2025-01-02 04:53,2025-01-02 04:59,342.202
10,2025-01-02 06:28,2025-01-02 06:34,341.211
11,2025-01-02 08:03,2025-01-02 08:09,340.411
12,2025-01-02 09:38,2025-01-02 09:43,339.797
13,2025-01-02 11:12,2025-01-02 11:18,339.365
14,2025-01-02 12:47,2025-01-02 12:53,339.109
15,2025-01-02 14:22,2025-01-02 14:28,339.032
16,2025-01-02 15:57,2025-01-02 16:02,339.123
17,2025-01-02 17:31,2025-01-02 17:37,339.385
18,2025-01-02 19:06,2025-01-02 19:12,339.815
19,2025-01-02 20:41,2025-01-02 20:47,340.409
20,2025-01-02 22:16,2025-01-02 22:21,341.169
21,2025-01-02 23:50,2025-01-02 23:56,342.093
22,2025-01-03 01:25,2025-01-03 01:31,343.173
23,2025-01-03 03:00,2025-01-03 03:06,344.416
24,2025-01-03 04:35,2025-01-03 04:40,345.814
25,2025-01-03 06:09,2025-01-03 06:15,346.357
26,2025-01-03 07:44,2025-01-03 07:50,344.764
27,2025-01-03 09:19,2025-01-03 09:24,343.377
28,2025-01-03 10:54,2025-01-03 10:59,342.189
29,2025-01-03 12:28,2025-01-03 12:34,341.203
30,2025-01-03 14:03,2025-01-03 14:09,340.399
31,2025-01-03 15:38,2025-01-03 15:43,339.791
32,2025-01-03 17:13,2025-01-03 17:18,339.36
33,2025-01-03 18:47,2025-01-03 18:53,339.104
34,2025-01-03 20:22,2025-01-03 20:28,339.027
35,2025-01-03 21:57,2025-01-03 22:02,339.123
36,2025-01-03 23:31,2025-01-03 23:37,339.391
37,2025-01-04 01:06,2025-01-04 01:12,339.819
38,2025-01-04 02:41,2025-01-04 02:47,340.416
39,2025-01-04 04:16,2025-01-04 04:21,341.181
40,2025-01-04 05:50,2025-01-04 05:56,342.103
41,2025-01-04 07:25,2025-01-04 07:31,343.185
42,2025-01-04 09:00,2025-01-04 09:06,344.428
43,2025-01-04 10:35,2025-01-04 10:40,345.835
44,2025-01-04 12:09,2025-01-04 12:15,346.337
45,2025-01-04 13:44,2025-01-04 13:50,344.744
46,2025-01-04 15:19,2025-01-04 15:25,343.363
47,2025-01-04 16:54,2025-01-04 16:59,342.18
48,2025-01-04 18:28,2025-01-04 18:34,341.188
49,2025-01-04 20:03,2025-01-04 20:09,340.391
50,2025-01-04 21:38,2025-01-04 21:44,339.781
51,2025-01-04 23:13,2025-01-04 23:18,339.356
52,2025-01-05 00:47,2025-01-05 00:53,339.101
53,2025-01-05 02:22,2025-01-05 02:28,339.028
54,2025-01-05 03:57,2025-01-05 04:02,339.126
55,2025-01-05 05:32,2025-01-05 05:37,339.392
56,2025-01-05 07:06,2025-01-05 07:12,339.827
57,2025-01-05 08:41,2025-01-05 08:47,340.427
58,2025-01-05 10:16,2025-01-05 10:21,341.192
59,2025-01-05 11:50,2025-01-05 11:56,342.116
60,2025-01-05 13:25,2025-01-05 13:31,343.198
61,2025-01-05 15:00,2025-01-05 15:06,344.448
62,2025-01-05 16:35,2025-01-05 16:40,345.852
63,2025-01-05 18:09,2025-01-05 18:15,346.313
64,2025-01-05 19:44,2025-01-05 19:50,344.726
65,2025-01-05 21:19,2025-01-05 21:25,343.346
66,2025-01-05 22:54,2025-01-05 22:59,342.167
67,2025-01-06 00:28,2025-01-06 00:34,341.177
68,2025-01-06 02:03,2025-01-06 02:09,340.386
69,2025-01-06 03:38,2025-01-06 03:44,339.776
70,2025-01-06 05:13,2025-01-06 05:18,339.348
71,2025-01-06 06:47,2025-01-06 06:53,339.1
72,2025-01-06 08:22,2025-01-06 08:28,339.029
73,2025-01-06 09:57,2025-01-06 10:03,339.13
74,2025-01-06 11:32,2025-01-06 11:37,339.399
75,2025-01-06 13:06,2025-01-06 13:12,339.831
76,2025-01-06 14:41,2025-01-06 14:47,340.433
77,2025-01-06 16:16,2025-01-06 16:21,341.198
78,2025-01-06 17:51,2025-01-06 17:56,342.127
79,2025-01-06 19:25,2025-01-06 19:31,343.214
80,2025-01-06 21:00,2025-01-06 21:06,344.462
81,2025-01-06 22:35,2025-01-06 22:40,345.864
82,2025-01-07 00:09,2025-01-07 00:15,346.294
83,2025-01-07 01:44,2025-01-07 01:50,344.712
84,2025-01-07 03:19,2025-01-07 03:25,343.335
85,2025-01-07 04:54,2025-01-07 04:59,342.152
86,2025-01-07 06:28,2025-01-07 06:34,341.168
87,2025-01-07 08:03,2025-01-07 08:09,340.374
88,2025-01-07 09:38,2025-01-07 09:44,339.772
89,2025-01-07 11:13,2025-01-07 11:18,339.347
90,2025-01-07 12:47,2025-01-07 12:53,339.101
91,2025-01-07 14:22,2025-01-07 14:28,339.031
92,2025-01-07 15:57,2025-01-07 16:03,339.131
93,2025-01-07 17:32,2025-01-07 17:37,339.402
94,2025-01-07 19:06,2025-01-07 19:12,339.838
95,2025-01-07 20:41,2025-01-07 20:47,340.44
96,2025-01-07 22:16,2025-01-07 22:22,341.207
97,2025-01-07 23:51,2025-01-07 23:56,342.139
98,2025-01-08 01:25,2025-01-08 01:31,343.226
99,2025-01-08 03:00,2025-01-08 03:06,344.476
100,2025-01-08 04:35,2025-01-08 04:40,345.882
101,2025-01-08 06:09,2025-01-08 06:15,346.276
102,2025-01-08 07:44,2025-01-08 07:50,344.693
103,2025-01-08 09:19,2025-01-08 09:25,343.316
104,2025-01-08 10:54,2025-01-08 10:59,342.137
105,2025-01-08 12:29,2025-01-08 12:34,341.16
106,2025-01-08 14:03,2025-01-08 14:09,340.365
107,2025-01-08 15:38,2025-01-08 15:44,339.766
108,2025-01-08 17:13,2025-01-08 17:18,339.343
109,2025-01-08 18:48,2025-01-08 18:53,339.095
110,2025-01-08 20:22,2025-01-08 20:28,339.027
111,2025-01-08 21:57,2025-01-08 22:03,339.131
112,2025-01-08 23:32,2025-01-08 23:37,339.407
113,2025-01-09 01:06,2025-01-09 01:12,339.842
114,2025-01-09 02:41,2025-01-09 02:47,340.448
115,2025-01-09 04:16,2025-01-09 04:22,341.22
116,2025-01-09 05:51,2025-01-09 05:56,342.149
117,2025-01-09 07:25,2025-01-09 07:31,343.239
118,2025-01-09 09:00,2025-01-09 09:06,344.489
119,2025-01-09 10:35,2025-01-09 10:41,345.904
120,2025-01-09 12:10,2025-01-09 12:15,346.257
121,2025-01-09 13:44,2025-01-09 13:50,344.674
122,2025-01-09 15:19,2025-01-09 15:25,343.302
123,2025-01-09 16:54,2025-01-09 17:00,342.128
124,2025-01-09 18:29,2025-01-09 18:34,341.145
125,2025-01-09 20:03,2025-01-09 20:09,340.358
126,2025-01-09 21:38,2025-01-09 21:44,339.756
127,2025-01-09 23:13,2025-01-09 23:18,339.339
128,2025-01-10 00:48,2025-01-10 00:53,339.093
129,2025-01-10 02:22,2025-01-10 02:28,339.027
130,2025-01-10 03:57,2025-01-10 04:03,339.134
131,2025-01-10 05:32,2025-01-10 05:37,339.408
132,2025-01-10 07:07,2025-01-10 07:12,339.85
133,2025-01-10 08:41,2025-01-10 08:47,340.459
134,2025-01-10 10:16,2025-01-10 10:22,341.231
135,2025-01-10 11:51,2025-01-10 11:56,342.163
136,2025-01-10 13:25,2025-01-10 13:31,343.251
137,2025-01-10 15:00,2025-01-10 15:06,344.509
138,2025-01-10 16:35,2025-01-10 16:41,345.921
139,2025-01-10 18:10,2025-01-10 18:15,346.233
140,2025-01-10 19:44,2025-01-10 19:50,344.656
141,2025-01-10 21:19,2025-01-10 21:25,343.285
142,2025-01-10 22:54,2025-01-10 23:00,342.115
143,2025-01-11 00:29,2025-01-11 00:34,341.134
144,2025-01-11 02:03,2025-01-11 02:09,340.353
145,2025-01-11 03:38,2025-01-11 03:44,339.751
146,2025-01-11 05:13,2025-01-11 05:19,339.331
147,2025-01-11 06:48,2025-01-11 06:53,339.092
148,2025-01-11 08:22,2025-01-11 08:28,339.029
149,2025-01-11 09:57,2025-01-11 10:03,339.137
150,2025-01-11 11:32,2025-01-11 11:37,339.414
151,2025-01-11 13:07,2025-01-11 13:12,339.854
152,2025-01-11 14:41,2025-01-11 14:47,340.464
153,2025-01-11 16:16,2025-01-11 16:22,341.236
154,2025-01-11 17:51,2025-01-11 17:56,342.173
155,2025-01-11 19:25,2025-01-11 19:31,343.267
156,2025-01-11 21:00,2025-01-11 21:06,344.523
157,2025-01-11 22:35,2025-01-11 22:41,345.933
158,2025-01-12 00:10,2025-01-12 00:15,346.213
159,2025-01-12 01:44,2025-01-12 01:50,344.639
160,2025-01-12 03:19,2025-01-12 03:25,343.271
161,2025-01-12 04:54,2025-01-12 05:00,342.1
162,2025-01-12 06:29,2025-01-12 06:34,341.125
163,2025-01-12 08:03,2025-01-12 08:09,340.34
164,2025-01-12 09:38,2025-01-12 09:44,339.746
165,2025-01-12 11:13,2025-01-12 11:19,339.33
166,2025-01-12 12:48,2025-01-12 12:53,339.092
167,2025-01-12 14:22,2025-01-12 14:28,339.03
168,2025-01-12 15:57,2025-01-12 16:03,339.138
169,2025-01-12 17:32,2025-01-12 17:38,339.416
170,2025-01-12 19:07,2025-01-12 19:12,339.861
171,2025-01-12 20:41,2025-01-12 20:47,340.471
172,2025-01-12 22:16,2025-01-12 22:22,341.245
173,2025-01-12 23:51,2025-01-12 23:56,342.185
174,2025-01-13 01:26,2025-01-13 01:31,343.279
175,2025-01-13 03:00,2025-01-13 03:06,344.537
176,2025-01-13 04:35,2025-01-13 04:41,345.95
177,2025-01-13 06:10,2025-01-13 06:15,346.195
178,2025-01-13 07:44,2025-01-13 07:50,344.622
179,2025-01-13 09:19,2025-01-13 09:25,343.254
180,2025-01-13 10:54,2025-01-13 11:00,342.085
181,2025-01-13 12:29,2025-01-13 12:34,341.117
182,2025-01-13 14:03,2025-01-13 14:09,340.331
183,2025-01-13 15:38,2025-01-13 15:44,339.74
184,2025-01-13 17:13,2025-01-13 17:19,339.325
185,2025-01-13 18:48,2025-01-13 18:53,339.086
186,2025-01-13 20:22,2025-01-13 20:28,339.025
187,2025-01-13 21:57,2025-01-13 22:03,339.137
188,2025-01-13 23:32,2025-01-13 23:38,339.421
189,2025-01-14 01:07,2025-01-14 01:12,339.865
190,2025-01-14 02:41,2025-01-14 02:47,340.478
191,2025-01-14 04:16,2025-01-14 04:22,341.258
192,2025-01-14 05:51,2025-01-14 05:57,342.194
193,2025-01-14 07:26,2025-01-14 07:31,343.292
194,2025-01-14 09:00,2025-01-14 09:06,344.549
195,2025-01-14 10:35,2025-01-14 10:41,345.972
196,2025-01-14 12:10,2025-01-14 12:16,346.175
197,2025-01-14 13:45,2025-01-14 13:50,344.602
198,2025-01-14 15:19,2025-01-14 15:25,343.24
199,2025-01-14 16:54,2025-01-14 17:00,342.075
200,2025-01-14 18:29,2025-01-14 18:34,341.101
201,2025-01-14 20:04,2025-01-14 20:09,340.323
202,2025-01-14 21:38,2025-01-14 21:44,339.73
203,2025-01-14 23:13,2025-01-14 23:19,339.321
204,2025-01-15 00:48,2025-01-15 00:53,339.083
205,2025-01-15 02:23,2025-01-15 02:28,339.026
206,2025-01-15 03:57,2025-01-15 04:03,339.141
207,2025-01-15 05:32,2025-01-15 05:38,339.424
208,2025-01-15 07:07,2025-01-15 07:12,339.873
209,2025-01-15 08:41,2025-01-15 08:47,340.49
210,2025-01-15 10:16,2025-01-15 10:22,341.268
211,2025-01-15 11:51,2025-01-15 11:57,342.208
212,2025-01-15 13:26,2025-01-15 13:31,343.304
213,2025-01-15 15:00,2025-01-15 15:06,344.569
214,2025-01-15 16:35,2025-01-15 16:41,345.989
215,2025-01-15 18:10,2025-01-15 18:16,346.151
216,2025-01-15 19:45,2025-01-15 19:50,344.584
217,2025-01-15 21:19,2025-01-15 21:25,343.222
218,2025-01-15 22:54,2025-01-15 23:00,342.062
219,2025-01-16 00:29,2025-01-16 00:35,341.09
220,2025-01-16 02:04,2025-01-16 02:09,340.318
221,2025-01-16 03:38,2025-01-16 03:44,339.725
222,2025-01-16 05:13,2025-01-16 05:19,339.313
223,2025-01-16 06:48,2025-01-16 06:53,339.082
224,2025-01-16 08:23,2025-01-16 08:28,339.027
225,2025-01-16 09:57,2025-01-16 10:03,339.144
226,2025-01-16 11:32,2025-01-16 11:38,339.429
227,2025-01-16 13:07,2025-01-16 13:12,339.876
228,2025-01-16 14:42,2025-01-16 14:47,340.494
229,2025-01-16 16:16,2025-01-16 16:22,341.274
230,2025-01-16 17:51,2025-01-16 17:57,342.218
231,2025-01-16 19:26,2025-01-16 19:31,343.32
232,2025-01-16 21:00,2025-01-16 21:06,344.583
233,2025-01-16 22:35,2025-01-16 22:41,346.001
234,2025-01-17 00:10,2025-01-17 00:16,346.132
235,2025-01-17 01:45,2025-01-17 01:50,344.567
236,2025-01-17 03:19,2025-01-17 03:25,343.209
237,2025-01-17 04:54,2025-01-17 05:00,342.048
238,2025-01-17 06:29,2025-01-17 06:35,341.081
239,2025-01-17 08:04,2025-01-17 08:09,340.305
240,2025-01-17 09:38,2025-01-17 09:44,339.72
241,2025-01-17 11:13,2025-01-17 11:19,339.313
242,2025-01-17 12:48,2025-01-17 12:54,339.082
243,2025-01-17 14:23,2025-01-17 14:28,339.029
244,2025-01-17 15:57,2025-01-17 16:03,339.146
245,2025-01-17 17:32,2025-01-17 17:38,339.431
246,2025-01-17 19:07,2025-01-17 19:13,339.884
247,2025-01-17 20:42,2025-01-17 20:47,340.501
248,2025-01-17 22:16,2025-01-17 22:22,341.283
249,2025-01-17 23:51,2025-01-17 23:57,342.232
250,2025-01-18 01:26,2025-01-18 01:31,343.334
251,2025-01-18 03:00,2025-01-18 03:06,344.597
252,2025-01-18 04:35,2025-01-18 04:41,346.019
253,2025-01-18 06:10,2025-01-18 06:16,346.114
254,2025-01-18 07:45,2025-01-18 07:50,344.551
255,2025-01-18 09:19,2025-01-18 09:25,343.192
256,2025-01-18 10:54,2025-01-18 11:00,342.033
257,2025-01-18 12:29,2025-01-18 12:35,341.074
258,2025-01-18 14:04,2025-01-18 14:09,340.296
259,2025-01-18 15:38,2025-01-18 15:44,339.714
260,2025-01-18 17:13,2025-01-18 17:19,339.308
261,2025-01-18 18:48,2025-01-18 18:54,339.077
262,2025-01-18 20:23,2025-01-18 20:28,339.025
263,2025-01-18 21:57,2025-01-18 22:03,339.145
264,2025-01-18 23:32,2025-01-18 23:38,339.437
265,2025-01-19 01:07,2025-01-19 01:13,339.888
266,2025-01-19 02:42,2025-01-19 02:47,340.509
267,2025-01-19 04:16,2025-01-19 04:22,341.296
268,2025-01-19 05:51,2025-01-19 05:57,342.241
269,2025-01-19 07:26,2025-01-19 07:32,343.346
270,2025-01-19 09:01,2025-01-19 09:06,344.611
271,2025-01-19 10:35,2025-01-19 10:41,346.041
272,2025-01-19 12:10,2025-01-19 12:16,346.095
273,2025-01-19 13:45,2025-01-19 13:50,344.532
274,2025-01-19 15:19,2025-01-19 15:25,343.179
275,2025-01-19 16:54,2025-01-19 17:00,342.024
276,2025-01-19 18:29,2025-01-19 18:35,341.059
277,2025-01-19 20:04,2025-01-19 20:09,340.289
278,2025-01-19 21:39,2025-01-19 21:44,339.705
279,2025-01-19 23:13,2025-01-19 23:19,339.305
280,2025-01-20 00:48,2025-01-20 00:54,339.075
281,2025-01-20 02:23,2025-01-20 02:28,339.026
282,2025-01-20 03:57,2025-01-20 04:03,339.149
283,2025-01-20 05:32,2025-01-20 05:38,339.438
284,2025-01-20 07:07,2025-01-20 07:13,339.896
285,2025-01-20 08:42,2025-01-20 08:47,340.521
286,2025-01-20 10:16,2025-01-20 10:22,341.307
287,2025-01-20 11:51,2025-01-20 11:57,342.255
288,2025-01-20 13:26,2025-01-20 13:32,343.359
289,2025-01-20 15:01,2025-01-20 15:06,344.631
290,2025-01-20 16:35,2025-01-20 16:41,346.058
291,2025-01-20 18:10,2025-01-20 18:16,346.072
292,2025-01-20 19:45,2025-01-20 19:51,344.514
293,2025-01-20 21:20,2025-01-20 21:25,343.162
294,2025-01-20 22:54,2025-01-20 23:00,342.011
295,2025-01-21 00:29,2025-01-21 00:35,341.049
296,2025-01-21 02:04,2025-01-21 02:09,340.285
297,2025-01-21 03:39,2025-01-21 03:44,339.7
298,2025-01-21 05:13,2025-01-21 05:19,339.298
299,2025-01-21 06:48,2025-01-21 06:54,339.075
300,2025-01-21 08:23,2025-01-21 08:28,339.028
301,2025-01-21 09:58,2025-01-21 10:03,339.153
302,2025-01-21 11:32,2025-01-21 11:38,339.446
303,2025-01-21 13:07,2025-01-21 13:13,339.901
304,2025-01-21 14:42,2025-01-21 14:47,340.526
305,2025-01-21 16:16,2025-01-21 16:22,341.314
306,2025-01-21 17:51,2025-01-21 17:57,342.265
307,2025-01-21 19:26,2025-01-21 19:32,343.375
308,2025-01-21 21:01,2025-01-21 21:06,344.646
309,2025-01-21 22:35,2025-01-21 22:41,346.071
310,2025-01-22 00:10,2025-01-22 00:16,346.053
311,2025-01-22 01:45,2025-01-22 01:51,344.498
312,2025-01-22 03:20,2025-01-22 03:25,343.149
313,2025-01-22 04:54,2025-01-22 05:00,341.998
314,2025-01-22 06:29,2025-01-22 06:35,341.04
315,2025-01-22 08:04,2025-01-22 08:10,340.273
316,2025-01-22 09:39,2025-01-22 09:44,339.696
317,2025-01-22 11:13,2025-01-22 11:19,339.298
318,2025-01-22 12:48,2025-01-22 12:54,339.075
319,2025-01-22 14:23,2025-01-22 14:29,339.03
320,2025-01-22 15:58,2025-01-22 16:03,339.154
321,2025-01-22 17:32,2025-01-22 17:38,339.448
322,2025-01-22 19:07,2025-01-22 19:13,339.909
323,2025-01-22 20:42,2025-01-22 20:47,340.534
324,2025-01-22 22:17,2025-01-22 22:22,341.323
325,2025-01-22 23:51,2025-01-22 23:57,342.281
326,2025-01-23 01:26,2025-01-23 01:32,343.388
327,2025-01-23 03:01,2025-01-23 03:06,344.66
328,2025-01-23 04:35,2025-01-23 04:41,346.089
329,2025-01-23 06:10,2025-01-23 06:16,346.036
330,2025-01-23 07:45,2025-01-23 07:51,344.482
331,2025-01-23 09:20,2025-01-23 09:25,343.133
332,2025-01-23 10:54,2025-01-23 11:00,341.983
333,2025-01-23 12:29,2025-01-23 12:35,341.033
334,2025-01-23 14:04,2025-01-23 14:10,340.265
335,2025-01-23 15:39,2025-01-23 15:44,339.691
336,2025-01-23 17:13,2025-01-23 17:19,339.293
337,2025-01-23 18:48,2025-01-23 18:54,339.07
338,2025-01-23 20:23,2025-01-23 20:29,339.026
339,2025-01-23 21:58,2025-01-23 22:03,339.154
340,2025-01-23 23:32,2025-01-23 23:38,339.454
341,2025-01-24 01:07,2025-01-24 01:13,339.913
342,2025-01-24 02:42,2025-01-24 02:48,340.542
343,2025-01-24 04:17,2025-01-24 04:22,341.337
344,2025-01-24 05:51,2025-01-24 05:57,342.289
345,2025-01-24 07:26,2025-01-24 07:32,343.401
346,2025-01-24 09:01,2025-01-24 09:06,344.674
347,2025-01-24 10:35,2025-01-24 10:41,346.111
348,2025-01-24 12:10,2025-01-24 12:16,346.017
349,2025-01-24 13:45,2025-01-24 13:51,344.463
350,2025-01-24 15:20,2025-01-24 15:25,343.121
351,2025-01-24 16:54,2025-01-24 17:00,341.974
352,2025-01-24 18:29,2025-01-24 18:35,341.018
353,2025-01-24 20:04,2025-01-24 20:10,340.257
354,2025-01-24 21:39,2025-01-24 21:44,339.682
355,2025-01-24 23:13,2025-01-24 23:19,339.29
356,2025-01-25 00:48,2025-01-25 00:54,339.069
357,2025-01-25 02:23,2025-01-25 02:29,339.027
358,2025-01-25 03:58,2025-01-25 04:03,339.161
359,2025-01-25 05:32,2025-01-25 05:38,339.456
360,2025-01-25 07:07,2025-01-25 07:13,339.922
361,2025-01-25 08:42,2025-01-25 08:48,340.554
362,2025-01-25 10:17,2025-01-25 10:22,341.348
363,2025-01-25 11:51,2025-01-25 11:57,342.303
364,2025-01-25 13:26,2025-01-25 13:32,343.414
365,2025-01-25 15:01,2025-01-25 15:07,344.694
366,2025-01-25 16:36,2025-01-25 16:41,346.129
367,2025-01-25 18:10,2025-01-25 18:16,345.994
368,2025-01-25 19:45,2025-01-25 19:51,344.446
369,2025-01-25 21:20,2025-01-25 21:25,343.103
370,2025-01-25 22:55,2025-01-25 23:00,341.962
371,2025-01-26 00:29,2025-01-26 00:35,341.008
372,2025-01-26 02:04,2025-01-26 02:10,340.253
373,2025-01-26 03:39,2025-01-26 03:44,339.677
374,2025-01-26 05:14,2025-01-26 05:19,339.283
375,2025-01-26 06:48,2025-01-26 06:54,339.068
376,2025-01-26 08:23,2025-01-26 08:29,339.03
377,2025-01-26 09:58,2025-01-26 10:03,339.162
378,2025-01-26 11:32,2025-01-26 11:38,339.463
379,2025-01-26 13:07,2025-01-26 13:13,339.926
380,2025-01-26 14:42,2025-01-26 14:48,340.558
381,2025-01-26 16:17,2025-01-26 16:22,341.354
382,2025-01-26 17:51,2025-01-26 17:57,342.313
383,2025-01-26 19:26,2025-01-26 19:32,343.43
384,2025-01-26 21:01,2025-01-26 21:07,344.709
385,2025-01-26 22:36,2025-01-26 22:41,346.141
386,2025-01-27 00:10,2025-01-27 00:16,345.975
387,2025-01-27 01:45,2025-01-27 01:51,344.429
388,2025-01-27 03:20,2025-01-27 03:26,343.09
389,2025-01-27 04:55,2025-01-27 05:00,341.947
390,2025-01-27 06:29,2025-01-27 06:35,340.999
391,2025-01-27 08:04,2025-01-27 08:10,340.241
392,2025-01-27 09:39,2025-01-27 09:45,339.673
393,2025-01-27 11:14,2025-01-27 11:19,339.282
394,2025-01-27 12:48,2025-01-27 12:54,339.068
395,2025-01-27 14:23,2025-01-27 14:29,339.031
396,2025-01-27 15:58,2025-01-27 16:03,339.163
397,2025-01-27 17:33,2025-01-27 17:38,339.465
398,2025-01-27 19:07,2025-01-27 19:13,339.934
399,2025-01-27 20:42,2025-01-27 20:48,340.566
400,2025-01-27 22:17,2025-01-27 22:22,341.363
401,2025-01-27 23:51,2025-01-27 23:57,342.33
402,2025-01-28 01:26,2025-01-28 01:32,343.443
403,2025-01-28 03:01,2025-01-28 03:07,344.722
404,2025-01-28 04:36,2025-01-28 04:41,346.159
405,2025-01-28 06:10,2025-01-28 06:16,345.957
406,2025-01-28 07:45,2025-01-28 07:51,344.413
407,2025-01-28 09:20,2025-01-28 09:26,343.074
408,2025-01-28 10:55,2025-01-28 11:00,341.932
409,2025-01-28 12:29,2025-01-28 12:35,340.992
410,2025-01-28 14:04,2025-01-28 14:10,340.232
411,2025-01-28 15:39,2025-01-28 15:45,339.667
412,2025-01-28 17:14,2025-01-28 17:19,339.277
413,2025-01-28 18:48,2025-01-28 18:54,339.063
414,2025-01-28 20:23,2025-01-28 20:29,339.027
415,2025-01-28 21:58,2025-01-28 22:04,339.163
416,2025-01-28 23:33,2025-01-28 23:38,339.47
417,2025-01-29 01:07,2025-01-29 01:13,339.937
418,2025-01-29 02:42,2025-01-29 02:48,340.573
419,2025-01-29 04:17,2025-01-29 04:22,341.376
420,2025-01-29 05:52,2025-01-29 05:57,342.336
421,2025-01-29 07:26,2025-01-29 07:32,343.456
422,2025-01-29 09:01,2025-01-29 09:07,344.736
423,2025-01-29 10:36,2025-01-29 10:41,346.18
424,2025-01-29 12:10,2025-01-29 12:16,345.938
425,2025-01-29 13:45,2025-01-29 13:51,344.396
426,2025-01-29 15:20,2025-01-29 15:26,343.06
427,2025-01-29 16:55,2025-01-29 17:00,341.923
428,2025-01-29 18:29,2025-01-29 18:35,340.977
429,2025-01-29 20:04,2025-01-29 20:10,340.224
430,2025-01-29 21:39,2025-01-29 21:45,339.657
431,2025-01-29 23:14,2025-01-29 23:19,339.274
432,2025-01-30 00:48,2025-01-30 00:54,339.061
433,2025-01-30 02:23,2025-01-30 02:29,339.028
434,2025-01-30 03:58,2025-01-30 04:04,339.167
435,2025-01-30 05:33,2025-01-30 05:38,339.472
436,2025-01-30 07:07,2025-01-30 07:13,339.946
437,2025-01-30 08:42,2025-01-30 08:48,340.586
438,2025-01-30 10:17,2025-01-30 10:23,341.387
439,2025-01-30 11:52,2025-01-30 11:57,342.35
440,2025-01-30 13:26,2025-01-30 13:32,343.468
441,2025-01-30 15:01,2025-01-30 15:07,344.756
442,2025-01-30 16:36,2025-01-30 16:41,346.198
443,2025-01-30 18:10,2025-01-30 18:16,345.914
444,2025-01-30 19:45,2025-01-30 19:51,344.376
445,2025-01-30 21:20,2025-01-30 21:26,343.043
446,2025-01-30 22:55,2025-01-30 23:00,341.911
447,2025-01-31 00:30,2025-01-31 00:35,340.966
448,2025-01-31 02:04,2025-01-31 02:10,340.22
449,2025-01-31 03:39,2025-01-31 03:45,339.653
450,2025-01-31 05:14,2025-01-31 05:19,339.266
451,2025-01-31 06:49,2025-01-31 06:54,339.06
452,2025-01-31 08:23,2025-01-31 08:29,339.03
453,2025-01-31 09:58,2025-01-31 10:04,339.17
454,2025-01-31 11:33,2025-01-31 11:38,339.479
455,2025-01-31 13:07,2025-01-31 13:13,339.95
456,2025-01-31 14:42,2025-01-31 14:48,340.59
457,2025-01-31 16:17,2025-01-31 16:23,341.393
458,2025-01-31 17:52,2025-01-31 17:57,342.36
459,2025-01-31 19:26,2025-01-31 19:32,343.485
460,2025-01-31 21:01,2025-01-31 21:07,344.771
461,2025-01-31 22:36,2025-01-31 22:42,346.21
462,2025-02-01 00:11,2025-02-01 00:16,345.896
463,2025-02-01 01:45,2025-02-01 01:51,344.36
464,2025-02-01 03:20,2025-02-01 03:26,343.03
465,2025-02-01 04:55,2025-02-01 05:01,341.897
466,2025-02-01 06:30,2025-02-01 06:35,340.958
467,2025-02-01 08:04,2025-02-01 08:10,340.208
468,2025-02-01 09:39,2025-02-01 09:45,339.648
469,2025-02-01 11:14,2025-02-01 11:19,339.266
470,2025-02-01 12:49,2025-02-01 12:54,339.061
471,2025-02-01 14:23,2025-02-01 14:29,339.032
472,2025-02-01 15:58,2025-02-01 16:04,339.172
473,2025-02-01 17:33,2025-02-01 17:38,339.481
474,2025-02-01 19:08,2025-02-01 19:13,339.956
475,2025-02-01 20:42,2025-02-01 20:48,340.598
476,2025-02-01 22:17,2025-02-01 22:23,341.403
477,2025-02-01 23:52,2025-02-01 23:57,342.376
478,2025-02-02 01:26,2025-02-02 01:32,343.497
479,2025-02-02 03:01,2025-02-02 03:07,344.784
480,2025-02-02 04:36,2025-02-02 04:42,346.229
481,2025-02-02 06:11,2025-02-02 06:16,345.879
482,2025-02-02 07:45,2025-02-02 07:51,344.344
483,2025-02-02 09:20,2025-02-02 09:26,343.014
484,2025-02-02 10:55,2025-02-02 11:01,341.882
485,2025-02-02 12:30,2025-02-02 12:35,340.951
486,2025-02-02 14:04,2025-02-02 14:10,340.2
487,2025-02-02 15:39,2025-02-02 15:45,339.643
488,2025-02-02 17:14,2025-02-02 17:20,339.262
489,2025-02-02 18:49,2025-02-02 18:54,339.056
490,2025-02-02 20:23,2025-02-02 20:29,339.028
491,2025-02-02 21:58,2025-02-02 22:04,339.172
492,2025-02-02 23:33,2025-02-02 23:38,339.488
493,2025-02-03 01:08,2025-02-03 01:13,339.962
494,2025-02-03 02:42,2025-02-03 02:48,340.606
495,2025-02-03 04:17,2025-02-03 04:23,341.417
496,2025-02-03 05:52,2025-02-03 05:57,342.384
497,2025-02-03 07:26,2025-02-03 07:32,343.512
498,2025-02-03 09:01,2025-02-03 09:07,344.799
499,2025-02-03 10:36,2025-02-03 10:42,346.251
500,2025-02-03 12:11,2025-02-03 12:16,345.86
501,2025-02-03 13:45,2025-02-03 13:51,344.326
502,2025-02-03 15:20,2025-02-03 15:26,343.002
503,2025-02-03 16:55,2025-02-03 17:01,341.874
504,2025-02-03 18:30,2025-02-03 18:35,340.936
505,2025-02-03 20:04,2025-02-03 20:10,340.193
506,2025-02-03 21:39,2025-02-03 21:45,339.634
507,2025-02-03 23:14,2025-02-03 23:20,339.26
508,2025-02-04 00:49,2025-02-04 00:54,339.055
509,2025-02-04 02:23,2025-02-04 02:29,339.03
510,2025-02-04 03:58,2025-02-04 04:04,339.177
511,2025-02-04 05:33,2025-02-04 05:39,339.49
512,2025-02-04 07:08,2025-02-04 07:13,339.972
513,2025-02-04 08:42,2025-02-04 08:48,340.62
514,2025-02-04 10:17,2025-02-04 10:23,341.428
515,2025-02-04 11:52,2025-02-04 11:57,342.399
516,2025-02-04 13:27,2025-02-04 13:32,343.525
517,2025-02-04 15:01,2025-02-04 15:07,344.82
518,2025-02-04 16:36,2025-02-04 16:42,346.269
519,2025-02-04 18:11,2025-02-04 18:16,345.837
520,2025-02-04 19:45,2025-02-04 19:51,344.309
521,2025-02-04 21:20,2025-02-04 21:26,342.986
522,2025-02-04 22:55,2025-02-04 23:01,341.862
523,2025-02-05 00:30,2025-02-05 00:35,340.927
524,2025-02-05 02:04,2025-02-05 02:10,340.189
525,2025-02-05 03:39,2025-02-05 03:45,339.631
526,2025-02-05 05:14,2025-02-05 05:20,339.253
527,2025-02-05 06:49,2025-02-05 06:54,339.055
528,2025-02-05 08:23,2025-02-05 08:29,339.033
529,2025-02-05 09:58,2025-02-05 10:04,339.181
530,2025-02-05 11:33,2025-02-05 11:39,339.498
531,2025-02-05 13:08,2025-02-05 13:13,339.976
532,2025-02-05 14:42,2025-02-05 14:48,340.624
533,2025-02-05 16:17,2025-02-05 16:23,341.435
534,2025-02-05 17:52,2025-02-05 17:58,342.409
535,2025-02-05 19:27,2025-02-05 19:32,343.542
536,2025-02-05 21:01,2025-02-05 21:07,344.835
537,2025-02-05 22:36,2025-02-05 22:42,346.282
538,2025-02-06 00:11,2025-02-06 00:17,345.819
539,2025-02-06 01:46,2025-02-06 01:51,344.293
540,2025-02-06 03:20,2025-02-06 03:26,342.973
541,2025-02-06 04:55,2025-02-06 05:01,341.849
542,2025-02-06 06:30,2025-02-06 06:35,340.919
543,2025-02-06 08:05,2025-02-06 08:10,340.178
544,2025-02-06 09:39,2025-02-06 09:45,339.627
545,2025-02-06 11:14,2025-02-06 11:20,339.253
546,2025-02-06 12:49,2025-02-06 12:54,339.056
547,2025-02-06 14:24,2025-02-06 14:29,339.035
548,2025-02-06 15:58,2025-02-06 16:04,339.183
549,2025-02-06 17:33,2025-02-06 17:39,339.5
550,2025-02-06 19:08,2025-02-06 19:13,339.983
551,2025-02-06 20:42,2025-02-06 20:48,340.633
552,2025-02-06 22:17,2025-02-06 22:23,341.445
553,2025-02-06 23:52,2025-02-06 23:58,342.426
554,2025-02-07 01:27,2025-02-07 01:32,343.555
555,2025-02-07 03:01,2025-02-07 03:07,344.849
556,2025-02-07 04:36,2025-02-07 04:42,346.301
557,2025-02-07 06:11,2025-02-07 06:17,345.803
558,2025-02-07 07:46,2025-02-07 07:51,344.278
559,2025-02-07 09:20,2025-02-07 09:26,342.958
560,2025-02-07 10:55,2025-02-07 11:01,341.835
561,2025-02-07 12:30,2025-02-07 12:36,340.912
562,2025-02-07 14:05,2025-02-07 14:10,340.17
563,2025-02-07 15:39,2025-02-07 15:45,339.622
564,2025-02-07 17:14,2025-02-07 17:20,339.249
565,2025-02-07 18:49,2025-02-07 18:54,339.051
566,2025-02-07 20:24,2025-02-07 20:29,339.032
567,2025-02-07 21:58,2025-02-07 22:04,339.184
568,2025-02-07 23:33,2025-02-07 23:39,339.507
569,2025-02-08 01:08,2025-02-08 01:13,339.989
570,2025-02-08 02:43,2025-02-08 02:48,340.641
571,2025-02-08 04:17,2025-02-08 04:23,341.459
572,2025-02-08 05:52,2025-02-08 05:58,342.433
573,2025-02-08 07:27,2025-02-08 07:32,343.569
574,2025-02-08 09:01,2025-02-08 09:07,344.863
575,2025-02-08 10:36,2025-02-08 10:42,346.323
576,2025-02-08 12:11,2025-02-08 12:17,345.785
577,2025-02-08 13:46,2025-02-08 13:51,344.26
578,2025-02-08 15:20,2025-02-08 15:26,342.945
579,2025-02-08 16:55,2025-02-08 17:01,341.826
580,2025-02-08 18:30,2025-02-08 18:36,340.898
581,2025-02-08 20:05,2025-02-08 20:10,340.163
582,2025-02-08 21:39,2025-02-08 21:45,339.613
583,2025-02-08 23:14,2025-02-08 23:20,339.246
584,2025-02-09 00:49,2025-02-09 00:55,339.05
585,2025-02-09 02:24,2025-02-09 02:29,339.033
586,2025-02-09 03:58,2025-02-09 04:04,339.188
587,2025-02-09 05:33,2025-02-09 05:39,339.509
588,2025-02-09 07:08,2025-02-09 07:14,339.998
589,2025-02-09 08:43,2025-02-09 08:48,340.654
590,2025-02-09 10:17,2025-02-09 10:23,341.47
591,2025-02-09 11:52,2025-02-09 11:58,342.448
592,2025-02-09 13:27,2025-02-09 13:32,343.582
593,2025-02-09 15:01,2025-02-09 15:07,344.884
594,2025-02-09 16:36,2025-02-09 16:42,346.341
595,2025-02-09 18:11,2025-02-09 18:17,345.761
596,2025-02-09 19:46,2025-02-09 19:51,344.242
597,2025-02-09 21:20,2025-02-09 21:26,342.928
598,2025-02-09 22:55,2025-02-09 23:01,341.814
599,2025-02-10 00:30,2025-02-10 00:36,340.888
600,2025-02-10 02:05,2025-02-10 02:10,340.159
601,2025-02-10 03:39,2025-02-10 03:45,339.609
602,2025-02-10 05:14,2025-02-10 05:20,339.239
603,2025-02-10 06:49,2025-02-10 06:55,339.05
604,2025-02-10 08:24,2025-02-10 08:29,339.036
605,2025-02-10 09:58,2025-02-10 10:04,339.192
606,2025-02-10 11:33,2025-02-10 11:39,339.516
607,2025-02-10 13:08,2025-02-10 13:14,340.002
608,2025-02-10 14:43,2025-02-10 14:48,340.658
609,2025-02-10 16:17,2025-02-10 16:23,341.476
610,2025-02-10 17:52,2025-02-10 17:58,342.458
611,2025-02-10 19:27,2025-02-10 19:33,343.598
612,2025-02-10 21:02,2025-02-10 21:07,344.899
613,2025-02-10 22:36,2025-02-10 22:42,346.353
614,2025-02-11 00:11,2025-02-11 00:17,345.742
615,2025-02-11 01:46,2025-02-11 01:51,344.226
616,2025-02-11 03:20,2025-02-11 03:26,342.915
617,2025-02-11 04:55,2025-02-11 05:01,341.8
618,2025-02-11 06:30,2025-02-11 06:36,340.879
619,2025-02-11 08:05,2025-02-11 08:10,340.147
620,2025-02-11 09:40,2025-02-11 09:45,339.605
621,2025-02-11 11:14,2025-02-11 11:20,339.239
622,2025-02-11 12:49,2025-02-11 12:55,339.05
623,2025-02-11 14:24,2025-02-11 14:29,339.042
624,2025-02-11 15:58,2025-02-11 16:04,339.193
625,2025-02-11 17:33,2025-02-11 17:39,339.518
626,2025-02-11 19:08,2025-02-11 19:14,340.009
627,2025-02-11 20:43,2025-02-11 20:48,340.666
628,2025-02-11 22:17,2025-02-11 22:23,341.486
629,2025-02-11 23:52,2025-02-11 23:58,342.473
630,2025-02-12 01:27,2025-02-12 01:33,343.611
631,2025-02-12 03:02,2025-02-12 03:07,344.912
632,2025-02-12 04:36,2025-02-12 04:42,346.372
633,2025-02-12 06:11,2025-02-12 06:17,345.726
634,2025-02-12 07:46,2025-02-12 07:52,344.21
635,2025-02-12 09:21,2025-02-12 09:26,342.9
636,2025-02-12 10:55,2025-02-12 11:01,341.786
637,2025-02-12 12:30,2025-02-12 12:36,340.872
638,2025-02-12 14:05,2025-02-12 14:10,340.139
639,2025-02-12 15:40,2025-02-12 15:45,339.599
640,2025-02-12 17:14,2025-02-12 17:20,339.235
641,2025-02-12 18:49,2025-02-12 18:55,339.045
642,2025-02-12 20:24,2025-02-12 20:29,339.034
643,2025-02-12 21:59,2025-02-12 22:04,339.194
644,2025-02-12 23:33,2025-02-12 23:39,339.525
645,2025-02-13 01:08,2025-02-13 01:14,340.015
646,2025-02-13 02:43,2025-02-13 02:48,340.674
647,2025-02-13 04:17,2025-02-13 04:23,341.5
648,2025-02-13 05:52,2025-02-13 05:58,342.482
649,2025-02-13 07:27,2025-02-13 07:33,343.625
650,2025-02-13 09:02,2025-02-13 09:07,344.927
651,2025-02-13 10:36,2025-02-13 10:42,346.394
652,2025-02-13 12:11,2025-02-13 12:17,345.709
653,2025-02-13 13:46,2025-02-13 13:52,344.192
654,2025-02-13 15:21,2025-02-13 15:26,342.887
655,2025-02-13 16:55,2025-02-13 17:01,341.778
656,2025-02-13 18:30,2025-02-13 18:36,340.858
657,2025-02-13 20:05,2025-02-13 20:11,340.132
658,2025-02-13 21:40,2025-02-13 21:45,339.591
659,2025-02-13 23:14,2025-02-13 23:20,339.232
660,2025-02-14 00:49,2025-02-14 00:55,339.044
661,2025-02-14 02:24,2025-02-14 02:30,339.035
662,2025-02-14 03:59,2025-02-14 04:04,339.198
663,2025-02-14 05:33,2025-02-14 05:39,339.527
664,2025-02-14 07:08,2025-02-14 07:14,340.024
665,2025-02-14 08:43,2025-02-14 08:48,340.688
666,2025-02-14 10:18,2025-02-14 10:23,341.511
667,2025-02-14 11:52,2025-02-14 11:58,342.497
668,2025-02-14 13:27,2025-02-14 13:33,343.638
669,2025-02-14 15:02,2025-02-14 15:07,344.948
670,2025-02-14 16:36,2025-02-14 16:42,346.412
671,2025-02-14 18:11,2025-02-14 18:17,345.685
672,2025-02-14 19:46,2025-02-14 19:52,344.175
673,2025-02-14 21:21,2025-02-14 21:26,342.871
674,2025-02-14 22:55,2025-02-14 23:01,341.766
675,2025-02-15 00:30,2025-02-15 00:36,340.848
676,2025-02-15 02:05,2025-02-15 02:11,340.128
677,2025-02-15 03:40,2025-02-15 03:45,339.587
678,2025-02-15 05:14,2025-02-15 05:20,339.226
679,2025-02-15 06:49,2025-02-15 06:55,339.044
680,2025-02-15 08:24,2025-02-15 08:30,339.038
681,2025-02-15 09:59,2025-02-15 10:04,339.203
682,2025-02-15 11:33,2025-02-15 11:39,339.535
683,2025-02-15 13:08,2025-02-15 13:14,340.029
684,2025-02-15 14:43,2025-02-15 14:49,340.692
685,2025-02-15 16:18,2025-02-15 16:23,341.518
686,2025-02-15 17:52,2025-02-15 17:58,342.508
687,2025-02-15 19:27,2025-02-15 19:33,343.655
688,2025-02-15 21:02,2025-02-15 21:07,344.964
689,2025-02-15 22:36,2025-02-15 22:42,346.425
690,2025-02-16 00:11,2025-02-16 00:17,345.665
691,2025-02-16 01:46,2025-02-16 01:52,344.159
692,2025-02-16 03:21,2025-02-16 03:26,342.859
693,2025-02-16 04:55,2025-02-16 05:01,341.753
694,2025-02-16 06:30,2025-02-16 06:36,340.841
695,2025-02-16 08:05,2025-02-16 08:11,340.117
696,2025-02-16 09:40,2025-02-16 09:45,339.583
697,2025-02-16 11:14,2025-02-16 11:20,339.226
698,2025-02-16 12:49,2025-02-16 12:55,339.046
699,2025-02-16 14:24,2025-02-16 14:30,339.041
700,2025-02-16 15:59,2025-02-16 16:04,339.205
701,2025-02-16 17:33,2025-02-16 17:39,339.538
702,2025-02-16 19:08,2025-02-16 19:14,340.036
703,2025-02-16 20:43,2025-02-16 20:49,340.701
704,2025-02-16 22:18,2025-02-16 22:23,341.529
705,2025-02-16 23:52,2025-02-16 23:58,342.521
706,2025-02-17 01:27,2025-02-17 01:33,343.668
707,2025-02-17 03:02,2025-02-17 03:08,344.977
708,2025-02-17 04:36,2025-02-17 04:42,346.444
709,2025-02-17 06:11,2025-02-17 06:17,345.65
710,2025-02-17 07:46,2025-02-17 07:52,344.145
711,2025-02-17 09:21,2025-02-17 09:26,342.843
712,2025-02-17 10:56,2025-02-17 11:01,341.739
713,2025-02-17 12:30,2025-02-17 12:36,340.834
714,2025-02-17 14:05,2025-02-17 14:11,340.109
715,2025-02-17 15:40,2025-02-17 15:45,339.579
716,2025-02-17 17:15,2025-02-17 17:20,339.223
717,2025-02-17 18:49,2025-02-17 18:55,339.041
718,2025-02-17 20:24,2025-02-17 20:30,339.038
719,2025-02-17 21:59,2025-02-17 22:04,339.206
720,2025-02-17 23:33,2025-02-17 23:39,339.545
721,2025-02-18 01:08,2025-02-18 01:14,340.043
722,2025-02-18 02:43,2025-02-18 02:49,340.71
723,2025-02-18 04:18,2025-02-18 04:23,341.544
724,2025-02-18 05:52,2025-02-18 05:58,342.533
725,2025-02-18 07:27,2025-02-18 07:33,343.683
726,2025-02-18 09:02,2025-02-18 09:08,344.993
727,2025-02-18 10:37,2025-02-18 10:42,346.467
728,2025-02-18 12:11,2025-02-18 12:17,345.633
729,2025-02-18 13:46,2025-02-18 13:52,344.127
730,2025-02-18 15:21,2025-02-18 15:27,342.832
731,2025-02-18 16:56,2025-02-18 17:01,341.731
732,2025-02-18 18:30,2025-02-18 18:36,340.824
733,2025-02-18 20:05,2025-02-18 20:11,340.103
734,2025-02-18 21:40,2025-02-18 21:46,339.571
735,2025-02-18 23:15,2025-02-18 23:20,339.221
736,2025-02-19 00:49,2025-02-19 00:55,339.041
737,2025-02-19 02:24,2025-02-19 02:30,339.04
738,2025-02-19 03:59,2025-02-19 04:04,339.211
739,2025-02-19 05:34,2025-02-19 05:39,339.548
740,2025-02-19 07:08,2025-02-19 07:14,340.052
741,2025-02-19 08:43,2025-02-19 08:49,340.723
742,2025-02-19 10:18,2025-02-19 10:23,341.555
743,2025-02-19 11:52,2025-02-19 11:58,342.548
744,2025-02-19 13:27,2025-02-19 13:33,343.697
745,2025-02-19 15:02,2025-02-19 15:08,345.014
746,2025-02-19 16:37,2025-02-19 16:42,346.486
747,2025-02-19 18:11,2025-02-19 18:17,345.612
748,2025-02-19 19:46,2025-02-19 19:52,344.111
749,2025-02-19 21:21,2025-02-19 21:27,342.816
750,2025-02-19 22:56,2025-02-19 23:01,341.72
751,2025-02-20 00:30,2025-02-20 00:36,340.811
752,2025-02-20 02:05,2025-02-20 02:11,340.1
753,2025-02-20 03:40,2025-02-20 03:46,339.567
754,2025-02-20 05:15,2025-02-20 05:20,339.215
755,2025-02-20 06:49,2025-02-20 06:55,339.041
756,2025-02-20 08:24,2025-02-20 08:30,339.043
757,2025-02-20 09:59,2025-02-20 10:05,339.218
758,2025-02-20 11:34,2025-02-20 11:39,339.556
759,2025-02-20 13:08,2025-02-20 13:14,340.058
760,2025-02-20 14:43,2025-02-20 14:49,340.729
761,2025-02-20 16:18,2025-02-20 16:23,341.562
762,2025-02-20 17:53,2025-02-20 17:58,342.559
763,2025-02-20 19:27,2025-02-20 19:33,343.714
764,2025-02-20 21:02,2025-02-20 21:08,345.03
765,2025-02-20 22:37,2025-02-20 22:42,346.499
766,2025-02-21 00:11,2025-02-21 00:17,345.592
767,2025-02-21 01:46,2025-02-21 01:52,344.095
768,2025-02-21 03:21,2025-02-21 03:27,342.804
769,2025-02-21 04:56,2025-02-21 05:01,341.707
770,2025-02-21 06:30,2025-02-21 06:36,340.804
771,2025-02-21 08:05,2025-02-21 08:11,340.09
772,2025-02-21 09:40,2025-02-21 09:46,339.564
773,2025-02-21 11:15,2025-02-21 11:20,339.216
774,2025-02-21 12:49,2025-02-21 12:55,339.043
775,2025-02-21 14:24,2025-02-21 14:30,339.046
776,2025-02-21 15:59,2025-02-21 16:05,339.218
777,2025-02-21 17:34,2025-02-21 17:39,339.559
778,2025-02-21 19:08,2025-02-21 19:14,340.065
779,2025-02-21 20:43,2025-02-21 20:49,340.737
780,2025-02-21 22:18,2025-02-21 22:24,341.573
781,2025-02-21 23:53,2025-02-21 23:58,342.573
782,2025-02-22 01:27,2025-02-22 01:33,343.727
783,2025-02-22 03:02,2025-02-22 03:08,345.043
784,2025-02-22 04:37,2025-02-22 04:42,346.518
785,2025-02-22 06:11,2025-02-22 06:17,345.581
786,2025-02-22 07:46,2025-02-22 07:52,344.081
787,2025-02-22 09:21,2025-02-22 09:27,342.789
788,2025-02-22 10:56,2025-02-22 11:01,341.694
789,2025-02-22 12:31,2025-02-22 12:36,340.798
790,2025-02-22 14:05,2025-02-22 14:11,340.082
791,2025-02-22 15:40,2025-02-22 15:46,339.56
792,2025-02-22 17:15,2025-02-22 17:20,339.212
793,2025-02-22 18:50,2025-02-22 18:55,339.039
794,2025-02-22 20:24,2025-02-22 20:30,339.043
795,2025-02-22 21:59,2025-02-22 22:05,339.219
796,2025-02-22 23:34,2025-02-22 23:39,339.566
797,2025-02-23 01:08,2025-02-23 01:14,340.072
798,2025-02-23 02:43,2025-02-23 02:49,340.746
799,2025-02-23 04:18,2025-02-23 04:24,341.587
800,2025-02-23 05:53,2025-02-23 05:58,342.584
801,2025-02-23 07:27,2025-02-23 07:33,343.742
802,2025-02-23 09:02,2025-02-23 09:08,345.059
803,2025-02-23 10:37,2025-02-23 10:43,346.541
804,2025-02-23 12:12,2025-02-23 12:17,345.561
805,2025-02-23 13:46,2025-02-23 13:52,344.061
806,2025-02-23 15:21,2025-02-23 15:27,342.777
807,2025-02-23 16:56,2025-02-23 17:02,341.686
808,2025-02-23 18:31,2025-02-23 18:36,340.784
809,2025-02-23 20:05,2025-02-23 20:11,340.076
810,2025-02-23 21:40,2025-02-23 21:46,339.551
811,2025-02-23 23:15,2025-02-23 23:20,339.21
812,2025-02-24 00:50,2025-02-24 00:55,339.038
813,2025-02-24 02:24,2025-02-24 02:30,339.045
814,2025-02-24 03:59,2025-02-24 04:05,339.224
815,2025-02-24 05:34,2025-02-24 05:39,339.568
816,2025-02-24 07:08,2025-02-24 07:14,340.081
817,2025-02-24 08:43,2025-02-24 08:49,340.76
818,2025-02-24 10:18,2025-02-24 10:24,341.599
819,2025-02-24 11:53,2025-02-24 11:58,342.599
820,2025-02-24 13:27,2025-02-24 13:33,343.755
821,2025-02-24 15:02,2025-02-24 15:08,345.08
822,2025-02-24 16:37,2025-02-24 16:43,346.559
823,2025-02-24 18:12,2025-02-24 18:17,345.537
824,2025-02-24 19:46,2025-02-24 19:52,344.046
825,2025-02-24 21:21,2025-02-24 21:27,342.761
826,2025-02-24 22:56,2025-02-24 23:02,341.674
827,2025-02-25 00:31,2025-02-25 00:36,340.774
828,2025-02-25 02:05,2025-02-25 02:11,340.072
829,2025-02-25 03:40,2025-02-25 03:46,339.547
830,2025-02-25 05:15,2025-02-25 05:21,339.203
831,2025-02-25 06:50,2025-02-25 06:55,339.038
832,2025-02-25 08:24,2025-02-25 08:30,339.048
833,2025-02-25 09:59,2025-02-25 10:05,339.229
834,2025-02-25 11:34,2025-02-25 11:39,339.576
835,2025-02-25 13:09,2025-02-25 13:14,340.086
836,2025-02-25 14:43,2025-02-25 14:49,340.765
837,2025-02-25 16:18,2025-02-25 16:24,341.606
838,2025-02-25 17:53,2025-02-25 17:58,342.61
839,2025-02-25 19:27,2025-02-25 19:33,343.772
840,2025-02-25 21:02,2025-02-25 21:08,345.096
841,2025-02-25 22:37,2025-02-25 22:43,346.572
842,2025-02-26 00:12,2025-02-26 00:17,345.517
843,2025-02-26 01:46,2025-02-26 01:52,344.031
844,2025-02-26 03:21,2025-02-26 03:27,342.749
845,2025-02-26 04:56,2025-02-26 05:02,341.661
846,2025-02-26 06:31,2025-02-26 06:36,340.767
847,2025-02-26 08:05,2025-02-26 08:11,340.061
848,2025-02-26 09:40,2025-02-26 09:46,339.544
849,2025-02-26 11:15,2025-02-26 11:21,339.204
850,2025-02-26 12:50,2025-02-26 12:55,339.039
851,2025-02-26 14:24,2025-02-26 14:30,339.051
852,2025-02-26 15:59,2025-02-26 16:05,339.23
853,2025-02-26 17:34,2025-02-26 17:40,339.579
854,2025-02-26 19:09,2025-02-26 19:14,340.093
855,2025-02-26 20:43,2025-02-26 20:49,340.773
856,2025-02-26 22:18,2025-02-26 22:24,341.616
857,2025-02-26 23:53,2025-02-26 23:58,342.625
858,2025-02-27 01:28,2025-02-27 01:33,343.785
859,2025-02-27 03:02,2025-02-27 03:08,345.109
860,2025-02-27 04:37,2025-02-27 04:43,346.591
861,2025-02-27 06:12,2025-02-27 06:17,345.503
862,2025-02-27 07:46,2025-02-27 07:52,344.016
863,2025-02-27 09:21,2025-02-27 09:27,342.733
864,2025-02-27 10:56,2025-02-27 11:02,341.647
865,2025-02-27 12:31,2025-02-27 12:36,340.76
866,2025-02-27 14:05,2025-02-27 14:11,340.053
867,2025-02-27 15:40,2025-02-27 15:46,339.539
868,2025-02-27 17:15,2025-02-27 17:21,339.2
869,2025-02-27 18:50,2025-02-27 18:55,339.035
870,2025-02-27 20:24,2025-02-27 20:30,339.048
871,2025-02-27 21:59,2025-02-27 22:05,339.231
872,2025-02-27 23:34,2025-02-27 23:40,339.585
873,2025-02-28 01:09,2025-02-28 01:14,340.099
874,2025-02-28 02:43,2025-02-28 02:49,340.781
875,2025-02-28 04:18,2025-02-28 04:24,341.63
876,2025-02-28 05:53,2025-02-28 05:59,342.635
877,2025-02-28 07:28,2025-02-28 07:33,343.8
878,2025-02-28 09:02,2025-02-28 09:08,345.124
879,2025-02-28 10:37,2025-02-28 10:43,346.614
880,2025-02-28 12:12,2025-02-28 12:18,345.485
881,2025-02-28 13:47,2025-02-28 13:52,343.996
882,2025-02-28 15:21,2025-02-28 15:27,342.721
883,2025-02-28 16:56,2025-02-28 17:02,341.639
884,2025-02-28 18:31,2025-02-28 18:36,340.746
885,2025-02-28 20:06,2025-02-28 20:11,340.047
886,2025-02-28 21:40,2025-02-28 21:46,339.531
887,2025-02-28 23:15,2025-02-28 23:21,339.198
888,2025-03-01 00:50,2025-03-01 00:55,339.037
889,2025-03-01 02:25,2025-03-01 02:30,339.049
890,2025-03-01 03:59,2025-03-01 04:05,339.236
891,2025-03-01 05:34,2025-03-01 05:40,339.589
892,2025-03-01 07:09,2025-03-01 07:14,340.109
893,2025-03-01 08:43,2025-03-01 08:49,340.795
894,2025-03-01 10:18,2025-03-01 10:24,341.642
895,2025-03-01 11:53,2025-03-01 11:59,342.65
896,2025-03-01 13:28,2025-03-01 13:33,343.813
897,2025-03-01 15:02,2025-03-01 15:08,345.146
898,2025-03-01 16:37,2025-03-01 16:43,346.632
899,2025-03-01 18:12,2025-03-01 18:18,345.462
900,2025-03-01 19:47,2025-03-01 19:52,343.982
901,2025-03-01 21:21,2025-03-01 21:27,342.706
902,2025-03-01 22:56,2025-03-01 23:02,341.628
903,2025-03-02 00:31,2025-03-02 00:37,340.737
904,2025-03-02 02:06,2025-03-02 02:11,340.043
905,2025-03-02 03:40,2025-03-02 03:46,339.528
906,2025-03-02 05:15,2025-03-02 05:21,339.192
907,2025-03-02 06:50,2025-03-02 06:55,339.035
908,2025-03-02 08:25,2025-03-02 08:30,339.053
909,2025-03-02 09:59,2025-03-02 10:05,339.241
910,2025-03-02 11:34,2025-03-02 11:40,339.597
911,2025-03-02 13:09,2025-03-02 13:14,340.114
912,2025-03-02 14:44,2025-03-02 14:49,340.801
913,2025-03-02 16:18,2025-03-02 16:24,341.649
914,2025-03-02 17:53,2025-03-02 17:59,342.661
915,2025-03-02 19:28,2025-03-02 19:33,343.831
916,2025-03-02 21:02,2025-03-02 21:08,345.162
917,2025-03-02 22:37,2025-03-02 22:43,346.646
918,2025-03-03 00:12,2025-03-03 00:18,345.444
919,2025-03-03 01:47,2025-03-03 01:52,343.967
920,2025-03-03 03:21,2025-03-03 03:27,342.694
921,2025-03-03 04:56,2025-03-03 05:02,341.616
922,2025-03-03 06:31,2025-03-03 06:37,340.73
923,2025-03-03 08:06,2025-03-03 08:11,340.033
924,2025-03-03 09:40,2025-03-03 09:46,339.525
925,2025-03-03 11:15,2025-03-03 11:21,339.193
926,2025-03-03 12:50,2025-03-03 12:56,339.037
927,2025-03-03 14:25,2025-03-03 14:30,339.056
928,2025-03-03 15:59,2025-03-03 16:05,339.244
929,2025-03-03 17:34,2025-03-03 17:40,339.601
930,2025-03-03 19:09,2025-03-03 19:14,340.123
931,2025-03-03 20:44,2025-03-03 20:49,340.81
932,2025-03-03 22:18,2025-03-03 22:24,341.66
933,2025-03-03 23:53,2025-03-03 23:59,342.676
934,2025-03-04 01:28,2025-03-04 01:33,343.845
935,2025-03-04 03:02,2025-03-04 03:08,345.176
936,2025-03-04 04:37,2025-03-04 04:43,346.665
937,2025-03-04 06:12,2025-03-04 06:18,345.431
938,2025-03-04 07:47,2025-03-04 07:52,343.953
939,2025-03-04 09:21,2025-03-04 09:27,342.68
940,2025-03-04 10:56,2025-03-04 11:02,341.603
941,2025-03-04 12:31,2025-03-04 12:37,340.725
942,2025-03-04 14:06,2025-03-04 14:11,340.026
943,2025-03-04 15:40,2025-03-04 15:46,339.521
944,2025-03-04 17:15,2025-03-04 17:21,339.19
945,2025-03-04 18:50,2025-03-04 18:56,339.033
946,2025-03-04 20:25,2025-03-04 20:30,339.054
947,2025-03-04 21:59,2025-03-04 22:05,339.246
948,2025-03-04 23:34,2025-03-04 23:40,339.608
949,2025-03-05 01:09,2025-03-05 01:15,340.129
950,2025-03-05 02:44,2025-03-05 02:49,340.819
951,2025-03-05 04:18,2025-03-05 04:24,341.675
952,2025-03-05 05:53,2025-03-05 05:59,342.688
953,2025-03-05 07:28,2025-03-05 07:34,343.86
954,2025-03-05 09:03,2025-03-05 09:08,345.192
955,2025-03-05 10:37,2025-03-05 10:43,346.689
956,2025-03-05 12:12,2025-03-05 12:18,345.415
957,2025-03-05 13:47,2025-03-05 13:52,343.934
958,2025-03-05 15:22,2025-03-05 15:27,342.669
959,2025-03-05 16:56,2025-03-05 17:02,341.596
960,2025-03-05 18:31,2025-03-05 18:37,340.712
961,2025-03-05 20:06,2025-03-05 20:11,340.021
962,2025-03-05 21:41,2025-03-05 21:46,339.514
963,2025-03-05 23:15,2025-03-05 23:21,339.189
964,2025-03-06 00:50,2025-03-06 00:56,339.033
965,2025-03-06 02:25,2025-03-06 02:30,339.057
966,2025-03-06 03:59,2025-03-06 04:05,339.252
967,2025-03-06 05:34,2025-03-06 05:40,339.612
968,2025-03-06 07:09,2025-03-06 07:15,340.14
969,2025-03-06 08:44,2025-03-06 08:49,340.834
970,2025-03-06 10:18,2025-03-06 10:24,341.688
971,2025-03-06 11:53,2025-03-06 11:59,342.703
972,2025-03-06 13:28,2025-03-06 13:34,343.874
973,2025-03-06 15:03,2025-03-06 15:08,345.214
974,2025-03-06 16:37,2025-03-06 16:43,346.708
975,2025-03-06 18:12,2025-03-06 18:18,345.392
976,2025-03-06 19:47,2025-03-06 19:53,343.92
977,2025-03-06 21:22,2025-03-06 21:27,342.654
978,2025-03-06 22:56,2025-03-06 23:02,341.585
979,2025-03-07 00:31,2025-03-07 00:37,340.703
980,2025-03-07 02:06,2025-03-07 02:11,340.018
981,2025-03-07 03:41,2025-03-07 03:46,339.511
982,2025-03-07 05:15,2025-03-07 05:21,339.183
983,2025-03-07 06:50,2025-03-07 06:56,339.035
984,2025-03-07 08:25,2025-03-07 08:30,339.061
985,2025-03-07 10:00,2025-03-07 10:05,339.257
986,2025-03-07 11:34,2025-03-07 11:40,339.62
987,2025-03-07 13:09,2025-03-07 13:15,340.145
988,2025-03-07 14:44,2025-03-07 14:49,340.839
989,2025-03-07 16:18,2025-03-07 16:24,341.695
990,2025-03-07 17:53,2025-03-07 17:59,342.715
991,2025-03-07 19:28,2025-03-07 19:34,343.892
992,2025-03-07 21:03,2025-03-07 21:08,345.231
993,2025-03-07 22:37,2025-03-07 22:43,346.722
994,2025-03-08 00:12,2025-03-08 00:18,345.373
995,2025-03-08 01:47,2025-03-08 01:53,343.905
996,2025-03-08 03:22,2025-03-08 03:27,342.642
997,2025-03-08 04:56,2025-03-08 05:02,341.573
998,2025-03-08 06:31,2025-03-08 06:37,340.696
999,2025-03-08 08:06,2025-03-08 08:12,340.008
1000,2025-03-08 09:41,2025-03-08 09:46,339.508
1001,2025-03-08 11:15,2025-03-08 11:21,339.184
1002,2025-03-08 12:50,2025-03-08 12:56,339.036
1003,2025-03-08 14:25,2025-03-08 14:31,339.064
1004,2025-03-08 16:00,2025-03-08 16:05,339.259
1005,2025-03-08 17:34,2025-03-08 17:40,339.624
1006,2025-03-08 19:09,2025-03-08 19:15,340.154
1007,2025-03-08 20:44,2025-03-08 20:49,340.848
1008,2025-03-08 22:19,2025-03-08 22:24,341.706
1009,2025-03-08 23:53,2025-03-08 23:59,342.729
1010,2025-03-09 01:28,2025-03-09 01:34,343.906
1011,2025-03-09 03:03,2025-03-09 03:08,345.244
1012,2025-03-09 04:37,2025-03-09 04:43,346.741
1013,2025-03-09 06:12,2025-03-09 06:18,345.358
1014,2025-03-09 07:47,2025-03-09 07:53,343.891
1015,2025-03-09 09:22,2025-03-09 09:27,342.627
1016,2025-03-09 10:56,2025-03-09 11:02,341.559
1017,2025-03-09 12:31,2025-03-09 12:37,340.69
1018,2025-03-09 14:06,2025-03-09 14:12,340
1019,2025-03-09 15:41,2025-03-09 15:46,339.504
1020,2025-03-09 17:15,2025-03-09 17:21,339.181
1021,2025-03-09 18:50,2025-03-09 18:56,339.032
1022,2025-03-09 20:25,2025-03-09 20:31,339.061
1023,2025-03-09 22:00,2025-03-09 22:05,339.261
1024,2025-03-09 23:34,2025-03-09 23:40,339.63
1025,2025-03-10 01:09,2025-03-10 01:15,340.16
1026,2025-03-10 02:44,2025-03-10 02:50,340.857
1027,2025-03-10 04:19,2025-03-10 04:24,341.721
1028,2025-03-10 05:53,2025-03-10 05:59,342.741
1029,2025-03-10 07:28,2025-03-10 07:34,343.921
1030,2025-03-10 09:03,2025-03-10 09:08,345.26
1031,2025-03-10 10:37,2025-03-10 10:43,346.764
1032,2025-03-10 12:12,2025-03-10 12:18,345.339
1033,2025-03-10 13:47,2025-03-10 13:53,343.872
1034,2025-03-10 15:22,2025-03-10 15:27,342.616
1035,2025-03-10 16:56,2025-03-10 17:02,341.554
1036,2025-03-10 18:31,2025-03-10 18:37,340.677
1037,2025-03-10 20:06,2025-03-10 20:12,339.994
1038,2025-03-10 21:41,2025-03-10 21:46,339.496
1039,2025-03-10 23:15,2025-03-10 23:21,339.179
1040,2025-03-11 00:50,2025-03-11 00:56,339.032
1041,2025-03-11 02:25,2025-03-11 02:31,339.063
1042,2025-03-11 04:00,2025-03-11 04:05,339.266
1043,2025-03-11 05:34,2025-03-11 05:40,339.634
1044,2025-03-11 07:09,2025-03-11 07:15,340.17
1045,2025-03-11 08:44,2025-03-11 08:50,340.871
1046,2025-03-11 10:19,2025-03-11 10:24,341.733
1047,2025-03-11 11:53,2025-03-11 11:59,342.756
1048,2025-03-11 13:28,2025-03-11 13:34,343.934
1049,2025-03-11 15:03,2025-03-11 15:09,345.282
1050,2025-03-11 16:37,2025-03-11 16:43,346.783
1051,2025-03-11 18:12,2025-03-11 18:18,345.316
1052,2025-03-11 19:47,2025-03-11 19:53,343.857
1053,2025-03-11 21:22,2025-03-11 21:27,342.6
1054,2025-03-11 22:57,2025-03-11 23:02,341.541
1055,2025-03-12 00:31,2025-03-12 00:37,340.668
1056,2025-03-12 02:06,2025-03-12 02:12,339.991
1057,2025-03-12 03:41,2025-03-12 03:46,339.492
1058,2025-03-12 05:16,2025-03-12 05:21,339.173
1059,2025-03-12 06:50,2025-03-12 06:56,339.033
1060,2025-03-12 08:25,2025-03-12 08:31,339.067
1061,2025-03-12 10:00,2025-03-12 10:05,339.271
1062,2025-03-12 11:34,2025-03-12 11:40,339.642
1063,2025-03-12 13:09,2025-03-12 13:15,340.175
1064,2025-03-12 14:44,2025-03-12 14:50,340.876
1065,2025-03-12 16:19,2025-03-12 16:24,341.74
1066,2025-03-12 17:53,2025-03-12 17:59,342.767
1067,2025-03-12 19:28,2025-03-12 19:34,343.952
1068,2025-03-12 21:03,2025-03-12 21:09,345.298
1069,2025-03-12 22:38,2025-03-12 22:43,346.8
1070,2025-03-13 00:12,2025-03-13 00:18,345.302
1071,2025-03-13 01:47,2025-03-13 01:53,343.842
1072,2025-03-13 03:22,2025-03-13 03:28,342.588
1073,2025-03-13 04:57,2025-03-13 05:02,341.528
1074,2025-03-13 06:31,2025-03-13 06:37,340.661
1075,2025-03-13 08:06,2025-03-13 08:12,339.981
1076,2025-03-13 09:41,2025-03-13 09:47,339.49
1077,2025-03-13 11:16,2025-03-13 11:21,339.174
1078,2025-03-13 12:50,2025-03-13 12:56,339.035
1079,2025-03-13 14:25,2025-03-13 14:31,339.07
1080,2025-03-13 16:00,2025-03-13 16:05,339.273
1081,2025-03-13 17:35,2025-03-13 17:40,339.645
1082,2025-03-13 19:09,2025-03-13 19:15,340.184
1083,2025-03-13 20:44,2025-03-13 20:50,340.886
1084,2025-03-13 22:19,2025-03-13 22:24,341.751
1085,2025-03-13 23:53,2025-03-13 23:59,342.781
1086,2025-03-14 01:28,2025-03-14 01:34,343.965
1087,2025-03-14 03:03,2025-03-14 03:09,345.311
1088,2025-03-14 04:38,2025-03-14 04:43,346.815
1089,2025-03-14 06:12,2025-03-14 06:18,345.287
1090,2025-03-14 07:47,2025-03-14 07:53,343.828
1091,2025-03-14 09:22,2025-03-14 09:28,342.574
1092,2025-03-14 10:57,2025-03-14 11:02,341.515
1093,2025-03-14 12:31,2025-03-14 12:37,340.655
1094,2025-03-14 14:06,2025-03-14 14:12,339.974
1095,2025-03-14 15:41,2025-03-14 15:47,339.486
1096,2025-03-14 17:16,2025-03-14 17:21,339.171
1097,2025-03-14 18:50,2025-03-14 18:56,339.031
1098,2025-03-14 20:25,2025-03-14 20:31,339.068
1099,2025-03-14 22:00,2025-03-14 22:06,339.275
1100,2025-03-14 23:35,2025-03-14 23:40,339.652
1101,2025-03-15 01:09,2025-03-15 01:15,340.19
1102,2025-03-15 02:44,2025-03-15 02:50,340.895
1103,2025-03-15 04:19,2025-03-15 04:24,341.766
1104,2025-03-15 05:54,2025-03-15 05:59,342.793
1105,2025-03-15 07:28,2025-03-15 07:34,343.981
1106,2025-03-15 09:03,2025-03-15 09:09,345.328
1107,2025-03-15 10:38,2025-03-15 10:43,346.839
1108,2025-03-15 12:12,2025-03-15 12:18,345.268
1109,2025-03-15 13:47,2025-03-15 13:53,343.81
1110,2025-03-15 15:22,2025-03-15 15:28,342.563
1111,2025-03-15 16:57,2025-03-15 17:02,341.508
1112,2025-03-15 18:31,2025-03-15 18:37,340.642
1113,2025-03-15 20:06,2025-03-15 20:12,339.968
1114,2025-03-15 21:41,2025-03-15 21:47,339.478
1115,2025-03-15 23:16,2025-03-15 23:21,339.17
1116,2025-03-16 00:50,2025-03-16 00:56,339.031
1117,2025-03-16 02:25,2025-03-16 02:31,339.07
1118,2025-03-16 04:00,2025-03-16 04:06,339.281
1119,2025-03-16 05:35,2025-03-16 05:40,339.657
1120,2025-03-16 07:09,2025-03-16 07:15,340.2
1121,2025-03-16 08:44,2025-03-16 08:50,340.909
1122,2025-03-16 10:19,2025-03-16 10:25,341.779
1123,2025-03-16 11:54,2025-03-16 11:59,342.809
1124,2025-03-16 13:28,2025-03-16 13:34,343.995
1125,2025-03-16 15:03,2025-03-16 15:09,345.35
1126,2025-03-16 16:38,2025-03-16 16:43,346.858
1127,2025-03-16 18:12,2025-03-16 18:18,345.246
1128,2025-03-16 19:47,2025-03-16 19:53,343.796
1129,2025-03-16 21:22,2025-03-16 21:28,342.548
1130,2025-03-16 22:57,2025-03-16 23:02,341.498
1131,2025-03-17 00:32,2025-03-17 00:37,340.634
1132,2025-03-17 02:06,2025-03-17 02:12,339.966
1133,2025-03-17 03:41,2025-03-17 03:47,339.475
1134,2025-03-17 05:16,2025-03-17 05:21,339.165
1135,2025-03-17 06:51,2025-03-17 06:56,339.032
1136,2025-03-17 08:25,2025-03-17 08:31,339.074
1137,2025-03-17 10:00,2025-03-17 10:06,339.286
1138,2025-03-17 11:35,2025-03-17 11:40,339.665
1139,2025-03-17 13:09,2025-03-17 13:15,340.206
1140,2025-03-17 14:44,2025-03-17 14:50,340.915
1141,2025-03-17 16:19,2025-03-17 16:25,341.786
1142,2025-03-17 17:54,2025-03-17 17:59,342.821
1143,2025-03-17 19:28,2025-03-17 19:34,344.013
1144,2025-03-17 21:03,2025-03-17 21:09,345.367
1145,2025-03-17 22:38,2025-03-17 22:44,346.873
1146,2025-03-18 00:13,2025-03-18 00:18,345.23
1147,2025-03-18 01:47,2025-03-18 01:53,343.782
1148,2025-03-18 03:22,2025-03-18 03:28,342.537
1149,2025-03-18 04:57,2025-03-18 05:03,341.486
1150,2025-03-18 06:32,2025-03-18 06:37,340.627
1151,2025-03-18 08:06,2025-03-18 08:12,339.956
1152,2025-03-18 09:41,2025-03-18 09:47,339.473
1153,2025-03-18 11:16,2025-03-18 11:21,339.166
1154,2025-03-18 12:51,2025-03-18 12:56,339.035
1155,2025-03-18 14:25,2025-03-18 14:31,339.078
1156,2025-03-18 16:00,2025-03-18 16:06,339.29
1157,2025-03-18 17:35,2025-03-18 17:40,339.669
1158,2025-03-18 19:09,2025-03-18 19:15,340.216
1159,2025-03-18 20:44,2025-03-18 20:50,340.925
1160,2025-03-18 22:19,2025-03-18 22:25,341.798
1161,2025-03-18 23:54,2025-03-18 23:59,342.836
1162,2025-03-19 01:28,2025-03-19 01:34,344.027
1163,2025-03-19 03:03,2025-03-19 03:09,345.38
1164,2025-03-19 04:38,2025-03-19 04:44,346.87
1165,2025-03-19 06:13,2025-03-19 06:18,345.216
1166,2025-03-19 07:47,2025-03-19 07:53,343.768
1167,2025-03-19 09:22,2025-03-19 09:28,342.523
1168,2025-03-19 10:57,2025-03-19 11:03,341.473
1169,2025-03-19 12:32,2025-03-19 12:37,340.622
1170,2025-03-19 14:06,2025-03-19 14:12,339.95
1171,2025-03-19 15:41,2025-03-19 15:47,339.47
1172,2025-03-19 17:16,2025-03-19 17:22,339.164
1173,2025-03-19 18:51,2025-03-19 18:56,339.032
1174,2025-03-19 20:25,2025-03-19 20:31,339.076
1175,2025-03-19 22:00,2025-03-19 22:06,339.292
1176,2025-03-19 23:35,2025-03-19 23:40,339.677
1177,2025-03-20 01:10,2025-03-20 01:15,340.222
1178,2025-03-20 02:44,2025-03-20 02:50,340.935
1179,2025-03-20 04:19,2025-03-20 04:25,341.813
1180,2025-03-20 05:54,2025-03-20 05:59,342.848
1181,2025-03-20 07:28,2025-03-20 07:34,344.043
1182,2025-03-20 09:03,2025-03-20 09:09,345.397
1183,2025-03-20 10:38,2025-03-20 10:44,346.855
1184,2025-03-20 12:13,2025-03-20 12:18,345.198
1185,2025-03-20 13:47,2025-03-20 13:53,343.75
1186,2025-03-20 15:22,2025-03-20 15:28,342.513
1187,2025-03-20 16:57,2025-03-20 17:03,341.467
1188,2025-03-20 18:32,2025-03-20 18:37,340.61
1189,2025-03-20 20:06,2025-03-20 20:12,339.944
1190,2025-03-20 21:41,2025-03-20 21:47,339.463
1191,2025-03-20 23:16,2025-03-20 23:22,339.163
1192,2025-03-21 00:51,2025-03-21 00:56,339.032
1193,2025-03-21 02:25,2025-03-21 02:31,339.079
1194,2025-03-21 04:00,2025-03-21 04:06,339.298
1195,2025-03-21 05:35,2025-03-21 05:41,339.681
1196,2025-03-21 07:10,2025-03-21 07:15,340.233
1197,2025-03-21 08:44,2025-03-21 08:50,340.949
1198,2025-03-21 10:19,2025-03-21 10:25,341.826
1199,2025-03-21 11:54,2025-03-21 11:59,342.864
1200,2025-03-21 13:29,2025-03-21 13:34,344.058
1201,2025-03-21 15:03,2025-03-21 15:09,345.42
1202,2025-03-21 16:38,2025-03-21 16:44,346.836
1203,2025-03-21 18:13,2025-03-21 18:18,345.178
1204,2025-03-21 19:47,2025-03-21 19:53,343.736
1205,2025-03-21 21:22,2025-03-21 21:28,342.498
1206,2025-03-21 22:57,2025-03-21 23:03,341.457
1207,2025-03-22 00:32,2025-03-22 00:37,340.601
1208,2025-03-22 02:06,2025-03-22 02:12,339.942
1209,2025-03-22 03:41,2025-03-22 03:47,339.46
1210,2025-03-22 05:16,2025-03-22 05:22,339.158
1211,2025-03-22 06:51,2025-03-22 06:56,339.034
1212,2025-03-22 08:25,2025-03-22 08:31,339.083
1213,2025-03-22 10:00,2025-03-22 10:06,339.304
1214,2025-03-22 11:35,2025-03-22 11:41,339.69
1215,2025-03-22 13:10,2025-03-22 13:15,340.238
1216,2025-03-22 14:44,2025-03-22 14:50,340.955
1217,2025-03-22 16:19,2025-03-22 16:25,341.834
1218,2025-03-22 17:54,2025-03-22 18:00,342.876
1219,2025-03-22 19:29,2025-03-22 19:34,344.076
1220,2025-03-22 21:03,2025-03-22 21:09,345.437
1221,2025-03-22 22:38,2025-03-22 22:44,346.808
1222,2025-03-23 00:13,2025-03-23 00:19,345.161
1223,2025-03-23 01:48,2025-03-23 01:53,343.722
1224,2025-03-23 03:22,2025-03-23 03:28,342.487
1225,2025-03-23 04:57,2025-03-23 05:03,341.445
1226,2025-03-23 06:32,2025-03-23 06:37,340.595
1227,2025-03-23 08:07,2025-03-23 08:12,339.933
1228,2025-03-23 09:41,2025-03-23 09:47,339.458
1229,2025-03-23 11:16,2025-03-23 11:22,339.16
1230,2025-03-23 12:51,2025-03-23 12:56,339.036
1231,2025-03-23 14:26,2025-03-23 14:31,339.087
1232,2025-03-23 16:00,2025-03-23 16:06,339.307
1233,2025-03-23 17:35,2025-03-23 17:41,339.694
1234,2025-03-23 19:10,2025-03-23 19:15,340.248
1235,2025-03-23 20:44,2025-03-23 20:50,340.965
1236,2025-03-23 22:19,2025-03-23 22:25,341.846
1237,2025-03-23 23:54,2025-03-24 00:00,342.892
1238,2025-03-24 01:29,2025-03-24 01:34,344.09
1239,2025-03-24 03:03,2025-03-24 03:09,345.45
1240,2025-03-24 04:38,2025-03-24 04:44,346.791
1241,2025-03-24 06:13,2025-03-24 06:19,345.144
1242,2025-03-24 07:48,2025-03-24 07:53,343.709
1243,2025-03-24 09:22,2025-03-24 09:28,342.473
1244,2025-03-24 10:57,2025-03-24 11:03,341.432
1245,2025-03-24 12:32,2025-03-24 12:38,340.59
1246,2025-03-24 14:07,2025-03-24 14:12,339.926
1247,2025-03-24 15:41,2025-03-24 15:47,339.454
1248,2025-03-24 17:16,2025-03-24 17:22,339.157
1249,2025-03-24 18:51,2025-03-24 18:56,339.032
1250,2025-03-24 20:26,2025-03-24 20:31,339.085
1251,2025-03-24 22:00,2025-03-24 22:06,339.309
1252,2025-03-24 23:35,2025-03-24 23:41,339.701
1253,2025-03-25 01:10,2025-03-25 01:15,340.254
1254,2025-03-25 02:44,2025-03-25 02:50,340.974
1255,2025-03-25 04:19,2025-03-25 04:25,341.861
1256,2025-03-25 05:54,2025-03-25 06:00,342.903
1257,2025-03-25 07:29,2025-03-25 07:34,344.105
1258,2025-03-25 09:03,2025-03-25 09:09,345.467
1259,2025-03-25 10:38,2025-03-25 10:44,346.776
1260,2025-03-25 12:13,2025-03-25 12:19,345.13
1261,2025-03-25 13:48,2025-03-25 13:53,343.691
1262,2025-03-25 15:22,2025-03-25 15:28,342.462
1263,2025-03-25 16:57,2025-03-25 17:03,341.425
1264,2025-03-25 18:32,2025-03-25 18:38,340.577
1265,2025-03-25 20:07,2025-03-25 20:12,339.92
1266,2025-03-25 21:41,2025-03-25 21:47,339.447
1267,2025-03-25 23:16,2025-03-25 23:22,339.155
1268,2025-03-26 00:51,2025-03-26 00:57,339.032
1269,2025-03-26 02:26,2025-03-26 02:31,339.088
1270,2025-03-26 04:00,2025-03-26 04:06,339.314
1271,2025-03-26 05:35,2025-03-26 05:41,339.706
1272,2025-03-26 07:10,2025-03-26 07:15,340.264
1273,2025-03-26 08:45,2025-03-26 08:50,340.989
1274,2025-03-26 10:19,2025-03-26 10:25,341.873
1275,2025-03-26 11:54,2025-03-26 12:00,342.918
1276,2025-03-26 13:29,2025-03-26 13:34,344.119
1277,2025-03-26 15:03,2025-03-26 15:09,345.489
1278,2025-03-26 16:38,2025-03-26 16:44,346.752
1279,2025-03-26 18:13,2025-03-26 18:19,345.108
1280,2025-03-26 19:48,2025-03-26 19:53,343.676
1281,2025-03-26 21:22,2025-03-26 21:28,342.447
1282,2025-03-26 22:57,2025-03-26 23:03,341.415
1283,2025-03-27 00:32,2025-03-27 00:38,340.568
1284,2025-03-27 02:07,2025-03-27 02:12,339.917
1285,2025-03-27 03:41,2025-03-27 03:47,339.444
1286,2025-03-27 05:16,2025-03-27 05:22,339.15
1287,2025-03-27 06:51,2025-03-27 06:57,339.034
1288,2025-03-27 08:26,2025-03-27 08:31,339.091
1289,2025-03-27 10:00,2025-03-27 10:06,339.32
1290,2025-03-27 11:35,2025-03-27 11:41,339.714
1291,2025-03-27 13:10,2025-03-27 13:16,340.27
1292,2025-03-27 14:45,2025-03-27 14:50,340.994
1293,2025-03-27 16:19,2025-03-27 16:25,341.881
1294,2025-03-27 17:54,2025-03-27 18:00,342.93
1295,2025-03-27 19:29,2025-03-27 19:35,344.137
1296,2025-03-27 21:03,2025-03-27 21:09,345.506
1297,2025-03-27 22:38,2025-03-27 22:44,346.728
1298,2025-03-28 00:13,2025-03-28 00:19,345.09
1299,2025-03-28 01:48,2025-03-28 01:53,343.661
1300,2025-03-28 03:23,2025-03-28 03:28,342.435
1301,2025-03-28 04:57,2025-03-28 05:03,341.403
1302,2025-03-28 06:32,2025-03-28 06:38,340.562
