3UCubedIntegratedSim/Reports & Plots/Area Target Access Data/CSV/Sat13.csv

Access,Start Time (UTCG),Stop Time (UTCG),Duration (sec),,,Global Statistics,,,,
1,2025-01-01 16:30:27,2025-01-01 16:31:18,51.525,,,Min Duration,1908-01-17 00:00:00,2025-07-13 23:35:52,2025-07-13 23:36:41,49.213
2,2025-01-01 18:05:11,2025-01-01 18:06:04,52.517,,,Max Duration,1914-07-27 00:00:00,2025-12-17 18:20:43,2025-12-17 18:21:41,57.512
3,2025-01-01 19:39:56,2025-01-01 19:40:49,53.706,,,Mean Duration,,,,51.978
4,2025-01-01 21:14:40,2025-01-01 21:15:35,55.095,,,Total Duration,,,,288372.646
5,2025-01-01 22:49:24,2025-01-01 22:50:21,56.692,,,,,,,
6,2025-01-02 00:24:09,2025-01-02 00:25:05,56.095,,,,,,,
7,2025-01-02 01:58:53,2025-01-02 01:59:48,54.7,,,,,,,
8,2025-01-02 03:33:37,2025-01-02 03:34:31,53.455,,,,,,,
9,2025-01-02 05:08:22,2025-01-02 05:09:14,52.381,,,,,,,
10,2025-01-02 06:43:06,2025-01-02 06:43:58,51.463,,,,,,,
11,2025-01-02 08:17:51,2025-01-02 08:18:41,50.706,,,,,,,
12,2025-01-02 09:52:35,2025-01-02 09:53:25,50.114,,,,,,,
13,2025-01-02 11:27:19,2025-01-02 11:28:09,49.687,,,,,,,
14,2025-01-02 13:02:04,2025-01-02 13:02:53,49.427,,,,,,,
15,2025-01-02 14:36:48,2025-01-02 14:37:37,49.337,,,,,,,
16,2025-01-02 16:11:33,2025-01-02 16:12:22,49.416,,,,,,,
17,2025-01-02 17:46:17,2025-01-02 17:47:07,49.676,,,,,,,
18,2025-01-02 19:21:01,2025-01-02 19:21:51,50.113,,,,,,,
19,2025-01-02 20:55:46,2025-01-02 20:56:36,50.731,,,,,,,
20,2025-01-02 22:30:30,2025-01-02 22:31:22,51.533,,,,,,,
21,2025-01-03 00:05:14,2025-01-03 00:06:07,52.527,,,,,,,
22,2025-01-03 01:39:59,2025-01-03 01:40:53,53.726,,,,,,,
23,2025-01-03 03:14:43,2025-01-03 03:15:38,55.115,,,,,,,
24,2025-01-03 04:49:28,2025-01-03 04:50:24,56.714,,,,,,,
25,2025-01-03 06:24:12,2025-01-03 06:25:08,56.081,,,,,,,
26,2025-01-03 07:58:56,2025-01-03 07:59:51,54.687,,,,,,,
27,2025-01-03 09:33:41,2025-01-03 09:34:34,53.448,,,,,,,
28,2025-01-03 11:08:25,2025-01-03 11:09:18,52.371,,,,,,,
29,2025-01-03 12:43:10,2025-01-03 12:44:01,51.455,,,,,,,
30,2025-01-03 14:17:54,2025-01-03 14:18:45,50.696,,,,,,,
31,2025-01-03 15:52:38,2025-01-03 15:53:28,50.109,,,,,,,
32,2025-01-03 17:27:23,2025-01-03 17:28:12,49.685,,,,,,,
33,2025-01-03 19:02:07,2025-01-03 19:02:57,49.427,,,,,,,
34,2025-01-03 20:36:51,2025-01-03 20:37:41,49.339,,,,,,,
35,2025-01-03 22:11:36,2025-01-03 22:12:25,49.423,,,,,,,
36,2025-01-03 23:46:20,2025-01-03 23:47:10,49.682,,,,,,,
37,2025-01-04 01:21:05,2025-01-04 01:21:55,50.118,,,,,,,
38,2025-01-04 02:55:49,2025-01-04 02:56:40,50.741,,,,,,,
39,2025-01-04 04:30:33,2025-01-04 04:31:25,51.549,,,,,,,
40,2025-01-04 06:05:18,2025-01-04 06:06:10,52.544,,,,,,,
41,2025-01-04 07:40:02,2025-01-04 07:40:56,53.739,,,,,,,
42,2025-01-04 09:14:47,2025-01-04 09:15:42,55.134,,,,,,,
43,2025-01-04 10:49:31,2025-01-04 10:50:28,56.732,,,,,,,
44,2025-01-04 12:24:15,2025-01-04 12:25:11,56.065,,,,,,,
45,2025-01-04 13:59:00,2025-01-04 13:59:54,54.674,,,,,,,
46,2025-01-04 15:33:44,2025-01-04 15:34:38,53.435,,,,,,,
47,2025-01-04 17:08:29,2025-01-04 17:09:21,52.356,,,,,,,
48,2025-01-04 18:43:13,2025-01-04 18:44:04,51.443,,,,,,,
49,2025-01-04 20:17:57,2025-01-04 20:18:48,50.693,,,,,,,
50,2025-01-04 21:52:42,2025-01-04 21:53:32,50.105,,,,,,,
51,2025-01-04 23:27:26,2025-01-04 23:28:16,49.682,,,,,,,
52,2025-01-05 01:02:10,2025-01-05 01:03:00,49.426,,,,,,,
53,2025-01-05 02:36:55,2025-01-05 02:37:44,49.34,,,,,,,
54,2025-01-05 04:11:39,2025-01-05 04:12:29,49.422,,,,,,,
55,2025-01-05 05:46:24,2025-01-05 05:47:13,49.688,,,,,,,
56,2025-01-05 07:21:08,2025-01-05 07:21:58,50.13,,,,,,,
57,2025-01-05 08:55:52,2025-01-05 08:56:43,50.749,,,,,,,
58,2025-01-05 10:30:37,2025-01-05 10:31:28,51.56,,,,,,,
59,2025-01-05 12:05:21,2025-01-05 12:06:14,52.562,,,,,,,
60,2025-01-05 13:40:06,2025-01-05 13:40:59,53.755,,,,,,,
61,2025-01-05 15:14:50,2025-01-05 15:15:45,55.153,,,,,,,
62,2025-01-05 16:49:34,2025-01-05 16:50:31,56.753,,,,,,,
63,2025-01-05 18:24:19,2025-01-05 18:25:15,56.048,,,,,,,
64,2025-01-05 19:59:03,2025-01-05 19:59:58,54.654,,,,,,,
65,2025-01-05 21:33:47,2025-01-05 21:34:41,53.419,,,,,,,
66,2025-01-05 23:08:32,2025-01-05 23:09:24,52.349,,,,,,,
67,2025-01-06 00:43:16,2025-01-06 00:44:08,51.434,,,,,,,
68,2025-01-06 02:18:01,2025-01-06 02:18:51,50.685,,,,,,,
69,2025-01-06 03:52:45,2025-01-06 03:53:35,50.095,,,,,,,
70,2025-01-06 05:27:29,2025-01-06 05:28:19,49.679,,,,,,,
71,2025-01-06 07:02:14,2025-01-06 07:03:03,49.425,,,,,,,
72,2025-01-06 08:36:58,2025-01-06 08:37:47,49.341,,,,,,,
73,2025-01-06 10:11:43,2025-01-06 10:12:32,49.429,,,,,,,
74,2025-01-06 11:46:27,2025-01-06 11:47:17,49.692,,,,,,,
75,2025-01-06 13:21:11,2025-01-06 13:22:01,50.137,,,,,,,
76,2025-01-06 14:55:56,2025-01-06 14:56:46,50.758,,,,,,,
77,2025-01-06 16:30:40,2025-01-06 16:31:32,51.568,,,,,,,
78,2025-01-06 18:05:24,2025-01-06 18:06:17,52.57,,,,,,,
79,2025-01-06 19:40:09,2025-01-06 19:41:03,53.77,,,,,,,
80,2025-01-06 21:14:53,2025-01-06 21:15:48,55.171,,,,,,,
81,2025-01-06 22:49:38,2025-01-06 22:50:34,56.777,,,,,,,
82,2025-01-07 00:24:22,2025-01-07 00:25:18,56.029,,,,,,,
83,2025-01-07 01:59:06,2025-01-07 02:00:01,54.642,,,,,,,
84,2025-01-07 03:33:51,2025-01-07 03:34:44,53.407,,,,,,,
85,2025-01-07 05:08:35,2025-01-07 05:09:27,52.338,,,,,,,
86,2025-01-07 06:43:20,2025-01-07 06:44:11,51.428,,,,,,,
87,2025-01-07 08:18:04,2025-01-07 08:18:55,50.679,,,,,,,
88,2025-01-07 09:52:48,2025-01-07 09:53:38,50.095,,,,,,,
89,2025-01-07 11:27:33,2025-01-07 11:28:22,49.675,,,,,,,
90,2025-01-07 13:02:17,2025-01-07 13:03:07,49.423,,,,,,,
91,2025-01-07 14:37:01,2025-01-07 14:37:51,49.341,,,,,,,
92,2025-01-07 16:11:46,2025-01-07 16:12:35,49.428,,,,,,,
93,2025-01-07 17:46:30,2025-01-07 17:47:20,49.696,,,,,,,
94,2025-01-07 19:21:15,2025-01-07 19:22:05,50.142,,,,,,,
95,2025-01-07 20:55:59,2025-01-07 20:56:50,50.768,,,,,,,
96,2025-01-07 22:30:43,2025-01-07 22:31:35,51.579,,,,,,,
97,2025-01-08 00:05:28,2025-01-08 00:06:20,52.582,,,,,,,
98,2025-01-08 01:40:12,2025-01-08 01:41:06,53.786,,,,,,,
99,2025-01-08 03:14:57,2025-01-08 03:15:52,55.189,,,,,,,
100,2025-01-08 04:49:41,2025-01-08 04:50:38,56.798,,,,,,,
101,2025-01-08 06:24:25,2025-01-08 06:25:21,56.015,,,,,,,
102,2025-01-08 07:59:10,2025-01-08 08:00:04,54.627,,,,,,,
103,2025-01-08 09:33:54,2025-01-08 09:34:47,53.397,,,,,,,
104,2025-01-08 11:08:38,2025-01-08 11:09:31,52.327,,,,,,,
105,2025-01-08 12:43:23,2025-01-08 12:44:14,51.419,,,,,,,
106,2025-01-08 14:18:07,2025-01-08 14:18:58,50.668,,,,,,,
107,2025-01-08 15:52:52,2025-01-08 15:53:42,50.088,,,,,,,
108,2025-01-08 17:27:36,2025-01-08 17:28:26,49.672,,,,,,,
109,2025-01-08 19:02:20,2025-01-08 19:03:10,49.422,,,,,,,
110,2025-01-08 20:37:05,2025-01-08 20:37:54,49.342,,,,,,,
111,2025-01-08 22:11:49,2025-01-08 22:12:39,49.434,,,,,,,
112,2025-01-08 23:46:34,2025-01-08 23:47:23,49.702,,,,,,,
113,2025-01-09 01:21:18,2025-01-09 01:22:08,50.146,,,,,,,
114,2025-01-09 02:56:02,2025-01-09 02:56:53,50.777,,,,,,,
115,2025-01-09 04:30:47,2025-01-09 04:31:38,51.595,,,,,,,
116,2025-01-09 06:05:31,2025-01-09 06:06:24,52.599,,,,,,,
117,2025-01-09 07:40:16,2025-01-09 07:41:09,53.803,,,,,,,
118,2025-01-09 09:15:00,2025-01-09 09:15:55,55.207,,,,,,,
119,2025-01-09 10:49:44,2025-01-09 10:50:41,56.815,,,,,,,
120,2025-01-09 12:24:29,2025-01-09 12:25:25,55.999,,,,,,,
121,2025-01-09 13:59:13,2025-01-09 14:00:08,54.614,,,,,,,
122,2025-01-09 15:33:57,2025-01-09 15:34:51,53.384,,,,,,,
123,2025-01-09 17:08:42,2025-01-09 17:09:34,52.313,,,,,,,
124,2025-01-09 18:43:26,2025-01-09 18:44:18,51.407,,,,,,,
125,2025-01-09 20:18:11,2025-01-09 20:19:01,50.664,,,,,,,
126,2025-01-09 21:52:55,2025-01-09 21:53:45,50.085,,,,,,,
127,2025-01-09 23:27:39,2025-01-09 23:28:29,49.669,,,,,,,
128,2025-01-10 01:02:24,2025-01-10 01:03:13,49.421,,,,,,,
129,2025-01-10 02:37:08,2025-01-10 02:37:57,49.343,,,,,,,
130,2025-01-10 04:11:53,2025-01-10 04:12:42,49.434,,,,,,,
131,2025-01-10 05:46:37,2025-01-10 05:47:27,49.707,,,,,,,
132,2025-01-10 07:21:21,2025-01-10 07:22:11,50.156,,,,,,,
133,2025-01-10 08:56:06,2025-01-10 08:56:56,50.786,,,,,,,
134,2025-01-10 10:30:50,2025-01-10 10:31:42,51.606,,,,,,,
135,2025-01-10 12:05:34,2025-01-10 12:06:27,52.616,,,,,,,
136,2025-01-10 13:40:19,2025-01-10 13:41:13,53.82,,,,,,,
137,2025-01-10 15:15:03,2025-01-10 15:15:58,55.226,,,,,,,
138,2025-01-10 16:49:48,2025-01-10 16:50:44,56.837,,,,,,,
139,2025-01-10 18:24:32,2025-01-10 18:25:28,55.983,,,,,,,
140,2025-01-10 19:59:16,2025-01-10 20:00:11,54.595,,,,,,,
141,2025-01-10 21:34:01,2025-01-10 21:34:54,53.369,,,,,,,
142,2025-01-10 23:08:45,2025-01-10 23:09:37,52.307,,,,,,,
143,2025-01-11 00:43:30,2025-01-11 00:44:21,51.398,,,,,,,
144,2025-01-11 02:18:14,2025-01-11 02:19:05,50.662,,,,,,,
145,2025-01-11 03:52:58,2025-01-11 03:53:48,50.08,,,,,,,
146,2025-01-11 05:27:43,2025-01-11 05:28:32,49.667,,,,,,,
147,2025-01-11 07:02:27,2025-01-11 07:03:16,49.421,,,,,,,
148,2025-01-11 08:37:11,2025-01-11 08:38:01,49.345,,,,,,,
149,2025-01-11 10:11:56,2025-01-11 10:12:45,49.441,,,,,,,
150,2025-01-11 11:46:40,2025-01-11 11:47:30,49.713,,,,,,,
151,2025-01-11 13:21:25,2025-01-11 13:22:15,50.164,,,,,,,
152,2025-01-11 14:56:09,2025-01-11 14:57:00,50.796,,,,,,,
153,2025-01-11 16:30:53,2025-01-11 16:31:45,51.615,,,,,,,
154,2025-01-11 18:05:38,2025-01-11 18:06:30,52.628,,,,,,,
155,2025-01-11 19:40:22,2025-01-11 19:41:16,53.835,,,,,,,
156,2025-01-11 21:15:07,2025-01-11 21:16:02,55.246,,,,,,,
157,2025-01-11 22:49:51,2025-01-11 22:50:48,56.862,,,,,,,
158,2025-01-12 00:24:35,2025-01-12 00:25:31,55.965,,,,,,,
159,2025-01-12 01:59:20,2025-01-12 02:00:14,54.587,,,,,,,
160,2025-01-12 03:34:04,2025-01-12 03:34:57,53.358,,,,,,,
161,2025-01-12 05:08:48,2025-01-12 05:09:41,52.297,,,,,,,
162,2025-01-12 06:43:33,2025-01-12 06:44:24,51.394,,,,,,,
163,2025-01-12 08:18:17,2025-01-12 08:19:08,50.653,,,,,,,
164,2025-01-12 09:53:02,2025-01-12 09:53:52,50.076,,,,,,,
165,2025-01-12 11:27:46,2025-01-12 11:28:36,49.665,,,,,,,
166,2025-01-12 13:02:30,2025-01-12 13:03:20,49.421,,,,,,,
167,2025-01-12 14:37:15,2025-01-12 14:38:04,49.347,,,,,,,
168,2025-01-12 16:11:59,2025-01-12 16:12:49,49.442,,,,,,,
169,2025-01-12 17:46:44,2025-01-12 17:47:33,49.72,,,,,,,
170,2025-01-12 19:21:28,2025-01-12 19:22:18,50.173,,,,,,,
171,2025-01-12 20:56:12,2025-01-12 20:57:03,50.808,,,,,,,
172,2025-01-12 22:30:57,2025-01-12 22:31:48,51.633,,,,,,,
173,2025-01-13 00:05:41,2025-01-13 00:06:34,52.64,,,,,,,
174,2025-01-13 01:40:25,2025-01-13 01:41:19,53.854,,,,,,,
175,2025-01-13 03:15:10,2025-01-13 03:16:05,55.266,,,,,,,
176,2025-01-13 04:49:54,2025-01-13 04:50:51,56.885,,,,,,,
177,2025-01-13 06:24:39,2025-01-13 06:25:35,55.952,,,,,,,
178,2025-01-13 07:59:23,2025-01-13 08:00:18,54.57,,,,,,,
179,2025-01-13 09:34:07,2025-01-13 09:35:01,53.349,,,,,,,
180,2025-01-13 11:08:52,2025-01-13 11:09:44,52.288,,,,,,,
181,2025-01-13 12:43:36,2025-01-13 12:44:28,51.387,,,,,,,
182,2025-01-13 14:18:21,2025-01-13 14:19:11,50.644,,,,,,,
183,2025-01-13 15:53:05,2025-01-13 15:53:55,50.072,,,,,,,
184,2025-01-13 17:27:49,2025-01-13 17:28:39,49.663,,,,,,,
185,2025-01-13 19:02:34,2025-01-13 19:03:23,49.421,,,,,,,
186,2025-01-13 20:37:18,2025-01-13 20:38:07,49.349,,,,,,,
187,2025-01-13 22:12:03,2025-01-13 22:12:52,49.45,,,,,,,
188,2025-01-13 23:46:47,2025-01-13 23:47:37,49.726,,,,,,,
189,2025-01-14 01:21:31,2025-01-14 01:22:21,50.179,,,,,,,
190,2025-01-14 02:56:16,2025-01-14 02:57:06,50.818,,,,,,,
191,2025-01-14 04:31:00,2025-01-14 04:31:52,51.645,,,,,,,
192,2025-01-14 06:05:44,2025-01-14 06:06:37,52.658,,,,,,,
193,2025-01-14 07:40:29,2025-01-14 07:41:23,53.872,,,,,,,
194,2025-01-14 09:15:13,2025-01-14 09:16:08,55.286,,,,,,,
195,2025-01-14 10:49:58,2025-01-14 10:50:54,56.904,,,,,,,
196,2025-01-14 12:24:42,2025-01-14 12:25:38,55.937,,,,,,,
197,2025-01-14 13:59:26,2025-01-14 14:00:21,54.559,,,,,,,
198,2025-01-14 15:34:11,2025-01-14 15:35:04,53.338,,,,,,,
199,2025-01-14 17:08:55,2025-01-14 17:09:47,52.274,,,,,,,
200,2025-01-14 18:43:40,2025-01-14 18:44:31,51.376,,,,,,,
201,2025-01-14 20:18:24,2025-01-14 20:19:15,50.641,,,,,,,
202,2025-01-14 21:53:08,2025-01-14 21:53:58,50.069,,,,,,,
203,2025-01-14 23:27:53,2025-01-14 23:28:42,49.661,,,,,,,
204,2025-01-15 01:02:37,2025-01-15 01:03:26,49.421,,,,,,,
205,2025-01-15 02:37:21,2025-01-15 02:38:11,49.351,,,,,,,
206,2025-01-15 04:12:06,2025-01-15 04:12:55,49.45,,,,,,,
207,2025-01-15 05:46:50,2025-01-15 05:47:40,49.732,,,,,,,
208,2025-01-15 07:21:35,2025-01-15 07:22:25,50.189,,,,,,,
209,2025-01-15 08:56:19,2025-01-15 08:57:10,50.828,,,,,,,
210,2025-01-15 10:31:03,2025-01-15 10:31:55,51.657,,,,,,,
211,2025-01-15 12:05:48,2025-01-15 12:06:40,52.677,,,,,,,
212,2025-01-15 13:40:32,2025-01-15 13:41:26,53.889,,,,,,,
213,2025-01-15 15:15:17,2025-01-15 15:16:12,55.306,,,,,,,
214,2025-01-15 16:50:01,2025-01-15 16:50:58,56.926,,,,,,,
215,2025-01-15 18:24:45,2025-01-15 18:25:41,55.922,,,,,,,
216,2025-01-15 19:59:30,2025-01-15 20:00:24,54.541,,,,,,,
217,2025-01-15 21:34:14,2025-01-15 21:35:07,53.323,,,,,,,
218,2025-01-15 23:08:58,2025-01-15 23:09:51,52.268,,,,,,,
219,2025-01-16 00:43:43,2025-01-16 00:44:34,51.368,,,,,,,
220,2025-01-16 02:18:27,2025-01-16 02:19:18,50.638,,,,,,,
221,2025-01-16 03:53:12,2025-01-16 03:54:02,50.06,,,,,,,
222,2025-01-16 05:27:56,2025-01-16 05:28:46,49.659,,,,,,,
223,2025-01-16 07:02:40,2025-01-16 07:03:30,49.421,,,,,,,
224,2025-01-16 08:37:25,2025-01-16 08:38:14,49.353,,,,,,,
225,2025-01-16 10:12:09,2025-01-16 10:12:59,49.458,,,,,,,
226,2025-01-16 11:46:54,2025-01-16 11:47:43,49.738,,,,,,,
227,2025-01-16 13:21:38,2025-01-16 13:22:28,50.197,,,,,,,
228,2025-01-16 14:56:22,2025-01-16 14:57:13,50.838,,,,,,,
229,2025-01-16 16:31:07,2025-01-16 16:31:58,51.665,,,,,,,
230,2025-01-16 18:05:51,2025-01-16 18:06:44,52.688,,,,,,,
231,2025-01-16 19:40:35,2025-01-16 19:41:29,53.905,,,,,,,
232,2025-01-16 21:15:20,2025-01-16 21:16:15,55.325,,,,,,,
233,2025-01-16 22:50:04,2025-01-16 22:51:01,56.951,,,,,,,
234,2025-01-17 00:24:49,2025-01-17 00:25:45,55.908,,,,,,,
235,2025-01-17 01:59:33,2025-01-17 02:00:28,54.532,,,,,,,
236,2025-01-17 03:34:17,2025-01-17 03:35:11,53.311,,,,,,,
237,2025-01-17 05:09:02,2025-01-17 05:09:54,52.258,,,,,,,
238,2025-01-17 06:43:46,2025-01-17 06:44:38,51.363,,,,,,,
239,2025-01-17 08:18:31,2025-01-17 08:19:21,50.63,,,,,,,
240,2025-01-17 09:53:15,2025-01-17 09:54:05,50.06,,,,,,,
241,2025-01-17 11:27:59,2025-01-17 11:28:49,49.657,,,,,,,
242,2025-01-17 13:02:44,2025-01-17 13:03:33,49.421,,,,,,,
243,2025-01-17 14:37:28,2025-01-17 14:38:17,49.355,,,,,,,
244,2025-01-17 16:12:12,2025-01-17 16:13:02,49.458,,,,,,,
245,2025-01-17 17:46:57,2025-01-17 17:47:47,49.743,,,,,,,
246,2025-01-17 19:21:41,2025-01-17 19:22:31,50.205,,,,,,,
247,2025-01-17 20:56:26,2025-01-17 20:57:16,50.849,,,,,,,
248,2025-01-17 22:31:10,2025-01-17 22:32:02,51.682,,,,,,,
249,2025-01-18 00:05:54,2025-01-18 00:06:47,52.701,,,,,,,
250,2025-01-18 01:40:39,2025-01-18 01:41:33,53.923,,,,,,,
251,2025-01-18 03:15:23,2025-01-18 03:16:19,55.344,,,,,,,
252,2025-01-18 04:50:08,2025-01-18 04:51:05,56.972,,,,,,,
253,2025-01-18 06:24:52,2025-01-18 06:25:48,55.89,,,,,,,
254,2025-01-18 07:59:36,2025-01-18 08:00:31,54.515,,,,,,,
255,2025-01-18 09:34:21,2025-01-18 09:35:14,53.302,,,,,,,
256,2025-01-18 11:09:05,2025-01-18 11:09:57,52.248,,,,,,,
257,2025-01-18 12:43:50,2025-01-18 12:44:41,51.354,,,,,,,
258,2025-01-18 14:18:34,2025-01-18 14:19:25,50.619,,,,,,,
259,2025-01-18 15:53:18,2025-01-18 15:54:08,50.055,,,,,,,
260,2025-01-18 17:28:03,2025-01-18 17:28:52,49.654,,,,,,,
261,2025-01-18 19:02:47,2025-01-18 19:03:36,49.42,,,,,,,
262,2025-01-18 20:37:31,2025-01-18 20:38:21,49.356,,,,,,,
263,2025-01-18 22:12:16,2025-01-18 22:13:05,49.464,,,,,,,
264,2025-01-18 23:47:00,2025-01-18 23:47:50,49.749,,,,,,,
265,2025-01-19 01:21:45,2025-01-19 01:22:35,50.21,,,,,,,
266,2025-01-19 02:56:29,2025-01-19 02:57:20,50.858,,,,,,,
267,2025-01-19 04:31:13,2025-01-19 04:32:05,51.693,,,,,,,
268,2025-01-19 06:05:58,2025-01-19 06:06:50,52.716,,,,,,,
269,2025-01-19 07:40:42,2025-01-19 07:41:36,53.939,,,,,,,
270,2025-01-19 09:15:27,2025-01-19 09:16:22,55.362,,,,,,,
271,2025-01-19 10:50:11,2025-01-19 10:51:08,56.99,,,,,,,
272,2025-01-19 12:24:55,2025-01-19 12:25:51,55.874,,,,,,,
273,2025-01-19 13:59:40,2025-01-19 14:00:34,54.502,,,,,,,
274,2025-01-19 15:34:24,2025-01-19 15:35:17,53.289,,,,,,,
275,2025-01-19 17:09:08,2025-01-19 17:10:01,52.232,,,,,,,
276,2025-01-19 18:43:53,2025-01-19 18:44:44,51.342,,,,,,,
277,2025-01-19 20:18:37,2025-01-19 20:19:28,50.614,,,,,,,
278,2025-01-19 21:53:22,2025-01-19 21:54:12,50.05,,,,,,,
279,2025-01-19 23:28:06,2025-01-19 23:28:56,49.65,,,,,,,
280,2025-01-20 01:02:50,2025-01-20 01:03:40,49.418,,,,,,,
281,2025-01-20 02:37:35,2025-01-20 02:38:24,49.356,,,,,,,
282,2025-01-20 04:12:19,2025-01-20 04:13:09,49.463,,,,,,,
283,2025-01-20 05:47:04,2025-01-20 05:47:53,49.754,,,,,,,
284,2025-01-20 07:21:48,2025-01-20 07:22:38,50.219,,,,,,,
285,2025-01-20 08:56:32,2025-01-20 08:57:23,50.867,,,,,,,
286,2025-01-20 10:31:17,2025-01-20 10:32:08,51.703,,,,,,,
287,2025-01-20 12:06:01,2025-01-20 12:06:54,52.732,,,,,,,
288,2025-01-20 13:40:45,2025-01-20 13:41:39,53.955,,,,,,,
289,2025-01-20 15:15:30,2025-01-20 15:16:25,55.38,,,,,,,
290,2025-01-20 16:50:14,2025-01-20 16:51:11,57.011,,,,,,,
291,2025-01-20 18:24:59,2025-01-20 18:25:54,55.857,,,,,,,
292,2025-01-20 19:59:43,2025-01-20 20:00:37,54.482,,,,,,,
293,2025-01-20 21:34:27,2025-01-20 21:35:21,53.273,,,,,,,
294,2025-01-20 23:09:12,2025-01-20 23:10:04,52.226,,,,,,,
295,2025-01-21 00:43:56,2025-01-21 00:44:47,51.332,,,,,,,
296,2025-01-21 02:18:41,2025-01-21 02:19:31,50.61,,,,,,,
297,2025-01-21 03:53:25,2025-01-21 03:54:15,50.04,,,,,,,
298,2025-01-21 05:28:09,2025-01-21 05:28:59,49.647,,,,,,,
299,2025-01-21 07:02:54,2025-01-21 07:03:43,49.417,,,,,,,
300,2025-01-21 08:37:38,2025-01-21 08:38:27,49.357,,,,,,,
301,2025-01-21 10:12:22,2025-01-21 10:13:12,49.47,,,,,,,
302,2025-01-21 11:47:07,2025-01-21 11:47:57,49.758,,,,,,,
303,2025-01-21 13:21:51,2025-01-21 13:22:41,50.226,,,,,,,
304,2025-01-21 14:56:36,2025-01-21 14:57:27,50.875,,,,,,,
305,2025-01-21 16:31:20,2025-01-21 16:32:12,51.711,,,,,,,
306,2025-01-21 18:06:04,2025-01-21 18:06:57,52.743,,,,,,,
307,2025-01-21 19:40:49,2025-01-21 19:41:43,53.969,,,,,,,
308,2025-01-21 21:15:33,2025-01-21 21:16:29,55.399,,,,,,,
309,2025-01-21 22:50:18,2025-01-21 22:51:15,57.035,,,,,,,
310,2025-01-22 00:25:02,2025-01-22 00:25:58,55.837,,,,,,,
311,2025-01-22 01:59:46,2025-01-22 02:00:41,54.472,,,,,,,
312,2025-01-22 03:34:31,2025-01-22 03:35:24,53.259,,,,,,,
313,2025-01-22 05:09:15,2025-01-22 05:10:07,52.214,,,,,,,
314,2025-01-22 06:43:59,2025-01-22 06:44:51,51.327,,,,,,,
315,2025-01-22 08:18:44,2025-01-22 08:19:34,50.601,,,,,,,
316,2025-01-22 09:53:28,2025-01-22 09:54:18,50.04,,,,,,,
317,2025-01-22 11:28:13,2025-01-22 11:29:02,49.644,,,,,,,
318,2025-01-22 13:02:57,2025-01-22 13:03:46,49.415,,,,,,,
319,2025-01-22 14:37:41,2025-01-22 14:38:31,49.357,,,,,,,
320,2025-01-22 16:12:26,2025-01-22 16:13:15,49.469,,,,,,,
321,2025-01-22 17:47:10,2025-01-22 17:48:00,49.762,,,,,,,
322,2025-01-22 19:21:55,2025-01-22 19:22:45,50.233,,,,,,,
323,2025-01-22 20:56:39,2025-01-22 20:57:30,50.885,,,,,,,
324,2025-01-22 22:31:23,2025-01-22 22:32:15,51.727,,,,,,,
325,2025-01-23 00:06:08,2025-01-23 00:07:00,52.756,,,,,,,
326,2025-01-23 01:40:52,2025-01-23 01:41:46,53.986,,,,,,,
327,2025-01-23 03:15:37,2025-01-23 03:16:32,55.417,,,,,,,
328,2025-01-23 04:50:21,2025-01-23 04:51:18,57.055,,,,,,,
329,2025-01-23 06:25:05,2025-01-23 06:26:01,55.824,,,,,,,
330,2025-01-23 07:59:50,2025-01-23 08:00:44,54.455,,,,,,,
331,2025-01-23 09:34:34,2025-01-23 09:35:27,53.25,,,,,,,
332,2025-01-23 11:09:18,2025-01-23 11:10:11,52.203,,,,,,,
333,2025-01-23 12:44:03,2025-01-23 12:44:54,51.317,,,,,,,
334,2025-01-23 14:18:47,2025-01-23 14:19:38,50.59,,,,,,,
335,2025-01-23 15:53:32,2025-01-23 15:54:22,50.033,,,,,,,
336,2025-01-23 17:28:16,2025-01-23 17:29:06,49.64,,,,,,,
337,2025-01-23 19:03:00,2025-01-23 19:03:50,49.414,,,,,,,
338,2025-01-23 20:37:45,2025-01-23 20:38:34,49.358,,,,,,,
339,2025-01-23 22:12:29,2025-01-23 22:13:19,49.475,,,,,,,
340,2025-01-23 23:47:14,2025-01-23 23:48:03,49.768,,,,,,,
341,2025-01-24 01:21:58,2025-01-24 01:22:48,50.238,,,,,,,
342,2025-01-24 02:56:42,2025-01-24 02:57:33,50.894,,,,,,,
343,2025-01-24 04:31:27,2025-01-24 04:32:18,51.738,,,,,,,
344,2025-01-24 06:06:11,2025-01-24 06:07:04,52.77,,,,,,,
345,2025-01-24 07:40:55,2025-01-24 07:41:49,54.002,,,,,,,
346,2025-01-24 09:15:40,2025-01-24 09:16:35,55.435,,,,,,,
347,2025-01-24 10:50:24,2025-01-24 10:51:21,57.073,,,,,,,
348,2025-01-24 12:25:09,2025-01-24 12:26:04,55.807,,,,,,,
349,2025-01-24 13:59:53,2025-01-24 14:00:47,54.443,,,,,,,
350,2025-01-24 15:34:37,2025-01-24 15:35:31,53.238,,,,,,,
351,2025-01-24 17:09:22,2025-01-24 17:10:14,52.188,,,,,,,
352,2025-01-24 18:44:06,2025-01-24 18:44:57,51.305,,,,,,,
353,2025-01-24 20:18:51,2025-01-24 20:19:41,50.586,,,,,,,
354,2025-01-24 21:53:35,2025-01-24 21:54:25,50.029,,,,,,,
355,2025-01-24 23:28:19,2025-01-24 23:29:09,49.637,,,,,,,
356,2025-01-25 01:03:04,2025-01-25 01:03:53,49.413,,,,,,,
357,2025-01-25 02:37:48,2025-01-25 02:38:37,49.359,,,,,,,
358,2025-01-25 04:12:32,2025-01-25 04:13:22,49.475,,,,,,,
359,2025-01-25 05:47:17,2025-01-25 05:48:07,49.773,,,,,,,
360,2025-01-25 07:22:01,2025-01-25 07:22:51,50.247,,,,,,,
361,2025-01-25 08:56:46,2025-01-25 08:57:37,50.903,,,,,,,
362,2025-01-25 10:31:30,2025-01-25 10:32:22,51.751,,,,,,,
363,2025-01-25 12:06:14,2025-01-25 12:07:07,52.787,,,,,,,
364,2025-01-25 13:40:59,2025-01-25 13:41:53,54.019,,,,,,,
365,2025-01-25 15:15:43,2025-01-25 15:16:39,55.454,,,,,,,
366,2025-01-25 16:50:28,2025-01-25 16:51:25,57.094,,,,,,,
367,2025-01-25 18:25:12,2025-01-25 18:26:08,55.791,,,,,,,
368,2025-01-25 19:59:56,2025-01-25 20:00:51,54.424,,,,,,,
369,2025-01-25 21:34:41,2025-01-25 21:35:34,53.222,,,,,,,
370,2025-01-25 23:09:25,2025-01-25 23:10:17,52.182,,,,,,,
371,2025-01-26 00:44:09,2025-01-26 00:45:01,51.297,,,,,,,
372,2025-01-26 02:18:54,2025-01-26 02:19:44,50.582,,,,,,,
373,2025-01-26 03:53:38,2025-01-26 03:54:28,50.02,,,,,,,
374,2025-01-26 05:28:23,2025-01-26 05:29:12,49.635,,,,,,,
375,2025-01-26 07:03:07,2025-01-26 07:03:56,49.412,,,,,,,
376,2025-01-26 08:37:51,2025-01-26 08:38:41,49.361,,,,,,,
377,2025-01-26 10:12:36,2025-01-26 10:13:25,49.482,,,,,,,
378,2025-01-26 11:47:20,2025-01-26 11:48:10,49.779,,,,,,,
379,2025-01-26 13:22:05,2025-01-26 13:22:55,50.255,,,,,,,
380,2025-01-26 14:56:49,2025-01-26 14:57:40,50.913,,,,,,,
381,2025-01-26 16:31:33,2025-01-26 16:32:25,51.757,,,,,,,
382,2025-01-26 18:06:18,2025-01-26 18:07:11,52.799,,,,,,,
383,2025-01-26 19:41:02,2025-01-26 19:41:56,54.034,,,,,,,
384,2025-01-26 21:15:46,2025-01-26 21:16:42,55.474,,,,,,,
385,2025-01-26 22:50:31,2025-01-26 22:51:28,57.12,,,,,,,
386,2025-01-27 00:25:15,2025-01-27 00:26:11,55.773,,,,,,,
387,2025-01-27 02:00:00,2025-01-27 02:00:54,54.415,,,,,,,
388,2025-01-27 03:34:44,2025-01-27 03:35:37,53.209,,,,,,,
389,2025-01-27 05:09:28,2025-01-27 05:10:21,52.172,,,,,,,
390,2025-01-27 06:44:13,2025-01-27 06:45:04,51.292,,,,,,,
391,2025-01-27 08:18:57,2025-01-27 08:19:48,50.577,,,,,,,
392,2025-01-27 09:53:42,2025-01-27 09:54:32,50.021,,,,,,,
393,2025-01-27 11:28:26,2025-01-27 11:29:16,49.633,,,,,,,
394,2025-01-27 13:03:10,2025-01-27 13:04:00,49.412,,,,,,,
395,2025-01-27 14:37:55,2025-01-27 14:38:44,49.363,,,,,,,
396,2025-01-27 16:12:39,2025-01-27 16:13:29,49.482,,,,,,,
397,2025-01-27 17:47:24,2025-01-27 17:48:13,49.783,,,,,,,
398,2025-01-27 19:22:08,2025-01-27 19:22:58,50.263,,,,,,,
399,2025-01-27 20:56:52,2025-01-27 20:57:43,50.924,,,,,,,
400,2025-01-27 22:31:37,2025-01-27 22:32:28,51.775,,,,,,,
401,2025-01-28 00:06:21,2025-01-28 00:07:14,52.813,,,,,,,
402,2025-01-28 01:41:05,2025-01-28 01:41:59,54.053,,,,,,,
403,2025-01-28 03:15:50,2025-01-28 03:16:45,55.493,,,,,,,
404,2025-01-28 04:50:34,2025-01-28 04:51:31,57.142,,,,,,,
405,2025-01-28 06:25:19,2025-01-28 06:26:14,55.76,,,,,,,
406,2025-01-28 08:00:03,2025-01-28 08:00:57,54.4,,,,,,,
407,2025-01-28 09:34:47,2025-01-28 09:35:41,53.202,,,,,,,
408,2025-01-28 11:09:32,2025-01-28 11:10:24,52.163,,,,,,,
409,2025-01-28 12:44:16,2025-01-28 12:45:07,51.285,,,,,,,
410,2025-01-28 14:19:01,2025-01-28 14:19:51,50.565,,,,,,,
411,2025-01-28 15:53:45,2025-01-28 15:54:35,50.016,,,,,,,
412,2025-01-28 17:28:29,2025-01-28 17:29:19,49.631,,,,,,,
413,2025-01-28 19:03:14,2025-01-28 19:04:03,49.413,,,,,,,
414,2025-01-28 20:37:58,2025-01-28 20:38:47,49.365,,,,,,,
415,2025-01-28 22:12:42,2025-01-28 22:13:32,49.49,,,,,,,
416,2025-01-28 23:47:27,2025-01-28 23:48:17,49.791,,,,,,,
417,2025-01-29 01:22:11,2025-01-29 01:23:01,50.27,,,,,,,
418,2025-01-29 02:56:56,2025-01-29 02:57:47,50.935,,,,,,,
419,2025-01-29 04:31:40,2025-01-29 04:32:32,51.787,,,,,,,
420,2025-01-29 06:06:24,2025-01-29 06:07:17,52.828,,,,,,,
421,2025-01-29 07:41:09,2025-01-29 07:42:03,54.071,,,,,,,
422,2025-01-29 09:15:53,2025-01-29 09:16:49,55.513,,,,,,,
423,2025-01-29 10:50:38,2025-01-29 10:51:35,57.161,,,,,,,
424,2025-01-29 12:25:22,2025-01-29 12:26:18,55.745,,,,,,,
425,2025-01-29 14:00:06,2025-01-29 14:01:01,54.388,,,,,,,
426,2025-01-29 15:34:51,2025-01-29 15:35:44,53.191,,,,,,,
427,2025-01-29 17:09:35,2025-01-29 17:10:27,52.149,,,,,,,
428,2025-01-29 18:44:19,2025-01-29 18:45:11,51.274,,,,,,,
429,2025-01-29 20:19:04,2025-01-29 20:19:54,50.562,,,,,,,
430,2025-01-29 21:53:48,2025-01-29 21:54:38,50.013,,,,,,,
431,2025-01-29 23:28:33,2025-01-29 23:29:22,49.629,,,,,,,
432,2025-01-30 01:03:17,2025-01-30 01:04:06,49.413,,,,,,,
433,2025-01-30 02:38:01,2025-01-30 02:38:51,49.367,,,,,,,
434,2025-01-30 04:12:46,2025-01-30 04:13:35,49.49,,,,,,,
435,2025-01-30 05:47:30,2025-01-30 05:48:20,49.797,,,,,,,
436,2025-01-30 07:22:15,2025-01-30 07:23:05,50.28,,,,,,,
437,2025-01-30 08:56:59,2025-01-30 08:57:50,50.945,,,,,,,
438,2025-01-30 10:31:43,2025-01-30 10:32:35,51.802,,,,,,,
439,2025-01-30 12:06:28,2025-01-30 12:07:21,52.847,,,,,,,
440,2025-01-30 13:41:12,2025-01-30 13:42:06,54.088,,,,,,,
441,2025-01-30 15:15:56,2025-01-30 15:16:52,55.533,,,,,,,
442,2025-01-30 16:50:41,2025-01-30 16:51:38,57.183,,,,,,,
443,2025-01-30 18:25:25,2025-01-30 18:26:21,55.73,,,,,,,
444,2025-01-30 20:00:10,2025-01-30 20:01:04,54.37,,,,,,,
445,2025-01-30 21:34:54,2025-01-30 21:35:47,53.176,,,,,,,
446,2025-01-30 23:09:38,2025-01-30 23:10:31,52.143,,,,,,,
447,2025-01-31 00:44:23,2025-01-31 00:45:14,51.266,,,,,,,
448,2025-01-31 02:19:07,2025-01-31 02:19:58,50.559,,,,,,,
449,2025-01-31 03:53:52,2025-01-31 03:54:42,50.004,,,,,,,
450,2025-01-31 05:28:36,2025-01-31 05:29:26,49.627,,,,,,,
451,2025-01-31 07:03:20,2025-01-31 07:04:10,49.412,,,,,,,
452,2025-01-31 08:38:05,2025-01-31 08:38:54,49.369,,,,,,,
453,2025-01-31 10:12:49,2025-01-31 10:13:39,49.498,,,,,,,
454,2025-01-31 11:47:33,2025-01-31 11:48:23,49.803,,,,,,,
455,2025-01-31 13:22:18,2025-01-31 13:23:08,50.288,,,,,,,
456,2025-01-31 14:57:02,2025-01-31 14:57:53,50.954,,,,,,,
457,2025-01-31 16:31:47,2025-01-31 16:32:38,51.808,,,,,,,
458,2025-01-31 18:06:31,2025-01-31 18:07:24,52.858,,,,,,,
459,2025-01-31 19:41:15,2025-01-31 19:42:10,54.103,,,,,,,
460,2025-01-31 21:16:00,2025-01-31 21:16:55,55.552,,,,,,,
461,2025-01-31 22:50:44,2025-01-31 22:51:41,57.213,,,,,,,
462,2025-02-01 00:25:29,2025-02-01 00:26:24,55.711,,,,,,,
463,2025-02-01 02:00:13,2025-02-01 02:01:07,54.361,,,,,,,
464,2025-02-01 03:34:57,2025-02-01 03:35:51,53.162,,,,,,,
465,2025-02-01 05:09:42,2025-02-01 05:10:34,52.133,,,,,,,
466,2025-02-01 06:44:26,2025-02-01 06:45:17,51.26,,,,,,,
467,2025-02-01 08:19:11,2025-02-01 08:20:01,50.55,,,,,,,
468,2025-02-01 09:53:55,2025-02-01 09:54:45,50.004,,,,,,,
469,2025-02-01 11:28:39,2025-02-01 11:29:29,49.624,,,,,,,
470,2025-02-01 13:03:24,2025-02-01 13:04:13,49.412,,,,,,,
471,2025-02-01 14:38:08,2025-02-01 14:38:57,49.37,,,,,,,
472,2025-02-01 16:12:52,2025-02-01 16:13:42,49.497,,,,,,,
473,2025-02-01 17:47:37,2025-02-01 17:48:27,49.807,,,,,,,
474,2025-02-01 19:22:21,2025-02-01 19:23:12,50.295,,,,,,,
475,2025-02-01 20:57:06,2025-02-01 20:57:57,50.965,,,,,,,
476,2025-02-01 22:31:50,2025-02-01 22:32:42,51.825,,,,,,,
477,2025-02-02 00:06:34,2025-02-02 00:07:27,52.871,,,,,,,
478,2025-02-02 01:41:19,2025-02-02 01:42:13,54.121,,,,,,,
479,2025-02-02 03:16:03,2025-02-02 03:16:59,55.571,,,,,,,
480,2025-02-02 04:50:48,2025-02-02 04:51:45,57.212,,,,,,,
481,2025-02-02 06:25:32,2025-02-02 06:26:28,55.697,,,,,,,
482,2025-02-02 08:00:16,2025-02-02 08:01:11,54.344,,,,,,,
483,2025-02-02 09:35:01,2025-02-02 09:35:54,53.154,,,,,,,
484,2025-02-02 11:09:45,2025-02-02 11:10:37,52.122,,,,,,,
485,2025-02-02 12:44:29,2025-02-02 12:45:21,51.251,,,,,,,
486,2025-02-02 14:19:14,2025-02-02 14:20:04,50.54,,,,,,,
487,2025-02-02 15:53:58,2025-02-02 15:54:48,49.998,,,,,,,
488,2025-02-02 17:28:43,2025-02-02 17:29:32,49.621,,,,,,,
489,2025-02-02 19:03:27,2025-02-02 19:04:16,49.41,,,,,,,
490,2025-02-02 20:38:11,2025-02-02 20:39:01,49.37,,,,,,,
491,2025-02-02 22:12:56,2025-02-02 22:13:45,49.503,,,,,,,
492,2025-02-02 23:47:40,2025-02-02 23:48:30,49.813,,,,,,,
493,2025-02-03 01:22:25,2025-02-03 01:23:15,50.3,,,,,,,
494,2025-02-03 02:57:09,2025-02-03 02:58:00,50.974,,,,,,,
495,2025-02-03 04:31:53,2025-02-03 04:32:45,51.835,,,,,,,
496,2025-02-03 06:06:38,2025-02-03 06:07:31,52.885,,,,,,,
497,2025-02-03 07:41:22,2025-02-03 07:42:16,54.137,,,,,,,
498,2025-02-03 09:16:06,2025-02-03 09:17:02,55.589,,,,,,,
499,2025-02-03 10:50:51,2025-02-03 10:51:48,57.187,,,,,,,
500,2025-02-03 12:25:35,2025-02-03 12:26:31,55.68,,,,,,,
501,2025-02-03 14:00:20,2025-02-03 14:01:14,54.331,,,,,,,
502,2025-02-03 15:35:04,2025-02-03 15:35:57,53.141,,,,,,,
503,2025-02-03 17:09:48,2025-02-03 17:10:41,52.107,,,,,,,
504,2025-02-03 18:44:33,2025-02-03 18:45:24,51.239,,,,,,,
505,2025-02-03 20:19:17,2025-02-03 20:20:08,50.534,,,,,,,
506,2025-02-03 21:54:02,2025-02-03 21:54:52,49.993,,,,,,,
507,2025-02-03 23:28:46,2025-02-03 23:29:36,49.617,,,,,,,
508,2025-02-04 01:03:30,2025-02-04 01:04:20,49.408,,,,,,,
509,2025-02-04 02:38:15,2025-02-04 02:39:04,49.37,,,,,,,
510,2025-02-04 04:12:59,2025-02-04 04:13:49,49.502,,,,,,,
511,2025-02-04 05:47:43,2025-02-04 05:48:33,49.817,,,,,,,
512,2025-02-04 07:22:28,2025-02-04 07:23:18,50.308,,,,,,,
513,2025-02-04 08:57:12,2025-02-04 08:58:03,50.982,,,,,,,
514,2025-02-04 10:31:57,2025-02-04 10:32:48,51.847,,,,,,,
515,2025-02-04 12:06:41,2025-02-04 12:07:34,52.901,,,,,,,
516,2025-02-04 13:41:25,2025-02-04 13:42:20,54.152,,,,,,,
517,2025-02-04 15:16:10,2025-02-04 15:17:05,55.607,,,,,,,
518,2025-02-04 16:50:54,2025-02-04 16:51:51,57.17,,,,,,,
519,2025-02-04 18:25:39,2025-02-04 18:26:34,55.663,,,,,,,
520,2025-02-04 20:00:23,2025-02-04 20:01:17,54.311,,,,,,,
521,2025-02-04 21:35:07,2025-02-04 21:36:00,53.124,,,,,,,
522,2025-02-04 23:09:52,2025-02-04 23:10:44,52.099,,,,,,,
523,2025-02-05 00:44:36,2025-02-05 00:45:27,51.229,,,,,,,
524,2025-02-05 02:19:21,2025-02-05 02:20:11,50.529,,,,,,,
525,2025-02-05 03:54:05,2025-02-05 03:54:55,49.983,,,,,,,
526,2025-02-05 05:28:49,2025-02-05 05:29:39,49.613,,,,,,,
527,2025-02-05 07:03:34,2025-02-05 07:04:23,49.406,,,,,,,
528,2025-02-05 08:38:18,2025-02-05 08:39:07,49.371,,,,,,,
529,2025-02-05 10:13:02,2025-02-05 10:13:52,49.508,,,,,,,
530,2025-02-05 11:47:47,2025-02-05 11:48:37,49.822,,,,,,,
531,2025-02-05 13:22:31,2025-02-05 13:23:22,50.315,,,,,,,
532,2025-02-05 14:57:16,2025-02-05 14:58:07,50.99,,,,,,,
533,2025-02-05 16:32:00,2025-02-05 16:32:52,51.852,,,,,,,
534,2025-02-05 18:06:44,2025-02-05 18:07:37,52.911,,,,,,,
535,2025-02-05 19:41:29,2025-02-05 19:42:23,54.166,,,,,,,
536,2025-02-05 21:16:13,2025-02-05 21:17:09,55.625,,,,,,,
537,2025-02-05 22:50:58,2025-02-05 22:51:55,57.152,,,,,,,
538,2025-02-06 00:25:42,2025-02-06 00:26:38,55.644,,,,,,,
539,2025-02-06 02:00:26,2025-02-06 02:01:21,54.301,,,,,,,
540,2025-02-06 03:35:11,2025-02-06 03:36:04,53.112,,,,,,,
541,2025-02-06 05:09:55,2025-02-06 05:10:47,52.088,,,,,,,
542,2025-02-06 06:44:39,2025-02-06 06:45:31,51.223,,,,,,,
543,2025-02-06 08:19:24,2025-02-06 08:20:14,50.52,,,,,,,
544,2025-02-06 09:54:08,2025-02-06 09:54:58,49.982,,,,,,,
545,2025-02-06 11:28:53,2025-02-06 11:29:42,49.609,,,,,,,
546,2025-02-06 13:03:37,2025-02-06 13:04:26,49.405,,,,,,,
547,2025-02-06 14:38:21,2025-02-06 14:39:11,49.371,,,,,,,
548,2025-02-06 16:13:06,2025-02-06 16:13:55,49.507,,,,,,,
549,2025-02-06 17:47:50,2025-02-06 17:48:40,49.825,,,,,,,
550,2025-02-06 19:22:35,2025-02-06 19:23:25,50.322,,,,,,,
551,2025-02-06 20:57:19,2025-02-06 20:58:10,51,,,,,,,
552,2025-02-06 22:32:03,2025-02-06 22:32:55,51.868,,,,,,,
553,2025-02-07 00:06:48,2025-02-07 00:07:41,52.924,,,,,,,
554,2025-02-07 01:41:32,2025-02-07 01:42:26,54.184,,,,,,,
555,2025-02-07 03:16:16,2025-02-07 03:17:12,55.643,,,,,,,
556,2025-02-07 04:51:01,2025-02-07 04:51:58,57.134,,,,,,,
557,2025-02-07 06:25:45,2025-02-07 06:26:41,55.63,,,,,,,
558,2025-02-07 08:00:30,2025-02-07 08:01:24,54.284,,,,,,,
559,2025-02-07 09:35:14,2025-02-07 09:36:07,53.101,,,,,,,
560,2025-02-07 11:09:58,2025-02-07 11:10:50,52.077,,,,,,,
561,2025-02-07 12:44:43,2025-02-07 12:45:34,51.214,,,,,,,
562,2025-02-07 14:19:27,2025-02-07 14:20:18,50.51,,,,,,,
563,2025-02-07 15:54:12,2025-02-07 15:55:02,49.976,,,,,,,
564,2025-02-07 17:28:56,2025-02-07 17:29:46,49.606,,,,,,,
565,2025-02-07 19:03:40,2025-02-07 19:04:30,49.404,,,,,,,
566,2025-02-07 20:38:25,2025-02-07 20:39:14,49.372,,,,,,,
567,2025-02-07 22:13:09,2025-02-07 22:13:59,49.514,,,,,,,
568,2025-02-07 23:47:53,2025-02-07 23:48:43,49.831,,,,,,,
569,2025-02-08 01:22:38,2025-02-08 01:23:28,50.327,,,,,,,
570,2025-02-08 02:57:22,2025-02-08 02:58:13,51.009,,,,,,,
571,2025-02-08 04:32:07,2025-02-08 04:32:59,51.882,,,,,,,
572,2025-02-08 06:06:51,2025-02-08 06:07:44,52.939,,,,,,,
573,2025-02-08 07:41:35,2025-02-08 07:42:30,54.2,,,,,,,
574,2025-02-08 09:16:20,2025-02-08 09:17:15,55.662,,,,,,,
575,2025-02-08 10:51:04,2025-02-08 10:52:01,57.112,,,,,,,
576,2025-02-08 12:25:49,2025-02-08 12:26:44,55.614,,,,,,,
577,2025-02-08 14:00:33,2025-02-08 14:01:27,54.272,,,,,,,
578,2025-02-08 15:35:17,2025-02-08 15:36:10,53.089,,,,,,,
579,2025-02-08 17:10:02,2025-02-08 17:10:54,52.062,,,,,,,
580,2025-02-08 18:44:46,2025-02-08 18:45:37,51.202,,,,,,,
581,2025-02-08 20:19:30,2025-02-08 20:20:21,50.505,,,,,,,
582,2025-02-08 21:54:15,2025-02-08 21:55:05,49.972,,,,,,,
583,2025-02-08 23:28:59,2025-02-08 23:29:49,49.604,,,,,,,
584,2025-02-09 01:03:44,2025-02-09 01:04:33,49.403,,,,,,,
585,2025-02-09 02:38:28,2025-02-09 02:39:17,49.373,,,,,,,
586,2025-02-09 04:13:12,2025-02-09 04:14:02,49.514,,,,,,,
587,2025-02-09 05:47:57,2025-02-09 05:48:47,49.837,,,,,,,
588,2025-02-09 07:22:41,2025-02-09 07:23:32,50.336,,,,,,,
589,2025-02-09 08:57:26,2025-02-09 08:58:17,51.019,,,,,,,
590,2025-02-09 10:32:10,2025-02-09 10:33:02,51.895,,,,,,,
591,2025-02-09 12:06:54,2025-02-09 12:07:47,52.957,,,,,,,
592,2025-02-09 13:41:39,2025-02-09 13:42:33,54.217,,,,,,,
593,2025-02-09 15:16:23,2025-02-09 15:17:19,55.681,,,,,,,
594,2025-02-09 16:51:08,2025-02-09 16:52:05,57.094,,,,,,,
595,2025-02-09 18:25:52,2025-02-09 18:26:47,55.598,,,,,,,
596,2025-02-09 20:00:36,2025-02-09 20:01:31,54.253,,,,,,,
597,2025-02-09 21:35:21,2025-02-09 21:36:14,53.074,,,,,,,
598,2025-02-09 23:10:05,2025-02-09 23:10:57,52.057,,,,,,,
599,2025-02-10 00:44:49,2025-02-10 00:45:41,51.194,,,,,,,
600,2025-02-10 02:19:34,2025-02-10 02:20:24,50.502,,,,,,,
601,2025-02-10 03:54:18,2025-02-10 03:55:08,49.963,,,,,,,
602,2025-02-10 05:29:03,2025-02-10 05:29:52,49.601,,,,,,,
603,2025-02-10 07:03:47,2025-02-10 07:04:36,49.403,,,,,,,
604,2025-02-10 08:38:31,2025-02-10 08:39:21,49.375,,,,,,,
605,2025-02-10 10:13:16,2025-02-10 10:14:05,49.521,,,,,,,
606,2025-02-10 11:48:00,2025-02-10 11:48:50,49.843,,,,,,,
607,2025-02-10 13:22:45,2025-02-10 13:23:35,50.344,,,,,,,
608,2025-02-10 14:57:29,2025-02-10 14:58:20,51.028,,,,,,,
609,2025-02-10 16:32:13,2025-02-10 16:33:05,51.902,,,,,,,
610,2025-02-10 18:06:58,2025-02-10 18:07:51,52.968,,,,,,,
611,2025-02-10 19:41:42,2025-02-10 19:42:36,54.232,,,,,,,
612,2025-02-10 21:16:26,2025-02-10 21:17:22,55.701,,,,,,,
613,2025-02-10 22:51:11,2025-02-10 22:52:08,57.081,,,,,,,
614,2025-02-11 00:25:55,2025-02-11 00:26:51,55.58,,,,,,,
615,2025-02-11 02:00:40,2025-02-11 02:01:34,54.244,,,,,,,
616,2025-02-11 03:35:24,2025-02-11 03:36:17,53.063,,,,,,,
617,2025-02-11 05:10:08,2025-02-11 05:11:00,52.047,,,,,,,
618,2025-02-11 06:44:53,2025-02-11 06:45:44,51.189,,,,,,,
619,2025-02-11 08:19:37,2025-02-11 08:20:28,50.494,,,,,,,
620,2025-02-11 09:54:22,2025-02-11 09:55:12,49.964,,,,,,,
621,2025-02-11 11:29:06,2025-02-11 11:29:56,49.599,,,,,,,
622,2025-02-11 13:03:50,2025-02-11 13:04:40,49.403,,,,,,,
623,2025-02-11 14:38:35,2025-02-11 14:39:24,49.377,,,,,,,
624,2025-02-11 16:13:19,2025-02-11 16:14:09,49.521,,,,,,,
625,2025-02-11 17:48:03,2025-02-11 17:48:53,49.847,,,,,,,
626,2025-02-11 19:22:48,2025-02-11 19:23:38,50.35,,,,,,,
627,2025-02-11 20:57:32,2025-02-11 20:58:23,51.04,,,,,,,
628,2025-02-11 22:32:17,2025-02-11 22:33:09,51.917,,,,,,,
629,2025-02-12 00:07:01,2025-02-12 00:07:54,52.982,,,,,,,
630,2025-02-12 01:41:45,2025-02-12 01:42:40,54.251,,,,,,,
631,2025-02-12 03:16:30,2025-02-12 03:17:26,55.72,,,,,,,
632,2025-02-12 04:51:14,2025-02-12 04:52:11,57.064,,,,,,,
633,2025-02-12 06:25:59,2025-02-12 06:26:54,55.567,,,,,,,
634,2025-02-12 08:00:43,2025-02-12 08:01:37,54.229,,,,,,,
635,2025-02-12 09:35:27,2025-02-12 09:36:20,53.053,,,,,,,
636,2025-02-12 11:10:12,2025-02-12 11:11:04,52.037,,,,,,,
637,2025-02-12 12:44:56,2025-02-12 12:45:47,51.183,,,,,,,
638,2025-02-12 14:19:40,2025-02-12 14:20:31,50.485,,,,,,,
639,2025-02-12 15:54:25,2025-02-12 15:55:15,49.958,,,,,,,
640,2025-02-12 17:29:09,2025-02-12 17:29:59,49.597,,,,,,,
641,2025-02-12 19:03:54,2025-02-12 19:04:43,49.402,,,,,,,
642,2025-02-12 20:38:38,2025-02-12 20:39:27,49.379,,,,,,,
643,2025-02-12 22:13:22,2025-02-12 22:14:12,49.528,,,,,,,
644,2025-02-12 23:48:07,2025-02-12 23:48:57,49.855,,,,,,,
645,2025-02-13 01:22:51,2025-02-13 01:23:42,50.359,,,,,,,
646,2025-02-13 02:57:36,2025-02-13 02:58:27,51.05,,,,,,,
647,2025-02-13 04:32:20,2025-02-13 04:33:12,51.931,,,,,,,
648,2025-02-13 06:07:04,2025-02-13 06:07:57,52.997,,,,,,,
649,2025-02-13 07:41:49,2025-02-13 07:42:43,54.268,,,,,,,
650,2025-02-13 09:16:33,2025-02-13 09:17:29,55.739,,,,,,,
651,2025-02-13 10:51:17,2025-02-13 10:52:15,57.043,,,,,,,
652,2025-02-13 12:26:02,2025-02-13 12:26:57,55.551,,,,,,,
653,2025-02-13 14:00:46,2025-02-13 14:01:40,54.216,,,,,,,
654,2025-02-13 15:35:31,2025-02-13 15:36:24,53.041,,,,,,,
655,2025-02-13 17:10:15,2025-02-13 17:11:07,52.022,,,,,,,
656,2025-02-13 18:44:59,2025-02-13 18:45:51,51.169,,,,,,,
657,2025-02-13 20:19:44,2025-02-13 20:20:34,50.48,,,,,,,
658,2025-02-13 21:54:28,2025-02-13 21:55:18,49.955,,,,,,,
659,2025-02-13 23:29:13,2025-02-13 23:30:02,49.594,,,,,,,
660,2025-02-14 01:03:57,2025-02-14 01:04:46,49.402,,,,,,,
661,2025-02-14 02:38:41,2025-02-14 02:39:31,49.38,,,,,,,
662,2025-02-14 04:13:26,2025-02-14 04:14:15,49.528,,,,,,,
663,2025-02-14 05:48:10,2025-02-14 05:49:00,49.86,,,,,,,
664,2025-02-14 07:22:55,2025-02-14 07:23:45,50.368,,,,,,,
665,2025-02-14 08:57:39,2025-02-14 08:58:30,51.058,,,,,,,
666,2025-02-14 10:32:23,2025-02-14 10:33:15,51.942,,,,,,,
667,2025-02-14 12:07:08,2025-02-14 12:08:01,53.014,,,,,,,
668,2025-02-14 13:41:52,2025-02-14 13:42:46,54.284,,,,,,,
669,2025-02-14 15:16:36,2025-02-14 15:17:32,55.758,,,,,,,
670,2025-02-14 16:51:21,2025-02-14 16:52:18,57.025,,,,,,,
671,2025-02-14 18:26:05,2025-02-14 18:27:01,55.535,,,,,,,
672,2025-02-14 20:00:50,2025-02-14 20:01:44,54.197,,,,,,,
673,2025-02-14 21:35:34,2025-02-14 21:36:27,53.025,,,,,,,
674,2025-02-14 23:10:18,2025-02-14 23:11:10,52.015,,,,,,,
675,2025-02-15 00:45:03,2025-02-15 00:45:54,51.16,,,,,,,
676,2025-02-15 02:19:47,2025-02-15 02:20:38,50.476,,,,,,,
677,2025-02-15 03:54:32,2025-02-15 03:55:21,49.945,,,,,,,
678,2025-02-15 05:29:16,2025-02-15 05:30:06,49.591,,,,,,,
679,2025-02-15 07:04:00,2025-02-15 07:04:50,49.4,,,,,,,
680,2025-02-15 08:38:45,2025-02-15 08:39:34,49.381,,,,,,,
681,2025-02-15 10:13:29,2025-02-15 10:14:19,49.534,,,,,,,
682,2025-02-15 11:48:13,2025-02-15 11:49:03,49.865,,,,,,,
683,2025-02-15 13:22:58,2025-02-15 13:23:48,50.375,,,,,,,
684,2025-02-15 14:57:42,2025-02-15 14:58:33,51.067,,,,,,,
685,2025-02-15 16:32:27,2025-02-15 16:33:19,51.949,,,,,,,
686,2025-02-15 18:07:11,2025-02-15 18:08:04,53.025,,,,,,,
687,2025-02-15 19:41:55,2025-02-15 19:42:50,54.298,,,,,,,
688,2025-02-15 21:16:40,2025-02-15 21:17:36,55.776,,,,,,,
689,2025-02-15 22:51:24,2025-02-15 22:52:21,57.008,,,,,,,
690,2025-02-16 00:26:09,2025-02-16 00:27:04,55.515,,,,,,,
691,2025-02-16 02:00:53,2025-02-16 02:01:47,54.187,,,,,,,
692,2025-02-16 03:35:37,2025-02-16 03:36:30,53.012,,,,,,,
693,2025-02-16 05:10:22,2025-02-16 05:11:14,52.004,,,,,,,
694,2025-02-16 06:45:06,2025-02-16 06:45:57,51.154,,,,,,,
695,2025-02-16 08:19:50,2025-02-16 08:20:41,50.467,,,,,,,
696,2025-02-16 09:54:35,2025-02-16 09:55:25,49.944,,,,,,,
697,2025-02-16 11:29:19,2025-02-16 11:30:09,49.587,,,,,,,
698,2025-02-16 13:04:04,2025-02-16 13:04:53,49.399,,,,,,,
699,2025-02-16 14:38:48,2025-02-16 14:39:37,49.381,,,,,,,
700,2025-02-16 16:13:32,2025-02-16 16:14:22,49.533,,,,,,,
701,2025-02-16 17:48:17,2025-02-16 17:49:07,49.868,,,,,,,
702,2025-02-16 19:23:01,2025-02-16 19:23:52,50.381,,,,,,,
703,2025-02-16 20:57:46,2025-02-16 20:58:37,51.077,,,,,,,
704,2025-02-16 22:32:30,2025-02-16 22:33:22,51.963,,,,,,,
705,2025-02-17 00:07:14,2025-02-17 00:08:07,53.037,,,,,,,
706,2025-02-17 01:41:59,2025-02-17 01:42:53,54.316,,,,,,,
707,2025-02-17 03:16:43,2025-02-17 03:17:39,55.794,,,,,,,
708,2025-02-17 04:51:27,2025-02-17 04:52:24,56.989,,,,,,,
709,2025-02-17 06:26:12,2025-02-17 06:27:07,55.501,,,,,,,
710,2025-02-17 08:00:56,2025-02-17 08:01:50,54.17,,,,,,,
711,2025-02-17 09:35:41,2025-02-17 09:36:34,53.002,,,,,,,
712,2025-02-17 11:10:25,2025-02-17 11:11:17,51.993,,,,,,,
713,2025-02-17 12:45:09,2025-02-17 12:46:01,51.145,,,,,,,
714,2025-02-17 14:19:54,2025-02-17 14:20:44,50.457,,,,,,,
715,2025-02-17 15:54:38,2025-02-17 15:55:28,49.937,,,,,,,
716,2025-02-17 17:29:23,2025-02-17 17:30:12,49.583,,,,,,,
717,2025-02-17 19:04:07,2025-02-17 19:04:56,49.397,,,,,,,
718,2025-02-17 20:38:51,2025-02-17 20:39:41,49.385,,,,,,,
719,2025-02-17 22:13:36,2025-02-17 22:14:25,49.539,,,,,,,
720,2025-02-17 23:48:20,2025-02-17 23:49:10,49.873,,,,,,,
721,2025-02-18 01:23:05,2025-02-18 01:23:55,50.386,,,,,,,
722,2025-02-18 02:57:49,2025-02-18 02:58:40,51.085,,,,,,,
723,2025-02-18 04:32:33,2025-02-18 04:33:25,51.975,,,,,,,
724,2025-02-18 06:07:18,2025-02-18 06:08:11,53.051,,,,,,,
725,2025-02-18 07:42:02,2025-02-18 07:42:56,54.331,,,,,,,
726,2025-02-18 09:16:46,2025-02-18 09:17:42,55.812,,,,,,,
727,2025-02-18 10:51:31,2025-02-18 10:52:28,56.966,,,,,,,
728,2025-02-18 12:26:15,2025-02-18 12:27:11,55.483,,,,,,,
729,2025-02-18 14:01:00,2025-02-18 14:01:54,54.156,,,,,,,
730,2025-02-18 15:35:44,2025-02-18 15:36:37,52.989,,,,,,,
731,2025-02-18 17:10:28,2025-02-18 17:11:20,51.977,,,,,,,
732,2025-02-18 18:45:13,2025-02-18 18:46:04,51.131,,,,,,,
733,2025-02-18 20:19:57,2025-02-18 20:20:48,50.45,,,,,,,
734,2025-02-18 21:54:42,2025-02-18 21:55:31,49.932,,,,,,,
735,2025-02-18 23:29:26,2025-02-18 23:30:15,49.579,,,,,,,
736,2025-02-19 01:04:10,2025-02-19 01:05:00,49.395,,,,,,,
737,2025-02-19 02:38:55,2025-02-19 02:39:44,49.382,,,,,,,
738,2025-02-19 04:13:39,2025-02-19 04:14:29,49.537,,,,,,,
739,2025-02-19 05:48:23,2025-02-19 05:49:13,49.877,,,,,,,
740,2025-02-19 07:23:08,2025-02-19 07:23:58,50.393,,,,,,,
741,2025-02-19 08:57:52,2025-02-19 08:58:43,51.098,,,,,,,
742,2025-02-19 10:32:37,2025-02-19 10:33:29,51.985,,,,,,,
743,2025-02-19 12:07:21,2025-02-19 12:08:14,53.067,,,,,,,
744,2025-02-19 13:42:05,2025-02-19 13:43:00,54.346,,,,,,,
745,2025-02-19 15:16:50,2025-02-19 15:17:46,55.83,,,,,,,
746,2025-02-19 16:51:34,2025-02-19 16:52:31,56.946,,,,,,,
747,2025-02-19 18:26:19,2025-02-19 18:27:14,55.466,,,,,,,
748,2025-02-19 20:01:03,2025-02-19 20:01:57,54.136,,,,,,,
749,2025-02-19 21:35:47,2025-02-19 21:36:40,52.971,,,,,,,
750,2025-02-19 23:10:32,2025-02-19 23:11:24,51.969,,,,,,,
751,2025-02-20 00:45:16,2025-02-20 00:46:07,51.122,,,,,,,
752,2025-02-20 02:20:00,2025-02-20 02:20:51,50.444,,,,,,,
753,2025-02-20 03:54:45,2025-02-20 03:55:35,49.922,,,,,,,
754,2025-02-20 05:29:29,2025-02-20 05:30:19,49.575,,,,,,,
755,2025-02-20 07:04:14,2025-02-20 07:05:03,49.393,,,,,,,
756,2025-02-20 08:38:58,2025-02-20 08:39:47,49.381,,,,,,,
757,2025-02-20 10:13:42,2025-02-20 10:14:32,49.543,,,,,,,
758,2025-02-20 11:48:27,2025-02-20 11:49:17,49.881,,,,,,,
759,2025-02-20 13:23:11,2025-02-20 13:24:02,50.4,,,,,,,
760,2025-02-20 14:57:56,2025-02-20 14:58:47,51.106,,,,,,,
761,2025-02-20 16:32:40,2025-02-20 16:33:32,51.992,,,,,,,
762,2025-02-20 18:07:24,2025-02-20 18:08:17,53.076,,,,,,,
763,2025-02-20 19:42:09,2025-02-20 19:43:03,54.359,,,,,,,
764,2025-02-20 21:16:53,2025-02-20 21:17:49,55.847,,,,,,,
765,2025-02-20 22:51:37,2025-02-20 22:52:34,56.931,,,,,,,
766,2025-02-21 00:26:22,2025-02-21 00:27:17,55.446,,,,,,,
767,2025-02-21 02:01:06,2025-02-21 02:02:00,54.123,,,,,,,
768,2025-02-21 03:35:51,2025-02-21 03:36:44,52.958,,,,,,,
769,2025-02-21 05:10:35,2025-02-21 05:11:27,51.958,,,,,,,
770,2025-02-21 06:45:19,2025-02-21 06:46:11,51.115,,,,,,,
771,2025-02-21 08:20:04,2025-02-21 08:20:54,50.436,,,,,,,
772,2025-02-21 09:54:48,2025-02-21 09:55:38,49.921,,,,,,,
773,2025-02-21 11:29:33,2025-02-21 11:30:22,49.571,,,,,,,
774,2025-02-21 13:04:17,2025-02-21 13:05:06,49.391,,,,,,,
775,2025-02-21 14:39:01,2025-02-21 14:39:51,49.381,,,,,,,
776,2025-02-21 16:13:46,2025-02-21 16:14:35,49.541,,,,,,,
777,2025-02-21 17:48:30,2025-02-21 17:49:20,49.884,,,,,,,
778,2025-02-21 19:23:14,2025-02-21 19:24:05,50.407,,,,,,,
779,2025-02-21 20:57:59,2025-02-21 20:58:50,51.116,,,,,,,
780,2025-02-21 22:32:43,2025-02-21 22:33:35,52.005,,,,,,,
781,2025-02-22 00:07:28,2025-02-22 00:08:21,53.089,,,,,,,
782,2025-02-22 01:42:12,2025-02-22 01:43:06,54.378,,,,,,,
783,2025-02-22 03:16:56,2025-02-22 03:17:52,55.865,,,,,,,
784,2025-02-22 04:51:41,2025-02-22 04:52:38,56.912,,,,,,,
785,2025-02-22 06:26:25,2025-02-22 06:27:21,55.432,,,,,,,
786,2025-02-22 08:01:10,2025-02-22 08:02:04,54.108,,,,,,,
787,2025-02-22 09:35:54,2025-02-22 09:36:47,52.948,,,,,,,
788,2025-02-22 11:10:38,2025-02-22 11:11:30,51.946,,,,,,,
789,2025-02-22 12:45:23,2025-02-22 12:46:14,51.106,,,,,,,
790,2025-02-22 14:20:07,2025-02-22 14:20:58,50.426,,,,,,,
791,2025-02-22 15:54:52,2025-02-22 15:55:41,49.914,,,,,,,
792,2025-02-22 17:29:36,2025-02-22 17:30:25,49.568,,,,,,,
793,2025-02-22 19:04:20,2025-02-22 19:05:10,49.389,,,,,,,
794,2025-02-22 20:39:05,2025-02-22 20:39:54,49.382,,,,,,,
795,2025-02-22 22:13:49,2025-02-22 22:14:39,49.548,,,,,,,
796,2025-02-22 23:48:33,2025-02-22 23:49:23,49.891,,,,,,,
797,2025-02-23 01:23:18,2025-02-23 01:24:08,50.412,,,,,,,
798,2025-02-23 02:58:02,2025-02-23 02:58:53,51.124,,,,,,,
799,2025-02-23 04:32:47,2025-02-23 04:33:39,52.019,,,,,,,
800,2025-02-23 06:07:31,2025-02-23 06:08:24,53.103,,,,,,,
801,2025-02-23 07:42:15,2025-02-23 07:43:10,54.393,,,,,,,
802,2025-02-23 09:17:00,2025-02-23 09:17:56,55.884,,,,,,,
803,2025-02-23 10:51:44,2025-02-23 10:52:41,56.89,,,,,,,
804,2025-02-23 12:26:29,2025-02-23 12:27:24,55.415,,,,,,,
805,2025-02-23 14:01:13,2025-02-23 14:02:07,54.096,,,,,,,
806,2025-02-23 15:35:57,2025-02-23 15:36:50,52.936,,,,,,,
807,2025-02-23 17:10:42,2025-02-23 17:11:34,51.931,,,,,,,
808,2025-02-23 18:45:26,2025-02-23 18:46:17,51.094,,,,,,,
809,2025-02-23 20:20:10,2025-02-23 20:21:01,50.42,,,,,,,
810,2025-02-23 21:54:55,2025-02-23 21:55:45,49.91,,,,,,,
811,2025-02-23 23:29:39,2025-02-23 23:30:29,49.565,,,,,,,
812,2025-02-24 01:04:24,2025-02-24 01:05:13,49.388,,,,,,,
813,2025-02-24 02:39:08,2025-02-24 02:39:57,49.383,,,,,,,
814,2025-02-24 04:13:52,2025-02-24 04:14:42,49.547,,,,,,,
815,2025-02-24 05:48:37,2025-02-24 05:49:27,49.896,,,,,,,
816,2025-02-24 07:23:21,2025-02-24 07:24:12,50.42,,,,,,,
817,2025-02-24 08:58:06,2025-02-24 08:58:57,51.133,,,,,,,
818,2025-02-24 10:32:50,2025-02-24 10:33:42,52.03,,,,,,,
819,2025-02-24 12:07:34,2025-02-24 12:08:27,53.121,,,,,,,
820,2025-02-24 13:42:19,2025-02-24 13:43:13,54.409,,,,,,,
821,2025-02-24 15:17:03,2025-02-24 15:17:59,55.903,,,,,,,
822,2025-02-24 16:51:47,2025-02-24 16:52:44,56.872,,,,,,,
823,2025-02-24 18:26:32,2025-02-24 18:27:27,55.399,,,,,,,
824,2025-02-24 20:01:16,2025-02-24 20:02:10,54.077,,,,,,,
825,2025-02-24 21:36:01,2025-02-24 21:36:54,52.92,,,,,,,
826,2025-02-24 23:10:45,2025-02-24 23:11:37,51.925,,,,,,,
827,2025-02-25 00:45:29,2025-02-25 00:46:20,51.085,,,,,,,
828,2025-02-25 02:20:14,2025-02-25 02:21:04,50.416,,,,,,,
829,2025-02-25 03:54:58,2025-02-25 03:55:48,49.901,,,,,,,
830,2025-02-25 05:29:43,2025-02-25 05:30:32,49.562,,,,,,,
831,2025-02-25 07:04:27,2025-02-25 07:05:16,49.388,,,,,,,
832,2025-02-25 08:39:11,2025-02-25 08:40:01,49.384,,,,,,,
833,2025-02-25 10:13:56,2025-02-25 10:14:45,49.554,,,,,,,
834,2025-02-25 11:48:40,2025-02-25 11:49:30,49.901,,,,,,,
835,2025-02-25 13:23:24,2025-02-25 13:24:15,50.428,,,,,,,
836,2025-02-25 14:58:09,2025-02-25 14:59:00,51.143,,,,,,,
837,2025-02-25 16:32:53,2025-02-25 16:33:45,52.038,,,,,,,
838,2025-02-25 18:07:38,2025-02-25 18:08:31,53.132,,,,,,,
839,2025-02-25 19:42:22,2025-02-25 19:43:16,54.424,,,,,,,
840,2025-02-25 21:17:06,2025-02-25 21:18:02,55.927,,,,,,,
841,2025-02-25 22:51:51,2025-02-25 22:52:48,56.858,,,,,,,
842,2025-02-26 00:26:35,2025-02-26 00:27:31,55.381,,,,,,,
843,2025-02-26 02:01:20,2025-02-26 02:02:14,54.065,,,,,,,
844,2025-02-26 03:36:04,2025-02-26 03:36:57,52.908,,,,,,,
845,2025-02-26 05:10:48,2025-02-26 05:11:40,51.915,,,,,,,
846,2025-02-26 06:45:33,2025-02-26 06:46:24,51.08,,,,,,,
847,2025-02-26 08:20:17,2025-02-26 08:21:08,50.408,,,,,,,
848,2025-02-26 09:55:02,2025-02-26 09:55:51,49.901,,,,,,,
849,2025-02-26 11:29:46,2025-02-26 11:30:35,49.56,,,,,,,
850,2025-02-26 13:04:30,2025-02-26 13:05:20,49.387,,,,,,,
851,2025-02-26 14:39:15,2025-02-26 14:40:04,49.386,,,,,,,
852,2025-02-26 16:13:59,2025-02-26 16:14:49,49.554,,,,,,,
853,2025-02-26 17:48:43,2025-02-26 17:49:33,49.905,,,,,,,
854,2025-02-26 19:23:28,2025-02-26 19:24:18,50.436,,,,,,,
855,2025-02-26 20:58:12,2025-02-26 20:59:03,51.154,,,,,,,
856,2025-02-26 22:32:57,2025-02-26 22:33:49,52.055,,,,,,,
857,2025-02-27 00:07:41,2025-02-27 00:08:34,53.146,,,,,,,
858,2025-02-27 01:42:25,2025-02-27 01:43:20,54.445,,,,,,,
859,2025-02-27 03:17:10,2025-02-27 03:18:06,55.941,,,,,,,
860,2025-02-27 04:51:54,2025-02-27 04:52:51,56.841,,,,,,,
861,2025-02-27 06:26:39,2025-02-27 06:27:34,55.368,,,,,,,
862,2025-02-27 08:01:23,2025-02-27 08:02:17,54.052,,,,,,,
863,2025-02-27 09:36:07,2025-02-27 09:37:00,52.899,,,,,,,
864,2025-02-27 11:10:52,2025-02-27 11:11:44,51.905,,,,,,,
865,2025-02-27 12:45:36,2025-02-27 12:46:27,51.072,,,,,,,
866,2025-02-27 14:20:20,2025-02-27 14:21:11,50.397,,,,,,,
867,2025-02-27 15:55:05,2025-02-27 15:55:55,49.895,,,,,,,
868,2025-02-27 17:29:49,2025-02-27 17:30:39,49.557,,,,,,,
869,2025-02-27 19:04:34,2025-02-27 19:05:23,49.387,,,,,,,
870,2025-02-27 20:39:18,2025-02-27 20:40:07,49.387,,,,,,,
871,2025-02-27 22:14:02,2025-02-27 22:14:52,49.561,,,,,,,
872,2025-02-27 23:48:47,2025-02-27 23:49:37,49.913,,,,,,,
873,2025-02-28 01:23:31,2025-02-28 01:24:22,50.442,,,,,,,
874,2025-02-28 02:58:16,2025-02-28 02:59:07,51.164,,,,,,,
875,2025-02-28 04:33:00,2025-02-28 04:33:52,52.067,,,,,,,
876,2025-02-28 06:07:44,2025-02-28 06:08:37,53.161,,,,,,,
877,2025-02-28 07:42:29,2025-02-28 07:43:23,54.46,,,,,,,
878,2025-02-28 09:17:13,2025-02-28 09:18:09,55.96,,,,,,,
879,2025-02-28 10:51:57,2025-02-28 10:52:54,56.819,,,,,,,
880,2025-02-28 12:26:42,2025-02-28 12:27:37,55.351,,,,,,,
881,2025-02-28 14:01:26,2025-02-28 14:02:20,54.039,,,,,,,
882,2025-02-28 15:36:11,2025-02-28 15:37:04,52.886,,,,,,,
883,2025-02-28 17:10:55,2025-02-28 17:11:47,51.893,,,,,,,
884,2025-02-28 18:45:39,2025-02-28 18:46:30,51.06,,,,,,,
885,2025-02-28 20:20:24,2025-02-28 20:21:14,50.394,,,,,,,
886,2025-02-28 21:55:08,2025-02-28 21:55:58,49.891,,,,,,,
887,2025-02-28 23:29:53,2025-02-28 23:30:42,49.554,,,,,,,
888,2025-03-01 01:04:37,2025-03-01 01:05:26,49.385,,,,,,,
889,2025-03-01 02:39:21,2025-03-01 02:40:11,49.388,,,,,,,
890,2025-03-01 04:14:06,2025-03-01 04:14:55,49.561,,,,,,,
891,2025-03-01 05:48:50,2025-03-01 05:49:40,49.917,,,,,,,
892,2025-03-01 07:23:34,2025-03-01 07:24:25,50.45,,,,,,,
893,2025-03-01 08:58:19,2025-03-01 08:59:10,51.172,,,,,,,
894,2025-03-01 10:33:03,2025-03-01 10:33:55,52.077,,,,,,,
895,2025-03-01 12:07:48,2025-03-01 12:08:41,53.177,,,,,,,
896,2025-03-01 13:42:32,2025-03-01 13:43:26,54.476,,,,,,,
897,2025-03-01 15:17:16,2025-03-01 15:18:12,55.979,,,,,,,
898,2025-03-01 16:52:01,2025-03-01 16:52:58,56.8,,,,,,,
899,2025-03-01 18:26:45,2025-03-01 18:27:41,55.334,,,,,,,
900,2025-03-01 20:01:30,2025-03-01 20:02:24,54.019,,,,,,,
901,2025-03-01 21:36:14,2025-03-01 21:37:07,52.87,,,,,,,
902,2025-03-01 23:10:58,2025-03-01 23:11:50,51.883,,,,,,,
903,2025-03-02 00:45:43,2025-03-02 00:46:34,51.05,,,,,,,
904,2025-03-02 02:20:27,2025-03-02 02:21:17,50.388,,,,,,,
905,2025-03-02 03:55:11,2025-03-02 03:56:01,49.881,,,,,,,
906,2025-03-02 05:29:56,2025-03-02 05:30:45,49.55,,,,,,,
907,2025-03-02 07:04:40,2025-03-02 07:05:30,49.383,,,,,,,
908,2025-03-02 08:39:25,2025-03-02 08:40:14,49.388,,,,,,,
909,2025-03-02 10:14:09,2025-03-02 10:14:59,49.566,,,,,,,
910,2025-03-02 11:48:53,2025-03-02 11:49:43,49.921,,,,,,,
911,2025-03-02 13:23:38,2025-03-02 13:24:28,50.457,,,,,,,
912,2025-03-02 14:58:22,2025-03-02 14:59:13,51.18,,,,,,,
913,2025-03-02 16:33:07,2025-03-02 16:33:59,52.084,,,,,,,
914,2025-03-02 18:07:51,2025-03-02 18:08:44,53.187,,,,,,,
915,2025-03-02 19:42:35,2025-03-02 19:43:30,54.489,,,,,,,
916,2025-03-02 21:17:20,2025-03-02 21:18:16,55.996,,,,,,,
917,2025-03-02 22:52:04,2025-03-02 22:53:01,56.784,,,,,,,
918,2025-03-03 00:26:49,2025-03-03 00:27:44,55.314,,,,,,,
919,2025-03-03 02:01:33,2025-03-03 02:02:27,54.011,,,,,,,
920,2025-03-03 03:36:17,2025-03-03 03:37:10,52.856,,,,,,,
921,2025-03-03 05:11:02,2025-03-03 05:11:54,51.871,,,,,,,
922,2025-03-03 06:45:46,2025-03-03 06:46:37,51.043,,,,,,,
923,2025-03-03 08:20:30,2025-03-03 08:21:21,50.379,,,,,,,
924,2025-03-03 09:55:15,2025-03-03 09:56:05,49.879,,,,,,,
925,2025-03-03 11:29:59,2025-03-03 11:30:49,49.546,,,,,,,
926,2025-03-03 13:04:44,2025-03-03 13:05:33,49.381,,,,,,,
927,2025-03-03 14:39:28,2025-03-03 14:40:17,49.387,,,,,,,
928,2025-03-03 16:14:12,2025-03-03 16:15:02,49.564,,,,,,,
929,2025-03-03 17:48:57,2025-03-03 17:49:47,49.924,,,,,,,
930,2025-03-03 19:23:41,2025-03-03 19:24:32,50.463,,,,,,,
931,2025-03-03 20:58:26,2025-03-03 20:59:17,51.19,,,,,,,
932,2025-03-03 22:33:10,2025-03-03 22:34:02,52.099,,,,,,,
933,2025-03-04 00:07:54,2025-03-04 00:08:48,53.199,,,,,,,
934,2025-03-04 01:42:39,2025-03-04 01:43:33,54.507,,,,,,,
935,2025-03-04 03:17:23,2025-03-04 03:18:19,56.013,,,,,,,
936,2025-03-04 04:52:07,2025-03-04 04:53:04,56.765,,,,,,,
937,2025-03-04 06:26:52,2025-03-04 06:27:47,55.299,,,,,,,
938,2025-03-04 08:01:36,2025-03-04 08:02:30,53.991,,,,,,,
939,2025-03-04 09:36:21,2025-03-04 09:37:13,52.845,,,,,,,
940,2025-03-04 11:11:05,2025-03-04 11:11:57,51.858,,,,,,,
941,2025-03-04 12:45:49,2025-03-04 12:46:40,51.033,,,,,,,
942,2025-03-04 14:20:34,2025-03-04 14:21:24,50.366,,,,,,,
943,2025-03-04 15:55:18,2025-03-04 15:56:08,49.871,,,,,,,
944,2025-03-04 17:30:03,2025-03-04 17:30:52,49.541,,,,,,,
945,2025-03-04 19:04:47,2025-03-04 19:05:36,49.378,,,,,,,
946,2025-03-04 20:39:31,2025-03-04 20:40:21,49.387,,,,,,,
947,2025-03-04 22:14:16,2025-03-04 22:15:05,49.569,,,,,,,
948,2025-03-04 23:49:00,2025-03-04 23:49:50,49.929,,,,,,,
949,2025-03-05 01:23:44,2025-03-05 01:24:35,50.466,,,,,,,
950,2025-03-05 02:58:29,2025-03-05 02:59:20,51.196,,,,,,,
951,2025-03-05 04:33:13,2025-03-05 04:34:05,52.108,,,,,,,
952,2025-03-05 06:07:58,2025-03-05 06:08:51,53.211,,,,,,,
953,2025-03-05 07:42:42,2025-03-05 07:43:37,54.52,,,,,,,
954,2025-03-05 09:17:26,2025-03-05 09:18:22,56.03,,,,,,,
955,2025-03-05 10:52:11,2025-03-05 10:53:08,56.741,,,,,,,
956,2025-03-05 12:26:55,2025-03-05 12:27:50,55.281,,,,,,,
957,2025-03-05 14:01:40,2025-03-05 14:02:34,53.976,,,,,,,
958,2025-03-05 15:36:24,2025-03-05 15:37:17,52.831,,,,,,,
959,2025-03-05 17:11:08,2025-03-05 17:12:00,51.842,,,,,,,
960,2025-03-05 18:45:53,2025-03-05 18:46:44,51.019,,,,,,,
961,2025-03-05 20:20:37,2025-03-05 20:21:27,50.361,,,,,,,
962,2025-03-05 21:55:21,2025-03-05 21:56:11,49.866,,,,,,,
963,2025-03-05 23:30:06,2025-03-05 23:30:55,49.536,,,,,,,
964,2025-03-06 01:04:50,2025-03-06 01:05:40,49.376,,,,,,,
965,2025-03-06 02:39:35,2025-03-06 02:40:24,49.386,,,,,,,
966,2025-03-06 04:14:19,2025-03-06 04:15:09,49.567,,,,,,,
967,2025-03-06 05:49:03,2025-03-06 05:49:53,49.932,,,,,,,
968,2025-03-06 07:23:48,2025-03-06 07:24:38,50.474,,,,,,,
969,2025-03-06 08:58:32,2025-03-06 08:59:23,51.204,,,,,,,
970,2025-03-06 10:33:17,2025-03-06 10:34:09,52.118,,,,,,,
971,2025-03-06 12:08:01,2025-03-06 12:08:54,53.227,,,,,,,
972,2025-03-06 13:42:45,2025-03-06 13:43:40,54.535,,,,,,,
973,2025-03-06 15:17:30,2025-03-06 15:18:26,56.047,,,,,,,
974,2025-03-06 16:52:14,2025-03-06 16:53:11,56.722,,,,,,,
975,2025-03-06 18:26:59,2025-03-06 18:27:54,55.263,,,,,,,
976,2025-03-06 20:01:43,2025-03-06 20:02:37,53.956,,,,,,,
977,2025-03-06 21:36:27,2025-03-06 21:37:20,52.814,,,,,,,
978,2025-03-06 23:11:12,2025-03-06 23:12:03,51.834,,,,,,,
979,2025-03-07 00:45:56,2025-03-07 00:46:47,51.009,,,,,,,
980,2025-03-07 02:20:40,2025-03-07 02:21:31,50.355,,,,,,,
981,2025-03-07 03:55:25,2025-03-07 03:56:15,49.855,,,,,,,
982,2025-03-07 05:30:09,2025-03-07 05:30:59,49.532,,,,,,,
983,2025-03-07 07:04:54,2025-03-07 07:05:43,49.375,,,,,,,
984,2025-03-07 08:39:38,2025-03-07 08:40:27,49.386,,,,,,,
985,2025-03-07 10:14:22,2025-03-07 10:15:12,49.573,,,,,,,
986,2025-03-07 11:49:07,2025-03-07 11:49:57,49.936,,,,,,,
987,2025-03-07 13:23:51,2025-03-07 13:24:42,50.48,,,,,,,
988,2025-03-07 14:58:36,2025-03-07 14:59:27,51.212,,,,,,,
989,2025-03-07 16:33:20,2025-03-07 16:34:12,52.125,,,,,,,
990,2025-03-07 18:08:04,2025-03-07 18:08:58,53.237,,,,,,,
991,2025-03-07 19:42:49,2025-03-07 19:43:43,54.548,,,,,,,
992,2025-03-07 21:17:33,2025-03-07 21:18:29,56.065,,,,,,,
993,2025-03-07 22:52:17,2025-03-07 22:53:14,56.706,,,,,,,
994,2025-03-08 00:27:02,2025-03-08 00:27:57,55.244,,,,,,,
995,2025-03-08 02:01:46,2025-03-08 02:02:40,53.947,,,,,,,
996,2025-03-08 03:36:31,2025-03-08 03:37:23,52.8,,,,,,,
997,2025-03-08 05:11:15,2025-03-08 05:12:07,51.823,,,,,,,
998,2025-03-08 06:45:59,2025-03-08 06:46:50,51.003,,,,,,,
999,2025-03-08 08:20:44,2025-03-08 08:21:34,50.347,,,,,,,
1000,2025-03-08 09:55:28,2025-03-08 09:56:18,49.854,,,,,,,
1001,2025-03-08 11:30:13,2025-03-08 11:31:02,49.529,,,,,,,
1002,2025-03-08 13:04:57,2025-03-08 13:05:46,49.372,,,,,,,
1003,2025-03-08 14:39:41,2025-03-08 14:40:31,49.386,,,,,,,
1004,2025-03-08 16:14:26,2025-03-08 16:15:15,49.571,,,,,,,
1005,2025-03-08 17:49:10,2025-03-08 17:50:00,49.939,,,,,,,
1006,2025-03-08 19:23:54,2025-03-08 19:24:45,50.487,,,,,,,
1007,2025-03-08 20:58:39,2025-03-08 20:59:30,51.222,,,,,,,
1008,2025-03-08 22:33:23,2025-03-08 22:34:15,52.141,,,,,,,
1009,2025-03-09 00:08:08,2025-03-09 00:09:01,53.25,,,,,,,
1010,2025-03-09 01:42:52,2025-03-09 01:43:47,54.569,,,,,,,
1011,2025-03-09 03:17:36,2025-03-09 03:18:32,56.084,,,,,,,
1012,2025-03-09 04:52:21,2025-03-09 04:53:17,56.688,,,,,,,
1013,2025-03-09 06:27:05,2025-03-09 06:28:00,55.23,,,,,,,
1014,2025-03-09 08:01:50,2025-03-09 08:02:43,53.929,,,,,,,
1015,2025-03-09 09:36:34,2025-03-09 09:37:27,52.791,,,,,,,
1016,2025-03-09 11:11:18,2025-03-09 11:12:10,51.812,,,,,,,
1017,2025-03-09 12:46:03,2025-03-09 12:46:54,50.994,,,,,,,
1018,2025-03-09 14:20:47,2025-03-09 14:21:37,50.336,,,,,,,
1019,2025-03-09 15:55:31,2025-03-09 15:56:21,49.848,,,,,,,
1020,2025-03-09 17:30:16,2025-03-09 17:31:05,49.526,,,,,,,
1021,2025-03-09 19:05:00,2025-03-09 19:05:50,49.371,,,,,,,
1022,2025-03-09 20:39:45,2025-03-09 20:40:34,49.387,,,,,,,
1023,2025-03-09 22:14:29,2025-03-09 22:15:19,49.578,,,,,,,
1024,2025-03-09 23:49:13,2025-03-09 23:50:03,49.946,,,,,,,
1025,2025-03-10 01:23:58,2025-03-10 01:24:48,50.492,,,,,,,
1026,2025-03-10 02:58:42,2025-03-10 02:59:33,51.231,,,,,,,
1027,2025-03-10 04:33:27,2025-03-10 04:34:19,52.152,,,,,,,
1028,2025-03-10 06:08:11,2025-03-10 06:09:04,53.264,,,,,,,
1029,2025-03-10 07:42:55,2025-03-10 07:43:50,54.583,,,,,,,
1030,2025-03-10 09:17:40,2025-03-10 09:18:36,56.102,,,,,,,
1031,2025-03-10 10:52:24,2025-03-10 10:53:21,56.666,,,,,,,
1032,2025-03-10 12:27:08,2025-03-10 12:28:04,55.213,,,,,,,
