3UCubedIntegratedSim/Reports & Plots/Area Target Access Data/CSV/Sat10.csv

Access,Start Time (UTCG),Stop Time (UTCG),Duration (sec),
1,2025/01/01 16:24:48,2025/01/01 16:31:18,389.98,
2,2025/01/01 17:59:33,2025/01/01 18:06:04,390.973,
3,2025/01/01 19:34:17,2025/01/01 19:40:49,392.162,
4,2025/01/01 21:09:01,2025/01/01 21:15:35,393.547,
5,2025/01/01 22:43:46,2025/01/01 22:50:21,395.148,
6,2025/01/02 00:18:30,2025/01/02 00:25:05,394.548,
7,2025/01/02 01:53:15,2025/01/02 01:59:48,393.152,
8,2025/01/02 03:27:59,2025/01/02 03:34:31,391.917,
9,2025/01/02 05:02:43,2025/01/02 05:09:14,390.838,
10,2025/01/02 06:37:28,2025/01/02 06:43:58,389.913,
11,2025/01/02 08:12:12,2025/01/02 08:18:41,389.157,
12,2025/01/02 09:46:57,2025/01/02 09:53:25,388.565,
13,2025/01/02 11:21:41,2025/01/02 11:28:09,388.142,
14,2025/01/02 12:56:25,2025/01/02 13:02:53,387.882,
15,2025/01/02 14:31:10,2025/01/02 14:37:37,387.793,
16,2025/01/02 16:05:54,2025/01/02 16:12:22,387.874,
17,2025/01/02 17:40:38,2025/01/02 17:47:07,388.132,
18,2025/01/02 19:15:23,2025/01/02 19:21:51,388.568,
19,2025/01/02 20:50:07,2025/01/02 20:56:36,389.183,
20,2025/01/02 22:24:52,2025/01/02 22:31:22,389.986,
21,2025/01/02 23:59:36,2025/01/03 00:06:07,390.986,
22,2025/01/03 01:34:20,2025/01/03 01:40:53,392.177,
23,2025/01/03 03:09:05,2025/01/03 03:15:38,393.569,
24,2025/01/03 04:43:49,2025/01/03 04:50:24,395.162,
25,2025/01/03 06:18:34,2025/01/03 06:25:08,394.532,
26,2025/01/03 07:53:18,2025/01/03 07:59:51,393.139,
27,2025/01/03 09:28:02,2025/01/03 09:34:34,391.897,
28,2025/01/03 11:02:47,2025/01/03 11:09:18,390.82,
29,2025/01/03 12:37:31,2025/01/03 12:44:01,389.909,
30,2025/01/03 14:12:15,2025/01/03 14:18:45,389.155,
31,2025/01/03 15:47:00,2025/01/03 15:53:28,388.564,
32,2025/01/03 17:21:44,2025/01/03 17:28:12,388.139,
33,2025/01/03 18:56:29,2025/01/03 19:02:57,387.881,
34,2025/01/03 20:31:13,2025/01/03 20:37:41,387.793,
35,2025/01/03 22:05:57,2025/01/03 22:12:25,387.872,
36,2025/01/03 23:40:42,2025/01/03 23:47:10,388.137,
37,2025/01/04 01:15:26,2025/01/04 01:21:55,388.57,
38,2025/01/04 02:50:11,2025/01/04 02:56:40,389.19,
39,2025/01/04 04:24:55,2025/01/04 04:31:25,389.997,
40,2025/01/04 05:59:39,2025/01/04 06:06:10,390.996,
41,2025/01/04 07:34:24,2025/01/04 07:40:56,392.188,
42,2025/01/04 09:09:08,2025/01/04 09:15:42,393.586,
43,2025/01/04 10:43:53,2025/01/04 10:50:28,395.183,
44,2025/01/04 12:18:37,2025/01/04 12:25:11,394.514,
45,2025/01/04 13:53:21,2025/01/04 13:59:54,393.123,
46,2025/01/04 15:28:06,2025/01/04 15:34:38,391.891,
47,2025/01/04 17:02:50,2025/01/04 17:09:21,390.814,
48,2025/01/04 18:37:34,2025/01/04 18:44:04,389.899,
49,2025/01/04 20:12:19,2025/01/04 20:18:48,389.147,
50,2025/01/04 21:47:03,2025/01/04 21:53:32,388.554,
51,2025/01/04 23:21:48,2025/01/04 23:28:16,388.135,
52,2025/01/05 00:56:32,2025/01/05 01:03:00,387.875,
53,2025/01/05 02:31:16,2025/01/05 02:37:44,387.792,
54,2025/01/05 04:06:01,2025/01/05 04:12:29,387.876,
55,2025/01/05 05:40:45,2025/01/05 05:47:13,388.14,
56,2025/01/05 07:15:30,2025/01/05 07:21:58,388.576,
57,2025/01/05 08:50:14,2025/01/05 08:56:43,389.202,
58,2025/01/05 10:24:58,2025/01/05 10:31:28,390.006,
59,2025/01/05 11:59:43,2025/01/05 12:06:14,391.008,
60,2025/01/05 13:34:27,2025/01/05 13:40:59,392.208,
61,2025/01/05 15:09:11,2025/01/05 15:15:45,393.605,
62,2025/01/05 16:43:56,2025/01/05 16:50:31,395.208,
63,2025/01/05 18:18:40,2025/01/05 18:25:15,394.502,
64,2025/01/05 19:53:25,2025/01/05 19:59:58,393.109,
65,2025/01/05 21:28:09,2025/01/05 21:34:41,391.873,
66,2025/01/05 23:02:53,2025/01/05 23:09:24,390.802,
67,2025/01/06 00:37:38,2025/01/06 00:44:08,389.886,
68,2025/01/06 02:12:22,2025/01/06 02:18:51,389.135,
69,2025/01/06 03:47:07,2025/01/06 03:53:35,388.552,
70,2025/01/06 05:21:51,2025/01/06 05:28:19,388.13,
71,2025/01/06 06:56:35,2025/01/06 07:03:03,387.872,
72,2025/01/06 08:31:20,2025/01/06 08:37:47,387.79,
73,2025/01/06 10:06:04,2025/01/06 10:12:32,387.876,
74,2025/01/06 11:40:48,2025/01/06 11:47:17,388.145,
75,2025/01/06 13:15:33,2025/01/06 13:22:01,388.587,
76,2025/01/06 14:50:17,2025/01/06 14:56:46,389.212,
77,2025/01/06 16:25:02,2025/01/06 16:31:32,390.023,
78,2025/01/06 17:59:46,2025/01/06 18:06:17,391.025,
79,2025/01/06 19:34:30,2025/01/06 19:41:03,392.224,
80,2025/01/06 21:09:15,2025/01/06 21:15:48,393.619,
81,2025/01/06 22:43:59,2025/01/06 22:50:34,395.229,
82,2025/01/07 00:18:44,2025/01/07 00:25:18,394.48,
83,2025/01/07 01:53:28,2025/01/07 02:00:01,393.091,
84,2025/01/07 03:28:12,2025/01/07 03:34:44,391.863,
85,2025/01/07 05:02:57,2025/01/07 05:09:27,390.792,
86,2025/01/07 06:37:41,2025/01/07 06:44:11,389.875,
87,2025/01/07 08:12:25,2025/01/07 08:18:55,389.127,
88,2025/01/07 09:47:10,2025/01/07 09:53:38,388.542,
89,2025/01/07 11:21:54,2025/01/07 11:28:22,388.127,
90,2025/01/07 12:56:39,2025/01/07 13:03:07,387.875,
91,2025/01/07 14:31:23,2025/01/07 14:37:51,387.793,
92,2025/01/07 16:06:07,2025/01/07 16:12:35,387.883,
93,2025/01/07 17:40:52,2025/01/07 17:47:20,388.149,
94,2025/01/07 19:15:36,2025/01/07 19:22:05,388.593,
95,2025/01/07 20:50:21,2025/01/07 20:56:50,389.217,
96,2025/01/07 22:25:05,2025/01/07 22:31:35,390.029,
97,2025/01/07 23:59:49,2025/01/08 00:06:20,391.038,
98,2025/01/08 01:34:34,2025/01/08 01:41:06,392.239,
99,2025/01/08 03:09:18,2025/01/08 03:15:52,393.639,
100,2025/01/08 04:44:02,2025/01/08 04:50:38,395.243,
101,2025/01/08 06:18:47,2025/01/08 06:25:21,394.464,
102,2025/01/08 07:53:31,2025/01/08 08:00:04,393.078,
103,2025/01/08 09:28:16,2025/01/08 09:34:47,391.844,
104,2025/01/08 11:03:00,2025/01/08 11:09:31,390.775,
105,2025/01/08 12:37:44,2025/01/08 12:44:14,389.87,
106,2025/01/08 14:12:29,2025/01/08 14:18:58,389.124,
107,2025/01/08 15:47:13,2025/01/08 15:53:42,388.541,
108,2025/01/08 17:21:58,2025/01/08 17:28:26,388.124,
109,2025/01/08 18:56:42,2025/01/08 19:03:10,387.874,
110,2025/01/08 20:31:26,2025/01/08 20:37:54,387.793,
111,2025/01/08 22:06:11,2025/01/08 22:12:39,387.881,
112,2025/01/08 23:40:55,2025/01/08 23:47:23,388.157,
113,2025/01/09 01:15:40,2025/01/09 01:22:08,388.596,
114,2025/01/09 02:50:24,2025/01/09 02:56:53,389.225,
115,2025/01/09 04:25:08,2025/01/09 04:31:38,390.04,
116,2025/01/09 05:59:53,2025/01/09 06:06:24,391.053,
117,2025/01/09 07:34:37,2025/01/09 07:41:09,392.25,
118,2025/01/09 09:09:21,2025/01/09 09:15:55,393.658,
119,2025/01/09 10:44:06,2025/01/09 10:50:41,395.265,
120,2025/01/09 12:18:50,2025/01/09 12:25:25,394.446,
121,2025/01/09 13:53:35,2025/01/09 14:00:08,393.063,
122,2025/01/09 15:28:19,2025/01/09 15:34:51,391.838,
123,2025/01/09 17:03:03,2025/01/09 17:09:34,390.769,
124,2025/01/09 18:37:48,2025/01/09 18:44:18,389.862,
125,2025/01/09 20:12:32,2025/01/09 20:19:01,389.117,
126,2025/01/09 21:47:17,2025/01/09 21:53:45,388.532,
127,2025/01/09 23:22:01,2025/01/09 23:28:29,388.123,
128,2025/01/10 00:56:45,2025/01/10 01:03:13,387.869,
129,2025/01/10 02:31:30,2025/01/10 02:37:57,387.794,
130,2025/01/10 04:06:14,2025/01/10 04:12:42,387.886,
131,2025/01/10 05:40:58,2025/01/10 05:47:27,388.158,
132,2025/01/10 07:15:43,2025/01/10 07:22:11,388.603,
133,2025/01/10 08:50:27,2025/01/10 08:56:56,389.237,
134,2025/01/10 10:25:12,2025/01/10 10:31:42,390.05,
135,2025/01/10 11:59:56,2025/01/10 12:06:27,391.061,
136,2025/01/10 13:34:40,2025/01/10 13:41:13,392.27,
137,2025/01/10 15:09:25,2025/01/10 15:15:58,393.677,
138,2025/01/10 16:44:09,2025/01/10 16:50:44,395.289,
139,2025/01/10 18:18:54,2025/01/10 18:25:28,394.434,
140,2025/01/10 19:53:38,2025/01/10 20:00:11,393.049,
141,2025/01/10 21:28:22,2025/01/10 21:34:54,391.82,
142,2025/01/10 23:03:07,2025/01/10 23:09:37,390.756,
143,2025/01/11 00:37:51,2025/01/11 00:44:21,389.848,
144,2025/01/11 02:12:35,2025/01/11 02:19:05,389.105,
145,2025/01/11 03:47:20,2025/01/11 03:53:48,388.533,
146,2025/01/11 05:22:04,2025/01/11 05:28:32,388.116,
147,2025/01/11 06:56:49,2025/01/11 07:03:16,387.866,
148,2025/01/11 08:31:33,2025/01/11 08:38:01,387.792,
149,2025/01/11 10:06:17,2025/01/11 10:12:45,387.887,
150,2025/01/11 11:41:02,2025/01/11 11:47:30,388.163,
151,2025/01/11 13:15:46,2025/01/11 13:22:15,388.614,
152,2025/01/11 14:50:31,2025/01/11 14:57:00,389.247,
153,2025/01/11 16:25:15,2025/01/11 16:31:45,390.068,
154,2025/01/11 17:59:59,2025/01/11 18:06:30,391.079,
155,2025/01/11 19:34:44,2025/01/11 19:41:16,392.287,
156,2025/01/11 21:09:28,2025/01/11 21:16:02,393.691,
157,2025/01/11 22:44:12,2025/01/11 22:50:48,395.312,
158,2025/01/12 00:18:57,2025/01/12 00:25:31,394.412,
159,2025/01/12 01:53:41,2025/01/12 02:00:14,393.032,
160,2025/01/12 03:28:26,2025/01/12 03:34:57,391.811,
161,2025/01/12 05:03:10,2025/01/12 05:09:41,390.743,
162,2025/01/12 06:37:54,2025/01/12 06:44:24,389.838,
163,2025/01/12 08:12:39,2025/01/12 08:19:08,389.098,
164,2025/01/12 09:47:23,2025/01/12 09:53:52,388.52,
165,2025/01/12 11:22:08,2025/01/12 11:28:36,388.113,
166,2025/01/12 12:56:52,2025/01/12 13:03:20,387.869,
167,2025/01/12 14:31:36,2025/01/12 14:38:04,387.796,
168,2025/01/12 16:06:21,2025/01/12 16:12:49,387.894,
169,2025/01/12 17:41:05,2025/01/12 17:47:33,388.172,
170,2025/01/12 19:15:49,2025/01/12 19:22:18,388.621,
171,2025/01/12 20:50:34,2025/01/12 20:57:03,389.253,
172,2025/01/12 22:25:18,2025/01/12 22:31:48,390.075,
173,2025/01/13 00:00:03,2025/01/13 00:06:34,391.092,
174,2025/01/13 01:34:47,2025/01/13 01:41:19,392.302,
175,2025/01/13 03:09:31,2025/01/13 03:16:05,393.714,
176,2025/01/13 04:44:16,2025/01/13 04:50:51,395.326,
177,2025/01/13 06:19:00,2025/01/13 06:25:35,394.397,
178,2025/01/13 07:53:45,2025/01/13 08:00:18,393.019,
179,2025/01/13 09:28:29,2025/01/13 09:35:01,391.792,
180,2025/01/13 11:03:13,2025/01/13 11:09:44,390.73,
181,2025/01/13 12:37:58,2025/01/13 12:44:28,389.834,
182,2025/01/13 14:12:42,2025/01/13 14:19:11,389.095,
183,2025/01/13 15:47:27,2025/01/13 15:53:55,388.52,
184,2025/01/13 17:22:11,2025/01/13 17:28:39,388.11,
185,2025/01/13 18:56:55,2025/01/13 19:03:23,387.868,
186,2025/01/13 20:31:40,2025/01/13 20:38:07,387.796,
187,2025/01/13 22:06:24,2025/01/13 22:12:52,387.892,
188,2025/01/13 23:41:08,2025/01/13 23:47:37,388.177,
189,2025/01/14 01:15:53,2025/01/14 01:22:21,388.624,
190,2025/01/14 02:50:37,2025/01/14 02:57:06,389.261,
191,2025/01/14 04:25:22,2025/01/14 04:31:52,390.085,
192,2025/01/14 06:00:06,2025/01/14 06:06:37,391.107,
193,2025/01/14 07:34:50,2025/01/14 07:41:23,392.313,
194,2025/01/14 09:09:35,2025/01/14 09:16:08,393.731,
195,2025/01/14 10:44:19,2025/01/14 10:50:54,395.348,
196,2025/01/14 12:19:04,2025/01/14 12:25:38,394.379,
197,2025/01/14 13:53:48,2025/01/14 14:00:21,393.004,
198,2025/01/14 15:28:32,2025/01/14 15:35:04,391.781,
199,2025/01/14 17:03:17,2025/01/14 17:09:47,390.725,
200,2025/01/14 18:38:01,2025/01/14 18:44:31,389.825,
201,2025/01/14 20:12:45,2025/01/14 20:19:15,389.088,
202,2025/01/14 21:47:30,2025/01/14 21:53:58,388.511,
203,2025/01/14 23:22:14,2025/01/14 23:28:42,388.109,
204,2025/01/15 00:56:59,2025/01/15 01:03:26,387.863,
205,2025/01/15 02:31:43,2025/01/15 02:38:11,387.796,
206,2025/01/15 04:06:27,2025/01/15 04:12:55,387.897,
207,2025/01/15 05:41:12,2025/01/15 05:47:40,388.177,
208,2025/01/15 07:15:56,2025/01/15 07:22:25,388.63,
209,2025/01/15 08:50:41,2025/01/15 08:57:10,389.274,
210,2025/01/15 10:25:25,2025/01/15 10:31:55,390.095,
211,2025/01/15 12:00:09,2025/01/15 12:06:40,391.117,
212,2025/01/15 13:34:54,2025/01/15 13:41:26,392.334,
213,2025/01/15 15:09:38,2025/01/15 15:16:12,393.75,
214,2025/01/15 16:44:22,2025/01/15 16:50:58,395.372,
215,2025/01/15 18:19:07,2025/01/15 18:25:41,394.367,
216,2025/01/15 19:53:51,2025/01/15 20:00:24,392.989,
217,2025/01/15 21:28:36,2025/01/15 21:35:07,391.769,
218,2025/01/15 23:03:20,2025/01/15 23:09:51,390.714,
219,2025/01/16 00:38:04,2025/01/16 00:44:34,389.812,
220,2025/01/16 02:12:49,2025/01/16 02:19:18,389.076,
221,2025/01/16 03:47:33,2025/01/16 03:54:02,388.509,
222,2025/01/16 05:22:18,2025/01/16 05:28:46,388.103,
223,2025/01/16 06:57:02,2025/01/16 07:03:30,387.86,
224,2025/01/16 08:31:46,2025/01/16 08:38:14,387.794,
225,2025/01/16 10:06:31,2025/01/16 10:12:59,387.897,
226,2025/01/16 11:41:15,2025/01/16 11:47:43,388.182,
227,2025/01/16 13:15:59,2025/01/16 13:22:28,388.642,
228,2025/01/16 14:50:44,2025/01/16 14:57:13,389.283,
229,2025/01/16 16:25:28,2025/01/16 16:31:58,390.113,
230,2025/01/16 18:00:13,2025/01/16 18:06:44,391.133,
231,2025/01/16 19:34:57,2025/01/16 19:41:29,392.35,
232,2025/01/16 21:09:41,2025/01/16 21:16:15,393.764,
233,2025/01/16 22:44:26,2025/01/16 22:51:01,395.395,
234,2025/01/17 00:19:10,2025/01/17 00:25:45,394.346,
235,2025/01/17 01:53:55,2025/01/17 02:00:28,392.972,
236,2025/01/17 03:28:39,2025/01/17 03:35:11,391.759,
237,2025/01/17 05:03:23,2025/01/17 05:09:54,390.703,
238,2025/01/17 06:38:08,2025/01/17 06:44:38,389.801,
239,2025/01/17 08:12:52,2025/01/17 08:19:21,389.068,
240,2025/01/17 09:47:37,2025/01/17 09:54:05,388.499,
241,2025/01/17 11:22:21,2025/01/17 11:28:49,388.1,
242,2025/01/17 12:57:05,2025/01/17 13:03:33,387.864,
243,2025/01/17 14:31:50,2025/01/17 14:38:17,387.798,
244,2025/01/17 16:06:34,2025/01/17 16:13:02,387.904,
245,2025/01/17 17:41:18,2025/01/17 17:47:47,388.187,
246,2025/01/17 19:16:03,2025/01/17 19:22:31,388.648,
247,2025/01/17 20:50:47,2025/01/17 20:57:16,389.289,
248,2025/01/17 22:25:32,2025/01/17 22:32:02,390.12,
249,2025/01/18 00:00:16,2025/01/18 00:06:47,391.146,
250,2025/01/18 01:35:00,2025/01/18 01:41:33,392.365,
251,2025/01/18 03:09:45,2025/01/18 03:16:19,393.786,
252,2025/01/18 04:44:29,2025/01/18 04:51:05,395.408,
253,2025/01/18 06:19:14,2025/01/18 06:25:48,394.33,
254,2025/01/18 07:53:58,2025/01/18 08:00:31,392.959,
255,2025/01/18 09:28:42,2025/01/18 09:35:14,391.74,
256,2025/01/18 11:03:27,2025/01/18 11:09:57,390.686,
257,2025/01/18 12:38:11,2025/01/18 12:44:41,389.797,
258,2025/01/18 14:12:55,2025/01/18 14:19:25,389.066,
259,2025/01/18 15:47:40,2025/01/18 15:54:08,388.498,
260,2025/01/18 17:22:24,2025/01/18 17:28:52,388.096,
261,2025/01/18 18:57:09,2025/01/18 19:03:36,387.862,
262,2025/01/18 20:31:53,2025/01/18 20:38:21,387.798,
263,2025/01/18 22:06:37,2025/01/18 22:13:05,387.902,
264,2025/01/18 23:41:22,2025/01/18 23:47:50,388.192,
265,2025/01/19 01:16:06,2025/01/19 01:22:35,388.65,
266,2025/01/19 02:50:51,2025/01/19 02:57:20,389.296,
267,2025/01/19 04:25:35,2025/01/19 04:32:05,390.13,
268,2025/01/19 06:00:19,2025/01/19 06:06:50,391.16,
269,2025/01/19 07:35:04,2025/01/19 07:41:36,392.376,
270,2025/01/19 09:09:48,2025/01/19 09:16:22,393.804,
271,2025/01/19 10:44:32,2025/01/19 10:51:08,395.43,
272,2025/01/19 12:19:17,2025/01/19 12:25:51,394.311,
273,2025/01/19 13:54:01,2025/01/19 14:00:34,392.944,
274,2025/01/19 15:28:46,2025/01/19 15:35:17,391.729,
275,2025/01/19 17:03:30,2025/01/19 17:10:01,390.68,
276,2025/01/19 18:38:14,2025/01/19 18:44:44,389.788,
277,2025/01/19 20:12:59,2025/01/19 20:19:28,389.058,
278,2025/01/19 21:47:43,2025/01/19 21:54:12,388.489,
279,2025/01/19 23:22:28,2025/01/19 23:28:56,388.094,
280,2025/01/20 00:57:12,2025/01/20 01:03:40,387.857,
281,2025/01/20 02:31:56,2025/01/20 02:38:24,387.798,
282,2025/01/20 04:06:41,2025/01/20 04:13:09,387.906,
283,2025/01/20 05:41:25,2025/01/20 05:47:53,388.195,
284,2025/01/20 07:16:09,2025/01/20 07:22:38,388.657,
285,2025/01/20 08:50:54,2025/01/20 08:57:23,389.309,
286,2025/01/20 10:25:38,2025/01/20 10:32:08,390.139,
287,2025/01/20 12:00:23,2025/01/20 12:06:54,391.17,
288,2025/01/20 13:35:07,2025/01/20 13:41:39,392.397,
289,2025/01/20 15:09:51,2025/01/20 15:16:25,393.822,
290,2025/01/20 16:44:36,2025/01/20 16:51:11,395.459,
291,2025/01/20 18:19:20,2025/01/20 18:25:54,394.3,
292,2025/01/20 19:54:05,2025/01/20 20:00:37,392.929,
293,2025/01/20 21:28:49,2025/01/20 21:35:21,391.716,
294,2025/01/20 23:03:33,2025/01/20 23:10:04,390.669,
295,2025/01/21 00:38:18,2025/01/21 00:44:47,389.774,
296,2025/01/21 02:13:02,2025/01/21 02:19:31,389.047,
297,2025/01/21 03:47:46,2025/01/21 03:54:15,388.487,
298,2025/01/21 05:22:31,2025/01/21 05:28:59,388.089,
299,2025/01/21 06:57:15,2025/01/21 07:03:43,387.854,
300,2025/01/21 08:32:00,2025/01/21 08:38:27,387.796,
301,2025/01/21 10:06:44,2025/01/21 10:13:12,387.907,
302,2025/01/21 11:41:28,2025/01/21 11:47:57,388.2,
303,2025/01/21 13:16:13,2025/01/21 13:22:41,388.669,
304,2025/01/21 14:50:57,2025/01/21 14:57:27,389.319,
305,2025/01/21 16:25:42,2025/01/21 16:32:12,390.157,
306,2025/01/21 18:00:26,2025/01/21 18:06:57,391.187,
307,2025/01/21 19:35:10,2025/01/21 19:41:43,392.413,
308,2025/01/21 21:09:55,2025/01/21 21:16:29,393.837,
309,2025/01/21 22:44:39,2025/01/21 22:51:15,395.477,
310,2025/01/22 00:19:24,2025/01/22 00:25:58,394.278,
311,2025/01/22 01:54:08,2025/01/22 02:00:41,392.912,
312,2025/01/22 03:28:52,2025/01/22 03:35:24,391.706,
313,2025/01/22 05:03:37,2025/01/22 05:10:07,390.658,
314,2025/01/22 06:38:21,2025/01/22 06:44:51,389.764,
315,2025/01/22 08:13:05,2025/01/22 08:19:34,389.039,
316,2025/01/22 09:47:50,2025/01/22 09:54:18,388.477,
317,2025/01/22 11:22:34,2025/01/22 11:29:02,388.086,
318,2025/01/22 12:57:19,2025/01/22 13:03:46,387.857,
319,2025/01/22 14:32:03,2025/01/22 14:38:31,387.8,
320,2025/01/22 16:06:47,2025/01/22 16:13:15,387.914,
321,2025/01/22 17:41:32,2025/01/22 17:48:00,388.205,
322,2025/01/22 19:16:16,2025/01/22 19:22:45,388.675,
323,2025/01/22 20:51:01,2025/01/22 20:57:30,389.324,
324,2025/01/22 22:25:45,2025/01/22 22:32:15,390.164,
325,2025/01/23 00:00:29,2025/01/23 00:07:00,391.199,
326,2025/01/23 01:35:14,2025/01/23 01:41:46,392.428,
327,2025/01/23 03:09:58,2025/01/23 03:16:32,393.859,
328,2025/01/23 04:44:42,2025/01/23 04:51:18,395.495,
329,2025/01/23 06:19:27,2025/01/23 06:26:01,394.263,
330,2025/01/23 07:54:11,2025/01/23 08:00:44,392.899,
331,2025/01/23 09:28:56,2025/01/23 09:35:27,391.687,
332,2025/01/23 11:03:40,2025/01/23 11:10:11,390.641,
333,2025/01/23 12:38:24,2025/01/23 12:44:54,389.759,
334,2025/01/23 14:13:09,2025/01/23 14:19:38,389.036,
335,2025/01/23 15:47:53,2025/01/23 15:54:22,388.476,
336,2025/01/23 17:22:38,2025/01/23 17:29:06,388.082,
337,2025/01/23 18:57:22,2025/01/23 19:03:50,387.856,
338,2025/01/23 20:32:06,2025/01/23 20:38:34,387.8,
339,2025/01/23 22:06:51,2025/01/23 22:13:19,387.912,
340,2025/01/23 23:41:35,2025/01/23 23:48:03,388.211,
341,2025/01/24 01:16:19,2025/01/24 01:22:48,388.678,
342,2025/01/24 02:51:04,2025/01/24 02:57:33,389.332,
343,2025/01/24 04:25:48,2025/01/24 04:32:18,390.174,
344,2025/01/24 06:00:33,2025/01/24 06:07:04,391.213,
345,2025/01/24 07:35:17,2025/01/24 07:41:49,392.44,
346,2025/01/24 09:10:01,2025/01/24 09:16:35,393.877,
347,2025/01/24 10:44:46,2025/01/24 10:51:21,395.513,
348,2025/01/24 12:19:30,2025/01/24 12:26:04,394.244,
349,2025/01/24 13:54:15,2025/01/24 14:00:47,392.884,
350,2025/01/24 15:28:59,2025/01/24 15:35:31,391.677,
351,2025/01/24 17:03:43,2025/01/24 17:10:14,390.635,
352,2025/01/24 18:38:28,2025/01/24 18:44:57,389.751,
353,2025/01/24 20:13:12,2025/01/24 20:19:41,389.029,
354,2025/01/24 21:47:56,2025/01/24 21:54:25,388.467,
355,2025/01/24 23:22:41,2025/01/24 23:29:09,388.08,
356,2025/01/25 00:57:25,2025/01/25 01:03:53,387.851,
357,2025/01/25 02:32:10,2025/01/25 02:38:37,387.8,
358,2025/01/25 04:06:54,2025/01/25 04:13:22,387.917,
359,2025/01/25 05:41:38,2025/01/25 05:48:07,388.214,
360,2025/01/25 07:16:23,2025/01/25 07:22:51,388.685,
361,2025/01/25 08:51:07,2025/01/25 08:57:37,389.345,
362,2025/01/25 10:25:52,2025/01/25 10:32:22,390.189,
363,2025/01/25 12:00:36,2025/01/25 12:07:07,391.225,
364,2025/01/25 13:35:20,2025/01/25 13:41:53,392.46,
365,2025/01/25 15:10:05,2025/01/25 15:16:39,393.896,
366,2025/01/25 16:44:49,2025/01/25 16:51:25,395.542,
367,2025/01/25 18:19:33,2025/01/25 18:26:08,394.233,
368,2025/01/25 19:54:18,2025/01/25 20:00:51,392.87,
369,2025/01/25 21:29:02,2025/01/25 21:35:34,391.664,
370,2025/01/25 23:03:47,2025/01/25 23:10:17,390.624,
371,2025/01/26 00:38:31,2025/01/26 00:45:01,389.738,
372,2025/01/26 02:13:15,2025/01/26 02:19:44,389.018,
373,2025/01/26 03:48:00,2025/01/26 03:54:28,388.466,
374,2025/01/26 05:22:44,2025/01/26 05:29:12,388.075,
375,2025/01/26 06:57:29,2025/01/26 07:03:56,387.849,
376,2025/01/26 08:32:13,2025/01/26 08:38:41,387.799,
377,2025/01/26 10:06:57,2025/01/26 10:13:25,387.918,
378,2025/01/26 11:41:42,2025/01/26 11:48:10,388.22,
379,2025/01/26 13:16:26,2025/01/26 13:22:55,388.697,
380,2025/01/26 14:51:11,2025/01/26 14:57:40,389.356,
381,2025/01/26 16:25:55,2025/01/26 16:32:25,390.203,
382,2025/01/26 18:00:39,2025/01/26 18:07:11,391.241,
383,2025/01/26 19:35:24,2025/01/26 19:41:56,392.477,
384,2025/01/26 21:10:08,2025/01/26 21:16:42,393.911,
385,2025/01/26 22:44:52,2025/01/26 22:51:28,395.561,
386,2025/01/27 00:19:37,2025/01/27 00:26:11,394.212,
387,2025/01/27 01:54:21,2025/01/27 02:00:54,392.853,
388,2025/01/27 03:29:06,2025/01/27 03:35:37,391.655,
389,2025/01/27 05:03:50,2025/01/27 05:10:21,390.614,
390,2025/01/27 06:38:34,2025/01/27 06:45:04,389.728,
391,2025/01/27 08:13:19,2025/01/27 08:19:48,389.014,
392,2025/01/27 09:48:03,2025/01/27 09:54:32,388.456,
393,2025/01/27 11:22:48,2025/01/27 11:29:16,388.073,
394,2025/01/27 12:57:32,2025/01/27 13:04:00,387.853,
395,2025/01/27 14:32:16,2025/01/27 14:38:44,387.803,
396,2025/01/27 16:07:01,2025/01/27 16:13:29,387.926,
397,2025/01/27 17:41:45,2025/01/27 17:48:13,388.225,
398,2025/01/27 19:16:29,2025/01/27 19:22:58,388.703,
399,2025/01/27 20:51:14,2025/01/27 20:57:43,389.362,
400,2025/01/27 22:25:58,2025/01/27 22:32:28,390.211,
401,2025/01/28 00:00:43,2025/01/28 00:07:14,391.255,
402,2025/01/28 01:35:27,2025/01/28 01:41:59,392.493,
403,2025/01/28 03:10:11,2025/01/28 03:16:45,393.933,
404,2025/01/28 04:44:56,2025/01/28 04:51:31,395.579,
405,2025/01/28 06:19:40,2025/01/28 06:26:14,394.197,
406,2025/01/28 07:54:25,2025/01/28 08:00:57,392.841,
407,2025/01/28 09:29:09,2025/01/28 09:35:41,391.636,
408,2025/01/28 11:03:53,2025/01/28 11:10:24,390.597,
409,2025/01/28 12:38:38,2025/01/28 12:45:07,389.724,
410,2025/01/28 14:13:22,2025/01/28 14:19:51,389.008,
411,2025/01/28 15:48:06,2025/01/28 15:54:35,388.456,
412,2025/01/28 17:22:51,2025/01/28 17:29:19,388.07,
413,2025/01/28 18:57:35,2025/01/28 19:04:03,387.852,
414,2025/01/28 20:32:20,2025/01/28 20:38:47,387.804,
415,2025/01/28 22:07:04,2025/01/28 22:13:32,387.924,
416,2025/01/28 23:41:48,2025/01/28 23:48:17,388.231,
417,2025/01/29 01:16:33,2025/01/29 01:23:01,388.706,
418,2025/01/29 02:51:17,2025/01/29 02:57:47,389.37,
419,2025/01/29 04:26:02,2025/01/29 04:32:32,390.221,
420,2025/01/29 06:00:46,2025/01/29 06:07:17,391.268,
421,2025/01/29 07:35:30,2025/01/29 07:42:03,392.504,
422,2025/01/29 09:10:15,2025/01/29 09:16:49,393.951,
423,2025/01/29 10:44:59,2025/01/29 10:51:35,395.602,
424,2025/01/29 12:19:43,2025/01/29 12:26:18,394.179,
425,2025/01/29 13:54:28,2025/01/29 14:01:01,392.826,
426,2025/01/29 15:29:12,2025/01/29 15:35:44,391.626,
427,2025/01/29 17:03:57,2025/01/29 17:10:27,390.592,
428,2025/01/29 18:38:41,2025/01/29 18:45:11,389.715,
429,2025/01/29 20:13:25,2025/01/29 20:19:54,389.001,
430,2025/01/29 21:48:10,2025/01/29 21:54:38,388.447,
431,2025/01/29 23:22:54,2025/01/29 23:29:22,388.066,
432,2025/01/30 00:57:39,2025/01/30 01:04:06,387.847,
433,2025/01/30 02:32:23,2025/01/30 02:38:51,387.804,
434,2025/01/30 04:07:07,2025/01/30 04:13:35,387.929,
435,2025/01/30 05:41:52,2025/01/30 05:48:20,388.234,
436,2025/01/30 07:16:36,2025/01/30 07:23:05,388.713,
437,2025/01/30 08:51:20,2025/01/30 08:57:50,389.383,
438,2025/01/30 10:26:05,2025/01/30 10:32:35,390.235,
439,2025/01/30 12:00:49,2025/01/30 12:07:21,391.28,
440,2025/01/30 13:35:34,2025/01/30 13:42:06,392.525,
441,2025/01/30 15:10:18,2025/01/30 15:16:52,393.97,
442,2025/01/30 16:45:02,2025/01/30 16:51:38,395.626,
443,2025/01/30 18:19:47,2025/01/30 18:26:21,394.167,
444,2025/01/30 19:54:31,2025/01/30 20:01:04,392.812,
445,2025/01/30 21:29:16,2025/01/30 21:35:47,391.613,
446,2025/01/30 23:04:00,2025/01/30 23:10:31,390.58,
447,2025/01/31 00:38:44,2025/01/31 00:45:14,389.702,
448,2025/01/31 02:13:29,2025/01/31 02:19:58,388.99,
449,2025/01/31 03:48:13,2025/01/31 03:54:42,388.445,
450,2025/01/31 05:22:58,2025/01/31 05:29:26,388.063,
451,2025/01/31 06:57:42,2025/01/31 07:04:10,387.844,
452,2025/01/31 08:32:26,2025/01/31 08:38:54,387.803,
453,2025/01/31 10:07:11,2025/01/31 10:13:39,387.931,
454,2025/01/31 11:41:55,2025/01/31 11:48:23,388.24,
455,2025/01/31 13:16:39,2025/01/31 13:23:08,388.725,
456,2025/01/31 14:51:24,2025/01/31 14:57:53,389.393,
457,2025/01/31 16:26:08,2025/01/31 16:32:38,390.249,
458,2025/01/31 18:00:53,2025/01/31 18:07:24,391.297,
459,2025/01/31 19:35:37,2025/01/31 19:42:10,392.542,
460,2025/01/31 21:10:21,2025/01/31 21:16:55,393.985,
461,2025/01/31 22:45:06,2025/01/31 22:51:41,395.649,
462,2025/02/01 00:19:50,2025/02/01 00:26:24,394.146,
463,2025/02/01 01:54:35,2025/02/01 02:01:07,392.795,
464,2025/02/01 03:29:19,2025/02/01 03:35:51,391.604,
465,2025/02/01 05:04:03,2025/02/01 05:10:34,390.571,
466,2025/02/01 06:38:48,2025/02/01 06:45:17,389.692,
467,2025/02/01 08:13:32,2025/02/01 08:20:01,388.982,
468,2025/02/01 09:48:16,2025/02/01 09:54:45,388.436,
469,2025/02/01 11:23:01,2025/02/01 11:29:29,388.06,
470,2025/02/01 12:57:45,2025/02/01 13:04:13,387.848,
471,2025/02/01 14:32:30,2025/02/01 14:38:57,387.806,
472,2025/02/01 16:07:14,2025/02/01 16:13:42,387.937,
473,2025/02/01 17:41:58,2025/02/01 17:48:27,388.245,
474,2025/02/01 19:16:43,2025/02/01 19:23:12,388.732,
475,2025/02/01 20:51:27,2025/02/01 20:57:57,389.399,
476,2025/02/01 22:26:12,2025/02/01 22:32:42,390.257,
477,2025/02/02 00:00:56,2025/02/02 00:07:27,391.31,
478,2025/02/02 01:35:40,2025/02/02 01:42:13,392.557,
479,2025/02/02 03:10:25,2025/02/02 03:16:59,394.007,
480,2025/02/02 04:45:09,2025/02/02 04:51:45,395.642,
481,2025/02/02 06:19:53,2025/02/02 06:26:28,394.13,
482,2025/02/02 07:54:38,2025/02/02 08:01:11,392.782,
483,2025/02/02 09:29:22,2025/02/02 09:35:54,391.585,
484,2025/02/02 11:04:07,2025/02/02 11:10:37,390.554,
485,2025/02/02 12:38:51,2025/02/02 12:45:21,389.687,
486,2025/02/02 14:13:35,2025/02/02 14:20:04,388.979,
487,2025/02/02 15:48:20,2025/02/02 15:54:48,388.435,
488,2025/02/02 17:23:04,2025/02/02 17:29:32,388.057,
489,2025/02/02 18:57:49,2025/02/02 19:04:16,387.846,
490,2025/02/02 20:32:33,2025/02/02 20:39:01,387.807,
491,2025/02/02 22:07:17,2025/02/02 22:13:45,387.935,
492,2025/02/02 23:42:02,2025/02/02 23:48:30,388.25,
493,2025/02/03 01:16:46,2025/02/03 01:23:15,388.734,
494,2025/02/03 02:51:30,2025/02/03 02:58:00,389.406,
495,2025/02/03 04:26:15,2025/02/03 04:32:45,390.266,
496,2025/02/03 06:00:59,2025/02/03 06:07:31,391.322,
497,2025/02/03 07:35:44,2025/02/03 07:42:16,392.568,
498,2025/02/03 09:10:28,2025/02/03 09:17:02,394.025,
499,2025/02/03 10:45:12,2025/02/03 10:51:48,395.62,
500,2025/02/03 12:19:57,2025/02/03 12:26:31,394.112,
501,2025/02/03 13:54:41,2025/02/03 14:01:14,392.767,
502,2025/02/03 15:29:26,2025/02/03 15:35:57,391.574,
503,2025/02/03 17:04:10,2025/02/03 17:10:41,390.548,
504,2025/02/03 18:38:54,2025/02/03 18:45:24,389.679,
505,2025/02/03 20:13:39,2025/02/03 20:20:08,388.972,
506,2025/02/03 21:48:23,2025/02/03 21:54:52,388.426,
507,2025/02/03 23:23:08,2025/02/03 23:29:36,388.053,
508,2025/02/04 00:57:52,2025/02/04 01:04:20,387.842,
509,2025/02/04 02:32:36,2025/02/04 02:39:04,387.807,
510,2025/02/04 04:07:21,2025/02/04 04:13:49,387.94,
511,2025/02/04 05:42:05,2025/02/04 05:48:33,388.254,
512,2025/02/04 07:16:49,2025/02/04 07:23:18,388.741,
513,2025/02/04 08:51:34,2025/02/04 08:58:03,389.419,
514,2025/02/04 10:26:18,2025/02/04 10:32:48,390.28,
515,2025/02/04 12:01:03,2025/02/04 12:07:34,391.334,
516,2025/02/04 13:35:47,2025/02/04 13:42:20,392.589,
517,2025/02/04 15:10:31,2025/02/04 15:17:05,394.044,
518,2025/02/04 16:45:16,2025/02/04 16:51:51,395.607,
519,2025/02/04 18:20:00,2025/02/04 18:26:34,394.101,
520,2025/02/04 19:54:45,2025/02/04 20:01:17,392.753,
521,2025/02/04 21:29:29,2025/02/04 21:36:00,391.562,
522,2025/02/04 23:04:13,2025/02/04 23:10:44,390.538,
523,2025/02/05 00:38:58,2025/02/05 00:45:27,389.666,
524,2025/02/05 02:13:42,2025/02/05 02:20:11,388.961,
525,2025/02/05 03:48:26,2025/02/05 03:54:55,388.424,
526,2025/02/05 05:23:11,2025/02/05 05:29:39,388.05,
527,2025/02/05 06:57:55,2025/02/05 07:04:23,387.839,
528,2025/02/05 08:32:40,2025/02/05 08:39:07,387.805,
529,2025/02/05 10:07:24,2025/02/05 10:13:52,387.941,
530,2025/02/05 11:42:08,2025/02/05 11:48:37,388.259,
531,2025/02/05 13:16:53,2025/02/05 13:23:22,388.753,
532,2025/02/05 14:51:37,2025/02/05 14:58:07,389.429,
533,2025/02/05 16:26:22,2025/02/05 16:32:52,390.294,
534,2025/02/05 18:01:06,2025/02/05 18:07:37,391.351,
535,2025/02/05 19:35:50,2025/02/05 19:42:23,392.606,
536,2025/02/05 21:10:35,2025/02/05 21:17:09,394.059,
537,2025/02/05 22:45:19,2025/02/05 22:51:55,395.588,
538,2025/02/06 00:20:03,2025/02/06 00:26:38,394.079,
539,2025/02/06 01:54:48,2025/02/06 02:01:21,392.736,
540,2025/02/06 03:29:32,2025/02/06 03:36:04,391.553,
541,2025/02/06 05:04:17,2025/02/06 05:10:47,390.527,
542,2025/02/06 06:39:01,2025/02/06 06:45:31,389.656,
543,2025/02/06 08:13:45,2025/02/06 08:20:14,388.953,
544,2025/02/06 09:48:30,2025/02/06 09:54:58,388.415,
545,2025/02/06 11:23:14,2025/02/06 11:29:42,388.047,
546,2025/02/06 12:57:59,2025/02/06 13:04:26,387.843,
547,2025/02/06 14:32:43,2025/02/06 14:39:11,387.809,
548,2025/02/06 16:07:27,2025/02/06 16:13:55,387.948,
549,2025/02/06 17:42:12,2025/02/06 17:48:40,388.264,
550,2025/02/06 19:16:56,2025/02/06 19:23:25,388.76,
551,2025/02/06 20:51:40,2025/02/06 20:58:10,389.435,
552,2025/02/06 22:26:25,2025/02/06 22:32:55,390.303,
553,2025/02/07 00:01:09,2025/02/07 00:07:41,391.365,
554,2025/02/07 01:35:54,2025/02/07 01:42:26,392.622,
555,2025/02/07 03:10:38,2025/02/07 03:17:12,394.081,
556,2025/02/07 04:45:22,2025/02/07 04:51:58,395.565,
557,2025/02/07 06:20:07,2025/02/07 06:26:41,394.064,
558,2025/02/07 07:54:51,2025/02/07 08:01:24,392.723,
559,2025/02/07 09:29:36,2025/02/07 09:36:07,391.534,
560,2025/02/07 11:04:20,2025/02/07 11:10:50,390.51,
561,2025/02/07 12:39:04,2025/02/07 12:45:34,389.652,
562,2025/02/07 14:13:49,2025/02/07 14:20:18,388.951,
563,2025/02/07 15:48:33,2025/02/07 15:55:02,388.415,
564,2025/02/07 17:23:17,2025/02/07 17:29:46,388.044,
565,2025/02/07 18:58:02,2025/02/07 19:04:30,387.842,
566,2025/02/07 20:32:46,2025/02/07 20:39:14,387.81,
567,2025/02/07 22:07:31,2025/02/07 22:13:59,387.947,
568,2025/02/07 23:42:15,2025/02/07 23:48:43,388.27,
569,2025/02/08 01:16:59,2025/02/08 01:23:28,388.763,
570,2025/02/08 02:51:44,2025/02/08 02:58:13,389.443,
571,2025/02/08 04:26:28,2025/02/08 04:32:59,390.316,
572,2025/02/08 06:01:13,2025/02/08 06:07:44,391.38,
573,2025/02/08 07:35:57,2025/02/08 07:42:30,392.633,
574,2025/02/08 09:10:41,2025/02/08 09:17:15,394.099,
575,2025/02/08 10:45:26,2025/02/08 10:52:01,395.546,
576,2025/02/08 12:20:10,2025/02/08 12:26:44,394.046,
577,2025/02/08 13:54:55,2025/02/08 14:01:27,392.709,
578,2025/02/08 15:29:39,2025/02/08 15:36:10,391.523,
579,2025/02/08 17:04:23,2025/02/08 17:10:54,390.505,
580,2025/02/08 18:39:08,2025/02/08 18:45:37,389.643,
581,2025/02/08 20:13:52,2025/02/08 20:20:21,388.944,
582,2025/02/08 21:48:36,2025/02/08 21:55:05,388.406,
583,2025/02/08 23:23:21,2025/02/08 23:29:49,388.041,
584,2025/02/09 00:58:05,2025/02/09 01:04:33,387.837,
585,2025/02/09 02:32:50,2025/02/09 02:39:17,387.811,
586,2025/02/09 04:07:34,2025/02/09 04:14:02,387.952,
587,2025/02/09 05:42:18,2025/02/09 05:48:47,388.274,
588,2025/02/09 07:17:03,2025/02/09 07:23:32,388.77,
589,2025/02/09 08:51:47,2025/02/09 08:58:17,389.457,
590,2025/02/09 10:26:32,2025/02/09 10:33:02,390.326,
591,2025/02/09 12:01:16,2025/02/09 12:07:47,391.39,
592,2025/02/09 13:36:00,2025/02/09 13:42:33,392.654,
593,2025/02/09 15:10:45,2025/02/09 15:17:19,394.119,
594,2025/02/09 16:45:29,2025/02/09 16:52:05,395.534,
595,2025/02/09 18:20:13,2025/02/09 18:26:47,394.036,
596,2025/02/09 19:54:58,2025/02/09 20:01:31,392.695,
597,2025/02/09 21:29:42,2025/02/09 21:36:14,391.512,
598,2025/02/09 23:04:27,2025/02/09 23:10:57,390.495,
599,2025/02/10 00:39:11,2025/02/10 00:45:41,389.63,
600,2025/02/10 02:13:55,2025/02/10 02:20:24,388.933,
601,2025/02/10 03:48:40,2025/02/10 03:55:08,388.405,
602,2025/02/10 05:23:24,2025/02/10 05:29:52,388.038,
603,2025/02/10 06:58:09,2025/02/10 07:04:36,387.835,
604,2025/02/10 08:32:53,2025/02/10 08:39:21,387.81,
605,2025/02/10 10:07:37,2025/02/10 10:14:05,387.953,
606,2025/02/10 11:42:22,2025/02/10 11:48:50,388.28,
607,2025/02/10 13:17:06,2025/02/10 13:23:35,388.782,
608,2025/02/10 14:51:50,2025/02/10 14:58:20,389.468,
609,2025/02/10 16:26:35,2025/02/10 16:33:05,390.341,
610,2025/02/10 18:01:19,2025/02/10 18:07:51,391.408,
611,2025/02/10 19:36:04,2025/02/10 19:42:36,392.671,
612,2025/02/10 21:10:48,2025/02/10 21:17:22,394.134,
613,2025/02/10 22:45:32,2025/02/10 22:52:08,395.516,
614,2025/02/11 00:20:17,2025/02/11 00:26:51,394.014,
615,2025/02/11 01:55:01,2025/02/11 02:01:34,392.678,
616,2025/02/11 03:29:46,2025/02/11 03:36:17,391.503,
617,2025/02/11 05:04:30,2025/02/11 05:11:00,390.484,
618,2025/02/11 06:39:14,2025/02/11 06:45:44,389.621,
619,2025/02/11 08:13:59,2025/02/11 08:20:28,388.926,
620,2025/02/11 09:48:43,2025/02/11 09:55:11,388.395,
621,2025/02/11 11:23:27,2025/02/11 11:29:56,388.036,
622,2025/02/11 12:58:12,2025/02/11 13:04:40,387.839,
623,2025/02/11 14:32:56,2025/02/11 14:39:24,387.814,
624,2025/02/11 16:07:41,2025/02/11 16:14:09,387.961,
625,2025/02/11 17:42:25,2025/02/11 17:48:53,388.285,
626,2025/02/11 19:17:09,2025/02/11 19:23:38,388.789,
627,2025/02/11 20:51:54,2025/02/11 20:58:23,389.474,
628,2025/02/11 22:26:38,2025/02/11 22:33:09,390.35,
629,2025/02/12 00:01:23,2025/02/12 00:07:54,391.421,
630,2025/02/12 01:36:07,2025/02/12 01:42:40,392.688,
631,2025/02/12 03:10:51,2025/02/12 03:17:25,394.157,
632,2025/02/12 04:45:36,2025/02/12 04:52:11,395.492,
633,2025/02/12 06:20:20,2025/02/12 06:26:54,393.999,
634,2025/02/12 07:55:04,2025/02/12 08:01:37,392.666,
635,2025/02/12 09:29:49,2025/02/12 09:36:20,391.484,
636,2025/02/12 11:04:33,2025/02/12 11:11:04,390.468,
637,2025/02/12 12:39:18,2025/02/12 12:45:47,389.62,
638,2025/02/12 14:14:02,2025/02/12 14:20:31,388.924,
639,2025/02/12 15:48:46,2025/02/12 15:55:15,388.395,
640,2025/02/12 17:23:31,2025/02/12 17:29:59,388.033,
641,2025/02/12 18:58:15,2025/02/12 19:04:43,387.838,
642,2025/02/12 20:33:00,2025/02/12 20:39:27,387.814,
643,2025/02/12 22:07:44,2025/02/12 22:14:12,387.96,
644,2025/02/12 23:42:28,2025/02/12 23:48:57,388.292,
645,2025/02/13 01:17:13,2025/02/13 01:23:42,388.792,
646,2025/02/13 02:51:57,2025/02/13 02:58:27,389.482,
647,2025/02/13 04:26:42,2025/02/13 04:33:12,390.36,
648,2025/02/13 06:01:26,2025/02/13 06:07:57,391.435,
649,2025/02/13 07:36:10,2025/02/13 07:42:43,392.699,
650,2025/02/13 09:10:55,2025/02/13 09:17:29,394.175,
651,2025/02/13 10:45:39,2025/02/13 10:52:15,395.476,
652,2025/02/13 12:20:23,2025/02/13 12:26:57,393.981,
653,2025/02/13 13:55:08,2025/02/13 14:01:40,392.651,
654,2025/02/13 15:29:52,2025/02/13 15:36:24,391.473,
655,2025/02/13 17:04:37,2025/02/13 17:11:07,390.462,
656,2025/02/13 18:39:21,2025/02/13 18:45:51,389.608,
657,2025/02/13 20:14:05,2025/02/13 20:20:34,388.917,
658,2025/02/13 21:48:50,2025/02/13 21:55:18,388.386,
659,2025/02/13 23:23:34,2025/02/13 23:30:02,388.029,
660,2025/02/14 00:58:19,2025/02/14 01:04:46,387.834,
661,2025/02/14 02:33:03,2025/02/14 02:39:31,387.815,
662,2025/02/14 04:07:47,2025/02/14 04:14:15,387.964,
663,2025/02/14 05:42:32,2025/02/14 05:49:00,388.295,
664,2025/02/14 07:17:16,2025/02/14 07:23:45,388.799,
665,2025/02/14 08:52:00,2025/02/14 08:58:30,389.495,
666,2025/02/14 10:26:45,2025/02/14 10:33:15,390.373,
667,2025/02/14 12:01:29,2025/02/14 12:08:01,391.446,
668,2025/02/14 13:36:14,2025/02/14 13:42:46,392.72,
669,2025/02/14 15:10:58,2025/02/14 15:17:32,394.194,
670,2025/02/14 16:45:42,2025/02/14 16:52:18,395.462,
671,2025/02/14 18:20:27,2025/02/14 18:27:01,393.97,
672,2025/02/14 19:55:11,2025/02/14 20:01:44,392.637,
673,2025/02/14 21:29:56,2025/02/14 21:36:27,391.461,
674,2025/02/14 23:04:40,2025/02/14 23:11:10,390.452,
675,2025/02/15 00:39:24,2025/02/15 00:45:54,389.595,
676,2025/02/15 02:14:09,2025/02/15 02:20:38,388.906,
677,2025/02/15 03:48:53,2025/02/15 03:55:21,388.385,
678,2025/02/15 05:23:37,2025/02/15 05:30:05,388.026,
679,2025/02/15 06:58:22,2025/02/15 07:04:50,387.831,
680,2025/02/15 08:33:06,2025/02/15 08:39:34,387.814,
681,2025/02/15 10:07:51,2025/02/15 10:14:19,387.966,
682,2025/02/15 11:42:35,2025/02/15 11:49:03,388.301,
683,2025/02/15 13:17:19,2025/02/15 13:23:48,388.811,
684,2025/02/15 14:52:04,2025/02/15 14:58:33,389.505,
685,2025/02/15 16:26:48,2025/02/15 16:33:19,390.388,
686,2025/02/15 18:01:33,2025/02/15 18:08:04,391.463,
687,2025/02/15 19:36:17,2025/02/15 19:42:50,392.737,
688,2025/02/15 21:11:01,2025/02/15 21:17:36,394.209,
689,2025/02/15 22:45:46,2025/02/15 22:52:21,395.444,
690,2025/02/16 00:20:30,2025/02/16 00:27:04,393.948,
691,2025/02/16 01:55:14,2025/02/16 02:01:47,392.62,
692,2025/02/16 03:29:59,2025/02/16 03:36:30,391.452,
693,2025/02/16 05:04:43,2025/02/16 05:11:14,390.441,
694,2025/02/16 06:39:28,2025/02/16 06:45:57,389.585,
695,2025/02/16 08:14:12,2025/02/16 08:20:41,388.898,
696,2025/02/16 09:48:56,2025/02/16 09:55:25,388.375,
697,2025/02/16 11:23:41,2025/02/16 11:30:09,388.023,
698,2025/02/16 12:58:25,2025/02/16 13:04:53,387.835,
699,2025/02/16 14:33:10,2025/02/16 14:39:37,387.817,
700,2025/02/16 16:07:54,2025/02/16 16:14:22,387.973,
701,2025/02/16 17:42:38,2025/02/16 17:49:07,388.305,
702,2025/02/16 19:17:23,2025/02/16 19:23:52,388.818,
703,2025/02/16 20:52:07,2025/02/16 20:58:37,389.511,
704,2025/02/16 22:26:52,2025/02/16 22:33:22,390.397,
705,2025/02/17 00:01:36,2025/02/17 00:08:07,391.476,
706,2025/02/17 01:36:20,2025/02/17 01:42:53,392.752,
707,2025/02/17 03:11:05,2025/02/17 03:17:39,394.231,
708,2025/02/17 04:45:49,2025/02/17 04:52:24,395.42,
709,2025/02/17 06:20:33,2025/02/17 06:27:07,393.933,
710,2025/02/17 07:55:18,2025/02/17 08:01:50,392.607,
711,2025/02/17 09:30:02,2025/02/17 09:36:34,391.433,
712,2025/02/17 11:04:47,2025/02/17 11:11:17,390.424,
713,2025/02/17 12:39:31,2025/02/17 12:46:01,389.581,
714,2025/02/17 14:14:15,2025/02/17 14:20:44,388.896,
715,2025/02/17 15:49:00,2025/02/17 15:55:28,388.375,
716,2025/02/17 17:23:44,2025/02/17 17:30:12,388.02,
717,2025/02/17 18:58:29,2025/02/17 19:04:56,387.834,
718,2025/02/17 20:33:13,2025/02/17 20:39:41,387.818,
719,2025/02/17 22:07:57,2025/02/17 22:14:25,387.971,
720,2025/02/17 23:42:42,2025/02/17 23:49:10,388.312,
721,2025/02/18 01:17:26,2025/02/18 01:23:55,388.821,
722,2025/02/18 02:52:10,2025/02/18 02:58:40,389.519,
723,2025/02/18 04:26:55,2025/02/18 04:33:25,390.406,
724,2025/02/18 06:01:39,2025/02/18 06:08:11,391.49,
725,2025/02/18 07:36:24,2025/02/18 07:42:56,392.764,
726,2025/02/18 09:11:08,2025/02/18 09:17:42,394.249,
727,2025/02/18 10:45:52,2025/02/18 10:52:28,395.401,
728,2025/02/18 12:20:37,2025/02/18 12:27:11,393.915,
729,2025/02/18 13:55:21,2025/02/18 14:01:54,392.592,
730,2025/02/18 15:30:06,2025/02/18 15:36:37,391.427,
731,2025/02/18 17:04:50,2025/02/18 17:11:20,390.419,
732,2025/02/18 18:39:34,2025/02/18 18:46:04,389.572,
733,2025/02/18 20:14:19,2025/02/18 20:20:48,388.889,
734,2025/02/18 21:49:03,2025/02/18 21:55:31,388.366,
735,2025/02/18 23:23:47,2025/02/18 23:30:15,388.017,
736,2025/02/19 00:58:32,2025/02/19 01:05:00,387.829,
737,2025/02/19 02:33:16,2025/02/19 02:39:44,387.818,
738,2025/02/19 04:08:01,2025/02/19 04:14:29,387.976,
739,2025/02/19 05:42:45,2025/02/19 05:49:13,388.315,
740,2025/02/19 07:17:29,2025/02/19 07:23:58,388.828,
741,2025/02/19 08:52:14,2025/02/19 08:58:43,389.532,
742,2025/02/19 10:26:58,2025/02/19 10:33:29,390.419,
743,2025/02/19 12:01:43,2025/02/19 12:08:14,391.501,
744,2025/02/19 13:36:27,2025/02/19 13:43:00,392.784,
745,2025/02/19 15:11:11,2025/02/19 15:17:46,394.268,
746,2025/02/19 16:45:56,2025/02/19 16:52:31,395.389,
747,2025/02/19 18:20:40,2025/02/19 18:27:14,393.904,
748,2025/02/19 19:55:24,2025/02/19 20:01:57,392.579,
749,2025/02/19 21:30:09,2025/02/19 21:36:40,391.41,
750,2025/02/19 23:04:53,2025/02/19 23:11:24,390.408,
751,2025/02/20 00:39:38,2025/02/20 00:46:07,389.559,
752,2025/02/20 02:14:22,2025/02/20 02:20:51,388.878,
753,2025/02/20 03:49:06,2025/02/20 03:55:35,388.364,
754,2025/02/20 05:23:51,2025/02/20 05:30:19,388.013,
755,2025/02/20 06:58:35,2025/02/20 07:05:03,387.827,
756,2025/02/20 08:33:20,2025/02/20 08:39:47,387.817,
757,2025/02/20 10:08:04,2025/02/20 10:14:32,387.977,
758,2025/02/20 11:42:48,2025/02/20 11:49:17,388.321,
759,2025/02/20 13:17:33,2025/02/20 13:24:02,388.84,
760,2025/02/20 14:52:17,2025/02/20 14:58:47,389.543,
761,2025/02/20 16:27:01,2025/02/20 16:33:32,390.434,
762,2025/02/20 18:01:46,2025/02/20 18:08:17,391.519,
763,2025/02/20 19:36:30,2025/02/20 19:43:03,392.801,
764,2025/02/20 21:11:15,2025/02/20 21:17:49,394.283,
765,2025/02/20 22:45:59,2025/02/20 22:52:34,395.369,
766,2025/02/21 00:20:43,2025/02/21 00:27:17,393.882,
767,2025/02/21 01:55:28,2025/02/21 02:02:00,392.562,
768,2025/02/21 03:30:12,2025/02/21 03:36:44,391.401,
769,2025/02/21 05:04:57,2025/02/21 05:11:27,390.398,
770,2025/02/21 06:39:41,2025/02/21 06:46:11,389.549,
771,2025/02/21 08:14:25,2025/02/21 08:20:54,388.87,
772,2025/02/21 09:49:10,2025/02/21 09:55:38,388.355,
773,2025/02/21 11:23:54,2025/02/21 11:30:22,388.011,
774,2025/02/21 12:58:39,2025/02/21 13:05:06,387.831,
775,2025/02/21 14:33:23,2025/02/21 14:39:51,387.821,
776,2025/02/21 16:08:07,2025/02/21 16:14:35,387.985,
777,2025/02/21 17:42:52,2025/02/21 17:49:20,388.326,
778,2025/02/21 19:17:36,2025/02/21 19:24:05,388.847,
779,2025/02/21 20:52:20,2025/02/21 20:58:50,389.549,
780,2025/02/21 22:27:05,2025/02/21 22:33:35,390.444,
781,2025/02/22 00:01:49,2025/02/22 00:08:21,391.532,
782,2025/02/22 01:36:34,2025/02/22 01:43:06,392.818,
783,2025/02/22 03:11:18,2025/02/22 03:17:52,394.306,
784,2025/02/22 04:46:02,2025/02/22 04:52:38,395.344,
785,2025/02/22 06:20:47,2025/02/22 06:27:21,393.868,
786,2025/02/22 07:55:31,2025/02/22 08:02:04,392.549,
787,2025/02/22 09:30:16,2025/02/22 09:36:47,391.383,
788,2025/02/22 11:05:00,2025/02/22 11:11:30,390.381,
789,2025/02/22 12:39:44,2025/02/22 12:46:14,389.546,
790,2025/02/22 14:14:29,2025/02/22 14:20:58,388.868,
791,2025/02/22 15:49:13,2025/02/22 15:55:41,388.355,
792,2025/02/22 17:23:57,2025/02/22 17:30:25,388.008,
793,2025/02/22 18:58:42,2025/02/22 19:05:10,387.83,
794,2025/02/22 20:33:26,2025/02/22 20:39:54,387.822,
795,2025/02/22 22:08:11,2025/02/22 22:14:39,387.984,
796,2025/02/22 23:42:55,2025/02/22 23:49:23,388.332,
797,2025/02/23 01:17:39,2025/02/23 01:24:08,388.85,
798,2025/02/23 02:52:24,2025/02/23 02:58:53,389.557,
799,2025/02/23 04:27:08,2025/02/23 04:33:39,390.453,
800,2025/02/23 06:01:53,2025/02/23 06:08:24,391.546,
801,2025/02/23 07:36:37,2025/02/23 07:43:10,392.829,
802,2025/02/23 09:11:21,2025/02/23 09:17:56,394.324,
803,2025/02/23 10:46:06,2025/02/23 10:52:41,395.328,
804,2025/02/23 12:20:50,2025/02/23 12:27:24,393.85,
805,2025/02/23 13:55:34,2025/02/23 14:02:07,392.535,
806,2025/02/23 15:30:19,2025/02/23 15:36:50,391.377,
807,2025/02/23 17:05:03,2025/02/23 17:11:34,390.376,
808,2025/02/23 18:39:48,2025/02/23 18:46:17,389.537,
809,2025/02/23 20:14:32,2025/02/23 20:21:01,388.862,
810,2025/02/23 21:49:16,2025/02/23 21:55:45,388.346,
811,2025/02/23 23:24:01,2025/02/23 23:30:29,388.003,
812,2025/02/24 00:58:45,2025/02/24 01:05:13,387.825,
813,2025/02/24 02:33:30,2025/02/24 02:39:57,387.823,
814,2025/02/24 04:08:14,2025/02/24 04:14:42,387.989,
815,2025/02/24 05:42:58,2025/02/24 05:49:27,388.336,
816,2025/02/24 07:17:43,2025/02/24 07:24:12,388.858,
817,2025/02/24 08:52:27,2025/02/24 08:58:57,389.571,
818,2025/02/24 10:27:11,2025/02/24 10:33:42,390.466,
819,2025/02/24 12:01:56,2025/02/24 12:08:27,391.557,
820,2025/02/24 13:36:40,2025/02/24 13:43:13,392.851,
821,2025/02/24 15:11:25,2025/02/24 15:17:59,394.348,
822,2025/02/24 16:46:09,2025/02/24 16:52:44,395.317,
823,2025/02/24 18:20:53,2025/02/24 18:27:27,393.84,
824,2025/02/24 19:55:38,2025/02/24 20:02:10,392.521,
825,2025/02/24 21:30:22,2025/02/24 21:36:54,391.36,
826,2025/02/24 23:05:07,2025/02/24 23:11:37,390.366,
827,2025/02/25 00:39:51,2025/02/25 00:46:20,389.525,
828,2025/02/25 02:14:35,2025/02/25 02:21:04,388.851,
829,2025/02/25 03:49:20,2025/02/25 03:55:48,388.345,
830,2025/02/25 05:24:04,2025/02/25 05:30:32,388.002,
831,2025/02/25 06:58:49,2025/02/25 07:05:16,387.823,
832,2025/02/25 08:33:33,2025/02/25 08:40:01,387.822,
833,2025/02/25 10:08:17,2025/02/25 10:14:45,387.99,
834,2025/02/25 11:43:02,2025/02/25 11:49:30,388.342,
835,2025/02/25 13:17:46,2025/02/25 13:24:15,388.87,
836,2025/02/25 14:52:30,2025/02/25 14:59:00,389.581,
837,2025/02/25 16:27:15,2025/02/25 16:33:45,390.482,
838,2025/02/25 18:01:59,2025/02/25 18:08:31,391.576,
839,2025/02/25 19:36:44,2025/02/25 19:43:16,392.868,
840,2025/02/25 21:11:28,2025/02/25 21:18:02,394.361,
841,2025/02/25 22:46:12,2025/02/25 22:52:48,395.297,
842,2025/02/26 00:20:57,2025/02/26 00:27:31,393.818,
843,2025/02/26 01:55:41,2025/02/26 02:02:14,392.505,
844,2025/02/26 03:30:26,2025/02/26 03:36:57,391.352,
845,2025/02/26 05:05:10,2025/02/26 05:11:40,390.356,
846,2025/02/26 06:39:54,2025/02/26 06:46:24,389.515,
847,2025/02/26 08:14:39,2025/02/26 08:21:08,388.844,
848,2025/02/26 09:49:23,2025/02/26 09:55:51,388.336,
849,2025/02/26 11:24:07,2025/02/26 11:30:35,388,
850,2025/02/26 12:58:52,2025/02/26 13:05:20,387.828,
851,2025/02/26 14:33:36,2025/02/26 14:40:04,387.826,
852,2025/02/26 16:08:21,2025/02/26 16:14:49,387.998,
853,2025/02/26 17:43:05,2025/02/26 17:49:33,388.347,
854,2025/02/26 19:17:49,2025/02/26 19:24:18,388.877,
855,2025/02/26 20:52:34,2025/02/26 20:59:03,389.588,
856,2025/02/26 22:27:18,2025/02/26 22:33:49,390.489,
857,2025/02/27 00:02:03,2025/02/27 00:08:34,391.586,
858,2025/02/27 01:36:47,2025/02/27 01:43:20,392.884,
859,2025/02/27 03:11:31,2025/02/27 03:18:06,394.382,
860,2025/02/27 04:46:16,2025/02/27 04:52:51,395.273,
861,2025/02/27 06:21:00,2025/02/27 06:27:34,393.803,
862,2025/02/27 07:55:44,2025/02/27 08:02:17,392.492,
863,2025/02/27 09:30:29,2025/02/27 09:37:00,391.333,
864,2025/02/27 11:05:13,2025/02/27 11:11:44,390.34,
865,2025/02/27 12:39:58,2025/02/27 12:46:27,389.511,
866,2025/02/27 14:14:42,2025/02/27 14:21:11,388.842,
867,2025/02/27 15:49:26,2025/02/27 15:55:55,388.336,
868,2025/02/27 17:24:11,2025/02/27 17:30:39,387.997,
869,2025/02/27 18:58:55,2025/02/27 19:05:23,387.827,
870,2025/02/27 20:33:40,2025/02/27 20:40:07,387.827,
871,2025/02/27 22:08:24,2025/02/27 22:14:52,387.997,
872,2025/02/27 23:43:08,2025/02/27 23:49:37,388.354,
873,2025/02/28 01:17:53,2025/02/28 01:24:22,388.88,
874,2025/02/28 02:52:37,2025/02/28 02:59:07,389.596,
875,2025/02/28 04:27:21,2025/02/28 04:33:52,390.501,
876,2025/02/28 06:02:06,2025/02/28 06:08:37,391.603,
877,2025/02/28 07:36:50,2025/02/28 07:43:23,392.896,
878,2025/02/28 09:11:35,2025/02/28 09:18:09,394.401,
879,2025/02/28 10:46:19,2025/02/28 10:52:54,395.257,
880,2025/02/28 12:21:03,2025/02/28 12:27:37,393.786,
881,2025/02/28 13:55:48,2025/02/28 14:02:20,392.478,
882,2025/02/28 15:30:32,2025/02/28 15:37:03,391.327,
883,2025/02/28 17:05:17,2025/02/28 17:11:47,390.334,
884,2025/02/28 18:40:01,2025/02/28 18:46:30,389.503,
885,2025/02/28 20:14:45,2025/02/28 20:21:14,388.835,
886,2025/02/28 21:49:30,2025/02/28 21:55:58,388.327,
887,2025/02/28 23:24:14,2025/02/28 23:30:42,387.994,
888,2025/03/01 00:58:58,2025/03/01 01:05:26,387.822,
889,2025/03/01 02:33:43,2025/03/01 02:40:11,387.828,
890,2025/03/01 04:08:27,2025/03/01 04:14:55,388.002,
891,2025/03/01 05:43:12,2025/03/01 05:49:40,388.357,
892,2025/03/01 07:17:56,2025/03/01 07:24:25,388.888,
893,2025/03/01 08:52:40,2025/03/01 08:59:10,389.614,
894,2025/03/01 10:27:25,2025/03/01 10:33:55,390.513,
895,2025/03/01 12:02:09,2025/03/01 12:08:41,391.613,
896,2025/03/01 13:36:54,2025/03/01 13:43:26,392.917,
897,2025/03/01 15:11:38,2025/03/01 15:18:12,394.424,
898,2025/03/01 16:46:22,2025/03/01 16:52:58,395.245,
899,2025/03/01 18:21:07,2025/03/01 18:27:41,393.775,
900,2025/03/01 19:55:51,2025/03/01 20:02:24,392.464,
901,2025/03/01 21:30:36,2025/03/01 21:37:07,391.311,
902,2025/03/01 23:05:20,2025/03/01 23:11:50,390.323,
903,2025/03/02 00:40:04,2025/03/02 00:46:34,389.49,
904,2025/03/02 02:14:49,2025/03/02 02:21:17,388.824,
905,2025/03/02 03:49:33,2025/03/02 03:56:01,388.326,
906,2025/03/02 05:24:17,2025/03/02 05:30:45,387.991,
907,2025/03/02 06:59:02,2025/03/02 07:05:30,387.82,
908,2025/03/02 08:33:46,2025/03/02 08:40:14,387.827,
909,2025/03/02 10:08:31,2025/03/02 10:14:59,388.003,
910,2025/03/02 11:43:15,2025/03/02 11:49:43,388.363,
911,2025/03/02 13:17:59,2025/03/02 13:24:28,388.9,
912,2025/03/02 14:52:44,2025/03/02 14:59:13,389.625,
913,2025/03/02 16:27:28,2025/03/02 16:33:59,390.529,
914,2025/03/02 18:02:13,2025/03/02 18:08:44,391.632,
915,2025/03/02 19:36:57,2025/03/02 19:43:30,392.934,
916,2025/03/02 21:11:41,2025/03/02 21:18:16,394.435,
917,2025/03/02 22:46:26,2025/03/02 22:53:01,395.226,
918,2025/03/03 00:21:10,2025/03/03 00:27:44,393.753,
919,2025/03/03 01:55:54,2025/03/03 02:02:27,392.447,
920,2025/03/03 03:30:39,2025/03/03 03:37:10,391.301,
921,2025/03/03 05:05:23,2025/03/03 05:11:54,390.313,
922,2025/03/03 06:40:08,2025/03/03 06:46:37,389.48,
923,2025/03/03 08:14:52,2025/03/03 08:21:21,388.816,
924,2025/03/03 09:49:36,2025/03/03 09:56:05,388.317,
925,2025/03/03 11:24:21,2025/03/03 11:30:49,387.988,
926,2025/03/03 12:59:05,2025/03/03 13:05:33,387.824,
927,2025/03/03 14:33:50,2025/03/03 14:40:17,387.83,
928,2025/03/03 16:08:34,2025/03/03 16:15:02,388.011,
929,2025/03/03 17:43:18,2025/03/03 17:49:47,388.368,
930,2025/03/03 19:18:03,2025/03/03 19:24:32,388.907,
931,2025/03/03 20:52:47,2025/03/03 20:59:17,389.626,
932,2025/03/03 22:27:31,2025/03/03 22:34:02,390.537,
933,2025/03/04 00:02:16,2025/03/04 00:08:47,391.642,
934,2025/03/04 01:37:00,2025/03/04 01:43:33,392.95,
935,2025/03/04 03:11:45,2025/03/04 03:18:19,394.457,
936,2025/03/04 04:46:29,2025/03/04 04:53:04,395.2,
937,2025/03/04 06:21:13,2025/03/04 06:27:47,393.738,
938,2025/03/04 07:55:58,2025/03/04 08:02:30,392.434,
939,2025/03/04 09:30:42,2025/03/04 09:37:13,391.283,
940,2025/03/04 11:05:27,2025/03/04 11:11:57,390.297,
941,2025/03/04 12:40:11,2025/03/04 12:46:40,389.476,
942,2025/03/04 14:14:55,2025/03/04 14:21:24,388.814,
943,2025/03/04 15:49:40,2025/03/04 15:56:08,388.316,
944,2025/03/04 17:24:24,2025/03/04 17:30:52,387.985,
945,2025/03/04 18:59:08,2025/03/04 19:05:36,387.822,
946,2025/03/04 20:33:53,2025/03/04 20:40:21,387.831,
947,2025/03/04 22:08:37,2025/03/04 22:15:05,388.009,
948,2025/03/04 23:43:22,2025/03/04 23:49:50,388.375,
949,2025/03/05 01:18:06,2025/03/05 01:24:35,388.909,
950,2025/03/05 02:52:50,2025/03/05 02:59:20,389.634,
951,2025/03/05 04:27:35,2025/03/05 04:34:05,390.548,
952,2025/03/05 06:02:19,2025/03/05 06:08:51,391.658,
953,2025/03/05 07:37:04,2025/03/05 07:43:37,392.961,
954,2025/03/05 09:11:48,2025/03/05 09:18:22,394.476,
955,2025/03/05 10:46:32,2025/03/05 10:53:08,395.184,
956,2025/03/05 12:21:17,2025/03/05 12:27:50,393.72,
957,2025/03/05 13:56:01,2025/03/05 14:02:34,392.42,
958,2025/03/05 15:30:45,2025/03/05 15:37:17,391.277,
959,2025/03/05 17:05:30,2025/03/05 17:12:00,390.291,
960,2025/03/05 18:40:14,2025/03/05 18:46:44,389.468,
961,2025/03/05 20:14:59,2025/03/05 20:21:27,388.807,
962,2025/03/05 21:49:43,2025/03/05 21:56:11,388.307,
963,2025/03/05 23:24:27,2025/03/05 23:30:55,387.983,
964,2025/03/06 00:59:12,2025/03/06 01:05:40,387.818,
965,2025/03/06 02:33:56,2025/03/06 02:40:24,387.831,
966,2025/03/06 04:08:41,2025/03/06 04:15:09,388.014,
967,2025/03/06 05:43:25,2025/03/06 05:49:53,388.378,
968,2025/03/06 07:18:09,2025/03/06 07:24:38,388.917,
969,2025/03/06 08:52:54,2025/03/06 08:59:23,389.647,
970,2025/03/06 10:27:38,2025/03/06 10:34:09,390.559,
971,2025/03/06 12:02:23,2025/03/06 12:08:54,391.67,
972,2025/03/06 13:37:07,2025/03/06 13:43:40,392.982,
973,2025/03/06 15:11:51,2025/03/06 15:18:26,394.495,
974,2025/03/06 16:46:36,2025/03/06 16:53:11,395.168,
975,2025/03/06 18:21:20,2025/03/06 18:27:54,393.71,
976,2025/03/06 19:56:04,2025/03/06 20:02:37,392.406,
977,2025/03/06 21:30:49,2025/03/06 21:37:20,391.26,
978,2025/03/06 23:05:33,2025/03/06 23:12:03,390.28,
979,2025/03/07 00:40:18,2025/03/07 00:46:47,389.455,
980,2025/03/07 02:15:02,2025/03/07 02:21:31,388.796,
981,2025/03/07 03:49:46,2025/03/07 03:56:15,388.306,
982,2025/03/07 05:24:31,2025/03/07 05:30:59,387.979,
983,2025/03/07 06:59:15,2025/03/07 07:05:43,387.816,
984,2025/03/07 08:34:00,2025/03/07 08:40:27,387.831,
985,2025/03/07 10:08:44,2025/03/07 10:15:12,388.016,
986,2025/03/07 11:43:28,2025/03/07 11:49:57,388.384,
987,2025/03/07 13:18:13,2025/03/07 13:24:42,388.929,
988,2025/03/07 14:52:57,2025/03/07 14:59:27,389.658,
989,2025/03/07 16:27:41,2025/03/07 16:34:12,390.577,
990,2025/03/07 18:02:26,2025/03/07 18:08:58,391.689,
991,2025/03/07 19:37:10,2025/03/07 19:43:43,393,
992,2025/03/07 21:11:55,2025/03/07 21:18:29,394.511,
993,2025/03/07 22:46:39,2025/03/07 22:53:14,395.153,
994,2025/03/08 00:21:23,2025/03/08 00:27:57,393.688,
995,2025/03/08 01:56:08,2025/03/08 02:02:40,392.39,
996,2025/03/08 03:30:52,2025/03/08 03:37:23,391.252,
997,2025/03/08 05:05:37,2025/03/08 05:12:07,390.271,
998,2025/03/08 06:40:21,2025/03/08 06:46:50,389.445,
999,2025/03/08 08:15:05,2025/03/08 08:21:34,388.789,
1000,2025/03/08 09:49:50,2025/03/08 09:56:18,388.297,
1001,2025/03/08 11:24:34,2025/03/08 11:31:02,387.977,
1002,2025/03/08 12:59:18,2025/03/08 13:05:46,387.821,
1003,2025/03/08 14:34:03,2025/03/08 14:40:31,387.835,
1004,2025/03/08 16:08:47,2025/03/08 16:15:15,388.024,
1005,2025/03/08 17:43:32,2025/03/08 17:50:00,388.39,
1006,2025/03/08 19:18:16,2025/03/08 19:24:45,388.937,
1007,2025/03/08 20:53:00,2025/03/08 20:59:30,389.665,
1008,2025/03/08 22:27:45,2025/03/08 22:34:15,390.585,
1009,2025/03/09 00:02:29,2025/03/09 00:09:01,391.699,
1010,2025/03/09 01:37:14,2025/03/09 01:43:47,393.016,
1011,2025/03/09 03:11:58,2025/03/09 03:18:32,394.534,
1012,2025/03/09 04:46:42,2025/03/09 04:53:17,395.128,
1013,2025/03/09 06:21:27,2025/03/09 06:28:00,393.674,
1014,2025/03/09 07:56:11,2025/03/09 08:02:43,392.377,
1015,2025/03/09 09:30:55,2025/03/09 09:37:27,391.237,
1016,2025/03/09 11:05:40,2025/03/09 11:12:10,390.255,
1017,2025/03/09 12:40:24,2025/03/09 12:46:54,389.442,
1018,2025/03/09 14:15:09,2025/03/09 14:21:37,388.788,
1019,2025/03/09 15:49:53,2025/03/09 15:56:21,388.297,
1020,2025/03/09 17:24:37,2025/03/09 17:31:05,387.974,
1021,2025/03/09 18:59:22,2025/03/09 19:05:50,387.82,
1022,2025/03/09 20:34:06,2025/03/09 20:40:34,387.836,
1023,2025/03/09 22:08:51,2025/03/09 22:15:19,388.023,
1024,2025/03/09 23:43:35,2025/03/09 23:50:03,388.397,
1025,2025/03/10 01:18:19,2025/03/10 01:24:48,388.94,
1026,2025/03/10 02:53:04,2025/03/10 02:59:33,389.673,
1027,2025/03/10 04:27:48,2025/03/10 04:34:19,390.596,
1028,2025/03/10 06:02:33,2025/03/10 06:09:04,391.715,
1029,2025/03/10 07:37:17,2025/03/10 07:43:50,393.028,
1030,2025/03/10 09:12:01,2025/03/10 09:18:36,394.552,
1031,2025/03/10 10:46:46,2025/03/10 10:53:21,395.112,
1032,2025/03/10 12:21:30,2025/03/10 12:28:04,393.656,
1033,2025/03/10 13:56:14,2025/03/10 14:02:47,392.363,
1034,2025/03/10 15:30:59,2025/03/10 15:37:30,391.228,
1035,2025/03/10 17:05:43,2025/03/10 17:12:13,390.25,
1036,2025/03/10 18:40:28,2025/03/10 18:46:57,389.434,
1037,2025/03/10 20:15:12,2025/03/10 20:21:41,388.781,
1038,2025/03/10 21:49:56,2025/03/10 21:56:25,388.289,
1039,2025/03/10 23:24:41,2025/03/10 23:31:09,387.973,
1040,2025/03/11 00:59:25,2025/03/11 01:05:53,387.815,
1041,2025/03/11 02:34:10,2025/03/11 02:40:37,387.837,
1042,2025/03/11 04:08:54,2025/03/11 04:15:22,388.027,
1043,2025/03/11 05:43:38,2025/03/11 05:50:07,388.4,
1044,2025/03/11 07:18:23,2025/03/11 07:24:52,388.948,
1045,2025/03/11 08:53:07,2025/03/11 08:59:37,389.687,
1046,2025/03/11 10:27:51,2025/03/11 10:34:22,390.607,
1047,2025/03/11 12:02:36,2025/03/11 12:09:08,391.727,
1048,2025/03/11 13:37:20,2025/03/11 13:43:53,393.05,
1049,2025/03/11 15:12:05,2025/03/11 15:18:39,394.572,
1050,2025/03/11 16:46:49,2025/03/11 16:53:24,395.096,
1051,2025/03/11 18:21:33,2025/03/11 18:28:07,393.646,
1052,2025/03/11 19:56:18,2025/03/11 20:02:50,392.35,
1053,2025/03/11 21:31:02,2025/03/11 21:37:33,391.211,
1054,2025/03/11 23:05:47,2025/03/11 23:12:17,390.238,
1055,2025/03/12 00:40:31,2025/03/12 00:47:00,389.421,
1056,2025/03/12 02:15:15,2025/03/12 02:21:44,388.77,
1057,2025/03/12 03:50:00,2025/03/12 03:56:28,388.288,
1058,2025/03/12 05:24:44,2025/03/12 05:31:12,387.968,
1059,2025/03/12 06:59:28,2025/03/12 07:05:56,387.814,
1060,2025/03/12 08:34:13,2025/03/12 08:40:41,387.836,
1061,2025/03/12 10:08:57,2025/03/12 10:15:25,388.029,
1062,2025/03/12 11:43:42,2025/03/12 11:50:10,388.406,
1063,2025/03/12 13:18:26,2025/03/12 13:24:55,388.96,
1064,2025/03/12 14:53:10,2025/03/12 14:59:40,389.698,
1065,2025/03/12 16:27:55,2025/03/12 16:34:25,390.625,
1066,2025/03/12 18:02:39,2025/03/12 18:09:11,391.746,
1067,2025/03/12 19:37:24,2025/03/12 19:43:57,393.067,
1068,2025/03/12 21:12:08,2025/03/12 21:18:43,394.587,
1069,2025/03/12 22:46:52,2025/03/12 22:53:27,395.081,
1070,2025/03/13 00:21:37,2025/03/13 00:28:10,393.624,
1071,2025/03/13 01:56:21,2025/03/13 02:02:53,392.333,
1072,2025/03/13 03:31:05,2025/03/13 03:37:37,391.203,
1073,2025/03/13 05:05:50,2025/03/13 05:12:20,390.229,
1074,2025/03/13 06:40:34,2025/03/13 06:47:04,389.412,
1075,2025/03/13 08:15:19,2025/03/13 08:21:47,388.763,
1076,2025/03/13 09:50:03,2025/03/13 09:56:31,388.279,
1077,2025/03/13 11:24:47,2025/03/13 11:31:15,387.966,
1078,2025/03/13 12:59:32,2025/03/13 13:06:00,387.818,
1079,2025/03/13 14:34:16,2025/03/13 14:40:44,387.841,
1080,2025/03/13 16:09:01,2025/03/13 16:15:29,388.037,
1081,2025/03/13 17:43:45,2025/03/13 17:50:13,388.412,
1082,2025/03/13 19:18:29,2025/03/13 19:24:58,388.967,
1083,2025/03/13 20:53:14,2025/03/13 20:59:43,389.704,
1084,2025/03/13 22:27:58,2025/03/13 22:34:29,390.634,
1085,2025/03/14 00:02:42,2025/03/14 00:09:14,391.76,
1086,2025/03/14 01:37:27,2025/03/14 01:44:00,393.083,
1087,2025/03/14 03:12:11,2025/03/14 03:18:46,394.61,
1088,2025/03/14 04:46:56,2025/03/14 04:53:31,395.057,
1089,2025/03/14 06:21:40,2025/03/14 06:28:14,393.609,
1090,2025/03/14 07:56:24,2025/03/14 08:02:57,392.321,
1091,2025/03/14 09:31:09,2025/03/14 09:37:40,391.187,
1092,2025/03/14 11:05:53,2025/03/14 11:12:23,390.213,
1093,2025/03/14 12:40:38,2025/03/14 12:47:07,389.408,
1094,2025/03/14 14:15:22,2025/03/14 14:21:51,388.761,
1095,2025/03/14 15:50:06,2025/03/14 15:56:35,388.279,
1096,2025/03/14 17:24:51,2025/03/14 17:31:19,387.963,
1097,2025/03/14 18:59:35,2025/03/14 19:06:03,387.817,
1098,2025/03/14 20:34:20,2025/03/14 20:40:47,387.841,
1099,2025/03/14 22:09:04,2025/03/14 22:15:32,388.036,
1100,2025/03/14 23:43:48,2025/03/14 23:50:17,388.418,
1101,2025/03/15 01:18:33,2025/03/15 01:25:02,388.97,
1102,2025/03/15 02:53:17,2025/03/15 02:59:47,389.712,
1103,2025/03/15 04:28:01,2025/03/15 04:34:32,390.644,
1104,2025/03/15 06:02:46,2025/03/15 06:09:18,391.774,
1105,2025/03/15 07:37:30,2025/03/15 07:44:03,393.095,
1106,2025/03/15 09:12:15,2025/03/15 09:18:49,394.629,
1107,2025/03/15 10:46:59,2025/03/15 10:53:34,395.04,
1108,2025/03/15 12:21:43,2025/03/15 12:28:17,393.592,
1109,2025/03/15 13:56:28,2025/03/15 14:03:00,392.306,
1110,2025/03/15 15:31:12,2025/03/15 15:37:43,391.178,
1111,2025/03/15 17:05:57,2025/03/15 17:12:27,390.208,
1112,2025/03/15 18:40:41,2025/03/15 18:47:10,389.399,
1113,2025/03/15 20:15:25,2025/03/15 20:21:54,388.754,
1114,2025/03/15 21:50:10,2025/03/15 21:56:38,388.27,
1115,2025/03/15 23:24:54,2025/03/15 23:31:22,387.963,
1116,2025/03/16 00:59:38,2025/03/16 01:06:06,387.812,
1117,2025/03/16 02:34:23,2025/03/16 02:40:51,387.842,
1118,2025/03/16 04:09:07,2025/03/16 04:15:35,388.04,
1119,2025/03/16 05:43:52,2025/03/16 05:50:20,388.422,
1120,2025/03/16 07:18:36,2025/03/16 07:25:05,388.978,
1121,2025/03/16 08:53:20,2025/03/16 08:59:50,389.725,
1122,2025/03/16 10:28:05,2025/03/16 10:34:35,390.654,
1123,2025/03/16 12:02:49,2025/03/16 12:09:21,391.784,
1124,2025/03/16 13:37:34,2025/03/16 13:44:07,393.116,
1125,2025/03/16 15:12:18,2025/03/16 15:18:53,394.647,
1126,2025/03/16 16:47:02,2025/03/16 16:53:37,395.024,
1127,2025/03/16 18:21:47,2025/03/16 18:28:20,393.581,
1128,2025/03/16 19:56:31,2025/03/16 20:03:03,392.293,
1129,2025/03/16 21:31:15,2025/03/16 21:37:47,391.162,
1130,2025/03/16 23:06:00,2025/03/16 23:12:30,390.198,
1131,2025/03/17 00:40:44,2025/03/17 00:47:14,389.387,
1132,2025/03/17 02:15:29,2025/03/17 02:21:57,388.743,
1133,2025/03/17 03:50:13,2025/03/17 03:56:41,388.269,
