3UCubedIntegratedSim/Reports & Plots/Area Target Access Data/CSV/Sat2.csv

Access,Start Time (UTCG),Stop Time (UTCG),Duration (sec),,,Global Statistics,,,,
1,2025-01-01 16:16:01,2025-01-01 16:22:34,393.079,,,Min Duration,5382,2025-12-21 16:50:46,2025-12-21 16:57:14,387.745
2,2025-01-01 17:50:47,2025-01-01 17:57:18,391.752,,,Max Duration,2240,2025-05-28 23:38:18,2025-05-28 23:44:54,395.687
3,2025-01-01 19:25:32,2025-01-01 19:32:03,390.634,,,Mean Duration,,,,390.403
4,2025-01-01 21:00:17,2025-01-01 21:06:47,389.705,,,Total Duration,,,,2165957.609
5,2025-01-01 22:35:02,2025-01-01 22:41:31,388.962,,,,,,,
6,2025-01-02 00:09:47,2025-01-02 00:16:16,388.405,,,,,,,
7,2025-01-02 01:44:32,2025-01-02 01:51:00,388.037,,,,,,,
8,2025-01-02 03:19:17,2025-01-02 03:25:45,387.837,,,,,,,
9,2025-01-02 04:54:01,2025-01-02 05:00:29,387.816,,,,,,,
10,2025-01-02 06:28:45,2025-01-02 06:35:13,387.968,,,,,,,
11,2025-01-02 08:03:29,2025-01-02 08:09:58,388.287,,,,,,,
12,2025-01-02 09:38:13,2025-01-02 09:44:42,388.772,,,,,,,
13,2025-01-02 11:12:57,2025-01-02 11:19:27,389.422,,,,,,,
14,2025-01-02 12:47:41,2025-01-02 12:54:11,390.234,,,,,,,
15,2025-01-02 14:22:24,2025-01-02 14:28:55,391.208,,,,,,,
16,2025-01-02 15:57:07,2025-01-02 16:03:40,392.339,,,,,,,
17,2025-01-02 17:31:50,2025-01-02 17:38:24,393.637,,,,,,,
18,2025-01-02 19:06:33,2025-01-02 19:13:08,395.09,,,,,,,
19,2025-01-02 20:41:18,2025-01-02 20:47:53,394.585,,,,,,,
20,2025-01-02 22:16:04,2025-01-02 22:22:37,393.057,,,,,,,
21,2025-01-02 23:50:50,2025-01-02 23:57:22,391.741,,,,,,,
22,2025-01-03 01:25:35,2025-01-03 01:32:06,390.621,,,,,,,
23,2025-01-03 03:00:21,2025-01-03 03:06:50,389.694,,,,,,,
24,2025-01-03 04:35:06,2025-01-03 04:41:35,388.953,,,,,,,
25,2025-01-03 06:09:51,2025-01-03 06:16:19,388.401,,,,,,,
26,2025-01-03 07:44:35,2025-01-03 07:51:04,388.031,,,,,,,
27,2025-01-03 09:19:20,2025-01-03 09:25:48,387.838,,,,,,,
28,2025-01-03 10:54:04,2025-01-03 11:00:32,387.818,,,,,,,
29,2025-01-03 12:28:49,2025-01-03 12:35:17,387.971,,,,,,,
30,2025-01-03 14:03:33,2025-01-03 14:10:01,388.287,,,,,,,
31,2025-01-03 15:38:17,2025-01-03 15:44:45,388.778,,,,,,,
32,2025-01-03 17:13:00,2025-01-03 17:19:30,389.426,,,,,,,
33,2025-01-03 18:47:44,2025-01-03 18:54:14,390.244,,,,,,,
34,2025-01-03 20:22:27,2025-01-03 20:28:59,391.22,,,,,,,
35,2025-01-03 21:57:11,2025-01-03 22:03:43,392.352,,,,,,,
36,2025-01-03 23:31:54,2025-01-03 23:38:27,393.648,,,,,,,
37,2025-01-04 01:06:37,2025-01-04 01:13:12,395.107,,,,,,,
38,2025-01-04 02:41:22,2025-01-04 02:47:56,394.565,,,,,,,
39,2025-01-04 04:16:07,2025-01-04 04:22:41,393.044,,,,,,,
40,2025-01-04 05:50:53,2025-01-04 05:57:25,391.726,,,,,,,
41,2025-01-04 07:25:39,2025-01-04 07:32:09,390.608,,,,,,,
42,2025-01-04 09:00:24,2025-01-04 09:06:54,389.684,,,,,,,
43,2025-01-04 10:35:09,2025-01-04 10:41:38,388.949,,,,,,,
44,2025-01-04 12:09:54,2025-01-04 12:16:22,388.399,,,,,,,
45,2025-01-04 13:44:39,2025-01-04 13:51:07,388.03,,,,,,,
46,2025-01-04 15:19:23,2025-01-04 15:25:51,387.833,,,,,,,
47,2025-01-04 16:54:08,2025-01-04 17:00:36,387.82,,,,,,,
48,2025-01-04 18:28:52,2025-01-04 18:35:20,387.974,,,,,,,
49,2025-01-04 20:03:36,2025-01-04 20:10:04,388.291,,,,,,,
50,2025-01-04 21:38:20,2025-01-04 21:44:49,388.78,,,,,,,
51,2025-01-04 23:13:04,2025-01-04 23:19:33,389.437,,,,,,,
52,2025-01-05 00:47:47,2025-01-05 00:54:18,390.255,,,,,,,
53,2025-01-05 02:22:31,2025-01-05 02:29:02,391.23,,,,,,,
54,2025-01-05 03:57:14,2025-01-05 04:03:46,392.367,,,,,,,
55,2025-01-05 05:31:57,2025-01-05 05:38:31,393.666,,,,,,,
56,2025-01-05 07:06:40,2025-01-05 07:13:15,395.122,,,,,,,
57,2025-01-05 08:41:25,2025-01-05 08:47:59,394.545,,,,,,,
58,2025-01-05 10:16:11,2025-01-05 10:22:44,393.026,,,,,,,
59,2025-01-05 11:50:57,2025-01-05 11:57:28,391.713,,,,,,,
60,2025-01-05 13:25:42,2025-01-05 13:32:13,390.597,,,,,,,
61,2025-01-05 15:00:27,2025-01-05 15:06:57,389.671,,,,,,,
62,2025-01-05 16:35:12,2025-01-05 16:41:41,388.942,,,,,,,
63,2025-01-05 18:09:57,2025-01-05 18:16:26,388.389,,,,,,,
64,2025-01-05 19:44:42,2025-01-05 19:51:10,388.022,,,,,,,
65,2025-01-05 21:19:27,2025-01-05 21:25:55,387.832,,,,,,,
66,2025-01-05 22:54:11,2025-01-05 23:00:39,387.82,,,,,,,
67,2025-01-06 00:28:55,2025-01-06 00:35:23,387.976,,,,,,,
68,2025-01-06 02:03:39,2025-01-06 02:10:08,388.296,,,,,,,
69,2025-01-06 03:38:23,2025-01-06 03:44:52,388.791,,,,,,,
70,2025-01-06 05:13:07,2025-01-06 05:19:37,389.446,,,,,,,
71,2025-01-06 06:47:51,2025-01-06 06:54:21,390.264,,,,,,,
72,2025-01-06 08:22:34,2025-01-06 08:29:05,391.244,,,,,,,
73,2025-01-06 09:57:17,2025-01-06 10:03:50,392.385,,,,,,,
74,2025-01-06 11:32:00,2025-01-06 11:38:34,393.685,,,,,,,
75,2025-01-06 13:06:43,2025-01-06 13:13:18,395.144,,,,,,,
76,2025-01-06 14:41:28,2025-01-06 14:48:03,394.525,,,,,,,
77,2025-01-06 16:16:14,2025-01-06 16:22:47,393.011,,,,,,,
78,2025-01-06 17:51:00,2025-01-06 17:57:32,391.695,,,,,,,
79,2025-01-06 19:25:45,2025-01-06 19:32:16,390.58,,,,,,,
80,2025-01-06 21:00:31,2025-01-06 21:07:00,389.661,,,,,,,
81,2025-01-06 22:35:16,2025-01-06 22:41:45,388.933,,,,,,,
82,2025-01-07 00:10:01,2025-01-07 00:16:29,388.386,,,,,,,
83,2025-01-07 01:44:45,2025-01-07 01:51:14,388.019,,,,,,,
84,2025-01-07 03:19:30,2025-01-07 03:25:58,387.83,,,,,,,
85,2025-01-07 04:54:14,2025-01-07 05:00:42,387.825,,,,,,,
86,2025-01-07 06:28:59,2025-01-07 06:35:27,387.978,,,,,,,
87,2025-01-07 08:03:43,2025-01-07 08:10:11,388.304,,,,,,,
88,2025-01-07 09:38:27,2025-01-07 09:44:55,388.797,,,,,,,
89,2025-01-07 11:13:10,2025-01-07 11:19:40,389.455,,,,,,,
90,2025-01-07 12:47:54,2025-01-07 12:54:24,390.275,,,,,,,
91,2025-01-07 14:22:37,2025-01-07 14:29:09,391.253,,,,,,,
92,2025-01-07 15:57:21,2025-01-07 16:03:53,392.4,,,,,,,
93,2025-01-07 17:32:04,2025-01-07 17:38:37,393.697,,,,,,,
94,2025-01-07 19:06:47,2025-01-07 19:13:22,395.162,,,,,,,
95,2025-01-07 20:41:32,2025-01-07 20:48:06,394.509,,,,,,,
96,2025-01-07 22:16:18,2025-01-07 22:22:51,392.991,,,,,,,
97,2025-01-07 23:51:03,2025-01-07 23:57:35,391.679,,,,,,,
98,2025-01-08 01:25:49,2025-01-08 01:32:19,390.572,,,,,,,
99,2025-01-08 03:00:34,2025-01-08 03:07:04,389.651,,,,,,,
100,2025-01-08 04:35:19,2025-01-08 04:41:48,388.922,,,,,,,
101,2025-01-08 06:10:04,2025-01-08 06:16:32,388.382,,,,,,,
102,2025-01-08 07:44:49,2025-01-08 07:51:17,388.019,,,,,,,
103,2025-01-08 09:19:33,2025-01-08 09:26:01,387.834,,,,,,,
104,2025-01-08 10:54:18,2025-01-08 11:00:46,387.822,,,,,,,
105,2025-01-08 12:29:02,2025-01-08 12:35:30,387.981,,,,,,,
106,2025-01-08 14:03:46,2025-01-08 14:10:14,388.31,,,,,,,
107,2025-01-08 15:38:30,2025-01-08 15:44:59,388.8,,,,,,,
108,2025-01-08 17:13:14,2025-01-08 17:19:43,389.464,,,,,,,
109,2025-01-08 18:47:57,2025-01-08 18:54:28,390.286,,,,,,,
110,2025-01-08 20:22:41,2025-01-08 20:29:12,391.267,,,,,,,
111,2025-01-08 21:57:24,2025-01-08 22:03:56,392.409,,,,,,,
112,2025-01-08 23:32:07,2025-01-08 23:38:41,393.716,,,,,,,
113,2025-01-09 01:06:50,2025-01-09 01:13:25,395.179,,,,,,,
114,2025-01-09 02:41:35,2025-01-09 02:48:09,394.488,,,,,,,
115,2025-01-09 04:16:21,2025-01-09 04:22:54,392.973,,,,,,,
116,2025-01-09 05:51:07,2025-01-09 05:57:38,391.666,,,,,,,
117,2025-01-09 07:25:52,2025-01-09 07:32:23,390.558,,,,,,,
118,2025-01-09 09:00:37,2025-01-09 09:07:07,389.644,,,,,,,
119,2025-01-09 10:35:22,2025-01-09 10:41:51,388.918,,,,,,,
120,2025-01-09 12:10:07,2025-01-09 12:16:36,388.377,,,,,,,
121,2025-01-09 13:44:52,2025-01-09 13:51:20,388.012,,,,,,,
122,2025-01-09 15:19:37,2025-01-09 15:26:05,387.833,,,,,,,
123,2025-01-09 16:54:21,2025-01-09 17:00:49,387.819,,,,,,,
124,2025-01-09 18:29:05,2025-01-09 18:35:33,387.985,,,,,,,
125,2025-01-09 20:03:49,2025-01-09 20:10:18,388.315,,,,,,,
126,2025-01-09 21:38:33,2025-01-09 21:45:02,388.809,,,,,,,
127,2025-01-09 23:13:17,2025-01-09 23:19:46,389.467,,,,,,,
128,2025-01-10 00:48:01,2025-01-10 00:54:31,390.296,,,,,,,
129,2025-01-10 02:22:44,2025-01-10 02:29:15,391.279,,,,,,,
130,2025-01-10 03:57:27,2025-01-10 04:04:00,392.427,,,,,,,
131,2025-01-10 05:32:10,2025-01-10 05:38:44,393.732,,,,,,,
132,2025-01-10 07:06:53,2025-01-10 07:13:28,395.196,,,,,,,
133,2025-01-10 08:41:38,2025-01-10 08:48:13,394.469,,,,,,,
134,2025-01-10 10:16:24,2025-01-10 10:22:57,392.96,,,,,,,
135,2025-01-10 11:51:10,2025-01-10 11:57:42,391.655,,,,,,,
136,2025-01-10 13:25:55,2025-01-10 13:32:26,390.549,,,,,,,
137,2025-01-10 15:00:41,2025-01-10 15:07:10,389.632,,,,,,,
138,2025-01-10 16:35:26,2025-01-10 16:41:55,388.912,,,,,,,
139,2025-01-10 18:10:11,2025-01-10 18:16:39,388.369,,,,,,,
140,2025-01-10 19:44:55,2025-01-10 19:51:24,388.009,,,,,,,
141,2025-01-10 21:19:40,2025-01-10 21:26:08,387.827,,,,,,,
142,2025-01-10 22:54:24,2025-01-10 23:00:52,387.823,,,,,,,
143,2025-01-11 00:29:09,2025-01-11 00:35:37,387.987,,,,,,,
144,2025-01-11 02:03:53,2025-01-11 02:10:21,388.315,,,,,,,
145,2025-01-11 03:38:37,2025-01-11 03:45:05,388.818,,,,,,,
146,2025-01-11 05:13:20,2025-01-11 05:19:50,389.481,,,,,,,
147,2025-01-11 06:48:04,2025-01-11 06:54:34,390.306,,,,,,,
148,2025-01-11 08:22:47,2025-01-11 08:29:19,391.294,,,,,,,
149,2025-01-11 09:57:31,2025-01-11 10:04:03,392.442,,,,,,,
150,2025-01-11 11:32:14,2025-01-11 11:38:47,393.749,,,,,,,
151,2025-01-11 13:06:57,2025-01-11 13:13:32,395.215,,,,,,,
152,2025-01-11 14:41:42,2025-01-11 14:48:16,394.448,,,,,,,
153,2025-01-11 16:16:28,2025-01-11 16:23:01,392.944,,,,,,,
154,2025-01-11 17:51:13,2025-01-11 17:57:45,391.639,,,,,,,
155,2025-01-11 19:25:59,2025-01-11 19:32:29,390.533,,,,,,,
156,2025-01-11 21:00:44,2025-01-11 21:07:14,389.622,,,,,,,
157,2025-01-11 22:35:29,2025-01-11 22:41:58,388.903,,,,,,,
158,2025-01-12 00:10:14,2025-01-12 00:16:42,388.365,,,,,,,
159,2025-01-12 01:44:59,2025-01-12 01:51:27,388.005,,,,,,,
160,2025-01-12 03:19:43,2025-01-12 03:26:11,387.825,,,,,,,
161,2025-01-12 04:54:28,2025-01-12 05:00:56,387.824,,,,,,,
162,2025-01-12 06:29:12,2025-01-12 06:35:40,387.989,,,,,,,
163,2025-01-12 08:03:56,2025-01-12 08:10:24,388.323,,,,,,,
164,2025-01-12 09:38:40,2025-01-12 09:45:09,388.824,,,,,,,
165,2025-01-12 11:13:24,2025-01-12 11:19:53,389.489,,,,,,,
166,2025-01-12 12:48:07,2025-01-12 12:54:38,390.317,,,,,,,
167,2025-01-12 14:22:51,2025-01-12 14:29:22,391.302,,,,,,,
168,2025-01-12 15:57:34,2025-01-12 16:04:06,392.456,,,,,,,
169,2025-01-12 17:32:17,2025-01-12 17:38:51,393.761,,,,,,,
170,2025-01-12 19:07:00,2025-01-12 19:13:35,395.229,,,,,,,
171,2025-01-12 20:41:45,2025-01-12 20:48:19,394.428,,,,,,,
172,2025-01-12 22:16:31,2025-01-12 22:23:04,392.927,,,,,,,
173,2025-01-12 23:51:17,2025-01-12 23:57:48,391.625,,,,,,,
174,2025-01-13 01:26:02,2025-01-13 01:32:33,390.52,,,,,,,
175,2025-01-13 03:00:47,2025-01-13 03:07:17,389.617,,,,,,,
176,2025-01-13 04:35:32,2025-01-13 04:42:01,388.896,,,,,,,
177,2025-01-13 06:10:17,2025-01-13 06:16:46,388.36,,,,,,,
178,2025-01-13 07:45:02,2025-01-13 07:51:30,388.005,,,,,,,
179,2025-01-13 09:19:47,2025-01-13 09:26:15,387.828,,,,,,,
180,2025-01-13 10:54:31,2025-01-13 11:00:59,387.824,,,,,,,
181,2025-01-13 12:29:15,2025-01-13 12:35:43,387.992,,,,,,,
182,2025-01-13 14:03:59,2025-01-13 14:10:28,388.324,,,,,,,
183,2025-01-13 15:38:43,2025-01-13 15:45:12,388.831,,,,,,,
184,2025-01-13 17:13:27,2025-01-13 17:19:56,389.494,,,,,,,
185,2025-01-13 18:48:11,2025-01-13 18:54:41,390.328,,,,,,,
186,2025-01-13 20:22:54,2025-01-13 20:29:25,391.319,,,,,,,
187,2025-01-13 21:57:37,2025-01-13 22:04:10,392.466,,,,,,,
188,2025-01-13 23:32:20,2025-01-13 23:38:54,393.776,,,,,,,
189,2025-01-14 01:07:03,2025-01-14 01:13:38,395.25,,,,,,,
190,2025-01-14 02:41:48,2025-01-14 02:48:23,394.411,,,,,,,
191,2025-01-14 04:16:34,2025-01-14 04:23:07,392.91,,,,,,,
192,2025-01-14 05:51:20,2025-01-14 05:57:52,391.611,,,,,,,
193,2025-01-14 07:26:05,2025-01-14 07:32:36,390.511,,,,,,,
194,2025-01-14 09:00:51,2025-01-14 09:07:20,389.607,,,,,,,
195,2025-01-14 10:35:36,2025-01-14 10:42:05,388.888,,,,,,,
196,2025-01-14 12:10:21,2025-01-14 12:16:49,388.355,,,,,,,
197,2025-01-14 13:45:05,2025-01-14 13:51:33,388.002,,,,,,,
198,2025-01-14 15:19:50,2025-01-14 15:26:18,387.823,,,,,,,
199,2025-01-14 16:54:34,2025-01-14 17:01:02,387.825,,,,,,,
200,2025-01-14 18:29:19,2025-01-14 18:35:47,387.995,,,,,,,
201,2025-01-14 20:04:03,2025-01-14 20:10:31,388.328,,,,,,,
202,2025-01-14 21:38:47,2025-01-14 21:45:15,388.833,,,,,,,
203,2025-01-14 23:13:30,2025-01-14 23:20:00,389.505,,,,,,,
204,2025-01-15 00:48:14,2025-01-15 00:54:44,390.338,,,,,,,
205,2025-01-15 02:22:57,2025-01-15 02:29:29,391.331,,,,,,,
206,2025-01-15 03:57:40,2025-01-15 04:04:13,392.48,,,,,,,
207,2025-01-15 05:32:24,2025-01-15 05:38:57,393.794,,,,,,,
208,2025-01-15 07:07:06,2025-01-15 07:13:42,395.265,,,,,,,
209,2025-01-15 08:41:52,2025-01-15 08:48:26,394.392,,,,,,,
210,2025-01-15 10:16:38,2025-01-15 10:23:11,392.892,,,,,,,
211,2025-01-15 11:51:23,2025-01-15 11:57:55,391.598,,,,,,,
212,2025-01-15 13:26:09,2025-01-15 13:32:39,390.5,,,,,,,
213,2025-01-15 15:00:54,2025-01-15 15:07:24,389.592,,,,,,,
214,2025-01-15 16:35:39,2025-01-15 16:42:08,388.881,,,,,,,
215,2025-01-15 18:10:24,2025-01-15 18:16:52,388.345,,,,,,,
216,2025-01-15 19:45:09,2025-01-15 19:51:37,387.995,,,,,,,
217,2025-01-15 21:19:53,2025-01-15 21:26:21,387.821,,,,,,,
218,2025-01-15 22:54:38,2025-01-15 23:01:06,387.825,,,,,,,
219,2025-01-16 00:29:22,2025-01-16 00:35:50,387.997,,,,,,,
220,2025-01-16 02:04:06,2025-01-16 02:10:34,388.333,,,,,,,
221,2025-01-16 03:38:50,2025-01-16 03:45:19,388.843,,,,,,,
222,2025-01-16 05:13:34,2025-01-16 05:20:03,389.514,,,,,,,
223,2025-01-16 06:48:17,2025-01-16 06:54:48,390.348,,,,,,,
224,2025-01-16 08:23:01,2025-01-16 08:29:32,391.343,,,,,,,
225,2025-01-16 09:57:44,2025-01-16 10:04:16,392.498,,,,,,,
226,2025-01-16 11:32:27,2025-01-16 11:39:01,393.813,,,,,,,
227,2025-01-16 13:07:10,2025-01-16 13:13:45,395.287,,,,,,,
228,2025-01-16 14:41:55,2025-01-16 14:48:29,394.372,,,,,,,
229,2025-01-16 16:16:41,2025-01-16 16:23:14,392.877,,,,,,,
230,2025-01-16 17:51:27,2025-01-16 17:57:58,391.581,,,,,,,
231,2025-01-16 19:26:12,2025-01-16 19:32:43,390.484,,,,,,,
232,2025-01-16 21:00:57,2025-01-16 21:07:27,389.582,,,,,,,
233,2025-01-16 22:35:43,2025-01-16 22:42:11,388.872,,,,,,,
234,2025-01-17 00:10:27,2025-01-17 00:16:56,388.343,,,,,,,
235,2025-01-17 01:45:12,2025-01-17 01:51:40,387.991,,,,,,,
236,2025-01-17 03:19:57,2025-01-17 03:26:25,387.819,,,,,,,
237,2025-01-17 04:54:41,2025-01-17 05:01:09,387.826,,,,,,,
238,2025-01-17 06:29:25,2025-01-17 06:35:53,387.999,,,,,,,
239,2025-01-17 08:04:09,2025-01-17 08:10:38,388.341,,,,,,,
240,2025-01-17 09:38:53,2025-01-17 09:45:22,388.85,,,,,,,
241,2025-01-17 11:13:37,2025-01-17 11:20:06,389.523,,,,,,,
242,2025-01-17 12:48:20,2025-01-17 12:54:51,390.359,,,,,,,
243,2025-01-17 14:23:04,2025-01-17 14:29:35,391.351,,,,,,,
244,2025-01-17 15:57:47,2025-01-17 16:04:20,392.513,,,,,,,
245,2025-01-17 17:32:30,2025-01-17 17:39:04,393.825,,,,,,,
246,2025-01-17 19:07:13,2025-01-17 19:13:48,395.301,,,,,,,
247,2025-01-17 20:41:58,2025-01-17 20:48:33,394.353,,,,,,,
248,2025-01-17 22:16:44,2025-01-17 22:23:17,392.86,,,,,,,
249,2025-01-17 23:51:30,2025-01-17 23:58:02,391.567,,,,,,,
250,2025-01-18 01:26:15,2025-01-18 01:32:46,390.472,,,,,,,
251,2025-01-18 03:01:01,2025-01-18 03:07:30,389.573,,,,,,,
252,2025-01-18 04:35:46,2025-01-18 04:42:15,388.865,,,,,,,
253,2025-01-18 06:10:31,2025-01-18 06:16:59,388.338,,,,,,,
254,2025-01-18 07:45:15,2025-01-18 07:51:43,387.991,,,,,,,
255,2025-01-18 09:20:00,2025-01-18 09:26:28,387.822,,,,,,,
256,2025-01-18 10:54:44,2025-01-18 11:01:12,387.827,,,,,,,
257,2025-01-18 12:29:29,2025-01-18 12:35:57,388.003,,,,,,,
258,2025-01-18 14:04:13,2025-01-18 14:10:41,388.343,,,,,,,
259,2025-01-18 15:38:57,2025-01-18 15:45:25,388.858,,,,,,,
260,2025-01-18 17:13:40,2025-01-18 17:20:10,389.528,,,,,,,
261,2025-01-18 18:48:24,2025-01-18 18:54:54,390.369,,,,,,,
262,2025-01-18 20:23:07,2025-01-18 20:29:39,391.368,,,,,,,
263,2025-01-18 21:57:50,2025-01-18 22:04:23,392.523,,,,,,,
264,2025-01-18 23:32:33,2025-01-18 23:39:07,393.84,,,,,,,
265,2025-01-19 01:07:16,2025-01-19 01:13:52,395.322,,,,,,,
266,2025-01-19 02:42:02,2025-01-19 02:48:36,394.335,,,,,,,
267,2025-01-19 04:16:48,2025-01-19 04:23:20,392.843,,,,,,,
268,2025-01-19 05:51:33,2025-01-19 05:58:05,391.554,,,,,,,
269,2025-01-19 07:26:19,2025-01-19 07:32:49,390.463,,,,,,,
270,2025-01-19 09:01:04,2025-01-19 09:07:34,389.566,,,,,,,
271,2025-01-19 10:35:49,2025-01-19 10:42:18,388.858,,,,,,,
272,2025-01-19 12:10:34,2025-01-19 12:17:02,388.333,,,,,,,
273,2025-01-19 13:45:19,2025-01-19 13:51:47,387.989,,,,,,,
274,2025-01-19 15:20:03,2025-01-19 15:26:31,387.818,,,,,,,
275,2025-01-19 16:54:48,2025-01-19 17:01:16,387.829,,,,,,,
276,2025-01-19 18:29:32,2025-01-19 18:36:00,388.006,,,,,,,
277,2025-01-19 20:04:16,2025-01-19 20:10:44,388.347,,,,,,,
278,2025-01-19 21:39:00,2025-01-19 21:45:29,388.86,,,,,,,
279,2025-01-19 23:13:44,2025-01-19 23:20:13,389.54,,,,,,,
280,2025-01-20 00:48:27,2025-01-20 00:54:58,390.381,,,,,,,
281,2025-01-20 02:23:11,2025-01-20 02:29:42,391.381,,,,,,,
282,2025-01-20 03:57:54,2025-01-20 04:04:26,392.537,,,,,,,
283,2025-01-20 05:32:37,2025-01-20 05:39:11,393.859,,,,,,,
284,2025-01-20 07:07:20,2025-01-20 07:13:55,395.338,,,,,,,
285,2025-01-20 08:42:05,2025-01-20 08:48:39,394.317,,,,,,,
286,2025-01-20 10:16:51,2025-01-20 10:23:24,392.826,,,,,,,
287,2025-01-20 11:51:37,2025-01-20 11:58:08,391.541,,,,,,,
288,2025-01-20 13:26:22,2025-01-20 13:32:53,390.453,,,,,,,
289,2025-01-20 15:01:07,2025-01-20 15:07:37,389.554,,,,,,,
290,2025-01-20 16:35:53,2025-01-20 16:42:21,388.851,,,,,,,
291,2025-01-20 18:10:37,2025-01-20 18:17:06,388.324,,,,,,,
292,2025-01-20 19:45:22,2025-01-20 19:51:50,387.982,,,,,,,
293,2025-01-20 21:20:07,2025-01-20 21:26:35,387.817,,,,,,,
294,2025-01-20 22:54:51,2025-01-20 23:01:19,387.829,,,,,,,
295,2025-01-21 00:29:35,2025-01-21 00:36:03,388.009,,,,,,,
296,2025-01-21 02:04:19,2025-01-21 02:10:48,388.352,,,,,,,
297,2025-01-21 03:39:03,2025-01-21 03:45:32,388.871,,,,,,,
298,2025-01-21 05:13:47,2025-01-21 05:20:16,389.549,,,,,,,
299,2025-01-21 06:48:30,2025-01-21 06:55:01,390.39,,,,,,,
300,2025-01-21 08:23:14,2025-01-21 08:29:45,391.393,,,,,,,
301,2025-01-21 09:57:57,2025-01-21 10:04:30,392.556,,,,,,,
302,2025-01-21 11:32:40,2025-01-21 11:39:14,393.878,,,,,,,
303,2025-01-21 13:07:23,2025-01-21 13:13:58,395.359,,,,,,,
304,2025-01-21 14:42:08,2025-01-21 14:48:43,394.296,,,,,,,
305,2025-01-21 16:16:54,2025-01-21 16:23:27,392.812,,,,,,,
306,2025-01-21 17:51:40,2025-01-21 17:58:12,391.525,,,,,,,
307,2025-01-21 19:26:25,2025-01-21 19:32:56,390.437,,,,,,,
308,2025-01-21 21:01:11,2025-01-21 21:07:40,389.544,,,,,,,
309,2025-01-21 22:35:56,2025-01-21 22:42:25,388.843,,,,,,,
310,2025-01-22 00:10:41,2025-01-22 00:17:09,388.323,,,,,,,
311,2025-01-22 01:45:25,2025-01-22 01:51:53,387.979,,,,,,,
312,2025-01-22 03:20:10,2025-01-22 03:26:38,387.815,,,,,,,
313,2025-01-22 04:54:54,2025-01-22 05:01:22,387.83,,,,,,,
314,2025-01-22 06:29:39,2025-01-22 06:36:07,388.011,,,,,,,
315,2025-01-22 08:04:23,2025-01-22 08:10:51,388.361,,,,,,,
316,2025-01-22 09:39:07,2025-01-22 09:45:35,388.878,,,,,,,
317,2025-01-22 11:13:50,2025-01-22 11:20:20,389.558,,,,,,,
318,2025-01-22 12:48:34,2025-01-22 12:55:04,390.402,,,,,,,
319,2025-01-22 14:23:17,2025-01-22 14:29:49,391.402,,,,,,,
320,2025-01-22 15:58:00,2025-01-22 16:04:33,392.571,,,,,,,
321,2025-01-22 17:32:43,2025-01-22 17:39:17,393.89,,,,,,,
322,2025-01-22 19:07:26,2025-01-22 19:14:02,395.373,,,,,,,
323,2025-01-22 20:42:12,2025-01-22 20:48:46,394.277,,,,,,,
324,2025-01-22 22:16:58,2025-01-22 22:23:30,392.795,,,,,,,
325,2025-01-22 23:51:43,2025-01-22 23:58:15,391.512,,,,,,,
326,2025-01-23 01:26:29,2025-01-23 01:32:59,390.426,,,,,,,
327,2025-01-23 03:01:14,2025-01-23 03:07:44,389.536,,,,,,,
328,2025-01-23 04:35:59,2025-01-23 04:42:28,388.836,,,,,,,
329,2025-01-23 06:10:44,2025-01-23 06:17:12,388.318,,,,,,,
330,2025-01-23 07:45:29,2025-01-23 07:51:57,387.979,,,,,,,
331,2025-01-23 09:20:13,2025-01-23 09:26:41,387.819,,,,,,,
332,2025-01-23 10:54:58,2025-01-23 11:01:26,387.832,,,,,,,
333,2025-01-23 12:29:42,2025-01-23 12:36:10,388.015,,,,,,,
334,2025-01-23 14:04:26,2025-01-23 14:10:54,388.363,,,,,,,
335,2025-01-23 15:39:10,2025-01-23 15:45:39,388.886,,,,,,,
336,2025-01-23 17:13:54,2025-01-23 17:20:23,389.563,,,,,,,
337,2025-01-23 18:48:37,2025-01-23 18:55:08,390.413,,,,,,,
338,2025-01-23 20:23:20,2025-01-23 20:29:52,391.419,,,,,,,
339,2025-01-23 21:58:04,2025-01-23 22:04:36,392.581,,,,,,,
340,2025-01-23 23:32:47,2025-01-23 23:39:21,393.906,,,,,,,
341,2025-01-24 01:07:30,2025-01-24 01:14:05,395.395,,,,,,,
342,2025-01-24 02:42:15,2025-01-24 02:48:49,394.26,,,,,,,
343,2025-01-24 04:17:01,2025-01-24 04:23:34,392.779,,,,,,,
344,2025-01-24 05:51:47,2025-01-24 05:58:18,391.499,,,,,,,
345,2025-01-24 07:26:32,2025-01-24 07:33:03,390.417,,,,,,,
346,2025-01-24 09:01:17,2025-01-24 09:07:47,389.529,,,,,,,
347,2025-01-24 10:36:03,2025-01-24 10:42:31,388.829,,,,,,,
348,2025-01-24 12:10:47,2025-01-24 12:17:16,388.313,,,,,,,
349,2025-01-24 13:45:32,2025-01-24 13:52:00,387.978,,,,,,,
350,2025-01-24 15:20:17,2025-01-24 15:26:45,387.819,,,,,,,
351,2025-01-24 16:55:01,2025-01-24 17:01:29,387.833,,,,,,,
352,2025-01-24 18:29:45,2025-01-24 18:36:13,388.019,,,,,,,
353,2025-01-24 20:04:29,2025-01-24 20:10:58,388.368,,,,,,,
354,2025-01-24 21:39:13,2025-01-24 21:45:42,388.888,,,,,,,
355,2025-01-24 23:13:57,2025-01-24 23:20:26,389.575,,,,,,,
356,2025-01-25 00:48:40,2025-01-25 00:55:11,390.424,,,,,,,
357,2025-01-25 02:23:24,2025-01-25 02:29:55,391.432,,,,,,,
358,2025-01-25 03:58:07,2025-01-25 04:04:40,392.596,,,,,,,
359,2025-01-25 05:32:50,2025-01-25 05:39:24,393.925,,,,,,,
360,2025-01-25 07:07:33,2025-01-25 07:14:08,395.411,,,,,,,
361,2025-01-25 08:42:19,2025-01-25 08:48:53,394.244,,,,,,,
362,2025-01-25 10:17:04,2025-01-25 10:23:37,392.761,,,,,,,
363,2025-01-25 11:51:50,2025-01-25 11:58:22,391.486,,,,,,,
364,2025-01-25 13:26:36,2025-01-25 13:33:06,390.407,,,,,,,
365,2025-01-25 15:01:21,2025-01-25 15:07:50,389.516,,,,,,,
366,2025-01-25 16:36:06,2025-01-25 16:42:35,388.823,,,,,,,
367,2025-01-25 18:10:51,2025-01-25 18:17:19,388.304,,,,,,,
368,2025-01-25 19:45:35,2025-01-25 19:52:03,387.971,,,,,,,
369,2025-01-25 21:20:20,2025-01-25 21:26:48,387.813,,,,,,,
370,2025-01-25 22:55:04,2025-01-25 23:01:32,387.834,,,,,,,
371,2025-01-26 00:29:49,2025-01-26 00:36:17,388.021,,,,,,,
372,2025-01-26 02:04:33,2025-01-26 02:11:01,388.373,,,,,,,
373,2025-01-26 03:39:16,2025-01-26 03:45:45,388.899,,,,,,,
374,2025-01-26 05:14:00,2025-01-26 05:20:30,389.585,,,,,,,
375,2025-01-26 06:48:44,2025-01-26 06:55:14,390.434,,,,,,,
376,2025-01-26 08:23:27,2025-01-26 08:29:59,391.444,,,,,,,
377,2025-01-26 09:58:10,2025-01-26 10:04:43,392.614,,,,,,,
378,2025-01-26 11:32:53,2025-01-26 11:39:27,393.944,,,,,,,
379,2025-01-26 13:07:36,2025-01-26 13:14:12,395.433,,,,,,,
380,2025-01-26 14:42:22,2025-01-26 14:48:56,394.223,,,,,,,
381,2025-01-26 16:17:08,2025-01-26 16:23:40,392.747,,,,,,,
382,2025-01-26 17:51:53,2025-01-26 17:58:25,391.47,,,,,,,
383,2025-01-26 19:26:39,2025-01-26 19:33:09,390.391,,,,,,,
384,2025-01-26 21:01:24,2025-01-26 21:07:54,389.507,,,,,,,
385,2025-01-26 22:36:09,2025-01-26 22:42:38,388.814,,,,,,,
386,2025-01-27 00:10:54,2025-01-27 00:17:22,388.303,,,,,,,
387,2025-01-27 01:45:39,2025-01-27 01:52:07,387.968,,,,,,,
388,2025-01-27 03:20:23,2025-01-27 03:26:51,387.812,,,,,,,
389,2025-01-27 04:55:08,2025-01-27 05:01:36,387.835,,,,,,,
390,2025-01-27 06:29:52,2025-01-27 06:36:20,388.024,,,,,,,
391,2025-01-27 08:04:36,2025-01-27 08:11:04,388.382,,,,,,,
392,2025-01-27 09:39:20,2025-01-27 09:45:49,388.906,,,,,,,
393,2025-01-27 11:14:04,2025-01-27 11:20:33,389.594,,,,,,,
394,2025-01-27 12:48:47,2025-01-27 12:55:17,390.445,,,,,,,
395,2025-01-27 14:23:30,2025-01-27 14:30:02,391.452,,,,,,,
396,2025-01-27 15:58:14,2025-01-27 16:04:46,392.629,,,,,,,
397,2025-01-27 17:32:57,2025-01-27 17:39:31,393.956,,,,,,,
398,2025-01-27 19:07:40,2025-01-27 19:14:15,395.447,,,,,,,
399,2025-01-27 20:42:25,2025-01-27 20:48:59,394.203,,,,,,,
400,2025-01-27 22:17:11,2025-01-27 22:23:44,392.73,,,,,,,
401,2025-01-27 23:51:57,2025-01-27 23:58:28,391.456,,,,,,,
402,2025-01-28 01:26:42,2025-01-28 01:33:13,390.379,,,,,,,
403,2025-01-28 03:01:27,2025-01-28 03:07:57,389.498,,,,,,,
404,2025-01-28 04:36:13,2025-01-28 04:42:41,388.807,,,,,,,
405,2025-01-28 06:10:57,2025-01-28 06:17:26,388.297,,,,,,,
406,2025-01-28 07:45:42,2025-01-28 07:52:10,387.968,,,,,,,
407,2025-01-28 09:20:27,2025-01-28 09:26:55,387.815,,,,,,,
408,2025-01-28 10:55:11,2025-01-28 11:01:39,387.836,,,,,,,
409,2025-01-28 12:29:55,2025-01-28 12:36:23,388.028,,,,,,,
410,2025-01-28 14:04:39,2025-01-28 14:11:08,388.383,,,,,,,
411,2025-01-28 15:39:23,2025-01-28 15:45:52,388.913,,,,,,,
412,2025-01-28 17:14:07,2025-01-28 17:20:36,389.599,,,,,,,
413,2025-01-28 18:48:50,2025-01-28 18:55:21,390.456,,,,,,,
414,2025-01-28 20:23:34,2025-01-28 20:30:05,391.47,,,,,,,
415,2025-01-28 21:58:17,2025-01-28 22:04:50,392.639,,,,,,,
416,2025-01-28 23:33:00,2025-01-28 23:39:34,393.972,,,,,,,
417,2025-01-29 01:07:43,2025-01-29 01:14:18,395.468,,,,,,,
418,2025-01-29 02:42:29,2025-01-29 02:49:03,394.186,,,,,,,
419,2025-01-29 04:17:14,2025-01-29 04:23:47,392.713,,,,,,,
420,2025-01-29 05:52:00,2025-01-29 05:58:32,391.443,,,,,,,
421,2025-01-29 07:26:46,2025-01-29 07:33:16,390.371,,,,,,,
422,2025-01-29 09:01:31,2025-01-29 09:08:00,389.491,,,,,,,
423,2025-01-29 10:36:16,2025-01-29 10:42:45,388.8,,,,,,,
424,2025-01-29 12:11:01,2025-01-29 12:17:29,388.293,,,,,,,
425,2025-01-29 13:45:45,2025-01-29 13:52:13,387.966,,,,,,,
426,2025-01-29 15:20:30,2025-01-29 15:26:58,387.81,,,,,,,
427,2025-01-29 16:55:14,2025-01-29 17:01:42,387.837,,,,,,,
428,2025-01-29 18:29:59,2025-01-29 18:36:27,388.031,,,,,,,
429,2025-01-29 20:04:43,2025-01-29 20:11:11,388.388,,,,,,,
430,2025-01-29 21:39:26,2025-01-29 21:45:55,388.915,,,,,,,
431,2025-01-29 23:14:10,2025-01-29 23:20:40,389.615,,,,,,,
432,2025-01-30 00:48:54,2025-01-30 00:55:24,390.467,,,,,,,
433,2025-01-30 02:23:37,2025-01-30 02:30:09,391.478,,,,,,,
434,2025-01-30 03:58:20,2025-01-30 04:04:53,392.653,,,,,,,
435,2025-01-30 05:33:03,2025-01-30 05:39:37,393.99,,,,,,,
436,2025-01-30 07:07:46,2025-01-30 07:14:22,395.484,,,,,,,
437,2025-01-30 08:42:32,2025-01-30 08:49:06,394.167,,,,,,,
438,2025-01-30 10:17:18,2025-01-30 10:23:50,392.696,,,,,,,
439,2025-01-30 11:52:03,2025-01-30 11:58:35,391.43,,,,,,,
440,2025-01-30 13:26:49,2025-01-30 13:33:19,390.36,,,,,,,
441,2025-01-30 15:01:34,2025-01-30 15:08:04,389.478,,,,,,,
442,2025-01-30 16:36:19,2025-01-30 16:42:48,388.794,,,,,,,
443,2025-01-30 18:11:04,2025-01-30 18:17:32,388.284,,,,,,,
444,2025-01-30 19:45:49,2025-01-30 19:52:17,387.958,,,,,,,
445,2025-01-30 21:20:33,2025-01-30 21:27:01,387.809,,,,,,,
446,2025-01-30 22:55:18,2025-01-30 23:01:46,387.838,,,,,,,
447,2025-01-31 00:30:02,2025-01-31 00:36:30,388.033,,,,,,,
448,2025-01-31 02:04:46,2025-01-31 02:11:14,388.393,,,,,,,
449,2025-01-31 03:39:30,2025-01-31 03:45:59,388.926,,,,,,,
450,2025-01-31 05:14:13,2025-01-31 05:20:43,389.62,,,,,,,
451,2025-01-31 06:48:57,2025-01-31 06:55:27,390.476,,,,,,,
452,2025-01-31 08:23:40,2025-01-31 08:30:12,391.494,,,,,,,
453,2025-01-31 09:58:24,2025-01-31 10:04:56,392.672,,,,,,,
454,2025-01-31 11:33:07,2025-01-31 11:39:41,394.009,,,,,,,
455,2025-01-31 13:07:50,2025-01-31 13:14:25,395.505,,,,,,,
456,2025-01-31 14:42:35,2025-01-31 14:49:09,394.144,,,,,,,
457,2025-01-31 16:17:21,2025-01-31 16:23:54,392.682,,,,,,,
458,2025-01-31 17:52:07,2025-01-31 17:58:38,391.414,,,,,,,
459,2025-01-31 19:26:52,2025-01-31 19:33:23,390.344,,,,,,,
460,2025-01-31 21:01:37,2025-01-31 21:08:07,389.469,,,,,,,
461,2025-01-31 22:36:23,2025-01-31 22:42:51,388.785,,,,,,,
462,2025-02-01 00:11:07,2025-02-01 00:17:36,388.282,,,,,,,
463,2025-02-01 01:45:52,2025-02-01 01:52:20,387.955,,,,,,,
464,2025-02-01 03:20:37,2025-02-01 03:27:04,387.808,,,,,,,
465,2025-02-01 04:55:21,2025-02-01 05:01:49,387.839,,,,,,,
466,2025-02-01 06:30:05,2025-02-01 06:36:33,388.036,,,,,,,
467,2025-02-01 08:04:49,2025-02-01 08:11:18,388.401,,,,,,,
468,2025-02-01 09:39:33,2025-02-01 09:46:02,388.933,,,,,,,
469,2025-02-01 11:14:17,2025-02-01 11:20:46,389.629,,,,,,,
470,2025-02-01 12:49:00,2025-02-01 12:55:31,390.488,,,,,,,
471,2025-02-01 14:23:44,2025-02-01 14:30:15,391.503,,,,,,,
472,2025-02-01 15:58:27,2025-02-01 16:05:00,392.687,,,,,,,
473,2025-02-01 17:33:10,2025-02-01 17:39:44,394.022,,,,,,,
474,2025-02-01 19:07:53,2025-02-01 19:14:28,395.52,,,,,,,
475,2025-02-01 20:42:39,2025-02-01 20:49:13,394.128,,,,,,,
476,2025-02-01 22:17:24,2025-02-01 22:23:57,392.665,,,,,,,
477,2025-02-01 23:52:10,2025-02-01 23:58:42,391.401,,,,,,,
478,2025-02-02 01:26:56,2025-02-02 01:33:26,390.333,,,,,,,
479,2025-02-02 03:01:41,2025-02-02 03:08:10,389.461,,,,,,,
480,2025-02-02 04:36:26,2025-02-02 04:42:55,388.779,,,,,,,
481,2025-02-02 06:11:11,2025-02-02 06:17:39,388.277,,,,,,,
482,2025-02-02 07:45:55,2025-02-02 07:52:23,387.956,,,,,,,
483,2025-02-02 09:20:40,2025-02-02 09:27:08,387.811,,,,,,,
484,2025-02-02 10:55:24,2025-02-02 11:01:52,387.84,,,,,,,
485,2025-02-02 12:30:09,2025-02-02 12:36:37,388.04,,,,,,,
486,2025-02-02 14:04:53,2025-02-02 14:11:21,388.403,,,,,,,
487,2025-02-02 15:39:36,2025-02-02 15:46:05,388.941,,,,,,,
488,2025-02-02 17:14:20,2025-02-02 17:20:50,389.635,,,,,,,
489,2025-02-02 18:49:04,2025-02-02 18:55:34,390.499,,,,,,,
490,2025-02-02 20:23:47,2025-02-02 20:30:19,391.52,,,,,,,
491,2025-02-02 21:58:30,2025-02-02 22:05:03,392.697,,,,,,,
492,2025-02-02 23:33:13,2025-02-02 23:39:47,394.038,,,,,,,
493,2025-02-03 01:07:56,2025-02-03 01:14:32,395.541,,,,,,,
494,2025-02-03 02:42:42,2025-02-03 02:49:16,394.113,,,,,,,
495,2025-02-03 04:17:28,2025-02-03 04:24:00,392.649,,,,,,,
496,2025-02-03 05:52:13,2025-02-03 05:58:45,391.388,,,,,,,
497,2025-02-03 07:26:59,2025-02-03 07:33:29,390.329,,,,,,,
498,2025-02-03 09:01:44,2025-02-03 09:08:14,389.454,,,,,,,
499,2025-02-03 10:36:29,2025-02-03 10:42:58,388.772,,,,,,,
500,2025-02-03 12:11:14,2025-02-03 12:17:42,388.273,,,,,,,
501,2025-02-03 13:45:59,2025-02-03 13:52:27,387.954,,,,,,,
502,2025-02-03 15:20:43,2025-02-03 15:27:11,387.807,,,,,,,
503,2025-02-03 16:55:28,2025-02-03 17:01:56,387.842,,,,,,,
504,2025-02-03 18:30:12,2025-02-03 18:36:40,388.044,,,,,,,
505,2025-02-03 20:04:56,2025-02-03 20:11:24,388.409,,,,,,,
506,2025-02-03 21:39:40,2025-02-03 21:46:09,388.944,,,,,,,
507,2025-02-03 23:14:23,2025-02-03 23:20:53,389.647,,,,,,,
508,2025-02-04 00:49:07,2025-02-04 00:55:37,390.511,,,,,,,
509,2025-02-04 02:23:50,2025-02-04 02:30:22,391.529,,,,,,,
510,2025-02-04 03:58:34,2025-02-04 04:05:06,392.712,,,,,,,
511,2025-02-04 05:33:17,2025-02-04 05:39:51,394.056,,,,,,,
512,2025-02-04 07:07:59,2025-02-04 07:14:35,395.56,,,,,,,
513,2025-02-04 08:42:45,2025-02-04 08:49:19,394.092,,,,,,,
514,2025-02-04 10:17:31,2025-02-04 10:24:04,392.632,,,,,,,
515,2025-02-04 11:52:17,2025-02-04 11:58:48,391.376,,,,,,,
516,2025-02-04 13:27:02,2025-02-04 13:33:33,390.315,,,,,,,
517,2025-02-04 15:01:47,2025-02-04 15:08:17,389.442,,,,,,,
518,2025-02-04 16:36:33,2025-02-04 16:43:01,388.766,,,,,,,
519,2025-02-04 18:11:17,2025-02-04 18:17:46,388.265,,,,,,,
520,2025-02-04 19:46:02,2025-02-04 19:52:30,387.947,,,,,,,
521,2025-02-04 21:20:47,2025-02-04 21:27:14,387.807,,,,,,,
522,2025-02-04 22:55:31,2025-02-04 23:01:59,387.843,,,,,,,
523,2025-02-05 00:30:15,2025-02-05 00:36:43,388.047,,,,,,,
524,2025-02-05 02:04:59,2025-02-05 02:11:28,388.414,,,,,,,
525,2025-02-05 03:39:43,2025-02-05 03:46:12,388.955,,,,,,,
526,2025-02-05 05:14:27,2025-02-05 05:20:56,389.657,,,,,,,
527,2025-02-05 06:49:10,2025-02-05 06:55:41,390.521,,,,,,,
528,2025-02-05 08:23:54,2025-02-05 08:30:25,391.546,,,,,,,
529,2025-02-05 09:58:37,2025-02-05 10:05:10,392.731,,,,,,,
530,2025-02-05 11:33:20,2025-02-05 11:39:54,394.076,,,,,,,
531,2025-02-05 13:08:03,2025-02-05 13:14:38,395.583,,,,,,,
532,2025-02-05 14:42:49,2025-02-05 14:49:23,394.072,,,,,,,
533,2025-02-05 16:17:34,2025-02-05 16:24:07,392.618,,,,,,,
534,2025-02-05 17:52:20,2025-02-05 17:58:51,391.36,,,,,,,
535,2025-02-05 19:27:06,2025-02-05 19:33:36,390.299,,,,,,,
536,2025-02-05 21:01:51,2025-02-05 21:08:20,389.433,,,,,,,
537,2025-02-05 22:36:36,2025-02-05 22:43:05,388.758,,,,,,,
538,2025-02-06 00:11:21,2025-02-06 00:17:49,388.264,,,,,,,
539,2025-02-06 01:46:05,2025-02-06 01:52:33,387.945,,,,,,,
540,2025-02-06 03:20:50,2025-02-06 03:27:18,387.806,,,,,,,
541,2025-02-06 04:55:34,2025-02-06 05:02:02,387.845,,,,,,,
542,2025-02-06 06:30:19,2025-02-06 06:36:47,388.05,,,,,,,
543,2025-02-06 08:05:03,2025-02-06 08:11:31,388.423,,,,,,,
544,2025-02-06 09:39:46,2025-02-06 09:46:15,388.963,,,,,,,
545,2025-02-06 11:14:30,2025-02-06 11:21:00,389.667,,,,,,,
546,2025-02-06 12:49:14,2025-02-06 12:55:44,390.533,,,,,,,
547,2025-02-06 14:23:57,2025-02-06 14:30:29,391.555,,,,,,,
548,2025-02-06 15:58:40,2025-02-06 16:05:13,392.747,,,,,,,
549,2025-02-06 17:33:23,2025-02-06 17:39:57,394.089,,,,,,,
550,2025-02-06 19:08:06,2025-02-06 19:14:42,395.594,,,,,,,
551,2025-02-06 20:42:52,2025-02-06 20:49:26,394.052,,,,,,,
552,2025-02-06 22:17:38,2025-02-06 22:24:10,392.602,,,,,,,
553,2025-02-06 23:52:23,2025-02-06 23:58:55,391.347,,,,,,,
554,2025-02-07 01:27:09,2025-02-07 01:33:39,390.288,,,,,,,
555,2025-02-07 03:01:54,2025-02-07 03:08:24,389.425,,,,,,,
556,2025-02-07 04:36:39,2025-02-07 04:43:08,388.752,,,,,,,
557,2025-02-07 06:11:24,2025-02-07 06:17:52,388.259,,,,,,,
558,2025-02-07 07:46:09,2025-02-07 07:52:37,387.946,,,,,,,
559,2025-02-07 09:20:53,2025-02-07 09:27:21,387.81,,,,,,,
560,2025-02-07 10:55:38,2025-02-07 11:02:06,387.847,,,,,,,
561,2025-02-07 12:30:22,2025-02-07 12:36:50,388.054,,,,,,,
562,2025-02-07 14:05:06,2025-02-07 14:11:34,388.425,,,,,,,
563,2025-02-07 15:39:50,2025-02-07 15:46:19,388.971,,,,,,,
564,2025-02-07 17:14:33,2025-02-07 17:21:03,389.672,,,,,,,
565,2025-02-07 18:49:17,2025-02-07 18:55:47,390.544,,,,,,,
566,2025-02-07 20:24:00,2025-02-07 20:30:32,391.573,,,,,,,
567,2025-02-07 21:58:43,2025-02-07 22:05:16,392.757,,,,,,,
568,2025-02-07 23:33:26,2025-02-07 23:40:01,394.106,,,,,,,
569,2025-02-08 01:08:09,2025-02-08 01:14:45,395.616,,,,,,,
570,2025-02-08 02:42:55,2025-02-08 02:49:29,394.039,,,,,,,
571,2025-02-08 04:17:41,2025-02-08 04:24:14,392.586,,,,,,,
572,2025-02-08 05:52:27,2025-02-08 05:58:58,391.335,,,,,,,
573,2025-02-08 07:27:12,2025-02-08 07:33:43,390.28,,,,,,,
574,2025-02-08 09:01:58,2025-02-08 09:08:27,389.419,,,,,,,
575,2025-02-08 10:36:43,2025-02-08 10:43:11,388.745,,,,,,,
576,2025-02-08 12:11:27,2025-02-08 12:17:56,388.255,,,,,,,
577,2025-02-08 13:46:12,2025-02-08 13:52:40,387.944,,,,,,,
578,2025-02-08 15:20:57,2025-02-08 15:27:24,387.806,,,,,,,
579,2025-02-08 16:55:41,2025-02-08 17:02:09,387.849,,,,,,,
580,2025-02-08 18:30:25,2025-02-08 18:36:53,388.058,,,,,,,
581,2025-02-08 20:05:09,2025-02-08 20:11:38,388.431,,,,,,,
582,2025-02-08 21:39:53,2025-02-08 21:46:22,388.974,,,,,,,
583,2025-02-08 23:14:37,2025-02-08 23:21:06,389.684,,,,,,,
584,2025-02-09 00:49:20,2025-02-09 00:55:51,390.556,,,,,,,
585,2025-02-09 02:24:04,2025-02-09 02:30:35,391.581,,,,,,,
586,2025-02-09 03:58:47,2025-02-09 04:05:20,392.772,,,,,,,
587,2025-02-09 05:33:30,2025-02-09 05:40:04,394.123,,,,,,,
588,2025-02-09 07:08:13,2025-02-09 07:14:48,395.631,,,,,,,
589,2025-02-09 08:42:59,2025-02-09 08:49:33,394.022,,,,,,,
590,2025-02-09 10:17:45,2025-02-09 10:24:17,392.569,,,,,,,
591,2025-02-09 11:52:30,2025-02-09 11:59:01,391.322,,,,,,,
592,2025-02-09 13:27:16,2025-02-09 13:33:46,390.271,,,,,,,
593,2025-02-09 15:02:01,2025-02-09 15:08:30,389.407,,,,,,,
594,2025-02-09 16:36:46,2025-02-09 16:43:15,388.739,,,,,,,
595,2025-02-09 18:11:31,2025-02-09 18:17:59,388.25,,,,,,,
596,2025-02-09 19:46:15,2025-02-09 19:52:43,387.937,,,,,,,
597,2025-02-09 21:21:00,2025-02-09 21:27:28,387.805,,,,,,,
598,2025-02-09 22:55:44,2025-02-09 23:02:12,387.85,,,,,,,
599,2025-02-10 00:30:29,2025-02-10 00:36:57,388.06,,,,,,,
600,2025-02-10 02:05:13,2025-02-10 02:11:41,388.436,,,,,,,
601,2025-02-10 03:39:56,2025-02-10 03:46:25,388.985,,,,,,,
602,2025-02-10 05:14:40,2025-02-10 05:21:10,389.694,,,,,,,
603,2025-02-10 06:49:24,2025-02-10 06:55:54,390.566,,,,,,,
604,2025-02-10 08:24:07,2025-02-10 08:30:38,391.598,,,,,,,
605,2025-02-10 09:58:50,2025-02-10 10:05:23,392.791,,,,,,,
606,2025-02-10 11:33:33,2025-02-10 11:40:07,394.143,,,,,,,
607,2025-02-10 13:08:16,2025-02-10 13:14:52,395.657,,,,,,,
608,2025-02-10 14:43:02,2025-02-10 14:49:36,394,,,,,,,
609,2025-02-10 16:17:48,2025-02-10 16:24:20,392.555,,,,,,,
610,2025-02-10 17:52:34,2025-02-10 17:59:05,391.306,,,,,,,
611,2025-02-10 19:27:19,2025-02-10 19:33:49,390.255,,,,,,,
612,2025-02-10 21:02:04,2025-02-10 21:08:34,389.397,,,,,,,
613,2025-02-10 22:36:49,2025-02-10 22:43:18,388.731,,,,,,,
614,2025-02-11 00:11:34,2025-02-11 00:18:02,388.245,,,,,,,
615,2025-02-11 01:46:19,2025-02-11 01:52:47,387.935,,,,,,,
616,2025-02-11 03:21:03,2025-02-11 03:27:31,387.804,,,,,,,
617,2025-02-11 04:55:48,2025-02-11 05:02:16,387.851,,,,,,,
618,2025-02-11 06:30:32,2025-02-11 06:37:00,388.064,,,,,,,
619,2025-02-11 08:05:16,2025-02-11 08:11:44,388.445,,,,,,,
620,2025-02-11 09:40:00,2025-02-11 09:46:29,388.992,,,,,,,
621,2025-02-11 11:14:43,2025-02-11 11:21:13,389.703,,,,,,,
622,2025-02-11 12:49:27,2025-02-11 12:55:57,390.577,,,,,,,
623,2025-02-11 14:24:10,2025-02-11 14:30:42,391.607,,,,,,,
624,2025-02-11 15:58:53,2025-02-11 16:05:26,392.806,,,,,,,
625,2025-02-11 17:33:36,2025-02-11 17:40:11,394.156,,,,,,,
626,2025-02-11 19:08:19,2025-02-11 19:14:55,395.64,,,,,,,
627,2025-02-11 20:43:05,2025-02-11 20:49:39,393.98,,,,,,,
628,2025-02-11 22:17:51,2025-02-11 22:24:24,392.539,,,,,,,
629,2025-02-11 23:52:37,2025-02-11 23:59:08,391.293,,,,,,,
630,2025-02-12 01:27:22,2025-02-12 01:33:53,390.244,,,,,,,
631,2025-02-12 03:02:08,2025-02-12 03:08:37,389.389,,,,,,,
632,2025-02-12 04:36:53,2025-02-12 04:43:21,388.725,,,,,,,
633,2025-02-12 06:11:37,2025-02-12 06:18:06,388.24,,,,,,,
634,2025-02-12 07:46:22,2025-02-12 07:52:50,387.938,,,,,,,
635,2025-02-12 09:21:07,2025-02-12 09:27:34,387.807,,,,,,,
636,2025-02-12 10:55:51,2025-02-12 11:02:19,387.852,,,,,,,
637,2025-02-12 12:30:35,2025-02-12 12:37:03,388.068,,,,,,,
638,2025-02-12 14:05:19,2025-02-12 14:11:48,388.447,,,,,,,
639,2025-02-12 15:40:03,2025-02-12 15:46:32,389,,,,,,,
640,2025-02-12 17:14:47,2025-02-12 17:21:16,389.709,,,,,,,
641,2025-02-12 18:49:30,2025-02-12 18:56:01,390.588,,,,,,,
642,2025-02-12 20:24:14,2025-02-12 20:30:45,391.625,,,,,,,
643,2025-02-12 21:58:57,2025-02-12 22:05:30,392.816,,,,,,,
644,2025-02-12 23:33:40,2025-02-12 23:40:14,394.174,,,,,,,
645,2025-02-13 01:08:23,2025-02-13 01:14:58,395.621,,,,,,,
646,2025-02-13 02:43:09,2025-02-13 02:49:43,393.965,,,,,,,
647,2025-02-13 04:17:55,2025-02-13 04:24:27,392.52,,,,,,,
648,2025-02-13 05:52:40,2025-02-13 05:59:11,391.281,,,,,,,
649,2025-02-13 07:27:26,2025-02-13 07:33:56,390.236,,,,,,,
650,2025-02-13 09:02:11,2025-02-13 09:08:40,389.383,,,,,,,
651,2025-02-13 10:36:56,2025-02-13 10:43:25,388.718,,,,,,,
652,2025-02-13 12:11:41,2025-02-13 12:18:09,388.236,,,,,,,
653,2025-02-13 13:46:25,2025-02-13 13:52:53,387.934,,,,,,,
654,2025-02-13 15:21:10,2025-02-13 15:27:38,387.803,,,,,,,
655,2025-02-13 16:55:54,2025-02-13 17:02:22,387.854,,,,,,,
656,2025-02-13 18:30:38,2025-02-13 18:37:07,388.072,,,,,,,
657,2025-02-13 20:05:22,2025-02-13 20:11:51,388.452,,,,,,,
658,2025-02-13 21:40:06,2025-02-13 21:46:35,389.003,,,,,,,
659,2025-02-13 23:14:50,2025-02-13 23:21:20,389.721,,,,,,,
660,2025-02-14 00:49:34,2025-02-14 00:56:04,390.596,,,,,,,
661,2025-02-14 02:24:17,2025-02-14 02:30:48,391.633,,,,,,,
662,2025-02-14 03:59:00,2025-02-14 04:05:33,392.832,,,,,,,
663,2025-02-14 05:33:43,2025-02-14 05:40:17,394.19,,,,,,,
664,2025-02-14 07:08:26,2025-02-14 07:15:02,395.599,,,,,,,
665,2025-02-14 08:43:12,2025-02-14 08:49:46,393.945,,,,,,,
666,2025-02-14 10:17:58,2025-02-14 10:24:30,392.505,,,,,,,
667,2025-02-14 11:52:44,2025-02-14 11:59:15,391.268,,,,,,,
668,2025-02-14 13:27:29,2025-02-14 13:33:59,390.226,,,,,,,
669,2025-02-14 15:02:14,2025-02-14 15:08:44,389.371,,,,,,,
670,2025-02-14 16:36:59,2025-02-14 16:43:28,388.712,,,,,,,
671,2025-02-14 18:11:44,2025-02-14 18:18:12,388.232,,,,,,,
672,2025-02-14 19:46:29,2025-02-14 19:52:57,387.927,,,,,,,
673,2025-02-14 21:21:13,2025-02-14 21:27:41,387.803,,,,,,,
674,2025-02-14 22:55:58,2025-02-14 23:02:25,387.855,,,,,,,
675,2025-02-15 00:30:42,2025-02-15 00:37:10,388.074,,,,,,,
676,2025-02-15 02:05:26,2025-02-15 02:11:54,388.457,,,,,,,
677,2025-02-15 03:40:10,2025-02-15 03:46:39,389.014,,,,,,,
678,2025-02-15 05:14:53,2025-02-15 05:21:23,389.731,,,,,,,
679,2025-02-15 06:49:37,2025-02-15 06:56:07,390.61,,,,,,,
680,2025-02-15 08:24:20,2025-02-15 08:30:52,391.65,,,,,,,
681,2025-02-15 09:59:03,2025-02-15 10:05:36,392.851,,,,,,,
682,2025-02-15 11:33:46,2025-02-15 11:40:21,394.21,,,,,,,
683,2025-02-15 13:08:29,2025-02-15 13:15:05,395.583,,,,,,,
684,2025-02-15 14:43:15,2025-02-15 14:49:49,393.927,,,,,,,
685,2025-02-15 16:18:01,2025-02-15 16:24:34,392.492,,,,,,,
686,2025-02-15 17:52:47,2025-02-15 17:59:18,391.253,,,,,,,
687,2025-02-15 19:27:32,2025-02-15 19:34:03,390.21,,,,,,,
688,2025-02-15 21:02:18,2025-02-15 21:08:47,389.362,,,,,,,
689,2025-02-15 22:37:03,2025-02-15 22:43:31,388.704,,,,,,,
690,2025-02-16 00:11:47,2025-02-16 00:18:16,388.227,,,,,,,
691,2025-02-16 01:46:32,2025-02-16 01:53:00,387.925,,,,,,,
692,2025-02-16 03:21:17,2025-02-16 03:27:44,387.802,,,,,,,
693,2025-02-16 04:56:01,2025-02-16 05:02:29,387.857,,,,,,,
694,2025-02-16 06:30:45,2025-02-16 06:37:13,388.078,,,,,,,
695,2025-02-16 08:05:29,2025-02-16 08:11:58,388.467,,,,,,,
696,2025-02-16 09:40:13,2025-02-16 09:46:42,389.022,,,,,,,
697,2025-02-16 11:14:57,2025-02-16 11:21:26,389.741,,,,,,,
698,2025-02-16 12:49:40,2025-02-16 12:56:11,390.622,,,,,,,
699,2025-02-16 14:24:23,2025-02-16 14:30:55,391.66,,,,,,,
700,2025-02-16 15:59:07,2025-02-16 16:05:40,392.866,,,,,,,
701,2025-02-16 17:33:50,2025-02-16 17:40:24,394.223,,,,,,,
702,2025-02-16 19:08:33,2025-02-16 19:15:08,395.558,,,,,,,
703,2025-02-16 20:43:19,2025-02-16 20:49:53,393.909,,,,,,,
704,2025-02-16 22:18:05,2025-02-16 22:24:37,392.476,,,,,,,
705,2025-02-16 23:52:50,2025-02-16 23:59:21,391.24,,,,,,,
706,2025-02-17 01:27:36,2025-02-17 01:34:06,390.199,,,,,,,
707,2025-02-17 03:02:21,2025-02-17 03:08:50,389.354,,,,,,,
708,2025-02-17 04:37:06,2025-02-17 04:43:35,388.698,,,,,,,
709,2025-02-17 06:11:51,2025-02-17 06:18:19,388.222,,,,,,,
710,2025-02-17 07:46:35,2025-02-17 07:53:03,387.926,,,,,,,
711,2025-02-17 09:21:20,2025-02-17 09:27:48,387.806,,,,,,,
712,2025-02-17 10:56:04,2025-02-17 11:02:32,387.859,,,,,,,
713,2025-02-17 12:30:48,2025-02-17 12:37:17,388.082,,,,,,,
714,2025-02-17 14:05:32,2025-02-17 14:12:01,388.469,,,,,,,
715,2025-02-17 15:40:16,2025-02-17 15:46:45,389.03,,,,,,,
716,2025-02-17 17:15:00,2025-02-17 17:21:30,389.746,,,,,,,
717,2025-02-17 18:49:43,2025-02-17 18:56:14,390.634,,,,,,,
718,2025-02-17 20:24:27,2025-02-17 20:30:58,391.678,,,,,,,
719,2025-02-17 21:59:10,2025-02-17 22:05:43,392.877,,,,,,,
720,2025-02-17 23:33:53,2025-02-17 23:40:27,394.243,,,,,,,
721,2025-02-18 01:08:36,2025-02-18 01:15:12,395.538,,,,,,,
722,2025-02-18 02:43:22,2025-02-18 02:49:56,393.892,,,,,,,
723,2025-02-18 04:18:08,2025-02-18 04:24:40,392.458,,,,,,,
724,2025-02-18 05:52:54,2025-02-18 05:59:25,391.228,,,,,,,
725,2025-02-18 07:27:39,2025-02-18 07:34:09,390.193,,,,,,,
726,2025-02-18 09:02:24,2025-02-18 09:08:54,389.349,,,,,,,
727,2025-02-18 10:37:09,2025-02-18 10:43:38,388.692,,,,,,,
728,2025-02-18 12:11:54,2025-02-18 12:18:22,388.219,,,,,,,
729,2025-02-18 13:46:39,2025-02-18 13:53:07,387.925,,,,,,,
730,2025-02-18 15:21:23,2025-02-18 15:27:51,387.802,,,,,,,
731,2025-02-18 16:56:08,2025-02-18 17:02:35,387.861,,,,,,,
732,2025-02-18 18:30:52,2025-02-18 18:37:20,388.087,,,,,,,
733,2025-02-18 20:05:36,2025-02-18 20:12:04,388.475,,,,,,,
734,2025-02-18 21:40:20,2025-02-18 21:46:49,389.033,,,,,,,
735,2025-02-18 23:15:03,2025-02-18 23:21:33,389.759,,,,,,,
736,2025-02-19 00:49:47,2025-02-19 00:56:17,390.642,,,,,,,
737,2025-02-19 02:24:30,2025-02-19 02:31:02,391.686,,,,,,,
738,2025-02-19 03:59:13,2025-02-19 04:05:46,392.892,,,,,,,
739,2025-02-19 05:33:56,2025-02-19 05:40:31,394.258,,,,,,,
740,2025-02-19 07:08:39,2025-02-19 07:15:15,395.518,,,,,,,
741,2025-02-19 08:43:25,2025-02-19 08:49:59,393.875,,,,,,,
742,2025-02-19 10:18:11,2025-02-19 10:24:44,392.444,,,,,,,
743,2025-02-19 11:52:57,2025-02-19 11:59:28,391.216,,,,,,,
744,2025-02-19 13:27:42,2025-02-19 13:34:13,390.183,,,,,,,
745,2025-02-19 15:02:28,2025-02-19 15:08:57,389.336,,,,,,,
746,2025-02-19 16:37:13,2025-02-19 16:43:41,388.686,,,,,,,
747,2025-02-19 18:11:57,2025-02-19 18:18:26,388.215,,,,,,,
748,2025-02-19 19:46:42,2025-02-19 19:53:10,387.918,,,,,,,
749,2025-02-19 21:21:27,2025-02-19 21:27:54,387.802,,,,,,,
750,2025-02-19 22:56:11,2025-02-19 23:02:39,387.863,,,,,,,
751,2025-02-20 00:30:55,2025-02-20 00:37:23,388.09,,,,,,,
752,2025-02-20 02:05:39,2025-02-20 02:12:08,388.481,,,,,,,
753,2025-02-20 03:40:23,2025-02-20 03:46:52,389.045,,,,,,,
754,2025-02-20 05:15:07,2025-02-20 05:21:36,389.77,,,,,,,
755,2025-02-20 06:49:50,2025-02-20 06:56:21,390.656,,,,,,,
756,2025-02-20 08:24:33,2025-02-20 08:31:05,391.704,,,,,,,
757,2025-02-20 09:59:17,2025-02-20 10:05:50,392.912,,,,,,,
758,2025-02-20 11:34:00,2025-02-20 11:40:34,394.279,,,,,,,
759,2025-02-20 13:08:43,2025-02-20 13:15:18,395.498,,,,,,,
760,2025-02-20 14:43:29,2025-02-20 14:50:03,393.857,,,,,,,
761,2025-02-20 16:18:15,2025-02-20 16:24:47,392.431,,,,,,,
762,2025-02-20 17:53:00,2025-02-20 17:59:31,391.201,,,,,,,
763,2025-02-20 19:27:46,2025-02-20 19:34:16,390.168,,,,,,,
764,2025-02-20 21:02:31,2025-02-20 21:09:00,389.328,,,,,,,
765,2025-02-20 22:37:16,2025-02-20 22:43:45,388.679,,,,,,,
766,2025-02-21 00:12:01,2025-02-21 00:18:29,388.21,,,,,,,
767,2025-02-21 01:46:45,2025-02-21 01:53:13,387.916,,,,,,,
768,2025-02-21 03:21:30,2025-02-21 03:27:58,387.802,,,,,,,
769,2025-02-21 04:56:14,2025-02-21 05:02:42,387.865,,,,,,,
770,2025-02-21 06:30:58,2025-02-21 06:37:27,388.093,,,,,,,
771,2025-02-21 08:05:42,2025-02-21 08:12:11,388.49,,,,,,,
772,2025-02-21 09:40:26,2025-02-21 09:46:55,389.053,,,,,,,
773,2025-02-21 11:15:10,2025-02-21 11:21:40,389.78,,,,,,,
774,2025-02-21 12:49:53,2025-02-21 12:56:24,390.668,,,,,,,
775,2025-02-21 14:24:37,2025-02-21 14:31:08,391.713,,,,,,,
776,2025-02-21 15:59:20,2025-02-21 16:05:53,392.928,,,,,,,
777,2025-02-21 17:34:03,2025-02-21 17:40:37,394.292,,,,,,,
778,2025-02-21 19:08:46,2025-02-21 19:15:22,395.473,,,,,,,
779,2025-02-21 20:43:32,2025-02-21 20:50:06,393.839,,,,,,,
780,2025-02-21 22:18:18,2025-02-21 22:24:50,392.416,,,,,,,
781,2025-02-21 23:53:04,2025-02-21 23:59:35,391.189,,,,,,,
782,2025-02-22 01:27:49,2025-02-22 01:34:19,390.157,,,,,,,
783,2025-02-22 03:02:34,2025-02-22 03:09:04,389.32,,,,,,,
784,2025-02-22 04:37:19,2025-02-22 04:43:48,388.673,,,,,,,
785,2025-02-22 06:12:04,2025-02-22 06:18:32,388.205,,,,,,,
786,2025-02-22 07:46:49,2025-02-22 07:53:17,387.917,,,,,,,
787,2025-02-22 09:21:33,2025-02-22 09:28:01,387.806,,,,,,,
788,2025-02-22 10:56:18,2025-02-22 11:02:45,387.867,,,,,,,
789,2025-02-22 12:31:02,2025-02-22 12:37:30,388.098,,,,,,,
790,2025-02-22 14:05:46,2025-02-22 14:12:14,388.493,,,,,,,
791,2025-02-22 15:40:30,2025-02-22 15:46:59,389.062,,,,,,,
792,2025-02-22 17:15:13,2025-02-22 17:21:43,389.785,,,,,,,
793,2025-02-22 18:49:57,2025-02-22 18:56:27,390.68,,,,,,,
794,2025-02-22 20:24:40,2025-02-22 20:31:12,391.731,,,,,,,
795,2025-02-22 21:59:23,2025-02-22 22:05:56,392.938,,,,,,,
796,2025-02-22 23:34:06,2025-02-22 23:40:41,394.308,,,,,,,
797,2025-02-23 01:08:49,2025-02-23 01:15:25,395.458,,,,,,,
798,2025-02-23 02:43:36,2025-02-23 02:50:09,393.823,,,,,,,
799,2025-02-23 04:18:21,2025-02-23 04:24:54,392.398,,,,,,,
800,2025-02-23 05:53:07,2025-02-23 05:59:38,391.177,,,,,,,
801,2025-02-23 07:27:52,2025-02-23 07:34:22,390.15,,,,,,,
802,2025-02-23 09:02:38,2025-02-23 09:09:07,389.315,,,,,,,
803,2025-02-23 10:37:23,2025-02-23 10:43:51,388.667,,,,,,,
804,2025-02-23 12:12:07,2025-02-23 12:18:36,388.202,,,,,,,
805,2025-02-23 13:46:52,2025-02-23 13:53:20,387.916,,,,,,,
806,2025-02-23 15:21:37,2025-02-23 15:28:04,387.802,,,,,,,
807,2025-02-23 16:56:21,2025-02-23 17:02:49,387.869,,,,,,,
808,2025-02-23 18:31:05,2025-02-23 18:37:33,388.102,,,,,,,
809,2025-02-23 20:05:49,2025-02-23 20:12:18,388.498,,,,,,,
810,2025-02-23 21:40:33,2025-02-23 21:47:02,389.065,,,,,,,
811,2025-02-23 23:15:17,2025-02-23 23:21:46,389.798,,,,,,,
812,2025-02-24 00:50:00,2025-02-24 00:56:31,390.69,,,,,,,
813,2025-02-24 02:24:43,2025-02-24 02:31:15,391.745,,,,,,,
814,2025-02-24 03:59:27,2025-02-24 04:06:00,392.954,,,,,,,
815,2025-02-24 05:34:10,2025-02-24 05:40:44,394.327,,,,,,,
816,2025-02-24 07:08:53,2025-02-24 07:15:28,395.433,,,,,,,
817,2025-02-24 08:43:39,2025-02-24 08:50:13,393.805,,,,,,,
818,2025-02-24 10:18:25,2025-02-24 10:24:57,392.383,,,,,,,
819,2025-02-24 11:53:10,2025-02-24 11:59:41,391.169,,,,,,,
820,2025-02-24 13:27:56,2025-02-24 13:34:26,390.14,,,,,,,
821,2025-02-24 15:02:41,2025-02-24 15:09:10,389.303,,,,,,,
822,2025-02-24 16:37:26,2025-02-24 16:43:55,388.661,,,,,,,
823,2025-02-24 18:12:11,2025-02-24 18:18:39,388.198,,,,,,,
824,2025-02-24 19:46:55,2025-02-24 19:53:23,387.91,,,,,,,
825,2025-02-24 21:21:40,2025-02-24 21:28:08,387.802,,,,,,,
826,2025-02-24 22:56:24,2025-02-24 23:02:52,387.871,,,,,,,
827,2025-02-25 00:31:08,2025-02-25 00:37:37,388.105,,,,,,,
828,2025-02-25 02:05:52,2025-02-25 02:12:21,388.504,,,,,,,
829,2025-02-25 03:40:36,2025-02-25 03:47:05,389.076,,,,,,,
830,2025-02-25 05:15:20,2025-02-25 05:21:50,389.808,,,,,,,
831,2025-02-25 06:50:03,2025-02-25 06:56:34,390.702,,,,,,,
832,2025-02-25 08:24:47,2025-02-25 08:31:18,391.758,,,,,,,
833,2025-02-25 09:59:30,2025-02-25 10:06:03,392.973,,,,,,,
834,2025-02-25 11:34:13,2025-02-25 11:40:47,394.347,,,,,,,
835,2025-02-25 13:08:56,2025-02-25 13:15:32,395.417,,,,,,,
836,2025-02-25 14:43:42,2025-02-25 14:50:16,393.786,,,,,,,
837,2025-02-25 16:18:28,2025-02-25 16:25:00,392.37,,,,,,,
838,2025-02-25 17:53:14,2025-02-25 17:59:45,391.15,,,,,,,
839,2025-02-25 19:27:59,2025-02-25 19:34:29,390.125,,,,,,,
840,2025-02-25 21:02:44,2025-02-25 21:09:14,389.294,,,,,,,
841,2025-02-25 22:37:29,2025-02-25 22:43:58,388.654,,,,,,,
842,2025-02-26 00:12:14,2025-02-26 00:18:42,388.193,,,,,,,
843,2025-02-26 01:46:59,2025-02-26 01:53:27,387.908,,,,,,,
844,2025-02-26 03:21:43,2025-02-26 03:28:11,387.801,,,,,,,
845,2025-02-26 04:56:28,2025-02-26 05:02:55,387.872,,,,,,,
846,2025-02-26 06:31:12,2025-02-26 06:37:40,388.109,,,,,,,
847,2025-02-26 08:05:56,2025-02-26 08:12:24,388.513,,,,,,,
848,2025-02-26 09:40:40,2025-02-26 09:47:09,389.084,,,,,,,
849,2025-02-26 11:15:23,2025-02-26 11:21:53,389.818,,,,,,,
850,2025-02-26 12:50:07,2025-02-26 12:56:37,390.714,,,,,,,
851,2025-02-26 14:24:50,2025-02-26 14:31:22,391.767,,,,,,,
852,2025-02-26 15:59:33,2025-02-26 16:06:06,392.989,,,,,,,
853,2025-02-26 17:34:16,2025-02-26 17:40:51,394.362,,,,,,,
854,2025-02-26 19:09:00,2025-02-26 19:15:35,395.393,,,,,,,
855,2025-02-26 20:43:46,2025-02-26 20:50:19,393.767,,,,,,,
856,2025-02-26 22:18:31,2025-02-26 22:25:04,392.354,,,,,,,
857,2025-02-26 23:53:17,2025-02-26 23:59:48,391.136,,,,,,,
858,2025-02-27 01:28:02,2025-02-27 01:34:32,390.114,,,,,,,
859,2025-02-27 03:02:48,2025-02-27 03:09:17,389.286,,,,,,,
860,2025-02-27 04:37:33,2025-02-27 04:44:01,388.648,,,,,,,
861,2025-02-27 06:12:17,2025-02-27 06:18:46,388.188,,,,,,,
862,2025-02-27 07:47:02,2025-02-27 07:53:30,387.909,,,,,,,
863,2025-02-27 09:21:47,2025-02-27 09:28:14,387.805,,,,,,,
864,2025-02-27 10:56:31,2025-02-27 11:02:59,387.874,,,,,,,
865,2025-02-27 12:31:15,2025-02-27 12:37:43,388.113,,,,,,,
866,2025-02-27 14:05:59,2025-02-27 14:12:28,388.516,,,,,,,
867,2025-02-27 15:40:43,2025-02-27 15:47:12,389.092,,,,,,,
868,2025-02-27 17:15:27,2025-02-27 17:21:56,389.824,,,,,,,
869,2025-02-27 18:50:10,2025-02-27 18:56:41,390.726,,,,,,,
870,2025-02-27 20:24:53,2025-02-27 20:31:25,391.785,,,,,,,
871,2025-02-27 21:59:36,2025-02-27 22:06:09,392.999,,,,,,,
872,2025-02-27 23:34:20,2025-02-27 23:40:54,394.376,,,,,,,
873,2025-02-28 01:09:03,2025-02-28 01:15:38,395.378,,,,,,,
874,2025-02-28 02:43:49,2025-02-28 02:50:23,393.748,,,,,,,
875,2025-02-28 04:18:35,2025-02-28 04:25:07,392.336,,,,,,,
876,2025-02-28 05:53:20,2025-02-28 05:59:51,391.125,,,,,,,
877,2025-02-28 07:28:06,2025-02-28 07:34:36,390.107,,,,,,,
878,2025-02-28 09:02:51,2025-02-28 09:09:20,389.281,,,,,,,
879,2025-02-28 10:37:36,2025-02-28 10:44:05,388.642,,,,,,,
880,2025-02-28 12:12:21,2025-02-28 12:18:49,388.185,,,,,,,
881,2025-02-28 13:47:05,2025-02-28 13:53:33,387.908,,,,,,,
882,2025-02-28 15:21:50,2025-02-28 15:28:18,387.801,,,,,,,
883,2025-02-28 16:56:34,2025-02-28 17:03:02,387.877,,,,,,,
884,2025-02-28 18:31:18,2025-02-28 18:37:47,388.118,,,,,,,
885,2025-02-28 20:06:02,2025-02-28 20:12:31,388.521,,,,,,,
886,2025-02-28 21:40:46,2025-02-28 21:47:15,389.095,,,,,,,
887,2025-02-28 23:15:30,2025-02-28 23:22:00,389.836,,,,,,,
888,2025-03-01 00:50:13,2025-03-01 00:56:44,390.737,,,,,,,
889,2025-03-01 02:24:57,2025-03-01 02:31:28,391.798,,,,,,,
890,2025-03-01 03:59:40,2025-03-01 04:06:13,393.014,,,,,,,
891,2025-03-01 05:34:23,2025-03-01 05:40:57,394.395,,,,,,,
892,2025-03-01 07:09:06,2025-03-01 07:15:42,395.353,,,,,,,
893,2025-03-01 08:43:52,2025-03-01 08:50:26,393.734,,,,,,,
894,2025-03-01 10:18:38,2025-03-01 10:25:10,392.321,,,,,,,
895,2025-03-01 11:53:24,2025-03-01 11:59:55,391.112,,,,,,,
896,2025-03-01 13:28:09,2025-03-01 13:34:39,390.097,,,,,,,
897,2025-03-01 15:02:54,2025-03-01 15:09:24,389.269,,,,,,,
898,2025-03-01 16:37:39,2025-03-01 16:44:08,388.636,,,,,,,
899,2025-03-01 18:12:24,2025-03-01 18:18:52,388.181,,,,,,,
900,2025-03-01 19:47:09,2025-03-01 19:53:37,387.901,,,,,,,
901,2025-03-01 21:21:53,2025-03-01 21:28:21,387.801,,,,,,,
902,2025-03-01 22:56:38,2025-03-01 23:03:05,387.878,,,,,,,
903,2025-03-02 00:31:22,2025-03-02 00:37:50,388.121,,,,,,,
904,2025-03-02 02:06:06,2025-03-02 02:12:34,388.527,,,,,,,
905,2025-03-02 03:40:50,2025-03-02 03:47:19,389.107,,,,,,,
906,2025-03-02 05:15:33,2025-03-02 05:22:03,389.847,,,,,,,
907,2025-03-02 06:50:17,2025-03-02 06:56:47,390.749,,,,,,,
908,2025-03-02 08:25:00,2025-03-02 08:31:32,391.811,,,,,,,
909,2025-03-02 09:59:43,2025-03-02 10:06:16,393.034,,,,,,,
910,2025-03-02 11:34:26,2025-03-02 11:41:01,394.416,,,,,,,
911,2025-03-02 13:09:10,2025-03-02 13:15:45,395.337,,,,,,,
912,2025-03-02 14:43:56,2025-03-02 14:50:29,393.715,,,,,,,
913,2025-03-02 16:18:41,2025-03-02 16:25:14,392.309,,,,,,,
914,2025-03-02 17:53:27,2025-03-02 17:59:58,391.098,,,,,,,
915,2025-03-02 19:28:12,2025-03-02 19:34:42,390.082,,,,,,,
916,2025-03-02 21:02:58,2025-03-02 21:09:27,389.26,,,,,,,
917,2025-03-02 22:37:43,2025-03-02 22:44:11,388.629,,,,,,,
918,2025-03-03 00:12:27,2025-03-03 00:18:56,388.177,,,,,,,
919,2025-03-03 01:47:12,2025-03-03 01:53:40,387.9,,,,,,,
920,2025-03-03 03:21:57,2025-03-03 03:28:24,387.801,,,,,,,
921,2025-03-03 04:56:41,2025-03-03 05:03:09,387.88,,,,,,,
922,2025-03-03 06:31:25,2025-03-03 06:37:53,388.125,,,,,,,
923,2025-03-03 08:06:09,2025-03-03 08:12:38,388.539,,,,,,,
924,2025-03-03 09:40:53,2025-03-03 09:47:22,389.115,,,,,,,
925,2025-03-03 11:15:36,2025-03-03 11:22:06,389.857,,,,,,,
926,2025-03-03 12:50:20,2025-03-03 12:56:51,390.761,,,,,,,
927,2025-03-03 14:25:03,2025-03-03 14:31:35,391.821,,,,,,,
928,2025-03-03 15:59:46,2025-03-03 16:06:19,393.05,,,,,,,
929,2025-03-03 17:34:29,2025-03-03 17:41:04,394.429,,,,,,,
930,2025-03-03 19:09:13,2025-03-03 19:15:48,395.313,,,,,,,
931,2025-03-03 20:43:59,2025-03-03 20:50:33,393.698,,,,,,,
932,2025-03-03 22:18:45,2025-03-03 22:25:17,392.294,,,,,,,
933,2025-03-03 23:53:30,2025-03-04 00:00:01,391.085,,,,,,,
934,2025-03-04 01:28:16,2025-03-04 01:34:46,390.072,,,,,,,
935,2025-03-04 03:03:01,2025-03-04 03:09:30,389.253,,,,,,,
936,2025-03-04 04:37:46,2025-03-04 04:44:15,388.623,,,,,,,
937,2025-03-04 06:12:31,2025-03-04 06:18:59,388.172,,,,,,,
938,2025-03-04 07:47:15,2025-03-04 07:53:43,387.901,,,,,,,
939,2025-03-04 09:22:00,2025-03-04 09:28:28,387.806,,,,,,,
940,2025-03-04 10:56:44,2025-03-04 11:03:12,387.883,,,,,,,
941,2025-03-04 12:31:28,2025-03-04 12:37:57,388.13,,,,,,,
942,2025-03-04 14:06:12,2025-03-04 14:12:41,388.54,,,,,,,
943,2025-03-04 15:40:56,2025-03-04 15:47:25,389.124,,,,,,,
944,2025-03-04 17:15:40,2025-03-04 17:22:10,389.863,,,,,,,
945,2025-03-04 18:50:23,2025-03-04 18:56:54,390.773,,,,,,,
946,2025-03-04 20:25:07,2025-03-04 20:31:38,391.84,,,,,,,
947,2025-03-04 21:59:50,2025-03-04 22:06:23,393.061,,,,,,,
948,2025-03-04 23:34:33,2025-03-04 23:41:07,394.446,,,,,,,
949,2025-03-05 01:09:16,2025-03-05 01:15:52,395.299,,,,,,,
950,2025-03-05 02:44:02,2025-03-05 02:50:36,393.68,,,,,,,
951,2025-03-05 04:18:48,2025-03-05 04:25:20,392.277,,,,,,,
952,2025-03-05 05:53:34,2025-03-05 06:00:05,391.074,,,,,,,
953,2025-03-05 07:28:19,2025-03-05 07:34:49,390.066,,,,,,,
954,2025-03-05 09:03:04,2025-03-05 09:09:34,389.249,,,,,,,
955,2025-03-05 10:37:49,2025-03-05 10:44:18,388.618,,,,,,,
956,2025-03-05 12:12:34,2025-03-05 12:19:02,388.17,,,,,,,
957,2025-03-05 13:47:19,2025-03-05 13:53:47,387.901,,,,,,,
958,2025-03-05 15:22:03,2025-03-05 15:28:31,387.803,,,,,,,
959,2025-03-05 16:56:48,2025-03-05 17:03:15,387.886,,,,,,,
960,2025-03-05 18:31:32,2025-03-05 18:38:00,388.135,,,,,,,
961,2025-03-05 20:06:16,2025-03-05 20:12:44,388.546,,,,,,,
962,2025-03-05 21:40:59,2025-03-05 21:47:29,389.128,,,,,,,
963,2025-03-05 23:15:43,2025-03-05 23:22:13,389.877,,,,,,,
964,2025-03-06 00:50:27,2025-03-06 00:56:57,390.784,,,,,,,
965,2025-03-06 02:25:10,2025-03-06 02:31:42,391.853,,,,,,,
966,2025-03-06 03:59:53,2025-03-06 04:06:26,393.077,,,,,,,
967,2025-03-06 05:34:36,2025-03-06 05:41:11,394.465,,,,,,,
968,2025-03-06 07:09:20,2025-03-06 07:15:55,395.274,,,,,,,
969,2025-03-06 08:44:06,2025-03-06 08:50:39,393.666,,,,,,,
970,2025-03-06 10:18:51,2025-03-06 10:25:24,392.262,,,,,,,
971,2025-03-06 11:53:37,2025-03-06 12:00:08,391.063,,,,,,,
972,2025-03-06 13:28:22,2025-03-06 13:34:52,390.056,,,,,,,
973,2025-03-06 15:03:08,2025-03-06 15:09:37,389.237,,,,,,,
974,2025-03-06 16:37:53,2025-03-06 16:44:21,388.613,,,,,,,
975,2025-03-06 18:12:37,2025-03-06 18:19:06,388.167,,,,,,,
976,2025-03-06 19:47:22,2025-03-06 19:53:50,387.895,,,,,,,
977,2025-03-06 21:22:07,2025-03-06 21:28:34,387.803,,,,,,,
978,2025-03-06 22:56:51,2025-03-06 23:03:19,387.888,,,,,,,
979,2025-03-07 00:31:35,2025-03-07 00:38:03,388.138,,,,,,,
980,2025-03-07 02:06:19,2025-03-07 02:12:48,388.552,,,,,,,
981,2025-03-07 03:41:03,2025-03-07 03:47:32,389.14,,,,,,,
982,2025-03-07 05:15:46,2025-03-07 05:22:16,389.887,,,,,,,
983,2025-03-07 06:50:30,2025-03-07 06:57:01,390.797,,,,,,,
984,2025-03-07 08:25:13,2025-03-07 08:31:45,391.867,,,,,,,
985,2025-03-07 09:59:56,2025-03-07 10:06:29,393.097,,,,,,,
986,2025-03-07 11:34:39,2025-03-07 11:41:14,394.486,,,,,,,
987,2025-03-07 13:09:23,2025-03-07 13:15:58,395.259,,,,,,,
988,2025-03-07 14:44:09,2025-03-07 14:50:43,393.647,,,,,,,
989,2025-03-07 16:18:55,2025-03-07 16:25:27,392.25,,,,,,,
990,2025-03-07 17:53:40,2025-03-07 18:00:11,391.049,,,,,,,
991,2025-03-07 19:28:26,2025-03-07 19:34:56,390.042,,,,,,,
992,2025-03-07 21:03:11,2025-03-07 21:09:40,389.229,,,,,,,
993,2025-03-07 22:37:56,2025-03-07 22:44:25,388.606,,,,,,,
994,2025-03-08 00:12:41,2025-03-08 00:19:09,388.162,,,,,,,
995,2025-03-08 01:47:25,2025-03-08 01:53:53,387.893,,,,,,,
996,2025-03-08 03:22:10,2025-03-08 03:28:38,387.803,,,,,,,
997,2025-03-08 04:56:54,2025-03-08 05:03:22,387.89,,,,,,,
998,2025-03-08 06:31:38,2025-03-08 06:38:06,388.142,,,,,,,
999,2025-03-08 08:06:22,2025-03-08 08:12:51,388.562,,,,,,,
1000,2025-03-08 09:41:06,2025-03-08 09:47:35,389.148,,,,,,,
1001,2025-03-08 11:15:50,2025-03-08 11:22:20,389.898,,,,,,,
1002,2025-03-08 12:50:33,2025-03-08 12:57:04,390.809,,,,,,,
1003,2025-03-08 14:25:17,2025-03-08 14:31:48,391.877,,,,,,,
1004,2025-03-08 16:00:00,2025-03-08 16:06:33,393.113,,,,,,,
1005,2025-03-08 17:34:43,2025-03-08 17:41:17,394.499,,,,,,,
1006,2025-03-08 19:09:26,2025-03-08 19:16:02,395.235,,,,,,,
1007,2025-03-08 20:44:12,2025-03-08 20:50:46,393.63,,,,,,,
1008,2025-03-08 22:18:58,2025-03-08 22:25:30,392.235,,,,,,,
1009,2025-03-08 23:53:44,2025-03-09 00:00:15,391.036,,,,,,,
1010,2025-03-09 01:28:29,2025-03-09 01:34:59,390.032,,,,,,,
1011,2025-03-09 03:03:14,2025-03-09 03:09:44,389.221,,,,,,,
1012,2025-03-09 04:37:59,2025-03-09 04:44:28,388.6,,,,,,,
1013,2025-03-09 06:12:44,2025-03-09 06:19:12,388.158,,,,,,,
1014,2025-03-09 07:47:29,2025-03-09 07:53:57,387.894,,,,,,,
1015,2025-03-09 09:22:13,2025-03-09 09:28:41,387.807,,,,,,,
1016,2025-03-09 10:56:58,2025-03-09 11:03:25,387.892,,,,,,,
