3UCubedIntegratedSim/Reports & Plots/Area Target Access Data/CSV/Sat23.csv

Access,Start Time (UTCG),Stop Time (UTCG),Duration (sec),,,Global Statistics,,,,
1,2025-01-01 16:16:01,2025-01-01 16:16:55,54.609,,,Min Duration,5534,2025-12-31 16:51:13,2025-12-31 16:52:02,48.997
2,2025-01-01 17:50:47,2025-01-01 17:51:40,53.282,,,Max Duration,2240,2025-05-28 23:38:18,2025-05-28 23:39:15,57.279
3,2025-01-01 19:25:32,2025-01-01 19:26:24,52.164,,,Mean Duration,,,,51.929
4,2025-01-01 21:00:17,2025-01-01 21:01:09,51.235,,,Total Duration,,,,288100.718
5,2025-01-01 22:35:02,2025-01-01 22:35:53,50.494,,,,,,,
6,2025-01-02 00:09:47,2025-01-02 00:10:37,49.941,,,,,,,
7,2025-01-02 01:44:32,2025-01-02 01:45:22,49.567,,,,,,,
8,2025-01-02 03:19:17,2025-01-02 03:20:06,49.371,,,,,,,
9,2025-01-02 04:54:01,2025-01-02 04:54:50,49.348,,,,,,,
10,2025-01-02 06:28:45,2025-01-02 06:29:35,49.498,,,,,,,
11,2025-01-02 08:03:29,2025-01-02 08:04:19,49.816,,,,,,,
12,2025-01-02 09:38:13,2025-01-02 09:39:04,50.301,,,,,,,
13,2025-01-02 11:12:57,2025-01-02 11:13:48,50.947,,,,,,,
14,2025-01-02 12:47:41,2025-01-02 12:48:32,51.763,,,,,,,
15,2025-01-02 14:22:24,2025-01-02 14:23:17,52.736,,,,,,,
16,2025-01-02 15:57:07,2025-01-02 15:58:01,53.871,,,,,,,
17,2025-01-02 17:31:50,2025-01-02 17:32:46,55.166,,,,,,,
18,2025-01-02 19:06:33,2025-01-02 19:07:30,56.619,,,,,,,
19,2025-01-02 20:41:18,2025-01-02 20:42:14,56.113,,,,,,,
20,2025-01-02 22:16:04,2025-01-02 22:16:59,54.592,,,,,,,
21,2025-01-02 23:50:50,2025-01-02 23:51:43,53.271,,,,,,,
22,2025-01-03 01:25:35,2025-01-03 01:26:28,52.15,,,,,,,
23,2025-01-03 03:00:21,2025-01-03 03:01:12,51.224,,,,,,,
24,2025-01-03 04:35:06,2025-01-03 04:35:56,50.486,,,,,,,
25,2025-01-03 06:09:51,2025-01-03 06:10:41,49.933,,,,,,,
26,2025-01-03 07:44:35,2025-01-03 07:45:25,49.562,,,,,,,
27,2025-01-03 09:19:20,2025-01-03 09:20:09,49.367,,,,,,,
28,2025-01-03 10:54:04,2025-01-03 10:54:54,49.343,,,,,,,
29,2025-01-03 12:28:49,2025-01-03 12:29:38,49.499,,,,,,,
30,2025-01-03 14:03:33,2025-01-03 14:04:23,49.819,,,,,,,
31,2025-01-03 15:38:17,2025-01-03 15:39:07,50.306,,,,,,,
32,2025-01-03 17:13:00,2025-01-03 17:13:51,50.958,,,,,,,
33,2025-01-03 18:47:44,2025-01-03 18:48:36,51.771,,,,,,,
34,2025-01-03 20:22:27,2025-01-03 20:23:20,52.748,,,,,,,
35,2025-01-03 21:57:11,2025-01-03 21:58:05,53.886,,,,,,,
36,2025-01-03 23:31:54,2025-01-03 23:32:49,55.181,,,,,,,
37,2025-01-04 01:06:37,2025-01-04 01:07:33,56.632,,,,,,,
38,2025-01-04 02:41:22,2025-01-04 02:42:18,56.094,,,,,,,
39,2025-01-04 04:16:07,2025-01-04 04:17:02,54.572,,,,,,,
40,2025-01-04 05:50:53,2025-01-04 05:51:46,53.255,,,,,,,
41,2025-01-04 07:25:39,2025-01-04 07:26:31,52.137,,,,,,,
42,2025-01-04 09:00:24,2025-01-04 09:01:15,51.212,,,,,,,
43,2025-01-04 10:35:09,2025-01-04 10:36:00,50.477,,,,,,,
44,2025-01-04 12:09:54,2025-01-04 12:10:44,49.925,,,,,,,
45,2025-01-04 13:44:39,2025-01-04 13:45:28,49.557,,,,,,,
46,2025-01-04 15:19:23,2025-01-04 15:20:13,49.366,,,,,,,
47,2025-01-04 16:54:08,2025-01-04 16:54:57,49.348,,,,,,,
48,2025-01-04 18:28:52,2025-01-04 18:29:42,49.501,,,,,,,
49,2025-01-04 20:03:36,2025-01-04 20:04:26,49.823,,,,,,,
50,2025-01-04 21:38:20,2025-01-04 21:39:10,50.309,,,,,,,
51,2025-01-04 23:13:04,2025-01-04 23:13:55,50.965,,,,,,,
52,2025-01-05 00:47:47,2025-01-05 00:48:39,51.782,,,,,,,
53,2025-01-05 02:22:31,2025-01-05 02:23:23,52.759,,,,,,,
54,2025-01-05 03:57:14,2025-01-05 03:58:08,53.898,,,,,,,
55,2025-01-05 05:31:57,2025-01-05 05:32:52,55.196,,,,,,,
56,2025-01-05 07:06:40,2025-01-05 07:07:37,56.653,,,,,,,
57,2025-01-05 08:41:25,2025-01-05 08:42:21,56.075,,,,,,,
58,2025-01-05 10:16:11,2025-01-05 10:17:05,54.554,,,,,,,
59,2025-01-05 11:50:57,2025-01-05 11:51:50,53.237,,,,,,,
60,2025-01-05 13:25:42,2025-01-05 13:26:34,52.124,,,,,,,
61,2025-01-05 15:00:27,2025-01-05 15:01:19,51.202,,,,,,,
62,2025-01-05 16:35:12,2025-01-05 16:36:03,50.469,,,,,,,
63,2025-01-05 18:09:57,2025-01-05 18:10:47,49.921,,,,,,,
64,2025-01-05 19:44:42,2025-01-05 19:45:32,49.554,,,,,,,
65,2025-01-05 21:19:27,2025-01-05 21:20:16,49.361,,,,,,,
66,2025-01-05 22:54:11,2025-01-05 22:55:00,49.348,,,,,,,
67,2025-01-06 00:28:55,2025-01-06 00:29:45,49.503,,,,,,,
68,2025-01-06 02:03:39,2025-01-06 02:04:29,49.826,,,,,,,
69,2025-01-06 03:38:23,2025-01-06 03:39:14,50.318,,,,,,,
70,2025-01-06 05:13:07,2025-01-06 05:13:58,50.973,,,,,,,
71,2025-01-06 06:47:51,2025-01-06 06:48:42,51.791,,,,,,,
72,2025-01-06 08:22:34,2025-01-06 08:23:27,52.771,,,,,,,
73,2025-01-06 09:57:17,2025-01-06 09:58:11,53.911,,,,,,,
74,2025-01-06 11:32:00,2025-01-06 11:32:56,55.207,,,,,,,
75,2025-01-06 13:06:43,2025-01-06 13:07:40,56.67,,,,,,,
76,2025-01-06 14:41:28,2025-01-06 14:42:24,56.053,,,,,,,
77,2025-01-06 16:16:14,2025-01-06 16:17:09,54.538,,,,,,,
78,2025-01-06 17:51:00,2025-01-06 17:51:53,53.225,,,,,,,
79,2025-01-06 19:25:45,2025-01-06 19:26:38,52.112,,,,,,,
80,2025-01-06 21:00:31,2025-01-06 21:01:22,51.19,,,,,,,
81,2025-01-06 22:35:16,2025-01-06 22:36:06,50.461,,,,,,,
82,2025-01-07 00:10:01,2025-01-07 00:10:51,49.915,,,,,,,
83,2025-01-07 01:44:45,2025-01-07 01:45:35,49.55,,,,,,,
84,2025-01-07 03:19:30,2025-01-07 03:20:19,49.362,,,,,,,
85,2025-01-07 04:54:14,2025-01-07 04:55:04,49.352,,,,,,,
86,2025-01-07 06:28:59,2025-01-07 06:29:48,49.505,,,,,,,
87,2025-01-07 08:03:43,2025-01-07 08:04:33,49.831,,,,,,,
88,2025-01-07 09:38:27,2025-01-07 09:39:17,50.323,,,,,,,
89,2025-01-07 11:13:10,2025-01-07 11:14:01,50.976,,,,,,,
90,2025-01-07 12:47:54,2025-01-07 12:48:46,51.801,,,,,,,
91,2025-01-07 14:22:37,2025-01-07 14:23:30,52.783,,,,,,,
92,2025-01-07 15:57:21,2025-01-07 15:58:15,53.925,,,,,,,
93,2025-01-07 17:32:04,2025-01-07 17:32:59,55.227,,,,,,,
94,2025-01-07 19:06:47,2025-01-07 19:07:43,56.684,,,,,,,
95,2025-01-07 20:41:32,2025-01-07 20:42:28,56.034,,,,,,,
96,2025-01-07 22:16:18,2025-01-07 22:17:12,54.522,,,,,,,
97,2025-01-07 23:51:03,2025-01-07 23:51:56,53.21,,,,,,,
98,2025-01-08 01:25:49,2025-01-08 01:26:41,52.097,,,,,,,
99,2025-01-08 03:00:34,2025-01-08 03:01:25,51.179,,,,,,,
100,2025-01-08 04:35:19,2025-01-08 04:36:10,50.453,,,,,,,
101,2025-01-08 06:10:04,2025-01-08 06:10:54,49.909,,,,,,,
102,2025-01-08 07:44:49,2025-01-08 07:45:38,49.545,,,,,,,
103,2025-01-08 09:19:33,2025-01-08 09:20:23,49.359,,,,,,,
104,2025-01-08 10:54:18,2025-01-08 10:55:07,49.347,,,,,,,
105,2025-01-08 12:29:02,2025-01-08 12:29:52,49.504,,,,,,,
106,2025-01-08 14:03:46,2025-01-08 14:04:36,49.835,,,,,,,
107,2025-01-08 15:38:30,2025-01-08 15:39:20,50.33,,,,,,,
108,2025-01-08 17:13:14,2025-01-08 17:14:05,50.986,,,,,,,
109,2025-01-08 18:47:57,2025-01-08 18:48:49,51.81,,,,,,,
110,2025-01-08 20:22:41,2025-01-08 20:23:33,52.794,,,,,,,
111,2025-01-08 21:57:24,2025-01-08 21:58:18,53.935,,,,,,,
112,2025-01-08 23:32:07,2025-01-08 23:33:02,55.242,,,,,,,
113,2025-01-09 01:06:50,2025-01-09 01:07:47,56.705,,,,,,,
114,2025-01-09 02:41:35,2025-01-09 02:42:31,56.015,,,,,,,
115,2025-01-09 04:16:21,2025-01-09 04:17:15,54.5,,,,,,,
116,2025-01-09 05:51:07,2025-01-09 05:52:00,53.191,,,,,,,
117,2025-01-09 07:25:52,2025-01-09 07:26:44,52.086,,,,,,,
118,2025-01-09 09:00:37,2025-01-09 09:01:29,51.17,,,,,,,
119,2025-01-09 10:35:22,2025-01-09 10:36:13,50.443,,,,,,,
120,2025-01-09 12:10:07,2025-01-09 12:10:57,49.9,,,,,,,
121,2025-01-09 13:44:52,2025-01-09 13:45:42,49.541,,,,,,,
122,2025-01-09 15:19:37,2025-01-09 15:20:26,49.357,,,,,,,
123,2025-01-09 16:54:21,2025-01-09 16:55:10,49.347,,,,,,,
124,2025-01-09 18:29:05,2025-01-09 18:29:55,49.508,,,,,,,
125,2025-01-09 20:03:49,2025-01-09 20:04:39,49.838,,,,,,,
126,2025-01-09 21:38:33,2025-01-09 21:39:24,50.333,,,,,,,
127,2025-01-09 23:13:17,2025-01-09 23:14:08,50.996,,,,,,,
128,2025-01-10 00:48:01,2025-01-10 00:48:52,51.82,,,,,,,
129,2025-01-10 02:22:44,2025-01-10 02:23:37,52.805,,,,,,,
130,2025-01-10 03:57:27,2025-01-10 03:58:21,53.951,,,,,,,
131,2025-01-10 05:32:10,2025-01-10 05:33:06,55.257,,,,,,,
132,2025-01-10 07:06:53,2025-01-10 07:07:50,56.721,,,,,,,
133,2025-01-10 08:41:38,2025-01-10 08:42:34,55.996,,,,,,,
134,2025-01-10 10:16:24,2025-01-10 10:17:19,54.484,,,,,,,
135,2025-01-10 11:51:10,2025-01-10 11:52:03,53.174,,,,,,,
136,2025-01-10 13:25:55,2025-01-10 13:26:47,52.072,,,,,,,
137,2025-01-10 15:00:41,2025-01-10 15:01:32,51.159,,,,,,,
138,2025-01-10 16:35:26,2025-01-10 16:36:16,50.434,,,,,,,
139,2025-01-10 18:10:11,2025-01-10 18:11:01,49.894,,,,,,,
140,2025-01-10 19:44:55,2025-01-10 19:45:45,49.536,,,,,,,
141,2025-01-10 21:19:40,2025-01-10 21:20:29,49.352,,,,,,,
142,2025-01-10 22:54:24,2025-01-10 22:55:14,49.346,,,,,,,
143,2025-01-11 00:29:09,2025-01-11 00:29:58,49.509,,,,,,,
144,2025-01-11 02:03:53,2025-01-11 02:04:43,49.839,,,,,,,
145,2025-01-11 03:38:37,2025-01-11 03:39:27,50.34,,,,,,,
146,2025-01-11 05:13:20,2025-01-11 05:14:11,51.002,,,,,,,
147,2025-01-11 06:48:04,2025-01-11 06:48:56,51.828,,,,,,,
148,2025-01-11 08:22:47,2025-01-11 08:23:40,52.815,,,,,,,
149,2025-01-11 09:57:31,2025-01-11 09:58:24,53.963,,,,,,,
150,2025-01-11 11:32:14,2025-01-11 11:33:09,55.266,,,,,,,
151,2025-01-11 13:06:57,2025-01-11 13:07:53,56.737,,,,,,,
152,2025-01-11 14:41:42,2025-01-11 14:42:38,55.97,,,,,,,
153,2025-01-11 16:16:28,2025-01-11 16:17:22,54.465,,,,,,,
154,2025-01-11 17:51:13,2025-01-11 17:52:06,53.162,,,,,,,
155,2025-01-11 19:25:59,2025-01-11 19:26:51,52.058,,,,,,,
156,2025-01-11 21:00:44,2025-01-11 21:01:35,51.145,,,,,,,
157,2025-01-11 22:35:29,2025-01-11 22:36:20,50.425,,,,,,,
158,2025-01-12 00:10:14,2025-01-12 00:11:04,49.887,,,,,,,
159,2025-01-12 01:44:59,2025-01-12 01:45:48,49.53,,,,,,,
160,2025-01-12 03:19:43,2025-01-12 03:20:33,49.35,,,,,,,
161,2025-01-12 04:54:28,2025-01-12 04:55:17,49.344,,,,,,,
162,2025-01-12 06:29:12,2025-01-12 06:30:02,49.51,,,,,,,
163,2025-01-12 08:03:56,2025-01-12 08:04:46,49.843,,,,,,,
164,2025-01-12 09:38:40,2025-01-12 09:39:30,50.343,,,,,,,
165,2025-01-12 11:13:24,2025-01-12 11:14:15,51.004,,,,,,,
166,2025-01-12 12:48:07,2025-01-12 12:48:59,51.836,,,,,,,
167,2025-01-12 14:22:51,2025-01-12 14:23:43,52.826,,,,,,,
168,2025-01-12 15:57:34,2025-01-12 15:58:28,53.975,,,,,,,
169,2025-01-12 17:32:17,2025-01-12 17:33:12,55.285,,,,,,,
170,2025-01-12 19:07:00,2025-01-12 19:07:57,56.749,,,,,,,
171,2025-01-12 20:41:45,2025-01-12 20:42:41,55.951,,,,,,,
172,2025-01-12 22:16:31,2025-01-12 22:17:25,54.448,,,,,,,
173,2025-01-12 23:51:17,2025-01-12 23:52:10,53.146,,,,,,,
174,2025-01-13 01:26:02,2025-01-13 01:26:54,52.041,,,,,,,
175,2025-01-13 03:00:47,2025-01-13 03:01:39,51.137,,,,,,,
176,2025-01-13 04:35:32,2025-01-13 04:36:23,50.415,,,,,,,
177,2025-01-13 06:10:17,2025-01-13 06:11:07,49.879,,,,,,,
178,2025-01-13 07:45:02,2025-01-13 07:45:52,49.524,,,,,,,
179,2025-01-13 09:19:47,2025-01-13 09:20:36,49.347,,,,,,,
180,2025-01-13 10:54:31,2025-01-13 10:55:20,49.343,,,,,,,
181,2025-01-13 12:29:15,2025-01-13 12:30:05,49.507,,,,,,,
182,2025-01-13 14:03:59,2025-01-13 14:04:49,49.846,,,,,,,
183,2025-01-13 15:38:43,2025-01-13 15:39:34,50.349,,,,,,,
184,2025-01-13 17:13:27,2025-01-13 17:14:18,51.013,,,,,,,
185,2025-01-13 18:48:11,2025-01-13 18:49:02,51.848,,,,,,,
186,2025-01-13 20:22:54,2025-01-13 20:23:47,52.836,,,,,,,
187,2025-01-13 21:57:37,2025-01-13 21:58:31,53.985,,,,,,,
188,2025-01-13 23:32:20,2025-01-13 23:33:16,55.299,,,,,,,
189,2025-01-14 01:07:03,2025-01-14 01:08:00,56.769,,,,,,,
190,2025-01-14 02:41:48,2025-01-14 02:42:44,55.93,,,,,,,
191,2025-01-14 04:16:34,2025-01-14 04:17:29,54.425,,,,,,,
192,2025-01-14 05:51:20,2025-01-14 05:52:13,53.126,,,,,,,
193,2025-01-14 07:26:05,2025-01-14 07:26:57,52.03,,,,,,,
194,2025-01-14 09:00:51,2025-01-14 09:01:42,51.123,,,,,,,
195,2025-01-14 10:35:36,2025-01-14 10:36:26,50.405,,,,,,,
196,2025-01-14 12:10:21,2025-01-14 12:11:11,49.871,,,,,,,
197,2025-01-14 13:45:05,2025-01-14 13:45:55,49.519,,,,,,,
198,2025-01-14 15:19:50,2025-01-14 15:20:39,49.344,,,,,,,
199,2025-01-14 16:54:34,2025-01-14 16:55:24,49.342,,,,,,,
200,2025-01-14 18:29:19,2025-01-14 18:30:08,49.511,,,,,,,
201,2025-01-14 20:04:03,2025-01-14 20:04:53,49.849,,,,,,,
202,2025-01-14 21:38:47,2025-01-14 21:39:37,50.351,,,,,,,
203,2025-01-14 23:13:30,2025-01-14 23:14:21,51.022,,,,,,,
204,2025-01-15 00:48:14,2025-01-15 00:49:06,51.854,,,,,,,
205,2025-01-15 02:22:57,2025-01-15 02:23:50,52.847,,,,,,,
206,2025-01-15 03:57:40,2025-01-15 03:58:34,54,,,,,,,
207,2025-01-15 05:32:24,2025-01-15 05:33:19,55.313,,,,,,,
208,2025-01-15 07:07:06,2025-01-15 07:08:03,56.785,,,,,,,
209,2025-01-15 08:41:52,2025-01-15 08:42:48,55.91,,,,,,,
210,2025-01-15 10:16:38,2025-01-15 10:17:32,54.409,,,,,,,
211,2025-01-15 11:51:23,2025-01-15 11:52:16,53.109,,,,,,,
212,2025-01-15 13:26:09,2025-01-15 13:27:01,52.016,,,,,,,
213,2025-01-15 15:00:54,2025-01-15 15:01:45,51.112,,,,,,,
214,2025-01-15 16:35:39,2025-01-15 16:36:30,50.396,,,,,,,
215,2025-01-15 18:10:24,2025-01-15 18:11:14,49.865,,,,,,,
216,2025-01-15 19:45:09,2025-01-15 19:45:58,49.515,,,,,,,
217,2025-01-15 21:19:53,2025-01-15 21:20:43,49.339,,,,,,,
218,2025-01-15 22:54:38,2025-01-15 22:55:27,49.341,,,,,,,
219,2025-01-16 00:29:22,2025-01-16 00:30:11,49.513,,,,,,,
220,2025-01-16 02:04:06,2025-01-16 02:04:56,49.85,,,,,,,
221,2025-01-16 03:38:50,2025-01-16 03:39:40,50.359,,,,,,,
222,2025-01-16 05:13:34,2025-01-16 05:14:25,51.029,,,,,,,
223,2025-01-16 06:48:17,2025-01-16 06:49:09,51.863,,,,,,,
224,2025-01-16 08:23:01,2025-01-16 08:23:53,52.857,,,,,,,
225,2025-01-16 09:57:44,2025-01-16 09:58:38,54.012,,,,,,,
226,2025-01-16 11:32:27,2025-01-16 11:33:22,55.324,,,,,,,
227,2025-01-16 13:07:10,2025-01-16 13:08:07,56.801,,,,,,,
228,2025-01-16 14:41:55,2025-01-16 14:42:51,55.887,,,,,,,
229,2025-01-16 16:16:41,2025-01-16 16:17:35,54.391,,,,,,,
230,2025-01-16 17:51:27,2025-01-16 17:52:20,53.098,,,,,,,
231,2025-01-16 19:26:12,2025-01-16 19:27:04,52.003,,,,,,,
232,2025-01-16 21:00:57,2025-01-16 21:01:49,51.099,,,,,,,
233,2025-01-16 22:35:43,2025-01-16 22:36:33,50.387,,,,,,,
234,2025-01-17 00:10:27,2025-01-17 00:11:17,49.859,,,,,,,
235,2025-01-17 01:45:12,2025-01-17 01:46:02,49.51,,,,,,,
236,2025-01-17 03:19:57,2025-01-17 03:20:46,49.339,,,,,,,
237,2025-01-17 04:54:41,2025-01-17 04:55:30,49.341,,,,,,,
238,2025-01-17 06:29:25,2025-01-17 06:30:15,49.514,,,,,,,
239,2025-01-17 08:04:09,2025-01-17 08:04:59,49.856,,,,,,,
240,2025-01-17 09:38:53,2025-01-17 09:39:44,50.364,,,,,,,
241,2025-01-17 11:13:37,2025-01-17 11:14:28,51.032,,,,,,,
242,2025-01-17 12:48:20,2025-01-17 12:49:12,51.872,,,,,,,
243,2025-01-17 14:23:04,2025-01-17 14:23:57,52.869,,,,,,,
244,2025-01-17 15:57:47,2025-01-17 15:58:41,54.026,,,,,,,
245,2025-01-17 17:32:30,2025-01-17 17:33:26,55.343,,,,,,,
246,2025-01-17 19:07:13,2025-01-17 19:08:10,56.816,,,,,,,
247,2025-01-17 20:41:58,2025-01-17 20:42:54,55.869,,,,,,,
248,2025-01-17 22:16:44,2025-01-17 22:17:39,54.376,,,,,,,
249,2025-01-17 23:51:30,2025-01-17 23:52:23,53.083,,,,,,,
250,2025-01-18 01:26:15,2025-01-18 01:27:07,51.988,,,,,,,
251,2025-01-18 03:01:01,2025-01-18 03:01:52,51.088,,,,,,,
252,2025-01-18 04:35:46,2025-01-18 04:36:36,50.379,,,,,,,
253,2025-01-18 06:10:31,2025-01-18 06:11:21,49.853,,,,,,,
254,2025-01-18 07:45:15,2025-01-18 07:46:05,49.506,,,,,,,
255,2025-01-18 09:20:00,2025-01-18 09:20:49,49.337,,,,,,,
256,2025-01-18 10:54:44,2025-01-18 10:55:34,49.341,,,,,,,
257,2025-01-18 12:29:29,2025-01-18 12:30:18,49.513,,,,,,,
258,2025-01-18 14:04:13,2025-01-18 14:05:03,49.86,,,,,,,
259,2025-01-18 15:38:57,2025-01-18 15:39:47,50.371,,,,,,,
260,2025-01-18 17:13:40,2025-01-18 17:14:31,51.042,,,,,,,
261,2025-01-18 18:48:24,2025-01-18 18:49:16,51.882,,,,,,,
262,2025-01-18 20:23:07,2025-01-18 20:24:00,52.881,,,,,,,
263,2025-01-18 21:57:50,2025-01-18 21:58:44,54.037,,,,,,,
264,2025-01-18 23:32:33,2025-01-18 23:33:29,55.359,,,,,,,
265,2025-01-19 01:07:16,2025-01-19 01:08:13,56.837,,,,,,,
266,2025-01-19 02:42:02,2025-01-19 02:42:58,55.85,,,,,,,
267,2025-01-19 04:16:48,2025-01-19 04:17:42,54.354,,,,,,,
268,2025-01-19 05:51:33,2025-01-19 05:52:26,53.065,,,,,,,
269,2025-01-19 07:26:19,2025-01-19 07:27:11,51.978,,,,,,,
270,2025-01-19 09:01:04,2025-01-19 09:01:55,51.08,,,,,,,
271,2025-01-19 10:35:49,2025-01-19 10:36:40,50.371,,,,,,,
272,2025-01-19 12:10:34,2025-01-19 12:11:24,49.846,,,,,,,
273,2025-01-19 13:45:19,2025-01-19 13:46:08,49.502,,,,,,,
274,2025-01-19 15:20:03,2025-01-19 15:20:53,49.335,,,,,,,
275,2025-01-19 16:54:48,2025-01-19 16:55:37,49.342,,,,,,,
276,2025-01-19 18:29:32,2025-01-19 18:30:21,49.519,,,,,,,
277,2025-01-19 20:04:16,2025-01-19 20:05:06,49.865,,,,,,,
278,2025-01-19 21:39:00,2025-01-19 21:39:50,50.375,,,,,,,
279,2025-01-19 23:13:44,2025-01-19 23:14:35,51.053,,,,,,,
280,2025-01-20 00:48:27,2025-01-20 00:49:19,51.893,,,,,,,
281,2025-01-20 02:23:11,2025-01-20 02:24:03,52.893,,,,,,,
282,2025-01-20 03:57:54,2025-01-20 03:58:48,54.054,,,,,,,
283,2025-01-20 05:32:37,2025-01-20 05:33:32,55.375,,,,,,,
284,2025-01-20 07:07:20,2025-01-20 07:08:17,56.854,,,,,,,
285,2025-01-20 08:42:05,2025-01-20 08:43:01,55.832,,,,,,,
286,2025-01-20 10:16:51,2025-01-20 10:17:45,54.34,,,,,,,
287,2025-01-20 11:51:37,2025-01-20 11:52:30,53.049,,,,,,,
288,2025-01-20 13:26:22,2025-01-20 13:27:14,51.965,,,,,,,
289,2025-01-20 15:01:07,2025-01-20 15:01:59,51.071,,,,,,,
290,2025-01-20 16:35:53,2025-01-20 16:36:43,50.364,,,,,,,
291,2025-01-20 18:10:37,2025-01-20 18:11:27,49.841,,,,,,,
292,2025-01-20 19:45:22,2025-01-20 19:46:12,49.499,,,,,,,
293,2025-01-20 21:20:07,2025-01-20 21:20:56,49.332,,,,,,,
294,2025-01-20 22:54:51,2025-01-20 22:55:40,49.342,,,,,,,
295,2025-01-21 00:29:35,2025-01-21 00:30:25,49.522,,,,,,,
296,2025-01-21 02:04:19,2025-01-21 02:05:09,49.867,,,,,,,
297,2025-01-21 03:39:03,2025-01-21 03:39:54,50.383,,,,,,,
298,2025-01-21 05:13:47,2025-01-21 05:14:38,51.062,,,,,,,
299,2025-01-21 06:48:30,2025-01-21 06:49:22,51.903,,,,,,,
300,2025-01-21 08:23:14,2025-01-21 08:24:07,52.905,,,,,,,
301,2025-01-21 09:57:57,2025-01-21 09:58:51,54.068,,,,,,,
302,2025-01-21 11:32:40,2025-01-21 11:33:36,55.386,,,,,,,
303,2025-01-21 13:07:23,2025-01-21 13:08:20,56.872,,,,,,,
304,2025-01-21 14:42:08,2025-01-21 14:43:04,55.808,,,,,,,
305,2025-01-21 16:16:54,2025-01-21 16:17:49,54.323,,,,,,,
306,2025-01-21 17:51:40,2025-01-21 17:52:33,53.039,,,,,,,
307,2025-01-21 19:26:25,2025-01-21 19:27:17,51.953,,,,,,,
308,2025-01-21 21:01:11,2025-01-21 21:02:02,51.058,,,,,,,
309,2025-01-21 22:35:56,2025-01-21 22:36:46,50.356,,,,,,,
310,2025-01-22 00:10:41,2025-01-22 00:11:31,49.836,,,,,,,
311,2025-01-22 01:45:25,2025-01-22 01:46:15,49.496,,,,,,,
312,2025-01-22 03:20:10,2025-01-22 03:20:59,49.332,,,,,,,
313,2025-01-22 04:54:54,2025-01-22 04:55:44,49.343,,,,,,,
314,2025-01-22 06:29:39,2025-01-22 06:30:28,49.524,,,,,,,
315,2025-01-22 08:04:23,2025-01-22 08:05:13,49.873,,,,,,,
316,2025-01-22 09:39:07,2025-01-22 09:39:57,50.389,,,,,,,
317,2025-01-22 11:13:50,2025-01-22 11:14:41,51.065,,,,,,,
318,2025-01-22 12:48:34,2025-01-22 12:49:26,51.913,,,,,,,
319,2025-01-22 14:23:17,2025-01-22 14:24:10,52.917,,,,,,,
320,2025-01-22 15:58:00,2025-01-22 15:58:54,54.082,,,,,,,
321,2025-01-22 17:32:43,2025-01-22 17:33:39,55.406,,,,,,,
322,2025-01-22 19:07:26,2025-01-22 19:08:23,56.886,,,,,,,
323,2025-01-22 20:42:12,2025-01-22 20:43:08,55.793,,,,,,,
324,2025-01-22 22:16:58,2025-01-22 22:17:52,54.308,,,,,,,
325,2025-01-22 23:51:43,2025-01-22 23:52:36,53.025,,,,,,,
326,2025-01-23 01:26:29,2025-01-23 01:27:21,51.939,,,,,,,
327,2025-01-23 03:01:14,2025-01-23 03:02:05,51.048,,,,,,,
328,2025-01-23 04:35:59,2025-01-23 04:36:50,50.348,,,,,,,
329,2025-01-23 06:10:44,2025-01-23 06:11:34,49.83,,,,,,,
330,2025-01-23 07:45:29,2025-01-23 07:46:18,49.492,,,,,,,
331,2025-01-23 09:20:13,2025-01-23 09:21:03,49.33,,,,,,,
332,2025-01-23 10:54:58,2025-01-23 10:55:47,49.343,,,,,,,
333,2025-01-23 12:29:42,2025-01-23 12:30:31,49.523,,,,,,,
334,2025-01-23 14:04:26,2025-01-23 14:05:16,49.877,,,,,,,
335,2025-01-23 15:39:10,2025-01-23 15:40:00,50.396,,,,,,,
336,2025-01-23 17:13:54,2025-01-23 17:14:45,51.075,,,,,,,
337,2025-01-23 18:48:37,2025-01-23 18:49:29,51.923,,,,,,,
338,2025-01-23 20:23:20,2025-01-23 20:24:13,52.929,,,,,,,
339,2025-01-23 21:58:04,2025-01-23 21:58:58,54.093,,,,,,,
340,2025-01-23 23:32:47,2025-01-23 23:33:42,55.422,,,,,,,
341,2025-01-24 01:07:30,2025-01-24 01:08:27,56.907,,,,,,,
342,2025-01-24 02:42:15,2025-01-24 02:43:11,55.773,,,,,,,
343,2025-01-24 04:17:01,2025-01-24 04:17:55,54.286,,,,,,,
344,2025-01-24 05:51:47,2025-01-24 05:52:40,53.006,,,,,,,
345,2025-01-24 07:26:32,2025-01-24 07:27:24,51.928,,,,,,,
346,2025-01-24 09:01:17,2025-01-24 09:02:08,51.04,,,,,,,
347,2025-01-24 10:36:03,2025-01-24 10:36:53,50.339,,,,,,,
348,2025-01-24 12:10:47,2025-01-24 12:11:37,49.822,,,,,,,
349,2025-01-24 13:45:32,2025-01-24 13:46:22,49.487,,,,,,,
350,2025-01-24 15:20:17,2025-01-24 15:21:06,49.333,,,,,,,
351,2025-01-24 16:55:01,2025-01-24 16:55:50,49.343,,,,,,,
352,2025-01-24 18:29:45,2025-01-24 18:30:35,49.528,,,,,,,
353,2025-01-24 20:04:29,2025-01-24 20:05:19,49.882,,,,,,,
354,2025-01-24 21:39:13,2025-01-24 21:40:04,50.4,,,,,,,
355,2025-01-24 23:13:57,2025-01-24 23:14:48,51.086,,,,,,,
356,2025-01-25 00:48:40,2025-01-25 00:49:32,51.932,,,,,,,
357,2025-01-25 02:23:24,2025-01-25 02:24:17,52.941,,,,,,,
358,2025-01-25 03:58:07,2025-01-25 03:59:01,54.109,,,,,,,
359,2025-01-25 05:32:50,2025-01-25 05:33:46,55.437,,,,,,,
360,2025-01-25 07:07:33,2025-01-25 07:08:30,56.924,,,,,,,
361,2025-01-25 08:42:19,2025-01-25 08:43:14,55.753,,,,,,,
362,2025-01-25 10:17:04,2025-01-25 10:17:59,54.271,,,,,,,
363,2025-01-25 11:51:50,2025-01-25 11:52:43,52.99,,,,,,,
364,2025-01-25 13:26:36,2025-01-25 13:27:27,51.915,,,,,,,
365,2025-01-25 15:01:21,2025-01-25 15:02:12,51.029,,,,,,,
366,2025-01-25 16:36:06,2025-01-25 16:36:56,50.331,,,,,,,
367,2025-01-25 18:10:51,2025-01-25 18:11:41,49.817,,,,,,,
368,2025-01-25 19:45:35,2025-01-25 19:46:25,49.483,,,,,,,
369,2025-01-25 21:20:20,2025-01-25 21:21:09,49.324,,,,,,,
370,2025-01-25 22:55:04,2025-01-25 22:55:54,49.342,,,,,,,
371,2025-01-26 00:29:49,2025-01-26 00:30:38,49.53,,,,,,,
372,2025-01-26 02:04:33,2025-01-26 02:05:23,49.883,,,,,,,
373,2025-01-26 03:39:16,2025-01-26 03:40:07,50.407,,,,,,,
374,2025-01-26 05:14:00,2025-01-26 05:14:51,51.093,,,,,,,
375,2025-01-26 06:48:44,2025-01-26 06:49:36,51.941,,,,,,,
376,2025-01-26 08:23:27,2025-01-26 08:24:20,52.951,,,,,,,
377,2025-01-26 09:58:10,2025-01-26 09:59:04,54.121,,,,,,,
378,2025-01-26 11:32:53,2025-01-26 11:33:49,55.448,,,,,,,
379,2025-01-26 13:07:36,2025-01-26 13:08:33,56.94,,,,,,,
380,2025-01-26 14:42:22,2025-01-26 14:43:18,55.73,,,,,,,
381,2025-01-26 16:17:08,2025-01-26 16:18:02,54.253,,,,,,,
382,2025-01-26 17:51:53,2025-01-26 17:52:46,52.978,,,,,,,
383,2025-01-26 19:26:39,2025-01-26 19:27:31,51.902,,,,,,,
384,2025-01-26 21:01:24,2025-01-26 21:02:15,51.016,,,,,,,
385,2025-01-26 22:36:09,2025-01-26 22:37:00,50.322,,,,,,,
386,2025-01-27 00:10:54,2025-01-27 00:11:44,49.81,,,,,,,
387,2025-01-27 01:45:39,2025-01-27 01:46:28,49.478,,,,,,,
388,2025-01-27 03:20:23,2025-01-27 03:21:13,49.323,,,,,,,
389,2025-01-27 04:55:08,2025-01-27 04:55:57,49.342,,,,,,,
390,2025-01-27 06:29:52,2025-01-27 06:30:41,49.531,,,,,,,
391,2025-01-27 08:04:36,2025-01-27 08:05:26,49.888,,,,,,,
392,2025-01-27 09:39:20,2025-01-27 09:40:10,50.412,,,,,,,
393,2025-01-27 11:14:04,2025-01-27 11:14:55,51.095,,,,,,,
394,2025-01-27 12:48:47,2025-01-27 12:49:39,51.95,,,,,,,
395,2025-01-27 14:23:30,2025-01-27 14:24:23,52.963,,,,,,,
396,2025-01-27 15:58:14,2025-01-27 15:59:08,54.134,,,,,,,
397,2025-01-27 17:32:57,2025-01-27 17:33:52,55.466,,,,,,,
398,2025-01-27 19:07:40,2025-01-27 19:08:37,56.954,,,,,,,
399,2025-01-27 20:42:25,2025-01-27 20:43:21,55.713,,,,,,,
400,2025-01-27 22:17:11,2025-01-27 22:18:05,54.236,,,,,,,
401,2025-01-27 23:51:57,2025-01-27 23:52:50,52.963,,,,,,,
402,2025-01-28 01:26:42,2025-01-28 01:27:34,51.886,,,,,,,
403,2025-01-28 03:01:27,2025-01-28 03:02:18,51.004,,,,,,,
404,2025-01-28 04:36:13,2025-01-28 04:37:03,50.313,,,,,,,
405,2025-01-28 06:10:57,2025-01-28 06:11:47,49.803,,,,,,,
406,2025-01-28 07:45:42,2025-01-28 07:46:32,49.473,,,,,,,
407,2025-01-28 09:20:27,2025-01-28 09:21:16,49.32,,,,,,,
408,2025-01-28 10:55:11,2025-01-28 10:56:00,49.341,,,,,,,
409,2025-01-28 12:29:55,2025-01-28 12:30:45,49.529,,,,,,,
410,2025-01-28 14:04:39,2025-01-28 14:05:29,49.891,,,,,,,
411,2025-01-28 15:39:23,2025-01-28 15:40:14,50.417,,,,,,,
412,2025-01-28 17:14:07,2025-01-28 17:14:58,51.104,,,,,,,
413,2025-01-28 18:48:50,2025-01-28 18:49:42,51.959,,,,,,,
414,2025-01-28 20:23:34,2025-01-28 20:24:27,52.973,,,,,,,
415,2025-01-28 21:58:17,2025-01-28 21:59:11,54.144,,,,,,,
416,2025-01-28 23:33:00,2025-01-28 23:33:55,55.481,,,,,,,
417,2025-01-29 01:07:43,2025-01-29 01:08:40,56.973,,,,,,,
418,2025-01-29 02:42:29,2025-01-29 02:43:24,55.692,,,,,,,
419,2025-01-29 04:17:14,2025-01-29 04:18:09,54.213,,,,,,,
420,2025-01-29 05:52:00,2025-01-29 05:52:53,52.944,,,,,,,
421,2025-01-29 07:26:46,2025-01-29 07:27:37,51.875,,,,,,,
422,2025-01-29 09:01:31,2025-01-29 09:02:22,50.995,,,,,,,
423,2025-01-29 10:36:16,2025-01-29 10:37:06,50.303,,,,,,,
424,2025-01-29 12:11:01,2025-01-29 12:11:51,49.795,,,,,,,
425,2025-01-29 13:45:45,2025-01-29 13:46:35,49.468,,,,,,,
426,2025-01-29 15:20:30,2025-01-29 15:21:19,49.318,,,,,,,
427,2025-01-29 16:55:14,2025-01-29 16:56:04,49.34,,,,,,,
428,2025-01-29 18:29:59,2025-01-29 18:30:48,49.533,,,,,,,
429,2025-01-29 20:04:43,2025-01-29 20:05:32,49.895,,,,,,,
430,2025-01-29 21:39:26,2025-01-29 21:40:17,50.421,,,,,,,
431,2025-01-29 23:14:10,2025-01-29 23:15:01,51.119,,,,,,,
432,2025-01-30 00:48:54,2025-01-30 00:49:46,51.969,,,,,,,
433,2025-01-30 02:23:37,2025-01-30 02:24:30,52.984,,,,,,,
434,2025-01-30 03:58:20,2025-01-30 03:59:14,54.16,,,,,,,
435,2025-01-30 05:33:03,2025-01-30 05:33:59,55.496,,,,,,,
436,2025-01-30 07:07:46,2025-01-30 07:08:43,56.99,,,,,,,
437,2025-01-30 08:42:32,2025-01-30 08:43:28,55.672,,,,,,,
438,2025-01-30 10:17:18,2025-01-30 10:18:12,54.199,,,,,,,
439,2025-01-30 11:52:03,2025-01-30 11:52:56,52.927,,,,,,,
440,2025-01-30 13:26:49,2025-01-30 13:27:41,51.861,,,,,,,
441,2025-01-30 15:01:34,2025-01-30 15:02:25,50.984,,,,,,,
442,2025-01-30 16:36:19,2025-01-30 16:37:10,50.295,,,,,,,
443,2025-01-30 18:11:04,2025-01-30 18:11:54,49.79,,,,,,,
444,2025-01-30 19:45:49,2025-01-30 19:46:38,49.464,,,,,,,
445,2025-01-30 21:20:33,2025-01-30 21:21:23,49.313,,,,,,,
446,2025-01-30 22:55:18,2025-01-30 22:56:07,49.34,,,,,,,
447,2025-01-31 00:30:02,2025-01-31 00:30:51,49.535,,,,,,,
448,2025-01-31 02:04:46,2025-01-31 02:05:36,49.897,,,,,,,
449,2025-01-31 03:39:30,2025-01-31 03:40:20,50.428,,,,,,,
450,2025-01-31 05:14:13,2025-01-31 05:15:05,51.122,,,,,,,
451,2025-01-31 06:48:57,2025-01-31 06:49:49,51.978,,,,,,,
452,2025-01-31 08:23:40,2025-01-31 08:24:33,52.996,,,,,,,
453,2025-01-31 09:58:24,2025-01-31 09:59:18,54.173,,,,,,,
454,2025-01-31 11:33:07,2025-01-31 11:34:02,55.507,,,,,,,
455,2025-01-31 13:07:50,2025-01-31 13:08:47,57.007,,,,,,,
456,2025-01-31 14:42:35,2025-01-31 14:43:31,55.645,,,,,,,
457,2025-01-31 16:17:21,2025-01-31 16:18:15,54.182,,,,,,,
458,2025-01-31 17:52:07,2025-01-31 17:53:00,52.917,,,,,,,
459,2025-01-31 19:26:52,2025-01-31 19:27:44,51.849,,,,,,,
460,2025-01-31 21:01:37,2025-01-31 21:02:28,50.972,,,,,,,
461,2025-01-31 22:36:23,2025-01-31 22:37:13,50.287,,,,,,,
462,2025-02-01 00:11:07,2025-02-01 00:11:57,49.784,,,,,,,
463,2025-02-01 01:45:52,2025-02-01 01:46:42,49.461,,,,,,,
464,2025-02-01 03:20:37,2025-02-01 03:21:26,49.314,,,,,,,
465,2025-02-01 04:55:21,2025-02-01 04:56:10,49.34,,,,,,,
466,2025-02-01 06:30:05,2025-02-01 06:30:55,49.537,,,,,,,
467,2025-02-01 08:04:49,2025-02-01 08:05:39,49.903,,,,,,,
468,2025-02-01 09:39:33,2025-02-01 09:40:24,50.434,,,,,,,
469,2025-02-01 11:14:17,2025-02-01 11:15:08,51.126,,,,,,,
470,2025-02-01 12:49:00,2025-02-01 12:49:52,51.988,,,,,,,
471,2025-02-01 14:23:44,2025-02-01 14:24:37,53.008,,,,,,,
472,2025-02-01 15:58:27,2025-02-01 15:59:21,54.187,,,,,,,
473,2025-02-01 17:33:10,2025-02-01 17:34:05,55.527,,,,,,,
474,2025-02-01 19:07:53,2025-02-01 19:08:50,57.022,,,,,,,
475,2025-02-01 20:42:39,2025-02-01 20:43:34,55.632,,,,,,,
476,2025-02-01 22:17:24,2025-02-01 22:18:19,54.166,,,,,,,
477,2025-02-01 23:52:10,2025-02-01 23:53:03,52.902,,,,,,,
478,2025-02-02 01:26:56,2025-02-02 01:27:47,51.835,,,,,,,
479,2025-02-02 03:01:41,2025-02-02 03:02:32,50.962,,,,,,,
480,2025-02-02 04:36:26,2025-02-02 04:37:16,50.28,,,,,,,
481,2025-02-02 06:11:11,2025-02-02 06:12:01,49.778,,,,,,,
482,2025-02-02 07:45:55,2025-02-02 07:46:45,49.457,,,,,,,
483,2025-02-02 09:20:40,2025-02-02 09:21:29,49.312,,,,,,,
484,2025-02-02 10:55:24,2025-02-02 10:56:14,49.341,,,,,,,
485,2025-02-02 12:30:09,2025-02-02 12:30:58,49.537,,,,,,,
486,2025-02-02 14:04:53,2025-02-02 14:05:42,49.907,,,,,,,
487,2025-02-02 15:39:36,2025-02-02 15:40:27,50.441,,,,,,,
488,2025-02-02 17:14:20,2025-02-02 17:15:11,51.136,,,,,,,
489,2025-02-02 18:49:04,2025-02-02 18:49:56,51.999,,,,,,,
490,2025-02-02 20:23:47,2025-02-02 20:24:40,53.021,,,,,,,
491,2025-02-02 21:58:30,2025-02-02 21:59:24,54.199,,,,,,,
492,2025-02-02 23:33:13,2025-02-02 23:34:09,55.543,,,,,,,
493,2025-02-03 01:07:56,2025-02-03 01:08:53,57.043,,,,,,,
494,2025-02-03 02:42:42,2025-02-03 02:43:38,55.613,,,,,,,
495,2025-02-03 04:17:28,2025-02-03 04:18:22,54.145,,,,,,,
496,2025-02-03 05:52:13,2025-02-03 05:53:06,52.885,,,,,,,
497,2025-02-03 07:26:59,2025-02-03 07:27:51,51.83,,,,,,,
498,2025-02-03 09:01:44,2025-02-03 09:02:35,50.955,,,,,,,
499,2025-02-03 10:36:29,2025-02-03 10:37:19,50.272,,,,,,,
500,2025-02-03 12:11:14,2025-02-03 12:12:04,49.773,,,,,,,
501,2025-02-03 13:45:59,2025-02-03 13:46:48,49.454,,,,,,,
502,2025-02-03 15:20:43,2025-02-03 15:21:33,49.312,,,,,,,
503,2025-02-03 16:55:28,2025-02-03 16:56:17,49.343,,,,,,,
504,2025-02-03 18:30:12,2025-02-03 18:31:01,49.543,,,,,,,
505,2025-02-03 20:04:56,2025-02-03 20:05:46,49.913,,,,,,,
506,2025-02-03 21:39:40,2025-02-03 21:40:30,50.447,,,,,,,
507,2025-02-03 23:14:23,2025-02-03 23:15:15,51.148,,,,,,,
508,2025-02-04 00:49:07,2025-02-04 00:49:59,52.01,,,,,,,
509,2025-02-04 02:23:50,2025-02-04 02:24:43,53.033,,,,,,,
510,2025-02-04 03:58:34,2025-02-04 03:59:28,54.217,,,,,,,
511,2025-02-04 05:33:17,2025-02-04 05:34:12,55.56,,,,,,,
512,2025-02-04 07:07:59,2025-02-04 07:08:57,57.063,,,,,,,
513,2025-02-04 08:42:45,2025-02-04 08:43:41,55.592,,,,,,,
514,2025-02-04 10:17:31,2025-02-04 10:18:25,54.133,,,,,,,
515,2025-02-04 11:52:17,2025-02-04 11:53:10,52.87,,,,,,,
516,2025-02-04 13:27:02,2025-02-04 13:27:54,51.814,,,,,,,
517,2025-02-04 15:01:47,2025-02-04 15:02:38,50.946,,,,,,,
518,2025-02-04 16:36:33,2025-02-04 16:37:23,50.265,,,,,,,
519,2025-02-04 18:11:17,2025-02-04 18:12:07,49.768,,,,,,,
520,2025-02-04 19:46:02,2025-02-04 19:46:52,49.452,,,,,,,
521,2025-02-04 21:20:47,2025-02-04 21:21:36,49.309,,,,,,,
522,2025-02-04 22:55:31,2025-02-04 22:56:20,49.344,,,,,,,
523,2025-02-05 00:30:15,2025-02-05 00:31:05,49.547,,,,,,,
524,2025-02-05 02:04:59,2025-02-05 02:05:49,49.916,,,,,,,
525,2025-02-05 03:39:43,2025-02-05 03:40:34,50.456,,,,,,,
526,2025-02-05 05:14:27,2025-02-05 05:15:18,51.157,,,,,,,
527,2025-02-05 06:49:10,2025-02-05 06:50:02,52.021,,,,,,,
528,2025-02-05 08:23:54,2025-02-05 08:24:47,53.046,,,,,,,
529,2025-02-05 09:58:37,2025-02-05 09:59:31,54.231,,,,,,,
530,2025-02-05 11:33:20,2025-02-05 11:34:15,55.572,,,,,,,
531,2025-02-05 13:08:03,2025-02-05 13:09:00,57.08,,,,,,,
532,2025-02-05 14:42:49,2025-02-05 14:43:44,55.571,,,,,,,
533,2025-02-05 16:17:34,2025-02-05 16:18:29,54.117,,,,,,,
534,2025-02-05 17:52:20,2025-02-05 17:53:13,52.861,,,,,,,
535,2025-02-05 19:27:06,2025-02-05 19:27:57,51.803,,,,,,,
536,2025-02-05 21:01:51,2025-02-05 21:02:42,50.934,,,,,,,
537,2025-02-05 22:36:36,2025-02-05 22:37:26,50.258,,,,,,,
538,2025-02-06 00:11:21,2025-02-06 00:12:11,49.763,,,,,,,
539,2025-02-06 01:46:05,2025-02-06 01:46:55,49.448,,,,,,,
540,2025-02-06 03:20:50,2025-02-06 03:21:39,49.31,,,,,,,
541,2025-02-06 04:55:34,2025-02-06 04:56:24,49.344,,,,,,,
542,2025-02-06 06:30:19,2025-02-06 06:31:08,49.55,,,,,,,
543,2025-02-06 08:05:03,2025-02-06 08:05:52,49.923,,,,,,,
544,2025-02-06 09:39:46,2025-02-06 09:40:37,50.462,,,,,,,
545,2025-02-06 11:14:30,2025-02-06 11:15:21,51.161,,,,,,,
546,2025-02-06 12:49:14,2025-02-06 12:50:06,52.031,,,,,,,
547,2025-02-06 14:23:57,2025-02-06 14:24:50,53.058,,,,,,,
548,2025-02-06 15:58:40,2025-02-06 15:59:34,54.245,,,,,,,
549,2025-02-06 17:33:23,2025-02-06 17:34:19,55.592,,,,,,,
550,2025-02-06 19:08:06,2025-02-06 19:09:03,57.098,,,,,,,
551,2025-02-06 20:42:52,2025-02-06 20:43:48,55.558,,,,,,,
552,2025-02-06 22:17:38,2025-02-06 22:18:32,54.101,,,,,,,
553,2025-02-06 23:52:23,2025-02-06 23:53:16,52.847,,,,,,,
554,2025-02-07 01:27:09,2025-02-07 01:28:01,51.788,,,,,,,
555,2025-02-07 03:01:54,2025-02-07 03:02:45,50.924,,,,,,,
556,2025-02-07 04:36:39,2025-02-07 04:37:29,50.25,,,,,,,
557,2025-02-07 06:11:24,2025-02-07 06:12:14,49.758,,,,,,,
558,2025-02-07 07:46:09,2025-02-07 07:46:58,49.445,,,,,,,
559,2025-02-07 09:20:53,2025-02-07 09:21:43,49.308,,,,,,,
560,2025-02-07 10:55:38,2025-02-07 10:56:27,49.345,,,,,,,
561,2025-02-07 12:30:22,2025-02-07 12:31:11,49.549,,,,,,,
562,2025-02-07 14:05:06,2025-02-07 14:05:56,49.927,,,,,,,
563,2025-02-07 15:39:50,2025-02-07 15:40:40,50.468,,,,,,,
564,2025-02-07 17:14:33,2025-02-07 17:15:25,51.171,,,,,,,
565,2025-02-07 18:49:17,2025-02-07 18:50:09,52.041,,,,,,,
566,2025-02-07 20:24:00,2025-02-07 20:24:53,53.07,,,,,,,
567,2025-02-07 21:58:43,2025-02-07 21:59:38,54.256,,,,,,,
568,2025-02-07 23:33:27,2025-02-07 23:34:22,55.608,,,,,,,
569,2025-02-08 01:08:09,2025-02-08 01:09:07,57.115,,,,,,,
570,2025-02-08 02:42:55,2025-02-08 02:43:51,55.538,,,,,,,
571,2025-02-08 04:17:41,2025-02-08 04:18:35,54.079,,,,,,,
572,2025-02-08 05:52:27,2025-02-08 05:53:20,52.828,,,,,,,
573,2025-02-08 07:27:12,2025-02-08 07:28:04,51.778,,,,,,,
574,2025-02-08 09:01:58,2025-02-08 09:02:48,50.916,,,,,,,
575,2025-02-08 10:36:43,2025-02-08 10:37:33,50.242,,,,,,,
576,2025-02-08 12:11:27,2025-02-08 12:12:17,49.751,,,,,,,
577,2025-02-08 13:46:12,2025-02-08 13:47:02,49.44,,,,,,,
578,2025-02-08 15:20:57,2025-02-08 15:21:46,49.306,,,,,,,
579,2025-02-08 16:55:41,2025-02-08 16:56:30,49.345,,,,,,,
580,2025-02-08 18:30:25,2025-02-08 18:31:15,49.554,,,,,,,
581,2025-02-08 20:05:09,2025-02-08 20:05:59,49.931,,,,,,,
582,2025-02-08 21:39:53,2025-02-08 21:40:44,50.472,,,,,,,
583,2025-02-08 23:14:37,2025-02-08 23:15:28,51.181,,,,,,,
584,2025-02-09 00:49:20,2025-02-09 00:50:12,52.051,,,,,,,
585,2025-02-09 02:24:04,2025-02-09 02:24:57,53.082,,,,,,,
586,2025-02-09 03:58:47,2025-02-09 03:59:41,54.273,,,,,,,
587,2025-02-09 05:33:30,2025-02-09 05:34:25,55.623,,,,,,,
588,2025-02-09 07:08:13,2025-02-09 07:09:10,57.132,,,,,,,
589,2025-02-09 08:42:59,2025-02-09 08:43:54,55.516,,,,,,,
590,2025-02-09 10:17:45,2025-02-09 10:18:39,54.065,,,,,,,
591,2025-02-09 11:52:30,2025-02-09 11:53:23,52.812,,,,,,,
592,2025-02-09 13:27:16,2025-02-09 13:28:07,51.765,,,,,,,
593,2025-02-09 15:02:01,2025-02-09 15:02:52,50.906,,,,,,,
594,2025-02-09 16:36:46,2025-02-09 16:37:36,50.234,,,,,,,
595,2025-02-09 18:11:31,2025-02-09 18:12:21,49.745,,,,,,,
596,2025-02-09 19:46:15,2025-02-09 19:47:05,49.437,,,,,,,
597,2025-02-09 21:21:00,2025-02-09 21:21:49,49.302,,,,,,,
598,2025-02-09 22:55:44,2025-02-09 22:56:34,49.345,,,,,,,
599,2025-02-10 00:30:29,2025-02-10 00:31:18,49.556,,,,,,,
600,2025-02-10 02:05:13,2025-02-10 02:06:02,49.933,,,,,,,
601,2025-02-10 03:39:56,2025-02-10 03:40:47,50.48,,,,,,,
602,2025-02-10 05:14:40,2025-02-10 05:15:31,51.189,,,,,,,
603,2025-02-10 06:49:24,2025-02-10 06:50:16,52.06,,,,,,,
604,2025-02-10 08:24:07,2025-02-10 08:25:00,53.093,,,,,,,
605,2025-02-10 09:58:50,2025-02-10 09:59:44,54.285,,,,,,,
606,2025-02-10 11:33:33,2025-02-10 11:34:29,55.634,,,,,,,
607,2025-02-10 13:08:16,2025-02-10 13:09:13,57.15,,,,,,,
608,2025-02-10 14:43:02,2025-02-10 14:43:58,55.493,,,,,,,
609,2025-02-10 16:17:48,2025-02-10 16:18:42,54.048,,,,,,,
610,2025-02-10 17:52:34,2025-02-10 17:53:26,52.801,,,,,,,
611,2025-02-10 19:27:19,2025-02-10 19:28:11,51.752,,,,,,,
612,2025-02-10 21:02:04,2025-02-10 21:02:55,50.893,,,,,,,
613,2025-02-10 22:36:49,2025-02-10 22:37:39,50.225,,,,,,,
614,2025-02-11 00:11:34,2025-02-11 00:12:24,49.739,,,,,,,
615,2025-02-11 01:46:19,2025-02-11 01:47:08,49.432,,,,,,,
616,2025-02-11 03:21:03,2025-02-11 03:21:53,49.302,,,,,,,
617,2025-02-11 04:55:48,2025-02-11 04:56:37,49.345,,,,,,,
618,2025-02-11 06:30:32,2025-02-11 06:31:21,49.558,,,,,,,
619,2025-02-11 08:05:16,2025-02-11 08:06:06,49.939,,,,,,,
620,2025-02-11 09:40:00,2025-02-11 09:40:50,50.485,,,,,,,
621,2025-02-11 11:14:43,2025-02-11 11:15:35,51.192,,,,,,,
622,2025-02-11 12:49:27,2025-02-11 12:50:19,52.07,,,,,,,
623,2025-02-11 14:24:10,2025-02-11 14:25:03,53.105,,,,,,,
624,2025-02-11 15:58:53,2025-02-11 15:59:48,54.299,,,,,,,
625,2025-02-11 17:33:36,2025-02-11 17:34:32,55.654,,,,,,,
626,2025-02-11 19:08:19,2025-02-11 19:09:16,57.133,,,,,,,
627,2025-02-11 20:43:05,2025-02-11 20:44:01,55.478,,,,,,,
628,2025-02-11 22:17:51,2025-02-11 22:18:45,54.032,,,,,,,
629,2025-02-11 23:52:37,2025-02-11 23:53:30,52.787,,,,,,,
630,2025-02-12 01:27:22,2025-02-12 01:28:14,51.738,,,,,,,
631,2025-02-12 03:02:08,2025-02-12 03:02:58,50.882,,,,,,,
632,2025-02-12 04:36:53,2025-02-12 04:37:43,50.217,,,,,,,
633,2025-02-12 06:11:37,2025-02-12 06:12:27,49.733,,,,,,,
634,2025-02-12 07:46:22,2025-02-12 07:47:12,49.428,,,,,,,
635,2025-02-12 09:21:07,2025-02-12 09:21:56,49.3,,,,,,,
636,2025-02-12 10:55:51,2025-02-12 10:56:40,49.345,,,,,,,
637,2025-02-12 12:30:35,2025-02-12 12:31:25,49.557,,,,,,,
638,2025-02-12 14:05:19,2025-02-12 14:06:09,49.943,,,,,,,
639,2025-02-12 15:40:03,2025-02-12 15:40:53,50.492,,,,,,,
640,2025-02-12 17:14:47,2025-02-12 17:15:38,51.202,,,,,,,
641,2025-02-12 18:49:30,2025-02-12 18:50:22,52.08,,,,,,,
642,2025-02-12 20:24:14,2025-02-12 20:25:07,53.117,,,,,,,
643,2025-02-12 21:58:57,2025-02-12 21:59:51,54.311,,,,,,,
644,2025-02-12 23:33:40,2025-02-12 23:34:35,55.669,,,,,,,
645,2025-02-13 01:08:23,2025-02-13 01:09:20,57.114,,,,,,,
646,2025-02-13 02:43:09,2025-02-13 02:44:04,55.458,,,,,,,
647,2025-02-13 04:17:55,2025-02-13 04:18:49,54.009,,,,,,,
648,2025-02-13 05:52:40,2025-02-13 05:53:33,52.769,,,,,,,
649,2025-02-13 07:27:26,2025-02-13 07:28:17,51.727,,,,,,,
650,2025-02-13 09:02:11,2025-02-13 09:03:02,50.875,,,,,,,
651,2025-02-13 10:36:56,2025-02-13 10:37:46,50.209,,,,,,,
652,2025-02-13 12:11:41,2025-02-13 12:12:31,49.727,,,,,,,
653,2025-02-13 13:46:25,2025-02-13 13:47:15,49.425,,,,,,,
654,2025-02-13 15:21:10,2025-02-13 15:21:59,49.299,,,,,,,
655,2025-02-13 16:55:54,2025-02-13 16:56:44,49.346,,,,,,,
656,2025-02-13 18:30:38,2025-02-13 18:31:28,49.562,,,,,,,
657,2025-02-13 20:05:22,2025-02-13 20:06:12,49.948,,,,,,,
658,2025-02-13 21:40:06,2025-02-13 21:40:57,50.497,,,,,,,
659,2025-02-13 23:14:50,2025-02-13 23:15:41,51.213,,,,,,,
660,2025-02-14 00:49:34,2025-02-14 00:50:26,52.091,,,,,,,
661,2025-02-14 02:24:17,2025-02-14 02:25:10,53.129,,,,,,,
662,2025-02-14 03:59:00,2025-02-14 03:59:54,54.328,,,,,,,
663,2025-02-14 05:33:43,2025-02-14 05:34:39,55.686,,,,,,,
664,2025-02-14 07:08:26,2025-02-14 07:09:23,57.093,,,,,,,
665,2025-02-14 08:43:12,2025-02-14 08:44:08,55.439,,,,,,,
666,2025-02-14 10:17:58,2025-02-14 10:18:52,53.997,,,,,,,
667,2025-02-14 11:52:44,2025-02-14 11:53:36,52.754,,,,,,,
668,2025-02-14 13:27:29,2025-02-14 13:28:21,51.716,,,,,,,
669,2025-02-14 15:02:14,2025-02-14 15:03:05,50.865,,,,,,,
670,2025-02-14 16:36:59,2025-02-14 16:37:49,50.202,,,,,,,
671,2025-02-14 18:11:44,2025-02-14 18:12:34,49.722,,,,,,,
672,2025-02-14 19:46:29,2025-02-14 19:47:18,49.422,,,,,,,
673,2025-02-14 21:21:13,2025-02-14 21:22:03,49.296,,,,,,,
674,2025-02-14 22:55:58,2025-02-14 22:56:47,49.347,,,,,,,
675,2025-02-15 00:30:42,2025-02-15 00:31:31,49.566,,,,,,,
676,2025-02-15 02:05:26,2025-02-15 02:06:16,49.951,,,,,,,
677,2025-02-15 03:40:10,2025-02-15 03:41:00,50.507,,,,,,,
678,2025-02-15 05:14:53,2025-02-15 05:15:45,51.223,,,,,,,
679,2025-02-15 06:49:37,2025-02-15 06:50:29,52.102,,,,,,,
680,2025-02-15 08:24:20,2025-02-15 08:25:13,53.142,,,,,,,
681,2025-02-15 09:59:03,2025-02-15 09:59:58,54.342,,,,,,,
682,2025-02-15 11:33:46,2025-02-15 11:34:42,55.698,,,,,,,
683,2025-02-15 13:08:29,2025-02-15 13:09:26,57.068,,,,,,,
684,2025-02-15 14:43:15,2025-02-15 14:44:11,55.417,,,,,,,
685,2025-02-15 16:18:01,2025-02-15 16:18:55,53.982,,,,,,,
686,2025-02-15 17:52:47,2025-02-15 17:53:40,52.745,,,,,,,
687,2025-02-15 19:27:32,2025-02-15 19:28:24,51.705,,,,,,,
688,2025-02-15 21:02:18,2025-02-15 21:03:08,50.854,,,,,,,
689,2025-02-15 22:37:03,2025-02-15 22:37:53,50.196,,,,,,,
690,2025-02-16 00:11:47,2025-02-16 00:12:37,49.718,,,,,,,
691,2025-02-16 01:46:32,2025-02-16 01:47:22,49.42,,,,,,,
692,2025-02-16 03:21:17,2025-02-16 03:22:06,49.298,,,,,,,
693,2025-02-16 04:56:01,2025-02-16 04:56:50,49.348,,,,,,,
694,2025-02-16 06:30:45,2025-02-16 06:31:35,49.569,,,,,,,
695,2025-02-16 08:05:29,2025-02-16 08:06:19,49.958,,,,,,,
696,2025-02-16 09:40:13,2025-02-16 09:41:03,50.513,,,,,,,
697,2025-02-16 11:14:57,2025-02-16 11:15:48,51.227,,,,,,,
698,2025-02-16 12:49:40,2025-02-16 12:50:32,52.113,,,,,,,
699,2025-02-16 14:24:23,2025-02-16 14:25:17,53.155,,,,,,,
700,2025-02-16 15:59:07,2025-02-16 16:00:01,54.357,,,,,,,
701,2025-02-16 17:33:50,2025-02-16 17:34:45,55.719,,,,,,,
702,2025-02-16 19:08:33,2025-02-16 19:09:30,57.044,,,,,,,
703,2025-02-16 20:43:19,2025-02-16 20:44:14,55.4,,,,,,,
704,2025-02-16 22:18:05,2025-02-16 22:18:59,53.967,,,,,,,
705,2025-02-16 23:52:50,2025-02-16 23:53:43,52.732,,,,,,,
706,2025-02-17 01:27:36,2025-02-17 01:28:27,51.692,,,,,,,
707,2025-02-17 03:02:21,2025-02-17 03:03:12,50.846,,,,,,,
708,2025-02-17 04:37:06,2025-02-17 04:37:56,50.189,,,,,,,
709,2025-02-17 06:11:51,2025-02-17 06:12:41,49.714,,,,,,,
710,2025-02-17 07:46:35,2025-02-17 07:47:25,49.417,,,,,,,
711,2025-02-17 09:21:20,2025-02-17 09:22:09,49.297,,,,,,,
712,2025-02-17 10:56:04,2025-02-17 10:56:54,49.35,,,,,,,
713,2025-02-17 12:30:48,2025-02-17 12:31:38,49.57,,,,,,,
714,2025-02-17 14:05:32,2025-02-17 14:06:22,49.964,,,,,,,
715,2025-02-17 15:40:16,2025-02-17 15:41:07,50.521,,,,,,,
716,2025-02-17 17:15:00,2025-02-17 17:15:51,51.239,,,,,,,
717,2025-02-17 18:49:43,2025-02-17 18:50:36,52.124,,,,,,,
718,2025-02-17 20:24:27,2025-02-17 20:25:20,53.169,,,,,,,
719,2025-02-17 21:59:10,2025-02-17 22:00:04,54.369,,,,,,,
720,2025-02-17 23:33:53,2025-02-17 23:34:49,55.737,,,,,,,
721,2025-02-18 01:08:36,2025-02-18 01:09:33,57.027,,,,,,,
722,2025-02-18 02:43:22,2025-02-18 02:44:18,55.387,,,,,,,
723,2025-02-18 04:18:08,2025-02-18 04:19:02,53.947,,,,,,,
724,2025-02-18 05:52:54,2025-02-18 05:53:46,52.716,,,,,,,
725,2025-02-18 07:27:39,2025-02-18 07:28:31,51.683,,,,,,,
726,2025-02-18 09:02:24,2025-02-18 09:03:15,50.839,,,,,,,
727,2025-02-18 10:37:09,2025-02-18 10:37:59,50.183,,,,,,,
728,2025-02-18 12:11:54,2025-02-18 12:12:44,49.709,,,,,,,
729,2025-02-18 13:46:39,2025-02-18 13:47:28,49.415,,,,,,,
730,2025-02-18 15:21:23,2025-02-18 15:22:13,49.298,,,,,,,
731,2025-02-18 16:56:08,2025-02-18 16:56:57,49.352,,,,,,,
732,2025-02-18 18:30:52,2025-02-18 18:31:41,49.577,,,,,,,
733,2025-02-18 20:05:36,2025-02-18 20:06:26,49.97,,,,,,,
734,2025-02-18 21:40:20,2025-02-18 21:41:10,50.527,,,,,,,
735,2025-02-18 23:15:03,2025-02-18 23:15:55,51.251,,,,,,,
736,2025-02-19 00:49:47,2025-02-19 00:50:39,52.136,,,,,,,
737,2025-02-19 02:24:30,2025-02-19 02:25:23,53.182,,,,,,,
738,2025-02-19 03:59:13,2025-02-19 04:00:08,54.39,,,,,,,
739,2025-02-19 05:33:56,2025-02-19 05:34:52,55.754,,,,,,,
740,2025-02-19 07:08:39,2025-02-19 07:09:36,57.008,,,,,,,
741,2025-02-19 08:43:25,2025-02-19 08:44:21,55.368,,,,,,,
742,2025-02-19 10:18:11,2025-02-19 10:19:05,53.936,,,,,,,
743,2025-02-19 11:52:57,2025-02-19 11:53:50,52.701,,,,,,,
744,2025-02-19 13:27:42,2025-02-19 13:28:34,51.672,,,,,,,
745,2025-02-19 15:02:28,2025-02-19 15:03:18,50.831,,,,,,,
746,2025-02-19 16:37:13,2025-02-19 16:38:03,50.177,,,,,,,
747,2025-02-19 18:11:57,2025-02-19 18:12:47,49.705,,,,,,,
748,2025-02-19 19:46:42,2025-02-19 19:47:32,49.413,,,,,,,
749,2025-02-19 21:21:27,2025-02-19 21:22:16,49.295,,,,,,,
750,2025-02-19 22:56:11,2025-02-19 22:57:00,49.354,,,,,,,
751,2025-02-20 00:30:55,2025-02-20 00:31:45,49.581,,,,,,,
752,2025-02-20 02:05:39,2025-02-20 02:06:29,49.974,,,,,,,
753,2025-02-20 03:40:23,2025-02-20 03:41:13,50.537,,,,,,,
754,2025-02-20 05:15:07,2025-02-20 05:15:58,51.261,,,,,,,
755,2025-02-20 06:49:50,2025-02-20 06:50:42,52.148,,,,,,,
756,2025-02-20 08:24:33,2025-02-20 08:25:27,53.195,,,,,,,
757,2025-02-20 09:59:17,2025-02-20 10:00:11,54.403,,,,,,,
758,2025-02-20 11:34:00,2025-02-20 11:34:55,55.767,,,,,,,
759,2025-02-20 13:08:43,2025-02-20 13:09:40,56.987,,,,,,,
760,2025-02-20 14:43:29,2025-02-20 14:44:24,55.346,,,,,,,
761,2025-02-20 16:18:15,2025-02-20 16:19:09,53.92,,,,,,,
762,2025-02-20 17:53:00,2025-02-20 17:53:53,52.693,,,,,,,
763,2025-02-20 19:27:46,2025-02-20 19:28:37,51.662,,,,,,,
764,2025-02-20 21:02:31,2025-02-20 21:03:22,50.82,,,,,,,
765,2025-02-20 22:37:16,2025-02-20 22:38:06,50.17,,,,,,,
766,2025-02-21 00:12:01,2025-02-21 00:12:50,49.701,,,,,,,
767,2025-02-21 01:46:45,2025-02-21 01:47:35,49.406,,,,,,,
768,2025-02-21 03:21:30,2025-02-21 03:22:19,49.297,,,,,,,
769,2025-02-21 04:56:14,2025-02-21 04:57:04,49.356,,,,,,,
770,2025-02-21 06:30:58,2025-02-21 06:31:48,49.585,,,,,,,
771,2025-02-21 08:05:42,2025-02-21 08:06:32,49.982,,,,,,,
772,2025-02-21 09:40:26,2025-02-21 09:41:17,50.544,,,,,,,
773,2025-02-21 11:15:10,2025-02-21 11:16:01,51.266,,,,,,,
774,2025-02-21 12:49:53,2025-02-21 12:50:46,52.159,,,,,,,
775,2025-02-21 14:24:37,2025-02-21 14:25:30,53.209,,,,,,,
776,2025-02-21 15:59:20,2025-02-21 16:00:14,54.418,,,,,,,
777,2025-02-21 17:34:03,2025-02-21 17:34:59,55.788,,,,,,,
778,2025-02-21 19:08:46,2025-02-21 19:09:43,56.963,,,,,,,
779,2025-02-21 20:43:32,2025-02-21 20:44:28,55.33,,,,,,,
780,2025-02-21 22:18:18,2025-02-21 22:19:12,53.906,,,,,,,
781,2025-02-21 23:53:04,2025-02-21 23:53:56,52.679,,,,,,,
782,2025-02-22 01:27:49,2025-02-22 01:28:41,51.649,,,,,,,
783,2025-02-22 03:02:34,2025-02-22 03:03:25,50.811,,,,,,,
784,2025-02-22 04:37:19,2025-02-22 04:38:09,50.163,,,,,,,
785,2025-02-22 06:12:04,2025-02-22 06:12:54,49.696,,,,,,,
786,2025-02-22 07:46:49,2025-02-22 07:47:38,49.408,,,,,,,
787,2025-02-22 09:21:33,2025-02-22 09:22:23,49.296,,,,,,,
788,2025-02-22 10:56:18,2025-02-22 10:57:07,49.357,,,,,,,
789,2025-02-22 12:31:02,2025-02-22 12:31:51,49.585,,,,,,,
790,2025-02-22 14:05:46,2025-02-22 14:06:36,49.986,,,,,,,
791,2025-02-22 15:40:30,2025-02-22 15:41:20,50.551,,,,,,,
792,2025-02-22 17:15:13,2025-02-22 17:16:05,51.277,,,,,,,
793,2025-02-22 18:49:57,2025-02-22 18:50:49,52.17,,,,,,,
794,2025-02-22 20:24:40,2025-02-22 20:25:33,53.221,,,,,,,
795,2025-02-22 21:59:23,2025-02-22 22:00:18,54.433,,,,,,,
796,2025-02-22 23:34:06,2025-02-22 23:35:02,55.804,,,,,,,
797,2025-02-23 01:08:50,2025-02-23 01:09:46,56.946,,,,,,,
798,2025-02-23 02:43:36,2025-02-23 02:44:31,55.311,,,,,,,
799,2025-02-23 04:18:21,2025-02-23 04:19:15,53.884,,,,,,,
800,2025-02-23 05:53:07,2025-02-23 05:54:00,52.662,,,,,,,
801,2025-02-23 07:27:52,2025-02-23 07:28:44,51.639,,,,,,,
802,2025-02-23 09:02:38,2025-02-23 09:03:28,50.804,,,,,,,
803,2025-02-23 10:37:23,2025-02-23 10:38:13,50.156,,,,,,,
804,2025-02-23 12:12:07,2025-02-23 12:12:57,49.691,,,,,,,
805,2025-02-23 13:46:52,2025-02-23 13:47:42,49.405,,,,,,,
806,2025-02-23 15:21:37,2025-02-23 15:22:26,49.296,,,,,,,
807,2025-02-23 16:56:21,2025-02-23 16:57:10,49.358,,,,,,,
808,2025-02-23 18:31:05,2025-02-23 18:31:55,49.591,,,,,,,
809,2025-02-23 20:05:49,2025-02-23 20:06:39,49.992,,,,,,,
810,2025-02-23 21:40:33,2025-02-23 21:41:23,50.556,,,,,,,
811,2025-02-23 23:15:17,2025-02-23 23:16:08,51.288,,,,,,,
812,2025-02-24 00:50:00,2025-02-24 00:50:52,52.181,,,,,,,
813,2025-02-24 02:24:43,2025-02-24 02:25:37,53.234,,,,,,,
814,2025-02-24 03:59:27,2025-02-24 04:00:21,54.447,,,,,,,
815,2025-02-24 05:34:10,2025-02-24 05:35:05,55.821,,,,,,,
816,2025-02-24 07:08:53,2025-02-24 07:09:50,56.925,,,,,,,
817,2025-02-24 08:43:39,2025-02-24 08:44:34,55.295,,,,,,,
818,2025-02-24 10:18:25,2025-02-24 10:19:19,53.872,,,,,,,
819,2025-02-24 11:53:10,2025-02-24 11:54:03,52.648,,,,,,,
820,2025-02-24 13:27:56,2025-02-24 13:28:47,51.627,,,,,,,
821,2025-02-24 15:02:41,2025-02-24 15:03:32,50.795,,,,,,,
822,2025-02-24 16:37:26,2025-02-24 16:38:16,50.149,,,,,,,
823,2025-02-24 18:12:11,2025-02-24 18:13:00,49.686,,,,,,,
824,2025-02-24 19:46:55,2025-02-24 19:47:45,49.402,,,,,,,
825,2025-02-24 21:21:40,2025-02-24 21:22:29,49.292,,,,,,,
826,2025-02-24 22:56:24,2025-02-24 22:57:14,49.359,,,,,,,
827,2025-02-25 00:31:08,2025-02-25 00:31:58,49.594,,,,,,,
828,2025-02-25 02:05:52,2025-02-25 02:06:42,49.995,,,,,,,
829,2025-02-25 03:40:36,2025-02-25 03:41:27,50.565,,,,,,,
830,2025-02-25 05:15:20,2025-02-25 05:16:11,51.297,,,,,,,
831,2025-02-25 06:50:03,2025-02-25 06:50:56,52.191,,,,,,,
832,2025-02-25 08:24:47,2025-02-25 08:25:40,53.246,,,,,,,
833,2025-02-25 09:59:30,2025-02-25 10:00:24,54.461,,,,,,,
834,2025-02-25 11:34:13,2025-02-25 11:35:09,55.833,,,,,,,
835,2025-02-25 13:08:56,2025-02-25 13:09:53,56.903,,,,,,,
836,2025-02-25 14:43:42,2025-02-25 14:44:37,55.27,,,,,,,
837,2025-02-25 16:18:28,2025-02-25 16:19:22,53.856,,,,,,,
838,2025-02-25 17:53:14,2025-02-25 17:54:06,52.637,,,,,,,
839,2025-02-25 19:27:59,2025-02-25 19:28:51,51.615,,,,,,,
840,2025-02-25 21:02:44,2025-02-25 21:03:35,50.782,,,,,,,
841,2025-02-25 22:37:29,2025-02-25 22:38:19,50.141,,,,,,,
842,2025-02-26 00:12:14,2025-02-26 00:13:04,49.68,,,,,,,
843,2025-02-26 01:46:59,2025-02-26 01:47:48,49.394,,,,,,,
844,2025-02-26 03:21:43,2025-02-26 03:22:33,49.293,,,,,,,
845,2025-02-26 04:56:28,2025-02-26 04:57:17,49.36,,,,,,,
846,2025-02-26 06:31:12,2025-02-26 06:32:01,49.596,,,,,,,
847,2025-02-26 08:05:56,2025-02-26 08:06:46,50.001,,,,,,,
848,2025-02-26 09:40:40,2025-02-26 09:41:30,50.571,,,,,,,
849,2025-02-26 11:15:23,2025-02-26 11:16:15,51.301,,,,,,,
850,2025-02-26 12:50:07,2025-02-26 12:50:59,52.201,,,,,,,
851,2025-02-26 14:24:50,2025-02-26 14:25:43,53.259,,,,,,,
852,2025-02-26 15:59:33,2025-02-26 16:00:28,54.475,,,,,,,
853,2025-02-26 17:34:16,2025-02-26 17:35:12,55.853,,,,,,,
854,2025-02-26 19:09:00,2025-02-26 19:09:56,56.878,,,,,,,
855,2025-02-26 20:43:46,2025-02-26 20:44:41,55.255,,,,,,,
856,2025-02-26 22:18:31,2025-02-26 22:19:25,53.84,,,,,,,
857,2025-02-26 23:53:17,2025-02-26 23:54:10,52.623,,,,,,,
858,2025-02-27 01:28:02,2025-02-27 01:28:54,51.602,,,,,,,
859,2025-02-27 03:02:48,2025-02-27 03:03:38,50.773,,,,,,,
860,2025-02-27 04:37:33,2025-02-27 04:38:23,50.134,,,,,,,
861,2025-02-27 06:12:17,2025-02-27 06:13:07,49.675,,,,,,,
862,2025-02-27 07:47:02,2025-02-27 07:47:52,49.395,,,,,,,
863,2025-02-27 09:21:47,2025-02-27 09:22:36,49.292,,,,,,,
864,2025-02-27 10:56:31,2025-02-27 10:57:20,49.36,,,,,,,
865,2025-02-27 12:31:15,2025-02-27 12:32:05,49.596,,,,,,,
866,2025-02-27 14:05:59,2025-02-27 14:06:49,50.006,,,,,,,
867,2025-02-27 15:40:43,2025-02-27 15:41:33,50.578,,,,,,,
868,2025-02-27 17:15:27,2025-02-27 17:16:18,51.311,,,,,,,
869,2025-02-27 18:50:10,2025-02-27 18:51:02,52.212,,,,,,,
870,2025-02-27 20:24:53,2025-02-27 20:25:47,53.271,,,,,,,
871,2025-02-27 21:59:37,2025-02-27 22:00:31,54.49,,,,,,,
872,2025-02-27 23:34:20,2025-02-27 23:35:15,55.869,,,,,,,
873,2025-02-28 01:09:03,2025-02-28 01:10:00,56.861,,,,,,,
874,2025-02-28 02:43:49,2025-02-28 02:44:44,55.237,,,,,,,
875,2025-02-28 04:18:35,2025-02-28 04:19:29,53.819,,,,,,,
876,2025-02-28 05:53:20,2025-02-28 05:54:13,52.606,,,,,,,
877,2025-02-28 07:28:06,2025-02-28 07:28:57,51.592,,,,,,,
878,2025-02-28 09:02:51,2025-02-28 09:03:42,50.766,,,,,,,
879,2025-02-28 10:37:36,2025-02-28 10:38:26,50.127,,,,,,,
880,2025-02-28 12:12:21,2025-02-28 12:13:10,49.67,,,,,,,
881,2025-02-28 13:47:05,2025-02-28 13:47:55,49.393,,,,,,,
882,2025-02-28 15:21:50,2025-02-28 15:22:39,49.291,,,,,,,
883,2025-02-28 16:56:34,2025-02-28 16:57:24,49.362,,,,,,,
884,2025-02-28 18:31:18,2025-02-28 18:32:08,49.603,,,,,,,
885,2025-02-28 20:06:02,2025-02-28 20:06:52,50.012,,,,,,,
886,2025-02-28 21:40:46,2025-02-28 21:41:37,50.584,,,,,,,
887,2025-02-28 23:15:30,2025-02-28 23:16:21,51.323,,,,,,,
888,2025-03-01 00:50:13,2025-03-01 00:51:06,52.224,,,,,,,
889,2025-03-01 02:24:57,2025-03-01 02:25:50,53.285,,,,,,,
890,2025-03-01 03:59:40,2025-03-01 04:00:34,54.506,,,,,,,
891,2025-03-01 05:34:23,2025-03-01 05:35:19,55.886,,,,,,,
892,2025-03-01 07:09:06,2025-03-01 07:10:03,56.841,,,,,,,
893,2025-03-01 08:43:52,2025-03-01 08:44:47,55.218,,,,,,,
894,2025-03-01 10:18:38,2025-03-01 10:19:32,53.808,,,,,,,
895,2025-03-01 11:53:24,2025-03-01 11:54:16,52.592,,,,,,,
896,2025-03-01 13:28:09,2025-03-01 13:29:01,51.581,,,,,,,
897,2025-03-01 15:02:54,2025-03-01 15:03:45,50.758,,,,,,,
898,2025-03-01 16:37:39,2025-03-01 16:38:29,50.121,,,,,,,
899,2025-03-01 18:12:24,2025-03-01 18:13:14,49.666,,,,,,,
900,2025-03-01 19:47:09,2025-03-01 19:47:58,49.391,,,,,,,
901,2025-03-01 21:21:53,2025-03-01 21:22:43,49.289,,,,,,,
902,2025-03-01 22:56:38,2025-03-01 22:57:27,49.365,,,,,,,
903,2025-03-02 00:31:22,2025-03-02 00:32:11,49.608,,,,,,,
904,2025-03-02 02:06:06,2025-03-02 02:06:56,50.016,,,,,,,
905,2025-03-02 03:40:50,2025-03-02 03:41:40,50.594,,,,,,,
906,2025-03-02 05:15:33,2025-03-02 05:16:24,51.334,,,,,,,
907,2025-03-02 06:50:17,2025-03-02 06:51:09,52.235,,,,,,,
908,2025-03-02 08:25:00,2025-03-02 08:25:53,53.298,,,,,,,
909,2025-03-02 09:59:43,2025-03-02 10:00:38,54.521,,,,,,,
910,2025-03-02 11:34:26,2025-03-02 11:35:22,55.9,,,,,,,
911,2025-03-02 13:09:10,2025-03-02 13:10:06,56.821,,,,,,,
912,2025-03-02 14:43:56,2025-03-02 14:44:51,55.2,,,,,,,
913,2025-03-02 16:18:41,2025-03-02 16:19:35,53.794,,,,,,,
914,2025-03-02 17:53:27,2025-03-02 17:54:20,52.584,,,,,,,
915,2025-03-02 19:28:12,2025-03-02 19:29:04,51.572,,,,,,,
916,2025-03-02 21:02:58,2025-03-02 21:03:48,50.748,,,,,,,
917,2025-03-02 22:37:43,2025-03-02 22:38:33,50.115,,,,,,,
918,2025-03-03 00:12:27,2025-03-03 00:13:17,49.663,,,,,,,
919,2025-03-03 01:47:12,2025-03-03 01:48:02,49.385,,,,,,,
920,2025-03-03 03:21:57,2025-03-03 03:22:46,49.292,,,,,,,
921,2025-03-03 04:56:41,2025-03-03 04:57:30,49.367,,,,,,,
922,2025-03-03 06:31:25,2025-03-03 06:32:15,49.612,,,,,,,
923,2025-03-03 08:06:09,2025-03-03 08:06:59,50.027,,,,,,,
924,2025-03-03 09:40:53,2025-03-03 09:41:43,50.602,,,,,,,
925,2025-03-03 11:15:36,2025-03-03 11:16:28,51.34,,,,,,,
926,2025-03-03 12:50:20,2025-03-03 12:51:12,52.248,,,,,,,
927,2025-03-03 14:25:03,2025-03-03 14:25:57,53.313,,,,,,,
928,2025-03-03 15:59:46,2025-03-03 16:00:41,54.537,,,,,,,
929,2025-03-03 17:34:29,2025-03-03 17:35:25,55.922,,,,,,,
930,2025-03-03 19:09:13,2025-03-03 19:10:10,56.799,,,,,,,
931,2025-03-03 20:43:59,2025-03-03 20:44:54,55.187,,,,,,,
932,2025-03-03 22:18:45,2025-03-03 22:19:39,53.78,,,,,,,
933,2025-03-03 23:53:30,2025-03-03 23:54:23,52.573,,,,,,,
934,2025-03-04 01:28:16,2025-03-04 01:29:07,51.56,,,,,,,
935,2025-03-04 03:03:01,2025-03-04 03:03:52,50.741,,,,,,,
936,2025-03-04 04:37:46,2025-03-04 04:38:36,50.11,,,,,,,
937,2025-03-04 06:12:31,2025-03-04 06:13:20,49.66,,,,,,,
938,2025-03-04 07:47:15,2025-03-04 07:48:05,49.389,,,,,,,
939,2025-03-04 09:22:00,2025-03-04 09:22:49,49.293,,,,,,,
940,2025-03-04 10:56:44,2025-03-04 10:57:34,49.37,,,,,,,
941,2025-03-04 12:31:28,2025-03-04 12:32:18,49.614,,,,,,,
942,2025-03-04 14:06:12,2025-03-04 14:07:02,50.031,,,,,,,
943,2025-03-04 15:40:56,2025-03-04 15:41:47,50.612,,,,,,,
944,2025-03-04 17:15:40,2025-03-04 17:16:31,51.352,,,,,,,
945,2025-03-04 18:50:23,2025-03-04 18:51:16,52.261,,,,,,,
946,2025-03-04 20:25:07,2025-03-04 20:26:00,53.327,,,,,,,
947,2025-03-04 21:59:50,2025-03-04 22:00:44,54.553,,,,,,,
948,2025-03-04 23:34:33,2025-03-04 23:35:29,55.94,,,,,,,
949,2025-03-05 01:09:16,2025-03-05 01:10:13,56.783,,,,,,,
950,2025-03-05 02:44:02,2025-03-05 02:44:57,55.17,,,,,,,
951,2025-03-05 04:18:48,2025-03-05 04:19:42,53.761,,,,,,,
952,2025-03-05 05:53:34,2025-03-05 05:54:26,52.558,,,,,,,
953,2025-03-05 07:28:19,2025-03-05 07:29:11,51.553,,,,,,,
954,2025-03-05 09:03:04,2025-03-05 09:03:55,50.735,,,,,,,
955,2025-03-05 10:37:49,2025-03-05 10:38:39,50.105,,,,,,,
956,2025-03-05 12:12:34,2025-03-05 12:13:24,49.657,,,,,,,
957,2025-03-05 13:47:19,2025-03-05 13:48:08,49.388,,,,,,,
958,2025-03-05 15:22:03,2025-03-05 15:22:53,49.294,,,,,,,
959,2025-03-05 16:56:48,2025-03-05 16:57:37,49.373,,,,,,,
960,2025-03-05 18:31:32,2025-03-05 18:32:21,49.622,,,,,,,
961,2025-03-05 20:06:16,2025-03-05 20:07:06,50.039,,,,,,,
962,2025-03-05 21:40:59,2025-03-05 21:41:50,50.619,,,,,,,
963,2025-03-05 23:15:43,2025-03-05 23:16:34,51.366,,,,,,,
964,2025-03-06 00:50:27,2025-03-06 00:51:19,52.273,,,,,,,
965,2025-03-06 02:25:10,2025-03-06 02:26:03,53.342,,,,,,,
966,2025-03-06 03:59:53,2025-03-06 04:00:48,54.57,,,,,,,
967,2025-03-06 05:34:36,2025-03-06 05:35:32,55.958,,,,,,,
968,2025-03-06 07:09:20,2025-03-06 07:10:16,56.764,,,,,,,
969,2025-03-06 08:44:06,2025-03-06 08:45:01,55.154,,,,,,,
970,2025-03-06 10:18:51,2025-03-06 10:19:45,53.75,,,,,,,
971,2025-03-06 11:53:37,2025-03-06 11:54:30,52.544,,,,,,,
972,2025-03-06 13:28:22,2025-03-06 13:29:14,51.542,,,,,,,
973,2025-03-06 15:03:08,2025-03-06 15:03:58,50.728,,,,,,,
974,2025-03-06 16:37:53,2025-03-06 16:38:43,50.099,,,,,,,
975,2025-03-06 18:12:37,2025-03-06 18:13:27,49.653,,,,,,,
976,2025-03-06 19:47:22,2025-03-06 19:48:12,49.386,,,,,,,
977,2025-03-06 21:22:07,2025-03-06 21:22:56,49.293,,,,,,,
978,2025-03-06 22:56:51,2025-03-06 22:57:40,49.376,,,,,,,
979,2025-03-07 00:31:35,2025-03-07 00:32:25,49.627,,,,,,,
980,2025-03-07 02:06:19,2025-03-07 02:07:09,50.043,,,,,,,
981,2025-03-07 03:41:03,2025-03-07 03:41:53,50.628,,,,,,,
982,2025-03-07 05:15:46,2025-03-07 05:16:38,51.376,,,,,,,
983,2025-03-07 06:50:30,2025-03-07 06:51:22,52.285,,,,,,,
984,2025-03-07 08:25:13,2025-03-07 08:26:07,53.355,,,,,,,
985,2025-03-07 09:59:56,2025-03-07 10:00:51,54.585,,,,,,,
986,2025-03-07 11:34:39,2025-03-07 11:35:35,55.972,,,,,,,
987,2025-03-07 13:09:23,2025-03-07 13:10:20,56.744,,,,,,,
988,2025-03-07 14:44:09,2025-03-07 14:45:04,55.133,,,,,,,
989,2025-03-07 16:18:55,2025-03-07 16:19:49,53.736,,,,,,,
990,2025-03-07 17:53:40,2025-03-07 17:54:33,52.536,,,,,,,
991,2025-03-07 19:28:26,2025-03-07 19:29:17,51.532,,,,,,,
992,2025-03-07 21:03:11,2025-03-07 21:04:02,50.717,,,,,,,
993,2025-03-07 22:37:56,2025-03-07 22:38:46,50.093,,,,,,,
994,2025-03-08 00:12:41,2025-03-08 00:13:30,49.649,,,,,,,
995,2025-03-08 01:47:25,2025-03-08 01:48:15,49.38,,,,,,,
996,2025-03-08 03:22:10,2025-03-08 03:22:59,49.295,,,,,,,
997,2025-03-08 04:56:54,2025-03-08 04:57:44,49.378,,,,,,,
998,2025-03-08 06:31:38,2025-03-08 06:32:28,49.63,,,,,,,
999,2025-03-08 08:06:22,2025-03-08 08:07:12,50.05,,,,,,,
1000,2025-03-08 09:41:06,2025-03-08 09:41:57,50.636,,,,,,,
1001,2025-03-08 11:15:50,2025-03-08 11:16:41,51.381,,,,,,,
1002,2025-03-08 12:50:33,2025-03-08 12:51:26,52.296,,,,,,,
1003,2025-03-08 14:25:17,2025-03-08 14:26:10,53.369,,,,,,,
1004,2025-03-08 16:00:00,2025-03-08 16:00:54,54.601,,,,,,,
1005,2025-03-08 17:34:43,2025-03-08 17:35:39,55.993,,,,,,,
1006,2025-03-08 19:09:26,2025-03-08 19:10:23,56.721,,,,,,,
1007,2025-03-08 20:44:12,2025-03-08 20:45:07,55.118,,,,,,,
1008,2025-03-08 22:18:58,2025-03-08 22:19:52,53.721,,,,,,,
1009,2025-03-08 23:53:44,2025-03-08 23:54:36,52.523,,,,,,,
1010,2025-03-09 01:28:29,2025-03-09 01:29:21,51.52,,,,,,,
1011,2025-03-09 03:03:14,2025-03-09 03:04:05,50.708,,,,,,,
1012,2025-03-09 04:37:59,2025-03-09 04:38:49,50.087,,,,,,,
1013,2025-03-09 06:12:44,2025-03-09 06:13:34,49.645,,,,,,,
1014,2025-03-09 07:47:29,2025-03-09 07:48:18,49.382,,,,,,,
1015,2025-03-09 09:22:13,2025-03-09 09:23:03,49.294,,,,,,,
1016,2025-03-09 10:56:58,2025-03-09 10:57:47,49.379,,,,,,,
1017,2025-03-09 12:31:42,2025-03-09 12:32:31,49.63,,,,,,,
1018,2025-03-09 14:06:26,2025-03-09 14:07:16,50.056,,,,,,,
1019,2025-03-09 15:41:09,2025-03-09 15:42:00,50.644,,,,,,,
1020,2025-03-09 17:15:53,2025-03-09 17:16:44,51.392,,,,,,,
1021,2025-03-09 18:50:37,2025-03-09 18:51:29,52.308,,,,,,,
1022,2025-03-09 20:25:20,2025-03-09 20:26:13,53.382,,,,,,,
1023,2025-03-09 22:00:03,2025-03-09 22:00:58,54.615,,,,,,,
1024,2025-03-09 23:34:46,2025-03-09 23:35:42,56.009,,,,,,,
1025,2025-03-10 01:09:30,2025-03-10 01:10:26,56.704,,,,,,,
1026,2025-03-10 02:44:16,2025-03-10 02:45:11,55.101,,,,,,,
1027,2025-03-10 04:19:01,2025-03-10 04:19:55,53.7,,,,,,,
1028,2025-03-10 05:53:47,2025-03-10 05:54:40,52.507,,,,,,,
1029,2025-03-10 07:28:32,2025-03-10 07:29:24,51.51,,,,,,,
1030,2025-03-10 09:03:18,2025-03-10 09:04:08,50.702,,,,,,,
1031,2025-03-10 10:38:03,2025-03-10 10:38:53,50.08,,,,,,,
1032,2025-03-10 12:12:47,2025-03-10 12:13:37,49.64,,,,,,,
1033,2025-03-10 13:47:32,2025-03-10 13:48:21,49.379,,,,,,,
