3UCubedIntegratedSim/Reports & Plots/Area Target Access Data/CSV/Sat3.csv

Access,Start Time (UTCG),Stop Time (UTCG),Duration (sec),,,Global Statistics,,,,
1,2025-01-01 16:16:55,2025-01-01 16:23:10,374.433,,,Min Duration,2306,2025-06-02 07:52:05,2025-06-02 07:58:19,374.351
2,2025-01-01 17:51:40,2025-01-01 17:57:54,374.438,,,Max Duration,4804,2025-11-13 16:12:00,2025-11-13 16:18:15,374.685
3,2025-01-01 19:26:24,2025-01-01 19:32:39,374.435,,,Mean Duration,,,,374.485
4,2025-01-01 21:01:09,2025-01-01 21:07:23,374.433,,,Total Duration,,,,2077645.539
5,2025-01-01 22:35:53,2025-01-01 22:42:07,374.433,,,,,,,
6,2025-01-02 00:10:37,2025-01-02 00:16:52,374.433,,,,,,,
7,2025-01-02 01:45:22,2025-01-02 01:51:36,374.434,,,,,,,
8,2025-01-02 03:20:06,2025-01-02 03:26:21,374.433,,,,,,,
9,2025-01-02 04:54:51,2025-01-02 05:01:05,374.436,,,,,,,
10,2025-01-02 06:29:35,2025-01-02 06:35:49,374.433,,,,,,,
11,2025-01-02 08:04:19,2025-01-02 08:10:34,374.437,,,,,,,
12,2025-01-02 09:39:04,2025-01-02 09:45:18,374.435,,,,,,,
13,2025-01-02 11:13:48,2025-01-02 11:20:02,374.434,,,,,,,
14,2025-01-02 12:48:32,2025-01-02 12:54:47,374.434,,,,,,,
15,2025-01-02 14:23:17,2025-01-02 14:29:31,374.436,,,,,,,
16,2025-01-02 15:58:01,2025-01-02 16:04:16,374.44,,,,,,,
17,2025-01-02 17:32:46,2025-01-02 17:39:00,374.436,,,,,,,
18,2025-01-02 19:07:30,2025-01-02 19:13:44,374.434,,,,,,,
19,2025-01-02 20:42:14,2025-01-02 20:48:29,374.434,,,,,,,
20,2025-01-02 22:16:59,2025-01-02 22:23:13,374.439,,,,,,,
21,2025-01-02 23:51:43,2025-01-02 23:57:58,374.435,,,,,,,
22,2025-01-03 01:26:28,2025-01-03 01:32:42,374.438,,,,,,,
23,2025-01-03 03:01:12,2025-01-03 03:07:26,374.438,,,,,,,
24,2025-01-03 04:35:56,2025-01-03 04:42:11,374.435,,,,,,,
25,2025-01-03 06:10:41,2025-01-03 06:16:55,374.435,,,,,,,
26,2025-01-03 07:45:25,2025-01-03 07:51:39,374.434,,,,,,,
27,2025-01-03 09:20:09,2025-01-03 09:26:24,374.434,,,,,,,
28,2025-01-03 10:54:54,2025-01-03 11:01:08,374.435,,,,,,,
29,2025-01-03 12:29:38,2025-01-03 12:35:53,374.435,,,,,,,
30,2025-01-03 14:04:23,2025-01-03 14:10:37,374.436,,,,,,,
31,2025-01-03 15:39:07,2025-01-03 15:45:21,374.444,,,,,,,
32,2025-01-03 17:13:51,2025-01-03 17:20:06,374.435,,,,,,,
33,2025-01-03 18:48:36,2025-01-03 18:54:50,374.435,,,,,,,
34,2025-01-03 20:23:20,2025-01-03 20:29:35,374.44,,,,,,,
35,2025-01-03 21:58:05,2025-01-03 22:04:19,374.44,,,,,,,
36,2025-01-03 23:32:49,2025-01-03 23:39:03,374.435,,,,,,,
37,2025-01-04 01:07:33,2025-01-04 01:13:48,374.438,,,,,,,
38,2025-01-04 02:42:18,2025-01-04 02:48:32,374.44,,,,,,,
39,2025-01-04 04:17:02,2025-01-04 04:23:17,374.435,,,,,,,
40,2025-01-04 05:51:46,2025-01-04 05:58:01,374.44,,,,,,,
41,2025-01-04 07:26:31,2025-01-04 07:32:45,374.435,,,,,,,
42,2025-01-04 09:01:15,2025-01-04 09:07:30,374.435,,,,,,,
43,2025-01-04 10:36:00,2025-01-04 10:42:14,374.435,,,,,,,
44,2025-01-04 12:10:44,2025-01-04 12:16:58,374.436,,,,,,,
45,2025-01-04 13:45:28,2025-01-04 13:51:43,374.437,,,,,,,
46,2025-01-04 15:20:13,2025-01-04 15:26:27,374.445,,,,,,,
47,2025-01-04 16:54:57,2025-01-04 17:01:12,374.436,,,,,,,
48,2025-01-04 18:29:42,2025-01-04 18:35:56,374.442,,,,,,,
49,2025-01-04 20:04:26,2025-01-04 20:10:40,374.441,,,,,,,
50,2025-01-04 21:39:10,2025-01-04 21:45:25,374.436,,,,,,,
51,2025-01-04 23:13:55,2025-01-04 23:20:09,374.44,,,,,,,
52,2025-01-05 00:48:39,2025-01-05 00:54:54,374.436,,,,,,,
53,2025-01-05 02:23:23,2025-01-05 02:29:38,374.436,,,,,,,
54,2025-01-05 03:58:08,2025-01-05 04:04:22,374.44,,,,,,,
55,2025-01-05 05:32:52,2025-01-05 05:39:07,374.437,,,,,,,
56,2025-01-05 07:07:37,2025-01-05 07:13:51,374.437,,,,,,,
57,2025-01-05 08:42:21,2025-01-05 08:48:35,374.436,,,,,,,
58,2025-01-05 10:17:05,2025-01-05 10:23:20,374.436,,,,,,,
59,2025-01-05 11:51:50,2025-01-05 11:58:04,374.436,,,,,,,
60,2025-01-05 13:26:34,2025-01-05 13:32:49,374.437,,,,,,,
61,2025-01-05 15:01:19,2025-01-05 15:07:33,374.439,,,,,,,
62,2025-01-05 16:36:03,2025-01-05 16:42:17,374.445,,,,,,,
63,2025-01-05 18:10:47,2025-01-05 18:17:02,374.442,,,,,,,
64,2025-01-05 19:45:32,2025-01-05 19:51:46,374.437,,,,,,,
65,2025-01-05 21:20:16,2025-01-05 21:26:31,374.44,,,,,,,
66,2025-01-05 22:55:00,2025-01-05 23:01:15,374.437,,,,,,,
67,2025-01-06 00:29:45,2025-01-06 00:35:59,374.438,,,,,,,
68,2025-01-06 02:04:29,2025-01-06 02:10:44,374.44,,,,,,,
69,2025-01-06 03:39:14,2025-01-06 03:45:28,374.439,,,,,,,
70,2025-01-06 05:13:58,2025-01-06 05:20:12,374.441,,,,,,,
71,2025-01-06 06:48:42,2025-01-06 06:54:57,374.438,,,,,,,
72,2025-01-06 08:23:27,2025-01-06 08:29:41,374.441,,,,,,,
73,2025-01-06 09:58:11,2025-01-06 10:04:26,374.439,,,,,,,
74,2025-01-06 11:32:56,2025-01-06 11:39:10,374.436,,,,,,,
75,2025-01-06 13:07:40,2025-01-06 13:13:54,374.437,,,,,,,
76,2025-01-06 14:42:24,2025-01-06 14:48:39,374.437,,,,,,,
77,2025-01-06 16:17:09,2025-01-06 16:23:23,374.445,,,,,,,
78,2025-01-06 17:51:53,2025-01-06 17:58:08,374.438,,,,,,,
79,2025-01-06 19:26:38,2025-01-06 19:32:52,374.437,,,,,,,
80,2025-01-06 21:01:22,2025-01-06 21:07:36,374.438,,,,,,,
81,2025-01-06 22:36:06,2025-01-06 22:42:21,374.442,,,,,,,
82,2025-01-07 00:10:51,2025-01-07 00:17:05,374.437,,,,,,,
83,2025-01-07 01:45:35,2025-01-07 01:51:49,374.439,,,,,,,
84,2025-01-07 03:20:19,2025-01-07 03:26:34,374.44,,,,,,,
85,2025-01-07 04:55:04,2025-01-07 05:01:18,374.441,,,,,,,
86,2025-01-07 06:29:48,2025-01-07 06:36:03,374.438,,,,,,,
87,2025-01-07 08:04:33,2025-01-07 08:10:47,374.438,,,,,,,
88,2025-01-07 09:39:17,2025-01-07 09:45:31,374.436,,,,,,,
89,2025-01-07 11:14:01,2025-01-07 11:20:16,374.436,,,,,,,
90,2025-01-07 12:48:46,2025-01-07 12:55:00,374.437,,,,,,,
91,2025-01-07 14:23:30,2025-01-07 14:29:45,374.437,,,,,,,
92,2025-01-07 15:58:15,2025-01-07 16:04:29,374.446,,,,,,,
93,2025-01-07 17:32:59,2025-01-07 17:39:13,374.437,,,,,,,
94,2025-01-07 19:07:43,2025-01-07 19:13:58,374.437,,,,,,,
95,2025-01-07 20:42:28,2025-01-07 20:48:42,374.443,,,,,,,
96,2025-01-07 22:17:12,2025-01-07 22:23:27,374.441,,,,,,,
97,2025-01-07 23:51:56,2025-01-07 23:58:11,374.437,,,,,,,
98,2025-01-08 01:26:41,2025-01-08 01:32:55,374.439,,,,,,,
99,2025-01-08 03:01:25,2025-01-08 03:07:40,374.441,,,,,,,
100,2025-01-08 04:36:10,2025-01-08 04:42:24,374.438,,,,,,,
101,2025-01-08 06:10:54,2025-01-08 06:17:08,374.437,,,,,,,
102,2025-01-08 07:45:38,2025-01-08 07:51:53,374.436,,,,,,,
103,2025-01-08 09:20:23,2025-01-08 09:26:37,374.436,,,,,,,
104,2025-01-08 10:55:07,2025-01-08 11:01:22,374.436,,,,,,,
105,2025-01-08 12:29:52,2025-01-08 12:36:06,374.437,,,,,,,
106,2025-01-08 14:04:36,2025-01-08 14:10:50,374.437,,,,,,,
107,2025-01-08 15:39:20,2025-01-08 15:45:35,374.446,,,,,,,
108,2025-01-08 17:14:05,2025-01-08 17:20:19,374.437,,,,,,,
109,2025-01-08 18:48:49,2025-01-08 18:55:04,374.436,,,,,,,
110,2025-01-08 20:23:33,2025-01-08 20:29:48,374.441,,,,,,,
111,2025-01-08 21:58:18,2025-01-08 22:04:32,374.441,,,,,,,
112,2025-01-08 23:33:02,2025-01-08 23:39:17,374.436,,,,,,,
113,2025-01-09 01:07:47,2025-01-09 01:14:01,374.439,,,,,,,
114,2025-01-09 02:42:31,2025-01-09 02:48:45,374.44,,,,,,,
115,2025-01-09 04:17:15,2025-01-09 04:23:30,374.436,,,,,,,
116,2025-01-09 05:52:00,2025-01-09 05:58:14,374.441,,,,,,,
117,2025-01-09 07:26:44,2025-01-09 07:32:59,374.436,,,,,,,
118,2025-01-09 09:01:29,2025-01-09 09:07:43,374.436,,,,,,,
119,2025-01-09 10:36:13,2025-01-09 10:42:27,374.436,,,,,,,
120,2025-01-09 12:10:57,2025-01-09 12:17:12,374.436,,,,,,,
121,2025-01-09 13:45:42,2025-01-09 13:51:56,374.437,,,,,,,
122,2025-01-09 15:20:26,2025-01-09 15:26:41,374.446,,,,,,,
123,2025-01-09 16:55:10,2025-01-09 17:01:25,374.437,,,,,,,
124,2025-01-09 18:29:55,2025-01-09 18:36:09,374.442,,,,,,,
125,2025-01-09 20:04:39,2025-01-09 20:10:54,374.441,,,,,,,
126,2025-01-09 21:39:24,2025-01-09 21:45:38,374.436,,,,,,,
127,2025-01-09 23:14:08,2025-01-09 23:20:22,374.44,,,,,,,
128,2025-01-10 00:48:52,2025-01-10 00:55:07,374.436,,,,,,,
129,2025-01-10 02:23:37,2025-01-10 02:29:51,374.437,,,,,,,
130,2025-01-10 03:58:21,2025-01-10 04:04:36,374.44,,,,,,,
131,2025-01-10 05:33:06,2025-01-10 05:39:20,374.437,,,,,,,
132,2025-01-10 07:07:50,2025-01-10 07:14:04,374.437,,,,,,,
133,2025-01-10 08:42:34,2025-01-10 08:48:49,374.436,,,,,,,
134,2025-01-10 10:17:19,2025-01-10 10:23:33,374.436,,,,,,,
135,2025-01-10 11:52:03,2025-01-10 11:58:18,374.436,,,,,,,
136,2025-01-10 13:26:47,2025-01-10 13:33:02,374.437,,,,,,,
137,2025-01-10 15:01:32,2025-01-10 15:07:46,374.439,,,,,,,
138,2025-01-10 16:36:16,2025-01-10 16:42:31,374.445,,,,,,,
139,2025-01-10 18:11:01,2025-01-10 18:17:15,374.442,,,,,,,
140,2025-01-10 19:45:45,2025-01-10 19:51:59,374.436,,,,,,,
141,2025-01-10 21:20:29,2025-01-10 21:26:44,374.44,,,,,,,
142,2025-01-10 22:55:14,2025-01-10 23:01:28,374.436,,,,,,,
143,2025-01-11 00:29:58,2025-01-11 00:36:13,374.438,,,,,,,
144,2025-01-11 02:04:43,2025-01-11 02:10:57,374.44,,,,,,,
145,2025-01-11 03:39:27,2025-01-11 03:45:41,374.439,,,,,,,
146,2025-01-11 05:14:11,2025-01-11 05:20:26,374.441,,,,,,,
147,2025-01-11 06:48:56,2025-01-11 06:55:10,374.438,,,,,,,
148,2025-01-11 08:23:40,2025-01-11 08:29:55,374.441,,,,,,,
149,2025-01-11 09:58:25,2025-01-11 10:04:39,374.439,,,,,,,
150,2025-01-11 11:33:09,2025-01-11 11:39:23,374.436,,,,,,,
151,2025-01-11 13:07:53,2025-01-11 13:14:08,374.437,,,,,,,
152,2025-01-11 14:42:38,2025-01-11 14:48:52,374.437,,,,,,,
153,2025-01-11 16:17:22,2025-01-11 16:23:36,374.445,,,,,,,
154,2025-01-11 17:52:06,2025-01-11 17:58:21,374.438,,,,,,,
155,2025-01-11 19:26:51,2025-01-11 19:33:05,374.437,,,,,,,
156,2025-01-11 21:01:35,2025-01-11 21:07:50,374.438,,,,,,,
157,2025-01-11 22:36:20,2025-01-11 22:42:34,374.442,,,,,,,
158,2025-01-12 00:11:04,2025-01-12 00:17:18,374.437,,,,,,,
159,2025-01-12 01:45:48,2025-01-12 01:52:03,374.439,,,,,,,
160,2025-01-12 03:20:33,2025-01-12 03:26:47,374.44,,,,,,,
161,2025-01-12 04:55:17,2025-01-12 05:01:32,374.441,,,,,,,
162,2025-01-12 06:30:02,2025-01-12 06:36:16,374.438,,,,,,,
163,2025-01-12 08:04:46,2025-01-12 08:11:00,374.439,,,,,,,
164,2025-01-12 09:39:30,2025-01-12 09:45:45,374.437,,,,,,,
165,2025-01-12 11:14:15,2025-01-12 11:20:29,374.437,,,,,,,
166,2025-01-12 12:48:59,2025-01-12 12:55:14,374.437,,,,,,,
167,2025-01-12 14:23:43,2025-01-12 14:29:58,374.437,,,,,,,
168,2025-01-12 15:58:28,2025-01-12 16:04:42,374.447,,,,,,,
169,2025-01-12 17:33:12,2025-01-12 17:39:27,374.438,,,,,,,
170,2025-01-12 19:07:57,2025-01-12 19:14:11,374.437,,,,,,,
171,2025-01-12 20:42:41,2025-01-12 20:48:55,374.444,,,,,,,
172,2025-01-12 22:17:25,2025-01-12 22:23:40,374.442,,,,,,,
173,2025-01-12 23:52:10,2025-01-12 23:58:24,374.438,,,,,,,
174,2025-01-13 01:26:54,2025-01-13 01:33:09,374.44,,,,,,,
175,2025-01-13 03:01:39,2025-01-13 03:07:53,374.442,,,,,,,
176,2025-01-13 04:36:23,2025-01-13 04:42:37,374.439,,,,,,,
177,2025-01-13 06:11:07,2025-01-13 06:17:22,374.438,,,,,,,
178,2025-01-13 07:45:52,2025-01-13 07:52:06,374.437,,,,,,,
179,2025-01-13 09:20:36,2025-01-13 09:26:51,374.437,,,,,,,
180,2025-01-13 10:55:20,2025-01-13 11:01:35,374.438,,,,,,,
181,2025-01-13 12:30:05,2025-01-13 12:36:19,374.438,,,,,,,
182,2025-01-13 14:04:49,2025-01-13 14:11:04,374.439,,,,,,,
183,2025-01-13 15:39:34,2025-01-13 15:45:48,374.443,,,,,,,
184,2025-01-13 17:14:18,2025-01-13 17:20:32,374.439,,,,,,,
185,2025-01-13 18:49:02,2025-01-13 18:55:17,374.438,,,,,,,
186,2025-01-13 20:23:47,2025-01-13 20:30:01,374.443,,,,,,,
187,2025-01-13 21:58:31,2025-01-13 22:04:46,374.443,,,,,,,
188,2025-01-13 23:33:16,2025-01-13 23:39:30,374.438,,,,,,,
189,2025-01-14 01:08:00,2025-01-14 01:14:14,374.441,,,,,,,
190,2025-01-14 02:42:44,2025-01-14 02:48:59,374.443,,,,,,,
191,2025-01-14 04:17:29,2025-01-14 04:23:43,374.438,,,,,,,
192,2025-01-14 05:52:13,2025-01-14 05:58:28,374.443,,,,,,,
193,2025-01-14 07:26:57,2025-01-14 07:33:12,374.438,,,,,,,
194,2025-01-14 09:01:42,2025-01-14 09:07:56,374.438,,,,,,,
195,2025-01-14 10:36:26,2025-01-14 10:42:41,374.439,,,,,,,
196,2025-01-14 12:11:11,2025-01-14 12:17:25,374.439,,,,,,,
197,2025-01-14 13:45:55,2025-01-14 13:52:09,374.44,,,,,,,
198,2025-01-14 15:20:39,2025-01-14 15:26:54,374.448,,,,,,,
199,2025-01-14 16:55:24,2025-01-14 17:01:38,374.439,,,,,,,
200,2025-01-14 18:30:08,2025-01-14 18:36:23,374.445,,,,,,,
201,2025-01-14 20:04:53,2025-01-14 20:11:07,374.444,,,,,,,
202,2025-01-14 21:39:37,2025-01-14 21:45:51,374.439,,,,,,,
203,2025-01-14 23:14:21,2025-01-14 23:20:36,374.443,,,,,,,
204,2025-01-15 00:49:06,2025-01-15 00:55:20,374.439,,,,,,,
205,2025-01-15 02:23:50,2025-01-15 02:30:05,374.44,,,,,,,
206,2025-01-15 03:58:34,2025-01-15 04:04:49,374.444,,,,,,,
207,2025-01-15 05:33:19,2025-01-15 05:39:33,374.44,,,,,,,
208,2025-01-15 07:08:03,2025-01-15 07:14:18,374.441,,,,,,,
209,2025-01-15 08:42:48,2025-01-15 08:49:02,374.439,,,,,,,
210,2025-01-15 10:17:32,2025-01-15 10:23:46,374.439,,,,,,,
211,2025-01-15 11:52:16,2025-01-15 11:58:31,374.44,,,,,,,
212,2025-01-15 13:27:01,2025-01-15 13:33:15,374.44,,,,,,,
213,2025-01-15 15:01:45,2025-01-15 15:08:00,374.442,,,,,,,
214,2025-01-15 16:36:30,2025-01-15 16:42:44,374.449,,,,,,,
215,2025-01-15 18:11:14,2025-01-15 18:17:28,374.445,,,,,,,
216,2025-01-15 19:45:58,2025-01-15 19:52:13,374.44,,,,,,,
217,2025-01-15 21:20:43,2025-01-15 21:26:57,374.443,,,,,,,
218,2025-01-15 22:55:27,2025-01-15 23:01:42,374.44,,,,,,,
219,2025-01-16 00:30:12,2025-01-16 00:36:26,374.442,,,,,,,
220,2025-01-16 02:04:56,2025-01-16 02:11:10,374.444,,,,,,,
221,2025-01-16 03:39:40,2025-01-16 03:45:55,374.443,,,,,,,
222,2025-01-16 05:14:25,2025-01-16 05:20:39,374.445,,,,,,,
223,2025-01-16 06:49:09,2025-01-16 06:55:23,374.442,,,,,,,
224,2025-01-16 08:23:53,2025-01-16 08:30:08,374.445,,,,,,,
225,2025-01-16 09:58:38,2025-01-16 10:04:52,374.443,,,,,,,
226,2025-01-16 11:33:22,2025-01-16 11:39:37,374.44,,,,,,,
227,2025-01-16 13:08:07,2025-01-16 13:14:21,374.441,,,,,,,
228,2025-01-16 14:42:51,2025-01-16 14:49:05,374.441,,,,,,,
229,2025-01-16 16:17:35,2025-01-16 16:23:50,374.449,,,,,,,
230,2025-01-16 17:52:20,2025-01-16 17:58:34,374.443,,,,,,,
231,2025-01-16 19:27:04,2025-01-16 19:33:19,374.441,,,,,,,
232,2025-01-16 21:01:49,2025-01-16 21:08:03,374.442,,,,,,,
233,2025-01-16 22:36:33,2025-01-16 22:42:47,374.446,,,,,,,
234,2025-01-17 00:11:17,2025-01-17 00:17:32,374.442,,,,,,,
235,2025-01-17 01:46:02,2025-01-17 01:52:16,374.444,,,,,,,
236,2025-01-17 03:20:46,2025-01-17 03:27:01,374.444,,,,,,,
237,2025-01-17 04:55:30,2025-01-17 05:01:45,374.445,,,,,,,
238,2025-01-17 06:30:15,2025-01-17 06:36:29,374.442,,,,,,,
239,2025-01-17 08:04:59,2025-01-17 08:11:14,374.443,,,,,,,
240,2025-01-17 09:39:44,2025-01-17 09:45:58,374.441,,,,,,,
241,2025-01-17 11:14:28,2025-01-17 11:20:42,374.441,,,,,,,
242,2025-01-17 12:49:12,2025-01-17 12:55:27,374.441,,,,,,,
243,2025-01-17 14:23:57,2025-01-17 14:30:11,374.442,,,,,,,
244,2025-01-17 15:58:41,2025-01-17 16:04:56,374.451,,,,,,,
245,2025-01-17 17:33:26,2025-01-17 17:39:40,374.442,,,,,,,
246,2025-01-17 19:08:10,2025-01-17 19:14:24,374.441,,,,,,,
247,2025-01-17 20:42:54,2025-01-17 20:49:09,374.448,,,,,,,
248,2025-01-17 22:17:39,2025-01-17 22:23:53,374.446,,,,,,,
249,2025-01-17 23:52:23,2025-01-17 23:58:38,374.442,,,,,,,
250,2025-01-18 01:27:07,2025-01-18 01:33:22,374.444,,,,,,,
251,2025-01-18 03:01:52,2025-01-18 03:08:06,374.446,,,,,,,
252,2025-01-18 04:36:36,2025-01-18 04:42:51,374.443,,,,,,,
253,2025-01-18 06:11:21,2025-01-18 06:17:35,374.442,,,,,,,
254,2025-01-18 07:46:05,2025-01-18 07:52:19,374.441,,,,,,,
255,2025-01-18 09:20:49,2025-01-18 09:27:04,374.441,,,,,,,
256,2025-01-18 10:55:34,2025-01-18 11:01:48,374.441,,,,,,,
257,2025-01-18 12:30:18,2025-01-18 12:36:33,374.442,,,,,,,
258,2025-01-18 14:05:03,2025-01-18 14:11:17,374.443,,,,,,,
259,2025-01-18 15:39:47,2025-01-18 15:46:01,374.451,,,,,,,
260,2025-01-18 17:14:31,2025-01-18 17:20:46,374.442,,,,,,,
261,2025-01-18 18:49:16,2025-01-18 18:55:30,374.442,,,,,,,
262,2025-01-18 20:24:00,2025-01-18 20:30:15,374.447,,,,,,,
263,2025-01-18 21:58:44,2025-01-18 22:04:59,374.447,,,,,,,
264,2025-01-18 23:33:29,2025-01-18 23:39:43,374.442,,,,,,,
265,2025-01-19 01:08:13,2025-01-19 01:14:28,374.444,,,,,,,
266,2025-01-19 02:42:58,2025-01-19 02:49:12,374.446,,,,,,,
267,2025-01-19 04:17:42,2025-01-19 04:23:56,374.441,,,,,,,
268,2025-01-19 05:52:26,2025-01-19 05:58:41,374.446,,,,,,,
269,2025-01-19 07:27:11,2025-01-19 07:33:25,374.441,,,,,,,
270,2025-01-19 09:01:55,2025-01-19 09:08:10,374.441,,,,,,,
271,2025-01-19 10:36:40,2025-01-19 10:42:54,374.442,,,,,,,
272,2025-01-19 12:11:24,2025-01-19 12:17:38,374.442,,,,,,,
273,2025-01-19 13:46:08,2025-01-19 13:52:23,374.443,,,,,,,
274,2025-01-19 15:20:53,2025-01-19 15:27:07,374.451,,,,,,,
275,2025-01-19 16:55:37,2025-01-19 17:01:52,374.442,,,,,,,
276,2025-01-19 18:30:21,2025-01-19 18:36:36,374.448,,,,,,,
277,2025-01-19 20:05:06,2025-01-19 20:11:20,374.447,,,,,,,
278,2025-01-19 21:39:50,2025-01-19 21:46:05,374.442,,,,,,,
279,2025-01-19 23:14:35,2025-01-19 23:20:49,374.445,,,,,,,
280,2025-01-20 00:49:19,2025-01-20 00:55:33,374.442,,,,,,,
281,2025-01-20 02:24:03,2025-01-20 02:30:18,374.442,,,,,,,
282,2025-01-20 03:58:48,2025-01-20 04:05:02,374.446,,,,,,,
283,2025-01-20 05:33:32,2025-01-20 05:39:47,374.442,,,,,,,
284,2025-01-20 07:08:17,2025-01-20 07:14:31,374.443,,,,,,,
285,2025-01-20 08:43:01,2025-01-20 08:49:15,374.441,,,,,,,
286,2025-01-20 10:17:45,2025-01-20 10:24:00,374.441,,,,,,,
287,2025-01-20 11:52:30,2025-01-20 11:58:44,374.442,,,,,,,
288,2025-01-20 13:27:14,2025-01-20 13:33:29,374.442,,,,,,,
289,2025-01-20 15:01:59,2025-01-20 15:08:13,374.444,,,,,,,
290,2025-01-20 16:36:43,2025-01-20 16:42:57,374.451,,,,,,,
291,2025-01-20 18:11:27,2025-01-20 18:17:42,374.447,,,,,,,
292,2025-01-20 19:46:12,2025-01-20 19:52:26,374.442,,,,,,,
293,2025-01-20 21:20:56,2025-01-20 21:27:10,374.445,,,,,,,
294,2025-01-20 22:55:40,2025-01-20 23:01:55,374.442,,,,,,,
295,2025-01-21 00:30:25,2025-01-21 00:36:39,374.443,,,,,,,
296,2025-01-21 02:05:09,2025-01-21 02:11:24,374.445,,,,,,,
297,2025-01-21 03:39:54,2025-01-21 03:46:08,374.444,,,,,,,
298,2025-01-21 05:14:38,2025-01-21 05:20:52,374.446,,,,,,,
299,2025-01-21 06:49:22,2025-01-21 06:55:37,374.443,,,,,,,
300,2025-01-21 08:24:07,2025-01-21 08:30:21,374.446,,,,,,,
301,2025-01-21 09:58:51,2025-01-21 10:05:06,374.444,,,,,,,
302,2025-01-21 11:33:36,2025-01-21 11:39:50,374.441,,,,,,,
303,2025-01-21 13:08:20,2025-01-21 13:14:34,374.441,,,,,,,
304,2025-01-21 14:43:04,2025-01-21 14:49:19,374.442,,,,,,,
305,2025-01-21 16:17:49,2025-01-21 16:24:03,374.45,,,,,,,
306,2025-01-21 17:52:33,2025-01-21 17:58:48,374.443,,,,,,,
307,2025-01-21 19:27:17,2025-01-21 19:33:32,374.441,,,,,,,
308,2025-01-21 21:02:02,2025-01-21 21:08:16,374.443,,,,,,,
309,2025-01-21 22:36:46,2025-01-21 22:43:01,374.446,,,,,,,
310,2025-01-22 00:11:31,2025-01-22 00:17:45,374.442,,,,,,,
311,2025-01-22 01:46:15,2025-01-22 01:52:29,374.444,,,,,,,
312,2025-01-22 03:20:59,2025-01-22 03:27:14,374.444,,,,,,,
313,2025-01-22 04:55:44,2025-01-22 05:01:58,374.445,,,,,,,
314,2025-01-22 06:30:28,2025-01-22 06:36:43,374.442,,,,,,,
315,2025-01-22 08:05:13,2025-01-22 08:11:27,374.443,,,,,,,
316,2025-01-22 09:39:57,2025-01-22 09:46:11,374.441,,,,,,,
317,2025-01-22 11:14:41,2025-01-22 11:20:56,374.441,,,,,,,
318,2025-01-22 12:49:26,2025-01-22 12:55:40,374.441,,,,,,,
319,2025-01-22 14:24:10,2025-01-22 14:30:25,374.441,,,,,,,
320,2025-01-22 15:58:54,2025-01-22 16:05:09,374.45,,,,,,,
321,2025-01-22 17:33:39,2025-01-22 17:39:53,374.442,,,,,,,
322,2025-01-22 19:08:23,2025-01-22 19:14:38,374.441,,,,,,,
323,2025-01-22 20:43:08,2025-01-22 20:49:22,374.447,,,,,,,
324,2025-01-22 22:17:52,2025-01-22 22:24:06,374.446,,,,,,,
325,2025-01-22 23:52:36,2025-01-22 23:58:51,374.441,,,,,,,
326,2025-01-23 01:27:21,2025-01-23 01:33:35,374.443,,,,,,,
327,2025-01-23 03:02:05,2025-01-23 03:08:20,374.445,,,,,,,
328,2025-01-23 04:36:50,2025-01-23 04:43:04,374.442,,,,,,,
329,2025-01-23 06:11:34,2025-01-23 06:17:48,374.441,,,,,,,
330,2025-01-23 07:46:18,2025-01-23 07:52:33,374.44,,,,,,,
331,2025-01-23 09:21:03,2025-01-23 09:27:17,374.44,,,,,,,
332,2025-01-23 10:55:47,2025-01-23 11:02:02,374.44,,,,,,,
333,2025-01-23 12:30:31,2025-01-23 12:36:46,374.441,,,,,,,
334,2025-01-23 14:05:16,2025-01-23 14:11:30,374.442,,,,,,,
335,2025-01-23 15:40:00,2025-01-23 15:46:15,374.45,,,,,,,
336,2025-01-23 17:14:45,2025-01-23 17:20:59,374.441,,,,,,,
337,2025-01-23 18:49:29,2025-01-23 18:55:43,374.441,,,,,,,
338,2025-01-23 20:24:13,2025-01-23 20:30:28,374.446,,,,,,,
339,2025-01-23 21:58:58,2025-01-23 22:05:12,374.445,,,,,,,
340,2025-01-23 23:33:42,2025-01-23 23:39:57,374.44,,,,,,,
341,2025-01-24 01:08:27,2025-01-24 01:14:41,374.443,,,,,,,
342,2025-01-24 02:43:11,2025-01-24 02:49:25,374.445,,,,,,,
343,2025-01-24 04:17:55,2025-01-24 04:24:10,374.44,,,,,,,
344,2025-01-24 05:52:40,2025-01-24 05:58:54,374.445,,,,,,,
345,2025-01-24 07:27:24,2025-01-24 07:33:39,374.44,,,,,,,
346,2025-01-24 09:02:08,2025-01-24 09:08:23,374.44,,,,,,,
347,2025-01-24 10:36:53,2025-01-24 10:43:07,374.44,,,,,,,
348,2025-01-24 12:11:37,2025-01-24 12:17:52,374.44,,,,,,,
349,2025-01-24 13:46:22,2025-01-24 13:52:36,374.441,,,,,,,
350,2025-01-24 15:21:06,2025-01-24 15:27:20,374.45,,,,,,,
351,2025-01-24 16:55:50,2025-01-24 17:02:05,374.441,,,,,,,
352,2025-01-24 18:30:35,2025-01-24 18:36:49,374.446,,,,,,,
353,2025-01-24 20:05:19,2025-01-24 20:11:34,374.445,,,,,,,
354,2025-01-24 21:40:04,2025-01-24 21:46:18,374.44,,,,,,,
355,2025-01-24 23:14:48,2025-01-24 23:21:02,374.444,,,,,,,
356,2025-01-25 00:49:32,2025-01-25 00:55:47,374.44,,,,,,,
357,2025-01-25 02:24:17,2025-01-25 02:30:31,374.44,,,,,,,
358,2025-01-25 03:59:01,2025-01-25 04:05:16,374.444,,,,,,,
359,2025-01-25 05:33:46,2025-01-25 05:40:00,374.441,,,,,,,
360,2025-01-25 07:08:30,2025-01-25 07:14:44,374.441,,,,,,,
361,2025-01-25 08:43:14,2025-01-25 08:49:29,374.439,,,,,,,
362,2025-01-25 10:17:59,2025-01-25 10:24:13,374.44,,,,,,,
363,2025-01-25 11:52:43,2025-01-25 11:58:57,374.44,,,,,,,
364,2025-01-25 13:27:27,2025-01-25 13:33:42,374.44,,,,,,,
365,2025-01-25 15:02:12,2025-01-25 15:08:26,374.442,,,,,,,
366,2025-01-25 16:36:56,2025-01-25 16:43:11,374.449,,,,,,,
367,2025-01-25 18:11:41,2025-01-25 18:17:55,374.445,,,,,,,
368,2025-01-25 19:46:25,2025-01-25 19:52:39,374.44,,,,,,,
369,2025-01-25 21:21:09,2025-01-25 21:27:24,374.443,,,,,,,
370,2025-01-25 22:55:54,2025-01-25 23:02:08,374.44,,,,,,,
371,2025-01-26 00:30:38,2025-01-26 00:36:53,374.442,,,,,,,
372,2025-01-26 02:05:23,2025-01-26 02:11:37,374.443,,,,,,,
373,2025-01-26 03:40:07,2025-01-26 03:46:21,374.442,,,,,,,
374,2025-01-26 05:14:51,2025-01-26 05:21:06,374.444,,,,,,,
375,2025-01-26 06:49:36,2025-01-26 06:55:50,374.441,,,,,,,
376,2025-01-26 08:24:20,2025-01-26 08:30:35,374.444,,,,,,,
377,2025-01-26 09:59:04,2025-01-26 10:05:19,374.442,,,,,,,
378,2025-01-26 11:33:49,2025-01-26 11:40:03,374.44,,,,,,,
379,2025-01-26 13:08:33,2025-01-26 13:14:48,374.44,,,,,,,
380,2025-01-26 14:43:18,2025-01-26 14:49:32,374.44,,,,,,,
381,2025-01-26 16:18:02,2025-01-26 16:24:16,374.448,,,,,,,
382,2025-01-26 17:52:46,2025-01-26 17:59:01,374.442,,,,,,,
383,2025-01-26 19:27:31,2025-01-26 19:33:45,374.44,,,,,,,
384,2025-01-26 21:02:15,2025-01-26 21:08:30,374.441,,,,,,,
385,2025-01-26 22:37:00,2025-01-26 22:43:14,374.445,,,,,,,
386,2025-01-27 00:11:44,2025-01-27 00:17:58,374.441,,,,,,,
387,2025-01-27 01:46:28,2025-01-27 01:52:43,374.443,,,,,,,
388,2025-01-27 03:21:13,2025-01-27 03:27:27,374.443,,,,,,,
389,2025-01-27 04:55:57,2025-01-27 05:02:12,374.444,,,,,,,
390,2025-01-27 06:30:41,2025-01-27 06:36:56,374.441,,,,,,,
391,2025-01-27 08:05:26,2025-01-27 08:11:40,374.442,,,,,,,
392,2025-01-27 09:40:10,2025-01-27 09:46:25,374.44,,,,,,,
393,2025-01-27 11:14:55,2025-01-27 11:21:09,374.44,,,,,,,
394,2025-01-27 12:49:39,2025-01-27 12:55:53,374.44,,,,,,,
395,2025-01-27 14:24:23,2025-01-27 14:30:38,374.44,,,,,,,
396,2025-01-27 15:59:08,2025-01-27 16:05:22,374.45,,,,,,,
397,2025-01-27 17:33:52,2025-01-27 17:40:07,374.441,,,,,,,
398,2025-01-27 19:08:37,2025-01-27 19:14:51,374.44,,,,,,,
399,2025-01-27 20:43:21,2025-01-27 20:49:35,374.447,,,,,,,
400,2025-01-27 22:18:05,2025-01-27 22:24:20,374.445,,,,,,,
401,2025-01-27 23:52:50,2025-01-27 23:59:04,374.441,,,,,,,
402,2025-01-28 01:27:34,2025-01-28 01:33:49,374.443,,,,,,,
403,2025-01-28 03:02:18,2025-01-28 03:08:33,374.444,,,,,,,
404,2025-01-28 04:37:03,2025-01-28 04:43:17,374.441,,,,,,,
405,2025-01-28 06:11:47,2025-01-28 06:18:02,374.441,,,,,,,
406,2025-01-28 07:46:32,2025-01-28 07:52:46,374.44,,,,,,,
407,2025-01-28 09:21:16,2025-01-28 09:27:30,374.44,,,,,,,
408,2025-01-28 10:56:00,2025-01-28 11:02:15,374.44,,,,,,,
409,2025-01-28 12:30:45,2025-01-28 12:36:59,374.441,,,,,,,
410,2025-01-28 14:05:29,2025-01-28 14:11:44,374.442,,,,,,,
411,2025-01-28 15:40:14,2025-01-28 15:46:28,374.45,,,,,,,
412,2025-01-28 17:14:58,2025-01-28 17:21:12,374.441,,,,,,,
413,2025-01-28 18:49:42,2025-01-28 18:55:57,374.441,,,,,,,
414,2025-01-28 20:24:27,2025-01-28 20:30:41,374.446,,,,,,,
415,2025-01-28 21:59:11,2025-01-28 22:05:26,374.446,,,,,,,
416,2025-01-28 23:33:56,2025-01-28 23:40:10,374.441,,,,,,,
417,2025-01-29 01:08:40,2025-01-29 01:14:54,374.444,,,,,,,
418,2025-01-29 02:43:24,2025-01-29 02:49:39,374.445,,,,,,,
419,2025-01-29 04:18:09,2025-01-29 04:24:23,374.44,,,,,,,
420,2025-01-29 05:52:53,2025-01-29 05:59:07,374.445,,,,,,,
421,2025-01-29 07:27:37,2025-01-29 07:33:52,374.44,,,,,,,
422,2025-01-29 09:02:22,2025-01-29 09:08:36,374.441,,,,,,,
423,2025-01-29 10:37:06,2025-01-29 10:43:21,374.441,,,,,,,
424,2025-01-29 12:11:51,2025-01-29 12:18:05,374.441,,,,,,,
425,2025-01-29 13:46:35,2025-01-29 13:52:49,374.442,,,,,,,
426,2025-01-29 15:21:19,2025-01-29 15:27:34,374.451,,,,,,,
427,2025-01-29 16:56:04,2025-01-29 17:02:18,374.442,,,,,,,
428,2025-01-29 18:30:48,2025-01-29 18:37:03,374.447,,,,,,,
429,2025-01-29 20:05:33,2025-01-29 20:11:47,374.446,,,,,,,
430,2025-01-29 21:40:17,2025-01-29 21:46:31,374.442,,,,,,,
431,2025-01-29 23:15:01,2025-01-29 23:21:16,374.445,,,,,,,
432,2025-01-30 00:49:46,2025-01-30 00:56:00,374.441,,,,,,,
433,2025-01-30 02:24:30,2025-01-30 02:30:45,374.442,,,,,,,
434,2025-01-30 03:59:14,2025-01-30 04:05:29,374.446,,,,,,,
435,2025-01-30 05:33:59,2025-01-30 05:40:13,374.442,,,,,,,
436,2025-01-30 07:08:43,2025-01-30 07:14:58,374.443,,,,,,,
437,2025-01-30 08:43:28,2025-01-30 08:49:42,374.441,,,,,,,
438,2025-01-30 10:18:12,2025-01-30 10:24:26,374.441,,,,,,,
439,2025-01-30 11:52:56,2025-01-30 11:59:11,374.442,,,,,,,
440,2025-01-30 13:27:41,2025-01-30 13:33:55,374.442,,,,,,,
441,2025-01-30 15:02:25,2025-01-30 15:08:40,374.444,,,,,,,
442,2025-01-30 16:37:10,2025-01-30 16:43:24,374.451,,,,,,,
443,2025-01-30 18:11:54,2025-01-30 18:18:08,374.447,,,,,,,
444,2025-01-30 19:46:38,2025-01-30 19:52:53,374.442,,,,,,,
445,2025-01-30 21:21:23,2025-01-30 21:27:37,374.445,,,,,,,
446,2025-01-30 22:56:07,2025-01-30 23:02:22,374.442,,,,,,,
447,2025-01-31 00:30:51,2025-01-31 00:37:06,374.444,,,,,,,
448,2025-01-31 02:05:36,2025-01-31 02:11:50,374.445,,,,,,,
449,2025-01-31 03:40:20,2025-01-31 03:46:35,374.445,,,,,,,
450,2025-01-31 05:15:05,2025-01-31 05:21:19,374.446,,,,,,,
451,2025-01-31 06:49:49,2025-01-31 06:56:03,374.448,,,,,,,
452,2025-01-31 08:24:33,2025-01-31 08:30:48,374.445,,,,,,,
453,2025-01-31 09:59:18,2025-01-31 10:05:32,374.445,,,,,,,
454,2025-01-31 11:34:02,2025-01-31 11:40:17,374.442,,,,,,,
455,2025-01-31 13:08:47,2025-01-31 13:15:01,374.445,,,,,,,
456,2025-01-31 14:43:31,2025-01-31 14:49:45,374.452,,,,,,,
457,2025-01-31 16:18:15,2025-01-31 16:24:30,374.443,,,,,,,
458,2025-01-31 17:53:00,2025-01-31 17:59:14,374.448,,,,,,,
459,2025-01-31 19:27:44,2025-01-31 19:33:59,374.445,,,,,,,
460,2025-01-31 21:02:28,2025-01-31 21:08:43,374.442,,,,,,,
461,2025-01-31 22:37:13,2025-01-31 22:43:27,374.442,,,,,,,
462,2025-02-01 00:11:57,2025-02-01 00:18:12,374.443,,,,,,,
463,2025-02-01 01:46:42,2025-02-01 01:52:56,374.443,,,,,,,
464,2025-02-01 03:21:26,2025-02-01 03:27:40,374.443,,,,,,,
465,2025-02-01 04:56:10,2025-02-01 05:02:25,374.444,,,,,,,
466,2025-02-01 06:30:55,2025-02-01 06:37:09,374.442,,,,,,,
467,2025-02-01 08:05:39,2025-02-01 08:11:54,374.447,,,,,,,
468,2025-02-01 09:40:24,2025-02-01 09:46:38,374.443,,,,,,,
469,2025-02-01 11:15:08,2025-02-01 11:21:22,374.442,,,,,,,
470,2025-02-01 12:49:52,2025-02-01 12:56:07,374.443,,,,,,,
471,2025-02-01 14:24:37,2025-02-01 14:30:51,374.445,,,,,,,
472,2025-02-01 15:59:21,2025-02-01 16:05:36,374.448,,,,,,,
473,2025-02-01 17:34:05,2025-02-01 17:40:20,374.444,,,,,,,
474,2025-02-01 19:08:50,2025-02-01 19:15:04,374.443,,,,,,,
475,2025-02-01 20:43:34,2025-02-01 20:49:49,374.443,,,,,,,
476,2025-02-01 22:18:19,2025-02-01 22:24:33,374.448,,,,,,,
477,2025-02-01 23:53:03,2025-02-01 23:59:17,374.443,,,,,,,
478,2025-02-02 01:27:47,2025-02-02 01:34:02,374.446,,,,,,,
479,2025-02-02 03:02:32,2025-02-02 03:08:46,374.447,,,,,,,
480,2025-02-02 04:37:16,2025-02-02 04:43:31,374.444,,,,,,,
481,2025-02-02 06:12:01,2025-02-02 06:18:15,374.443,,,,,,,
482,2025-02-02 07:46:45,2025-02-02 07:52:59,374.442,,,,,,,
483,2025-02-02 09:21:29,2025-02-02 09:27:44,374.442,,,,,,,
484,2025-02-02 10:56:14,2025-02-02 11:02:28,374.442,,,,,,,
485,2025-02-02 12:30:58,2025-02-02 12:37:13,374.442,,,,,,,
486,2025-02-02 14:05:43,2025-02-02 14:11:57,374.443,,,,,,,
487,2025-02-02 15:40:27,2025-02-02 15:46:41,374.449,,,,,,,
488,2025-02-02 17:15:11,2025-02-02 17:21:26,374.443,,,,,,,
489,2025-02-02 18:49:56,2025-02-02 18:56:10,374.442,,,,,,,
490,2025-02-02 20:24:40,2025-02-02 20:30:54,374.447,,,,,,,
491,2025-02-02 21:59:24,2025-02-02 22:05:39,374.447,,,,,,,
492,2025-02-02 23:34:09,2025-02-02 23:40:23,374.442,,,,,,,
493,2025-02-03 01:08:53,2025-02-03 01:15:08,374.445,,,,,,,
494,2025-02-03 02:43:38,2025-02-03 02:49:52,374.446,,,,,,,
495,2025-02-03 04:18:22,2025-02-03 04:24:36,374.441,,,,,,,
496,2025-02-03 05:53:06,2025-02-03 05:59:21,374.446,,,,,,,
497,2025-02-03 07:27:51,2025-02-03 07:34:05,374.441,,,,,,,
498,2025-02-03 09:02:35,2025-02-03 09:08:50,374.442,,,,,,,
499,2025-02-03 10:37:20,2025-02-03 10:43:34,374.442,,,,,,,
500,2025-02-03 12:12:04,2025-02-03 12:18:18,374.442,,,,,,,
501,2025-02-03 13:46:48,2025-02-03 13:53:03,374.443,,,,,,,
502,2025-02-03 15:21:33,2025-02-03 15:27:47,374.451,,,,,,,
503,2025-02-03 16:56:17,2025-02-03 17:02:32,374.442,,,,,,,
504,2025-02-03 18:31:01,2025-02-03 18:37:16,374.448,,,,,,,
505,2025-02-03 20:05:46,2025-02-03 20:12:00,374.447,,,,,,,
506,2025-02-03 21:40:30,2025-02-03 21:46:45,374.442,,,,,,,
507,2025-02-03 23:15:15,2025-02-03 23:21:29,374.445,,,,,,,
508,2025-02-04 00:49:59,2025-02-04 00:56:13,374.441,,,,,,,
509,2025-02-04 02:24:43,2025-02-04 02:30:58,374.442,,,,,,,
510,2025-02-04 03:59:28,2025-02-04 04:05:42,374.446,,,,,,,
511,2025-02-04 05:34:12,2025-02-04 05:40:27,374.442,,,,,,,
512,2025-02-04 07:08:57,2025-02-04 07:15:11,374.442,,,,,,,
513,2025-02-04 08:43:41,2025-02-04 08:49:55,374.441,,,,,,,
514,2025-02-04 10:18:25,2025-02-04 10:24:40,374.441,,,,,,,
515,2025-02-04 11:53:10,2025-02-04 11:59:24,374.441,,,,,,,
516,2025-02-04 13:27:54,2025-02-04 13:34:09,374.441,,,,,,,
517,2025-02-04 15:02:38,2025-02-04 15:08:53,374.443,,,,,,,
518,2025-02-04 16:37:23,2025-02-04 16:43:37,374.45,,,,,,,
519,2025-02-04 18:12:07,2025-02-04 18:18:22,374.446,,,,,,,
520,2025-02-04 19:46:52,2025-02-04 19:53:06,374.441,,,,,,,
521,2025-02-04 21:21:36,2025-02-04 21:27:50,374.444,,,,,,,
522,2025-02-04 22:56:20,2025-02-04 23:02:35,374.441,,,,,,,
523,2025-02-05 00:31:05,2025-02-05 00:37:19,374.442,,,,,,,
524,2025-02-05 02:05:49,2025-02-05 02:12:04,374.444,,,,,,,
525,2025-02-05 03:40:34,2025-02-05 03:46:48,374.443,,,,,,,
526,2025-02-05 05:15:18,2025-02-05 05:21:32,374.445,,,,,,,
527,2025-02-05 06:50:02,2025-02-05 06:56:17,374.446,,,,,,,
528,2025-02-05 08:24:47,2025-02-05 08:31:01,374.443,,,,,,,
529,2025-02-05 09:59:31,2025-02-05 10:05:46,374.443,,,,,,,
530,2025-02-05 11:34:15,2025-02-05 11:40:30,374.44,,,,,,,
531,2025-02-05 13:09:00,2025-02-05 13:15:14,374.443,,,,,,,
532,2025-02-05 14:43:44,2025-02-05 14:49:59,374.449,,,,,,,
533,2025-02-05 16:18:29,2025-02-05 16:24:43,374.44,,,,,,,
534,2025-02-05 17:53:13,2025-02-05 17:59:27,374.445,,,,,,,
535,2025-02-05 19:27:57,2025-02-05 19:34:12,374.442,,,,,,,
536,2025-02-05 21:02:42,2025-02-05 21:08:56,374.44,,,,,,,
537,2025-02-05 22:37:26,2025-02-05 22:43:41,374.44,,,,,,,
538,2025-02-06 00:12:11,2025-02-06 00:18:25,374.44,,,,,,,
539,2025-02-06 01:46:55,2025-02-06 01:53:09,374.44,,,,,,,
540,2025-02-06 03:21:39,2025-02-06 03:27:54,374.44,,,,,,,
541,2025-02-06 04:56:24,2025-02-06 05:02:38,374.441,,,,,,,
542,2025-02-06 06:31:08,2025-02-06 06:37:23,374.439,,,,,,,
543,2025-02-06 08:05:52,2025-02-06 08:12:07,374.444,,,,,,,
544,2025-02-06 09:40:37,2025-02-06 09:46:51,374.44,,,,,,,
545,2025-02-06 11:15:21,2025-02-06 11:21:36,374.439,,,,,,,
546,2025-02-06 12:50:06,2025-02-06 12:56:20,374.439,,,,,,,
547,2025-02-06 14:24:50,2025-02-06 14:31:04,374.442,,,,,,,
548,2025-02-06 15:59:34,2025-02-06 16:05:49,374.445,,,,,,,
549,2025-02-06 17:34:19,2025-02-06 17:40:33,374.441,,,,,,,
550,2025-02-06 19:09:03,2025-02-06 19:15:18,374.439,,,,,,,
551,2025-02-06 20:43:48,2025-02-06 20:50:02,374.44,,,,,,,
552,2025-02-06 22:18:32,2025-02-06 22:24:46,374.444,,,,,,,
553,2025-02-06 23:53:16,2025-02-06 23:59:31,374.439,,,,,,,
554,2025-02-07 01:28:01,2025-02-07 01:34:15,374.442,,,,,,,
555,2025-02-07 03:02:45,2025-02-07 03:09:00,374.443,,,,,,,
556,2025-02-07 04:37:30,2025-02-07 04:43:44,374.44,,,,,,,
557,2025-02-07 06:12:14,2025-02-07 06:18:28,374.439,,,,,,,
558,2025-02-07 07:46:58,2025-02-07 07:53:13,374.438,,,,,,,
559,2025-02-07 09:21:43,2025-02-07 09:27:57,374.438,,,,,,,
560,2025-02-07 10:56:27,2025-02-07 11:02:41,374.438,,,,,,,
561,2025-02-07 12:31:11,2025-02-07 12:37:26,374.439,,,,,,,
562,2025-02-07 14:05:56,2025-02-07 14:12:10,374.439,,,,,,,
563,2025-02-07 15:40:40,2025-02-07 15:46:55,374.445,,,,,,,
564,2025-02-07 17:15:25,2025-02-07 17:21:39,374.439,,,,,,,
565,2025-02-07 18:50:09,2025-02-07 18:56:23,374.438,,,,,,,
566,2025-02-07 20:24:53,2025-02-07 20:31:08,374.443,,,,,,,
567,2025-02-07 21:59:38,2025-02-07 22:05:52,374.443,,,,,,,
568,2025-02-07 23:34:22,2025-02-07 23:40:37,374.438,,,,,,,
569,2025-02-08 01:09:07,2025-02-08 01:15:21,374.441,,,,,,,
570,2025-02-08 02:43:51,2025-02-08 02:50:05,374.442,,,,,,,
571,2025-02-08 04:18:35,2025-02-08 04:24:50,374.437,,,,,,,
572,2025-02-08 05:53:20,2025-02-08 05:59:34,374.442,,,,,,,
573,2025-02-08 07:28:04,2025-02-08 07:34:19,374.437,,,,,,,
574,2025-02-08 09:02:48,2025-02-08 09:09:03,374.437,,,,,,,
575,2025-02-08 10:37:33,2025-02-08 10:43:47,374.438,,,,,,,
576,2025-02-08 12:12:17,2025-02-08 12:18:32,374.438,,,,,,,
577,2025-02-08 13:47:02,2025-02-08 13:53:16,374.439,,,,,,,
578,2025-02-08 15:21:46,2025-02-08 15:28:00,374.447,,,,,,,
579,2025-02-08 16:56:30,2025-02-08 17:02:45,374.438,,,,,,,
580,2025-02-08 18:31:15,2025-02-08 18:37:29,374.444,,,,,,,
581,2025-02-08 20:05:59,2025-02-08 20:12:14,374.443,,,,,,,
582,2025-02-08 21:40:44,2025-02-08 21:46:58,374.438,,,,,,,
583,2025-02-08 23:15:28,2025-02-08 23:21:42,374.441,,,,,,,
584,2025-02-09 00:50:12,2025-02-09 00:56:27,374.438,,,,,,,
585,2025-02-09 02:24:57,2025-02-09 02:31:11,374.438,,,,,,,
586,2025-02-09 03:59:41,2025-02-09 04:05:56,374.442,,,,,,,
587,2025-02-09 05:34:25,2025-02-09 05:40:40,374.438,,,,,,,
588,2025-02-09 07:09:10,2025-02-09 07:15:24,374.439,,,,,,,
589,2025-02-09 08:43:54,2025-02-09 08:50:09,374.437,,,,,,,
590,2025-02-09 10:18:39,2025-02-09 10:24:53,374.437,,,,,,,
591,2025-02-09 11:53:23,2025-02-09 11:59:37,374.438,,,,,,,
592,2025-02-09 13:28:07,2025-02-09 13:34:22,374.438,,,,,,,
593,2025-02-09 15:02:52,2025-02-09 15:09:06,374.44,,,,,,,
594,2025-02-09 16:37:36,2025-02-09 16:43:51,374.442,,,,,,,
595,2025-02-09 18:12:21,2025-02-09 18:18:35,374.443,,,,,,,
596,2025-02-09 19:47:05,2025-02-09 19:53:19,374.438,,,,,,,
597,2025-02-09 21:21:49,2025-02-09 21:28:04,374.441,,,,,,,
598,2025-02-09 22:56:34,2025-02-09 23:02:48,374.438,,,,,,,
599,2025-02-10 00:31:18,2025-02-10 00:37:33,374.439,,,,,,,
600,2025-02-10 02:06:02,2025-02-10 02:12:17,374.441,,,,,,,
601,2025-02-10 03:40:47,2025-02-10 03:47:01,374.44,,,,,,,
602,2025-02-10 05:15:31,2025-02-10 05:21:46,374.442,,,,,,,
603,2025-02-10 06:50:16,2025-02-10 06:56:30,374.444,,,,,,,
604,2025-02-10 08:25:00,2025-02-10 08:31:14,374.44,,,,,,,
605,2025-02-10 09:59:44,2025-02-10 10:05:59,374.44,,,,,,,
606,2025-02-10 11:34:29,2025-02-10 11:40:43,374.438,,,,,,,
607,2025-02-10 13:09:13,2025-02-10 13:15:28,374.44,,,,,,,
608,2025-02-10 14:43:58,2025-02-10 14:50:12,374.447,,,,,,,
609,2025-02-10 16:18:42,2025-02-10 16:24:56,374.438,,,,,,,
610,2025-02-10 17:53:26,2025-02-10 17:59:41,374.443,,,,,,,
611,2025-02-10 19:28:11,2025-02-10 19:34:25,374.44,,,,,,,
612,2025-02-10 21:02:55,2025-02-10 21:09:10,374.438,,,,,,,
613,2025-02-10 22:37:40,2025-02-10 22:43:54,374.438,,,,,,,
614,2025-02-11 00:12:24,2025-02-11 00:18:38,374.438,,,,,,,
615,2025-02-11 01:47:08,2025-02-11 01:53:23,374.438,,,,,,,
616,2025-02-11 03:21:53,2025-02-11 03:28:07,374.438,,,,,,,
617,2025-02-11 04:56:37,2025-02-11 05:02:51,374.44,,,,,,,
618,2025-02-11 06:31:21,2025-02-11 06:37:36,374.437,,,,,,,
619,2025-02-11 08:06:06,2025-02-11 08:12:20,374.442,,,,,,,
620,2025-02-11 09:40:50,2025-02-11 09:47:05,374.438,,,,,,,
621,2025-02-11 11:15:35,2025-02-11 11:21:49,374.438,,,,,,,
622,2025-02-11 12:50:19,2025-02-11 12:56:33,374.438,,,,,,,
623,2025-02-11 14:25:03,2025-02-11 14:31:18,374.44,,,,,,,
624,2025-02-11 15:59:48,2025-02-11 16:06:02,374.444,,,,,,,
625,2025-02-11 17:34:32,2025-02-11 17:40:47,374.44,,,,,,,
626,2025-02-11 19:09:17,2025-02-11 19:15:31,374.438,,,,,,,
627,2025-02-11 20:44:01,2025-02-11 20:50:15,374.438,,,,,,,
628,2025-02-11 22:18:45,2025-02-11 22:25:00,374.443,,,,,,,
629,2025-02-11 23:53:30,2025-02-11 23:59:44,374.438,,,,,,,
630,2025-02-12 01:28:14,2025-02-12 01:34:28,374.441,,,,,,,
631,2025-02-12 03:02:58,2025-02-12 03:09:13,374.442,,,,,,,
632,2025-02-12 04:37:43,2025-02-12 04:43:57,374.439,,,,,,,
633,2025-02-12 06:12:27,2025-02-12 06:18:42,374.439,,,,,,,
634,2025-02-12 07:47:12,2025-02-12 07:53:26,374.437,,,,,,,
635,2025-02-12 09:21:56,2025-02-12 09:28:10,374.437,,,,,,,
636,2025-02-12 10:56:40,2025-02-12 11:02:55,374.438,,,,,,,
637,2025-02-12 12:31:25,2025-02-12 12:37:39,374.438,,,,,,,
638,2025-02-12 14:06:09,2025-02-12 14:12:24,374.439,,,,,,,
639,2025-02-12 15:40:54,2025-02-12 15:47:08,374.444,,,,,,,
640,2025-02-12 17:15:38,2025-02-12 17:21:52,374.438,,,,,,,
641,2025-02-12 18:50:22,2025-02-12 18:56:37,374.438,,,,,,,
642,2025-02-12 20:25:07,2025-02-12 20:31:21,374.443,,,,,,,
643,2025-02-12 21:59:51,2025-02-12 22:06:06,374.443,,,,,,,
644,2025-02-12 23:34:35,2025-02-12 23:40:50,374.438,,,,,,,
645,2025-02-13 01:09:20,2025-02-13 01:15:34,374.441,,,,,,,
646,2025-02-13 02:44:04,2025-02-13 02:50:19,374.442,,,,,,,
647,2025-02-13 04:18:49,2025-02-13 04:25:03,374.437,,,,,,,
648,2025-02-13 05:53:33,2025-02-13 05:59:47,374.442,,,,,,,
649,2025-02-13 07:28:17,2025-02-13 07:34:32,374.437,,,,,,,
650,2025-02-13 09:03:02,2025-02-13 09:09:16,374.438,,,,,,,
651,2025-02-13 10:37:46,2025-02-13 10:44:01,374.438,,,,,,,
652,2025-02-13 12:12:31,2025-02-13 12:18:45,374.438,,,,,,,
653,2025-02-13 13:47:15,2025-02-13 13:53:29,374.439,,,,,,,
654,2025-02-13 15:21:59,2025-02-13 15:28:14,374.447,,,,,,,
655,2025-02-13 16:56:44,2025-02-13 17:02:58,374.438,,,,,,,
656,2025-02-13 18:31:28,2025-02-13 18:37:43,374.444,,,,,,,
657,2025-02-13 20:06:12,2025-02-13 20:12:27,374.443,,,,,,,
658,2025-02-13 21:40:57,2025-02-13 21:47:11,374.439,,,,,,,
659,2025-02-13 23:15:41,2025-02-13 23:21:56,374.442,,,,,,,
660,2025-02-14 00:50:26,2025-02-14 00:56:40,374.438,,,,,,,
661,2025-02-14 02:25:10,2025-02-14 02:31:24,374.438,,,,,,,
662,2025-02-14 03:59:54,2025-02-14 04:06:09,374.442,,,,,,,
663,2025-02-14 05:34:39,2025-02-14 05:40:53,374.438,,,,,,,
664,2025-02-14 07:09:23,2025-02-14 07:15:38,374.439,,,,,,,
665,2025-02-14 08:44:08,2025-02-14 08:50:22,374.437,,,,,,,
666,2025-02-14 10:18:52,2025-02-14 10:25:06,374.438,,,,,,,
667,2025-02-14 11:53:36,2025-02-14 11:59:51,374.438,,,,,,,
668,2025-02-14 13:28:21,2025-02-14 13:34:35,374.438,,,,,,,
669,2025-02-14 15:03:05,2025-02-14 15:09:20,374.44,,,,,,,
670,2025-02-14 16:37:49,2025-02-14 16:44:04,374.443,,,,,,,
671,2025-02-14 18:12:34,2025-02-14 18:18:48,374.443,,,,,,,
672,2025-02-14 19:47:18,2025-02-14 19:53:33,374.438,,,,,,,
673,2025-02-14 21:22:03,2025-02-14 21:28:17,374.441,,,,,,,
674,2025-02-14 22:56:47,2025-02-14 23:03:01,374.438,,,,,,,
675,2025-02-15 00:31:31,2025-02-15 00:37:46,374.44,,,,,,,
676,2025-02-15 02:06:16,2025-02-15 02:12:30,374.441,,,,,,,
677,2025-02-15 03:41:00,2025-02-15 03:47:15,374.44,,,,,,,
678,2025-02-15 05:15:45,2025-02-15 05:21:59,374.442,,,,,,,
679,2025-02-15 06:50:29,2025-02-15 06:56:43,374.444,,,,,,,
680,2025-02-15 08:25:13,2025-02-15 08:31:28,374.44,,,,,,,
681,2025-02-15 09:59:58,2025-02-15 10:06:12,374.44,,,,,,,
682,2025-02-15 11:34:42,2025-02-15 11:40:57,374.438,,,,,,,
683,2025-02-15 13:09:27,2025-02-15 13:15:41,374.44,,,,,,,
684,2025-02-15 14:44:11,2025-02-15 14:50:25,374.447,,,,,,,
685,2025-02-15 16:18:55,2025-02-15 16:25:10,374.438,,,,,,,
686,2025-02-15 17:53:40,2025-02-15 17:59:54,374.443,,,,,,,
687,2025-02-15 19:28:24,2025-02-15 19:34:38,374.44,,,,,,,
688,2025-02-15 21:03:08,2025-02-15 21:09:23,374.437,,,,,,,
689,2025-02-15 22:37:53,2025-02-15 22:44:07,374.438,,,,,,,
690,2025-02-16 00:12:37,2025-02-16 00:18:52,374.438,,,,,,,
691,2025-02-16 01:47:22,2025-02-16 01:53:36,374.438,,,,,,,
692,2025-02-16 03:22:06,2025-02-16 03:28:20,374.437,,,,,,,
693,2025-02-16 04:56:50,2025-02-16 05:03:05,374.439,,,,,,,
694,2025-02-16 06:31:35,2025-02-16 06:37:49,374.437,,,,,,,
695,2025-02-16 08:06:19,2025-02-16 08:12:34,374.442,,,,,,,
696,2025-02-16 09:41:04,2025-02-16 09:47:18,374.438,,,,,,,
697,2025-02-16 11:15:48,2025-02-16 11:22:02,374.437,,,,,,,
698,2025-02-16 12:50:32,2025-02-16 12:56:47,374.437,,,,,,,
699,2025-02-16 14:25:17,2025-02-16 14:31:31,374.44,,,,,,,
700,2025-02-16 16:00:01,2025-02-16 16:06:16,374.443,,,,,,,
701,2025-02-16 17:34:45,2025-02-16 17:41:00,374.439,,,,,,,
702,2025-02-16 19:09:30,2025-02-16 19:15:44,374.437,,,,,,,
703,2025-02-16 20:44:14,2025-02-16 20:50:29,374.438,,,,,,,
704,2025-02-16 22:18:59,2025-02-16 22:25:13,374.442,,,,,,,
705,2025-02-16 23:53:43,2025-02-16 23:59:57,374.437,,,,,,,
706,2025-02-17 01:28:27,2025-02-17 01:34:42,374.44,,,,,,,
707,2025-02-17 03:03:12,2025-02-17 03:09:26,374.441,,,,,,,
708,2025-02-17 04:37:56,2025-02-17 04:44:11,374.438,,,,,,,
709,2025-02-17 06:12:41,2025-02-17 06:18:55,374.437,,,,,,,
710,2025-02-17 07:47:25,2025-02-17 07:53:39,374.436,,,,,,,
711,2025-02-17 09:22:09,2025-02-17 09:28:24,374.436,,,,,,,
712,2025-02-17 10:56:54,2025-02-17 11:03:08,374.436,,,,,,,
713,2025-02-17 12:31:38,2025-02-17 12:37:53,374.437,,,,,,,
714,2025-02-17 14:06:22,2025-02-17 14:12:37,374.437,,,,,,,
715,2025-02-17 15:41:07,2025-02-17 15:47:21,374.443,,,,,,,
716,2025-02-17 17:15:51,2025-02-17 17:22:06,374.437,,,,,,,
717,2025-02-17 18:50:36,2025-02-17 18:56:50,374.436,,,,,,,
718,2025-02-17 20:25:20,2025-02-17 20:31:34,374.441,,,,,,,
719,2025-02-17 22:00:04,2025-02-17 22:06:19,374.441,,,,,,,
720,2025-02-17 23:34:49,2025-02-17 23:41:03,374.436,,,,,,,
721,2025-02-18 01:09:33,2025-02-18 01:15:48,374.439,,,,,,,
722,2025-02-18 02:44:18,2025-02-18 02:50:32,374.44,,,,,,,
723,2025-02-18 04:19:02,2025-02-18 04:25:16,374.435,,,,,,,
724,2025-02-18 05:53:46,2025-02-18 06:00:01,374.44,,,,,,,
725,2025-02-18 07:28:31,2025-02-18 07:34:45,374.435,,,,,,,
726,2025-02-18 09:03:15,2025-02-18 09:09:30,374.435,,,,,,,
727,2025-02-18 10:37:59,2025-02-18 10:44:14,374.435,,,,,,,
728,2025-02-18 12:12:44,2025-02-18 12:18:58,374.436,,,,,,,
729,2025-02-18 13:47:28,2025-02-18 13:53:43,374.437,,,,,,,
730,2025-02-18 15:22:13,2025-02-18 15:28:27,374.445,,,,,,,
731,2025-02-18 16:56:57,2025-02-18 17:03:11,374.436,,,,,,,
732,2025-02-18 18:31:41,2025-02-18 18:37:56,374.441,,,,,,,
733,2025-02-18 20:06:26,2025-02-18 20:12:40,374.44,,,,,,,
734,2025-02-18 21:41:10,2025-02-18 21:47:25,374.436,,,,,,,
735,2025-02-18 23:15:55,2025-02-18 23:22:09,374.439,,,,,,,
736,2025-02-19 00:50:39,2025-02-19 00:56:53,374.435,,,,,,,
737,2025-02-19 02:25:23,2025-02-19 02:31:38,374.435,,,,,,,
738,2025-02-19 04:00:08,2025-02-19 04:06:22,374.439,,,,,,,
739,2025-02-19 05:34:52,2025-02-19 05:41:07,374.435,,,,,,,
740,2025-02-19 07:09:36,2025-02-19 07:15:51,374.435,,,,,,,
741,2025-02-19 08:44:21,2025-02-19 08:50:35,374.434,,,,,,,
742,2025-02-19 10:19:05,2025-02-19 10:25:20,374.434,,,,,,,
743,2025-02-19 11:53:50,2025-02-19 12:00:04,374.434,,,,,,,
744,2025-02-19 13:28:34,2025-02-19 13:34:48,374.435,,,,,,,
745,2025-02-19 15:03:18,2025-02-19 15:09:33,374.437,,,,,,,
746,2025-02-19 16:38:03,2025-02-19 16:44:17,374.439,,,,,,,
747,2025-02-19 18:12:47,2025-02-19 18:19:02,374.439,,,,,,,
748,2025-02-19 19:47:32,2025-02-19 19:53:46,374.434,,,,,,,
749,2025-02-19 21:22:16,2025-02-19 21:28:30,374.437,,,,,,,
750,2025-02-19 22:57:00,2025-02-19 23:03:15,374.434,,,,,,,
751,2025-02-20 00:31:45,2025-02-20 00:37:59,374.436,,,,,,,
752,2025-02-20 02:06:29,2025-02-20 02:12:44,374.437,,,,,,,
753,2025-02-20 03:41:14,2025-02-20 03:47:28,374.436,,,,,,,
754,2025-02-20 05:15:58,2025-02-20 05:22:12,374.438,,,,,,,
755,2025-02-20 06:50:42,2025-02-20 06:56:57,374.439,,,,,,,
756,2025-02-20 08:25:27,2025-02-20 08:31:41,374.436,,,,,,,
757,2025-02-20 10:00:11,2025-02-20 10:06:25,374.436,,,,,,,
758,2025-02-20 11:34:55,2025-02-20 11:41:10,374.433,,,,,,,
759,2025-02-20 13:09:40,2025-02-20 13:15:54,374.436,,,,,,,
760,2025-02-20 14:44:24,2025-02-20 14:50:39,374.442,,,,,,,
761,2025-02-20 16:19:09,2025-02-20 16:25:23,374.433,,,,,,,
762,2025-02-20 17:53:53,2025-02-20 18:00:07,374.438,,,,,,,
763,2025-02-20 19:28:37,2025-02-20 19:34:52,374.435,,,,,,,
764,2025-02-20 21:03:22,2025-02-20 21:09:36,374.433,,,,,,,
765,2025-02-20 22:38:06,2025-02-20 22:44:21,374.433,,,,,,,
766,2025-02-21 00:12:51,2025-02-21 00:19:05,374.433,,,,,,,
767,2025-02-21 01:47:35,2025-02-21 01:53:49,374.433,,,,,,,
768,2025-02-21 03:22:19,2025-02-21 03:28:34,374.433,,,,,,,
769,2025-02-21 04:57:04,2025-02-21 05:03:18,374.434,,,,,,,
770,2025-02-21 06:31:48,2025-02-21 06:38:03,374.432,,,,,,,
771,2025-02-21 08:06:32,2025-02-21 08:12:47,374.437,,,,,,,
772,2025-02-21 09:41:17,2025-02-21 09:47:31,374.433,,,,,,,
773,2025-02-21 11:16:01,2025-02-21 11:22:16,374.432,,,,,,,
774,2025-02-21 12:50:46,2025-02-21 12:57:00,374.432,,,,,,,
775,2025-02-21 14:25:30,2025-02-21 14:31:44,374.434,,,,,,,
776,2025-02-21 16:00:14,2025-02-21 16:06:29,374.438,,,,,,,
777,2025-02-21 17:34:59,2025-02-21 17:41:13,374.434,,,,,,,
778,2025-02-21 19:09:43,2025-02-21 19:15:58,374.432,,,,,,,
779,2025-02-21 20:44:28,2025-02-21 20:50:42,374.433,,,,,,,
780,2025-02-21 22:19:12,2025-02-21 22:25:26,374.437,,,,,,,
781,2025-02-21 23:53:56,2025-02-22 00:00:11,374.432,,,,,,,
782,2025-02-22 01:28:41,2025-02-22 01:34:55,374.435,,,,,,,
783,2025-02-22 03:03:25,2025-02-22 03:09:40,374.436,,,,,,,
784,2025-02-22 04:38:09,2025-02-22 04:44:24,374.433,,,,,,,
785,2025-02-22 06:12:54,2025-02-22 06:19:08,374.432,,,,,,,
786,2025-02-22 07:47:38,2025-02-22 07:53:53,374.431,,,,,,,
787,2025-02-22 09:22:23,2025-02-22 09:28:37,374.431,,,,,,,
788,2025-02-22 10:57:07,2025-02-22 11:03:21,374.431,,,,,,,
789,2025-02-22 12:31:51,2025-02-22 12:38:06,374.431,,,,,,,
790,2025-02-22 14:06:36,2025-02-22 14:12:50,374.432,,,,,,,
791,2025-02-22 15:41:20,2025-02-22 15:47:35,374.437,,,,,,,
792,2025-02-22 17:16:05,2025-02-22 17:22:19,374.431,,,,,,,
793,2025-02-22 18:50:49,2025-02-22 18:57:03,374.431,,,,,,,
794,2025-02-22 20:25:33,2025-02-22 20:31:48,374.436,,,,,,,
795,2025-02-22 22:00:18,2025-02-22 22:06:32,374.436,,,,,,,
796,2025-02-22 23:35:02,2025-02-22 23:41:17,374.431,,,,,,,
797,2025-02-23 01:09:46,2025-02-23 01:16:01,374.433,,,,,,,
798,2025-02-23 02:44:31,2025-02-23 02:50:45,374.435,,,,,,,
799,2025-02-23 04:19:15,2025-02-23 04:25:30,374.43,,,,,,,
800,2025-02-23 05:54:00,2025-02-23 06:00:14,374.435,,,,,,,
801,2025-02-23 07:28:44,2025-02-23 07:34:58,374.432,,,,,,,
802,2025-02-23 09:03:28,2025-02-23 09:09:43,374.43,,,,,,,
803,2025-02-23 10:38:13,2025-02-23 10:44:27,374.43,,,,,,,
804,2025-02-23 12:12:57,2025-02-23 12:19:12,374.43,,,,,,,
805,2025-02-23 13:47:42,2025-02-23 13:53:56,374.431,,,,,,,
806,2025-02-23 15:22:26,2025-02-23 15:28:40,374.44,,,,,,,
807,2025-02-23 16:57:10,2025-02-23 17:03:25,374.43,,,,,,,
808,2025-02-23 18:31:55,2025-02-23 18:38:09,374.436,,,,,,,
809,2025-02-23 20:06:39,2025-02-23 20:12:54,374.435,,,,,,,
810,2025-02-23 21:41:24,2025-02-23 21:47:38,374.431,,,,,,,
811,2025-02-23 23:16:08,2025-02-23 23:22:22,374.434,,,,,,,
812,2025-02-24 00:50:52,2025-02-24 00:57:07,374.43,,,,,,,
813,2025-02-24 02:25:37,2025-02-24 02:31:51,374.43,,,,,,,
814,2025-02-24 04:00:21,2025-02-24 04:06:35,374.434,,,,,,,
815,2025-02-24 05:35:05,2025-02-24 05:41:20,374.43,,,,,,,
816,2025-02-24 07:09:50,2025-02-24 07:16:04,374.43,,,,,,,
817,2025-02-24 08:44:34,2025-02-24 08:50:49,374.429,,,,,,,
818,2025-02-24 10:19:19,2025-02-24 10:25:33,374.429,,,,,,,
819,2025-02-24 11:54:03,2025-02-24 12:00:17,374.43,,,,,,,
820,2025-02-24 13:28:47,2025-02-24 13:35:02,374.43,,,,,,,
821,2025-02-24 15:03:32,2025-02-24 15:09:46,374.432,,,,,,,
822,2025-02-24 16:38:16,2025-02-24 16:44:31,374.434,,,,,,,
823,2025-02-24 18:13:01,2025-02-24 18:19:15,374.435,,,,,,,
824,2025-02-24 19:47:45,2025-02-24 19:53:59,374.43,,,,,,,
825,2025-02-24 21:22:29,2025-02-24 21:28:44,374.433,,,,,,,
826,2025-02-24 22:57:14,2025-02-24 23:03:28,374.429,,,,,,,
827,2025-02-25 00:31:58,2025-02-25 00:38:12,374.431,,,,,,,
828,2025-02-25 02:06:42,2025-02-25 02:12:57,374.433,,,,,,,
829,2025-02-25 03:41:27,2025-02-25 03:47:41,374.432,,,,,,,
830,2025-02-25 05:16:11,2025-02-25 05:22:26,374.433,,,,,,,
831,2025-02-25 06:50:56,2025-02-25 06:57:10,374.435,,,,,,,
832,2025-02-25 08:25:40,2025-02-25 08:31:54,374.431,,,,,,,
833,2025-02-25 10:00:24,2025-02-25 10:06:39,374.431,,,,,,,
834,2025-02-25 11:35:09,2025-02-25 11:41:23,374.429,,,,,,,
835,2025-02-25 13:09:53,2025-02-25 13:16:08,374.432,,,,,,,
836,2025-02-25 14:44:38,2025-02-25 14:50:52,374.438,,,,,,,
837,2025-02-25 16:19:22,2025-02-25 16:25:36,374.429,,,,,,,
838,2025-02-25 17:54:06,2025-02-25 18:00:21,374.435,,,,,,,
839,2025-02-25 19:28:51,2025-02-25 19:35:05,374.432,,,,,,,
840,2025-02-25 21:03:35,2025-02-25 21:09:50,374.429,,,,,,,
841,2025-02-25 22:38:19,2025-02-25 22:44:34,374.429,,,,,,,
842,2025-02-26 00:13:04,2025-02-26 00:19:18,374.429,,,,,,,
843,2025-02-26 01:47:48,2025-02-26 01:54:03,374.43,,,,,,,
844,2025-02-26 03:22:33,2025-02-26 03:28:47,374.429,,,,,,,
845,2025-02-26 04:57:17,2025-02-26 05:03:31,374.431,,,,,,,
846,2025-02-26 06:32:01,2025-02-26 06:38:16,374.429,,,,,,,
847,2025-02-26 08:06:46,2025-02-26 08:13:00,374.433,,,,,,,
848,2025-02-26 09:41:30,2025-02-26 09:47:45,374.43,,,,,,,
849,2025-02-26 11:16:15,2025-02-26 11:22:29,374.429,,,,,,,
850,2025-02-26 12:50:59,2025-02-26 12:57:13,374.429,,,,,,,
851,2025-02-26 14:25:43,2025-02-26 14:31:58,374.431,,,,,,,
852,2025-02-26 16:00:28,2025-02-26 16:06:42,374.435,,,,,,,
853,2025-02-26 17:35:12,2025-02-26 17:41:27,374.431,,,,,,,
854,2025-02-26 19:09:56,2025-02-26 19:16:11,374.429,,,,,,,
855,2025-02-26 20:44:41,2025-02-26 20:50:55,374.43,,,,,,,
856,2025-02-26 22:19:25,2025-02-26 22:25:40,374.434,,,,,,,
857,2025-02-26 23:54:10,2025-02-27 00:00:24,374.43,,,,,,,
858,2025-02-27 01:28:54,2025-02-27 01:35:08,374.433,,,,,,,
859,2025-02-27 03:03:38,2025-02-27 03:09:53,374.433,,,,,,,
860,2025-02-27 04:38:23,2025-02-27 04:44:37,374.43,,,,,,,
861,2025-02-27 06:13:07,2025-02-27 06:19:22,374.43,,,,,,,
862,2025-02-27 07:47:52,2025-02-27 07:54:06,374.428,,,,,,,
863,2025-02-27 09:22:36,2025-02-27 09:28:50,374.428,,,,,,,
864,2025-02-27 10:57:20,2025-02-27 11:03:35,374.429,,,,,,,
865,2025-02-27 12:32:05,2025-02-27 12:38:19,374.429,,,,,,,
866,2025-02-27 14:06:49,2025-02-27 14:13:04,374.43,,,,,,,
867,2025-02-27 15:41:33,2025-02-27 15:47:48,374.435,,,,,,,
868,2025-02-27 17:16:18,2025-02-27 17:22:32,374.429,,,,,,,
869,2025-02-27 18:51:02,2025-02-27 18:57:17,374.429,,,,,,,
870,2025-02-27 20:25:47,2025-02-27 20:32:01,374.434,,,,,,,
871,2025-02-27 22:00:31,2025-02-27 22:06:45,374.434,,,,,,,
872,2025-02-27 23:35:15,2025-02-27 23:41:30,374.429,,,,,,,
873,2025-02-28 01:10:00,2025-02-28 01:16:14,374.432,,,,,,,
874,2025-02-28 02:44:44,2025-02-28 02:50:59,374.433,,,,,,,
875,2025-02-28 04:19:29,2025-02-28 04:25:43,374.428,,,,,,,
876,2025-02-28 05:54:13,2025-02-28 06:00:27,374.433,,,,,,,
877,2025-02-28 07:28:57,2025-02-28 07:35:12,374.43,,,,,,,
878,2025-02-28 09:03:42,2025-02-28 09:09:56,374.428,,,,,,,
879,2025-02-28 10:38:26,2025-02-28 10:44:41,374.429,,,,,,,
880,2025-02-28 12:13:11,2025-02-28 12:19:25,374.429,,,,,,,
881,2025-02-28 13:47:55,2025-02-28 13:54:09,374.43,,,,,,,
882,2025-02-28 15:22:39,2025-02-28 15:28:54,374.438,,,,,,,
883,2025-02-28 16:57:24,2025-02-28 17:03:38,374.429,,,,,,,
884,2025-02-28 18:32:08,2025-02-28 18:38:22,374.435,,,,,,,
885,2025-02-28 20:06:52,2025-02-28 20:13:07,374.434,,,,,,,
886,2025-02-28 21:41:37,2025-02-28 21:47:51,374.429,,,,,,,
887,2025-02-28 23:16:21,2025-02-28 23:22:36,374.432,,,,,,,
888,2025-03-01 00:51:06,2025-03-01 00:57:20,374.428,,,,,,,
889,2025-03-01 02:25:50,2025-03-01 02:32:04,374.429,,,,,,,
890,2025-03-01 04:00:34,2025-03-01 04:06:49,374.433,,,,,,,
891,2025-03-01 05:35:19,2025-03-01 05:41:33,374.429,,,,,,,
892,2025-03-01 07:10:03,2025-03-01 07:16:18,374.429,,,,,,,
893,2025-03-01 08:44:48,2025-03-01 08:51:02,374.428,,,,,,,
894,2025-03-01 10:19:32,2025-03-01 10:25:46,374.428,,,,,,,
895,2025-03-01 11:54:16,2025-03-01 12:00:31,374.428,,,,,,,
896,2025-03-01 13:29:01,2025-03-01 13:35:15,374.428,,,,,,,
897,2025-03-01 15:03:45,2025-03-01 15:09:59,374.431,,,,,,,
898,2025-03-01 16:38:29,2025-03-01 16:44:44,374.433,,,,,,,
899,2025-03-01 18:13:14,2025-03-01 18:19:28,374.433,,,,,,,
900,2025-03-01 19:47:58,2025-03-01 19:54:13,374.428,,,,,,,
901,2025-03-01 21:22:43,2025-03-01 21:28:57,374.431,,,,,,,
902,2025-03-01 22:57:27,2025-03-01 23:03:41,374.428,,,,,,,
903,2025-03-02 00:32:11,2025-03-02 00:38:26,374.43,,,,,,,
904,2025-03-02 02:06:56,2025-03-02 02:13:10,374.431,,,,,,,
905,2025-03-02 03:41:40,2025-03-02 03:47:55,374.43,,,,,,,
906,2025-03-02 05:16:25,2025-03-02 05:22:39,374.432,,,,,,,
907,2025-03-02 06:51:09,2025-03-02 06:57:23,374.434,,,,,,,
908,2025-03-02 08:25:53,2025-03-02 08:32:08,374.43,,,,,,,
909,2025-03-02 10:00:38,2025-03-02 10:06:52,374.43,,,,,,,
910,2025-03-02 11:35:22,2025-03-02 11:41:37,374.427,,,,,,,
911,2025-03-02 13:10:06,2025-03-02 13:16:21,374.43,,,,,,,
912,2025-03-02 14:44:51,2025-03-02 14:51:05,374.437,,,,,,,
913,2025-03-02 16:19:35,2025-03-02 16:25:50,374.428,,,,,,,
914,2025-03-02 17:54:20,2025-03-02 18:00:34,374.433,,,,,,,
915,2025-03-02 19:29:04,2025-03-02 19:35:18,374.43,,,,,,,
916,2025-03-02 21:03:48,2025-03-02 21:10:03,374.427,,,,,,,
917,2025-03-02 22:38:33,2025-03-02 22:44:47,374.427,,,,,,,
918,2025-03-03 00:13:17,2025-03-03 00:19:32,374.427,,,,,,,
919,2025-03-03 01:48:02,2025-03-03 01:54:16,374.427,,,,,,,
920,2025-03-03 03:22:46,2025-03-03 03:29:00,374.427,,,,,,,
921,2025-03-03 04:57:30,2025-03-03 05:03:45,374.428,,,,,,,
922,2025-03-03 06:32:15,2025-03-03 06:38:29,374.426,,,,,,,
923,2025-03-03 08:06:59,2025-03-03 08:13:14,374.431,,,,,,,
924,2025-03-03 09:41:43,2025-03-03 09:47:58,374.427,,,,,,,
925,2025-03-03 11:16:28,2025-03-03 11:22:42,374.426,,,,,,,
926,2025-03-03 12:51:12,2025-03-03 12:57:27,374.426,,,,,,,
927,2025-03-03 14:25:57,2025-03-03 14:32:11,374.429,,,,,,,
928,2025-03-03 16:00:41,2025-03-03 16:06:55,374.432,,,,,,,
929,2025-03-03 17:35:25,2025-03-03 17:41:40,374.428,,,,,,,
930,2025-03-03 19:10:10,2025-03-03 19:16:24,374.426,,,,,,,
931,2025-03-03 20:44:54,2025-03-03 20:51:09,374.427,,,,,,,
932,2025-03-03 22:19:39,2025-03-03 22:25:53,374.431,,,,,,,
933,2025-03-03 23:54:23,2025-03-04 00:00:37,374.426,,,,,,,
934,2025-03-04 01:29:07,2025-03-04 01:35:22,374.429,,,,,,,
935,2025-03-04 03:03:52,2025-03-04 03:10:06,374.43,,,,,,,
936,2025-03-04 04:38:36,2025-03-04 04:44:51,374.427,,,,,,,
937,2025-03-04 06:13:21,2025-03-04 06:19:35,374.426,,,,,,,
938,2025-03-04 07:48:05,2025-03-04 07:54:19,374.424,,,,,,,
939,2025-03-04 09:22:49,2025-03-04 09:29:04,374.425,,,,,,,
940,2025-03-04 10:57:34,2025-03-04 11:03:48,374.425,,,,,,,
941,2025-03-04 12:32:18,2025-03-04 12:38:32,374.425,,,,,,,
942,2025-03-04 14:07:02,2025-03-04 14:13:17,374.426,,,,,,,
943,2025-03-04 15:41:47,2025-03-04 15:48:01,374.43,,,,,,,
944,2025-03-04 17:16:31,2025-03-04 17:22:46,374.425,,,,,,,
945,2025-03-04 18:51:16,2025-03-04 18:57:30,374.424,,,,,,,
946,2025-03-04 20:26:00,2025-03-04 20:32:14,374.43,,,,,,,
947,2025-03-04 22:00:44,2025-03-04 22:06:59,374.429,,,,,,,
948,2025-03-04 23:35:29,2025-03-04 23:41:43,374.424,,,,,,,
949,2025-03-05 01:10:13,2025-03-05 01:16:28,374.427,,,,,,,
950,2025-03-05 02:44:58,2025-03-05 02:51:12,374.428,,,,,,,
951,2025-03-05 04:19:42,2025-03-05 04:25:56,374.423,,,,,,,
952,2025-03-05 05:54:26,2025-03-05 06:00:41,374.428,,,,,,,
953,2025-03-05 07:29:11,2025-03-05 07:35:25,374.425,,,,,,,
954,2025-03-05 09:03:55,2025-03-05 09:10:09,374.423,,,,,,,
955,2025-03-05 10:38:39,2025-03-05 10:44:54,374.423,,,,,,,
956,2025-03-05 12:13:24,2025-03-05 12:19:38,374.423,,,,,,,
957,2025-03-05 13:48:08,2025-03-05 13:54:23,374.424,,,,,,,
958,2025-03-05 15:22:53,2025-03-05 15:29:07,374.432,,,,,,,
959,2025-03-05 16:57:37,2025-03-05 17:03:51,374.423,,,,,,,
960,2025-03-05 18:32:21,2025-03-05 18:38:36,374.429,,,,,,,
961,2025-03-05 20:07:06,2025-03-05 20:13:20,374.428,,,,,,,
962,2025-03-05 21:41:50,2025-03-05 21:48:05,374.423,,,,,,,
963,2025-03-05 23:16:35,2025-03-05 23:22:49,374.426,,,,,,,
964,2025-03-06 00:51:19,2025-03-06 00:57:33,374.422,,,,,,,
965,2025-03-06 02:26:03,2025-03-06 02:32:18,374.422,,,,,,,
966,2025-03-06 04:00:48,2025-03-06 04:07:02,374.426,,,,,,,
967,2025-03-06 05:35:32,2025-03-06 05:41:47,374.422,,,,,,,
968,2025-03-06 07:10:16,2025-03-06 07:16:31,374.423,,,,,,,
969,2025-03-06 08:45:01,2025-03-06 08:51:15,374.421,,,,,,,
970,2025-03-06 10:19:45,2025-03-06 10:26:00,374.421,,,,,,,
971,2025-03-06 11:54:30,2025-03-06 12:00:44,374.422,,,,,,,
972,2025-03-06 13:29:14,2025-03-06 13:35:28,374.422,,,,,,,
973,2025-03-06 15:03:58,2025-03-06 15:10:13,374.424,,,,,,,
974,2025-03-06 16:38:43,2025-03-06 16:44:57,374.426,,,,,,,
975,2025-03-06 18:13:27,2025-03-06 18:19:42,374.426,,,,,,,
976,2025-03-06 19:48:12,2025-03-06 19:54:26,374.421,,,,,,,
977,2025-03-06 21:22:56,2025-03-06 21:29:10,374.424,,,,,,,
978,2025-03-06 22:57:40,2025-03-06 23:03:55,374.421,,,,,,,
979,2025-03-07 00:32:25,2025-03-07 00:38:39,374.423,,,,,,,
980,2025-03-07 02:07:09,2025-03-07 02:13:24,374.424,,,,,,,
981,2025-03-07 03:41:53,2025-03-07 03:48:08,374.423,,,,,,,
982,2025-03-07 05:16:38,2025-03-07 05:22:52,374.425,,,,,,,
983,2025-03-07 06:51:22,2025-03-07 06:57:37,374.426,,,,,,,
984,2025-03-07 08:26:07,2025-03-07 08:32:21,374.422,,,,,,,
985,2025-03-07 10:00:51,2025-03-07 10:07:05,374.422,,,,,,,
986,2025-03-07 11:35:35,2025-03-07 11:41:50,374.42,,,,,,,
987,2025-03-07 13:10:20,2025-03-07 13:16:34,374.423,,,,,,,
988,2025-03-07 14:45:04,2025-03-07 14:51:19,374.429,,,,,,,
989,2025-03-07 16:19:49,2025-03-07 16:26:03,374.42,,,,,,,
990,2025-03-07 17:54:33,2025-03-07 18:00:47,374.425,,,,,,,
991,2025-03-07 19:29:17,2025-03-07 19:35:32,374.422,,,,,,,
992,2025-03-07 21:04:02,2025-03-07 21:10:16,374.419,,,,,,,
993,2025-03-07 22:38:46,2025-03-07 22:45:01,374.42,,,,,,,
994,2025-03-08 00:13:30,2025-03-08 00:19:45,374.42,,,,,,,
995,2025-03-08 01:48:15,2025-03-08 01:54:29,374.42,,,,,,,
996,2025-03-08 03:22:59,2025-03-08 03:29:14,374.419,,,,,,,
997,2025-03-08 04:57:44,2025-03-08 05:03:58,374.421,,,,,,,
998,2025-03-08 06:32:28,2025-03-08 06:38:42,374.419,,,,,,,
999,2025-03-08 08:07:12,2025-03-08 08:13:27,374.423,,,,,,,
1000,2025-03-08 09:41:57,2025-03-08 09:48:11,374.42,,,,,,,
1001,2025-03-08 11:16:41,2025-03-08 11:22:56,374.419,,,,,,,
1002,2025-03-08 12:51:26,2025-03-08 12:57:40,374.419,,,,,,,
1003,2025-03-08 14:26:10,2025-03-08 14:32:24,374.421,,,,,,,
1004,2025-03-08 16:00:54,2025-03-08 16:07:09,374.425,,,,,,,
1005,2025-03-08 17:35:39,2025-03-08 17:41:53,374.421,,,,,,,
1006,2025-03-08 19:10:23,2025-03-08 19:16:38,374.419,,,,,,,
1007,2025-03-08 20:45:08,2025-03-08 20:51:22,374.419,,,,,,,
1008,2025-03-08 22:19:52,2025-03-08 22:26:06,374.423,,,,,,,
1009,2025-03-08 23:54:36,2025-03-09 00:00:51,374.419,,,,,,,
1010,2025-03-09 01:29:21,2025-03-09 01:35:35,374.422,,,,,,,
1011,2025-03-09 03:04:05,2025-03-09 03:10:19,374.422,,,,,,,
1012,2025-03-09 04:38:49,2025-03-09 04:45:04,374.419,,,,,,,
1013,2025-03-09 06:13:34,2025-03-09 06:19:48,374.419,,,,,,,
1014,2025-03-09 07:48:18,2025-03-09 07:54:33,374.417,,,,,,,
1015,2025-03-09 09:23:03,2025-03-09 09:29:17,374.418,,,,,,,
1016,2025-03-09 10:57:47,2025-03-09 11:04:01,374.418,,,,,,,
