3UCubedIntegratedSim/Reports & Plots/Area Target Access Data/CSV/Sat4.csv

Access,Start Time (UTCG),Stop Time (UTCG),Duration (sec),,,Global Statistics,,,,
1,2025-01-01 16:20:22,2025-01-01 16:23:41,198.734,,,Min Duration,1895,2025-05-06 06:57:29,2025-05-06 07:00:48,198.682
2,2025-01-01 17:55:07,2025-01-01 17:58:25,198.733,,,Max Duration,4610,2025-10-31 21:55:56,2025-10-31 21:59:15,198.869
3,2025-01-01 19:29:51,2025-01-01 19:33:10,198.734,,,Mean Duration,,,,198.761
4,2025-01-01 21:04:36,2025-01-01 21:07:54,198.739,,,Total Duration,,,,1102724.71
5,2025-01-01 22:39:20,2025-01-01 22:42:39,198.736,,,,,,,
6,2025-01-02 00:14:04,2025-01-02 00:17:23,198.732,,,,,,,
7,2025-01-02 01:48:49,2025-01-02 01:52:07,198.732,,,,,,,
8,2025-01-02 03:23:33,2025-01-02 03:26:52,198.733,,,,,,,
9,2025-01-02 04:58:17,2025-01-02 05:01:36,198.734,,,,,,,
10,2025-01-02 06:33:02,2025-01-02 06:36:21,198.731,,,,,,,
11,2025-01-02 08:07:46,2025-01-02 08:11:05,198.733,,,,,,,
12,2025-01-02 09:42:31,2025-01-02 09:45:49,198.731,,,,,,,
13,2025-01-02 11:17:15,2025-01-02 11:20:34,198.735,,,,,,,
14,2025-01-02 12:51:59,2025-01-02 12:55:18,198.734,,,,,,,
15,2025-01-02 14:26:44,2025-01-02 14:30:02,198.733,,,,,,,
16,2025-01-02 16:01:28,2025-01-02 16:04:47,198.731,,,,,,,
17,2025-01-02 17:36:13,2025-01-02 17:39:31,198.735,,,,,,,
18,2025-01-02 19:10:57,2025-01-02 19:14:16,198.735,,,,,,,
19,2025-01-02 20:45:41,2025-01-02 20:49:00,198.731,,,,,,,
20,2025-01-02 22:20:26,2025-01-02 22:23:44,198.731,,,,,,,
21,2025-01-02 23:55:10,2025-01-02 23:58:29,198.735,,,,,,,
22,2025-01-03 01:29:54,2025-01-03 01:33:13,198.738,,,,,,,
23,2025-01-03 03:04:39,2025-01-03 03:07:58,198.732,,,,,,,
24,2025-01-03 04:39:23,2025-01-03 04:42:42,198.734,,,,,,,
25,2025-01-03 06:14:08,2025-01-03 06:17:26,198.731,,,,,,,
26,2025-01-03 07:48:52,2025-01-03 07:52:11,198.732,,,,,,,
27,2025-01-03 09:23:36,2025-01-03 09:26:55,198.733,,,,,,,
28,2025-01-03 10:58:21,2025-01-03 11:01:40,198.736,,,,,,,
29,2025-01-03 12:33:05,2025-01-03 12:36:24,198.736,,,,,,,
30,2025-01-03 14:07:50,2025-01-03 14:11:08,198.734,,,,,,,
31,2025-01-03 15:42:34,2025-01-03 15:45:53,198.734,,,,,,,
32,2025-01-03 17:17:18,2025-01-03 17:20:37,198.736,,,,,,,
33,2025-01-03 18:52:03,2025-01-03 18:55:21,198.732,,,,,,,
34,2025-01-03 20:26:47,2025-01-03 20:30:06,198.735,,,,,,,
35,2025-01-03 22:01:31,2025-01-03 22:04:50,198.735,,,,,,,
36,2025-01-03 23:36:16,2025-01-03 23:39:35,198.739,,,,,,,
37,2025-01-04 01:11:00,2025-01-04 01:14:19,198.731,,,,,,,
38,2025-01-04 02:45:45,2025-01-04 02:49:03,198.732,,,,,,,
39,2025-01-04 04:20:29,2025-01-04 04:23:48,198.731,,,,,,,
40,2025-01-04 05:55:13,2025-01-04 05:58:32,198.737,,,,,,,
41,2025-01-04 07:29:58,2025-01-04 07:33:17,198.734,,,,,,,
42,2025-01-04 09:04:42,2025-01-04 09:08:01,198.734,,,,,,,
43,2025-01-04 10:39:27,2025-01-04 10:42:45,198.734,,,,,,,
44,2025-01-04 12:14:11,2025-01-04 12:17:30,198.735,,,,,,,
45,2025-01-04 13:48:55,2025-01-04 13:52:14,198.735,,,,,,,
46,2025-01-04 15:23:40,2025-01-04 15:26:58,198.733,,,,,,,
47,2025-01-04 16:58:24,2025-01-04 17:01:43,198.737,,,,,,,
48,2025-01-04 18:33:08,2025-01-04 18:36:27,198.733,,,,,,,
49,2025-01-04 20:07:53,2025-01-04 20:11:12,198.736,,,,,,,
50,2025-01-04 21:42:37,2025-01-04 21:45:56,198.741,,,,,,,
51,2025-01-04 23:17:22,2025-01-04 23:20:40,198.737,,,,,,,
52,2025-01-05 00:52:06,2025-01-05 00:55:25,198.733,,,,,,,
53,2025-01-05 02:26:50,2025-01-05 02:30:09,198.732,,,,,,,
54,2025-01-05 04:01:35,2025-01-05 04:04:54,198.732,,,,,,,
55,2025-01-05 05:36:19,2025-01-05 05:39:38,198.737,,,,,,,
56,2025-01-05 07:11:04,2025-01-05 07:14:22,198.735,,,,,,,
57,2025-01-05 08:45:48,2025-01-05 08:49:07,198.736,,,,,,,
58,2025-01-05 10:20:32,2025-01-05 10:23:51,198.736,,,,,,,
59,2025-01-05 11:55:17,2025-01-05 11:58:35,198.735,,,,,,,
60,2025-01-05 13:30:01,2025-01-05 13:33:20,198.736,,,,,,,
61,2025-01-05 15:04:46,2025-01-05 15:08:04,198.734,,,,,,,
62,2025-01-05 16:39:30,2025-01-05 16:42:49,198.734,,,,,,,
63,2025-01-05 18:14:14,2025-01-05 18:17:33,198.733,,,,,,,
64,2025-01-05 19:48:59,2025-01-05 19:52:17,198.736,,,,,,,
65,2025-01-05 21:23:43,2025-01-05 21:27:02,198.741,,,,,,,
66,2025-01-05 22:58:27,2025-01-05 23:01:46,198.738,,,,,,,
67,2025-01-06 00:33:12,2025-01-06 00:36:31,198.733,,,,,,,
68,2025-01-06 02:07:56,2025-01-06 02:11:15,198.732,,,,,,,
69,2025-01-06 03:42:41,2025-01-06 03:45:59,198.733,,,,,,,
70,2025-01-06 05:17:25,2025-01-06 05:20:44,198.735,,,,,,,
71,2025-01-06 06:52:09,2025-01-06 06:55:28,198.731,,,,,,,
72,2025-01-06 08:26:54,2025-01-06 08:30:12,198.734,,,,,,,
73,2025-01-06 10:01:38,2025-01-06 10:04:57,198.735,,,,,,,
74,2025-01-06 11:36:23,2025-01-06 11:39:41,198.737,,,,,,,
75,2025-01-06 13:11:07,2025-01-06 13:14:26,198.737,,,,,,,
76,2025-01-06 14:45:51,2025-01-06 14:49:10,198.734,,,,,,,
77,2025-01-06 16:20:36,2025-01-06 16:23:54,198.733,,,,,,,
78,2025-01-06 17:55:20,2025-01-06 17:58:39,198.736,,,,,,,
79,2025-01-06 19:30:04,2025-01-06 19:33:23,198.741,,,,,,,
80,2025-01-06 21:04:49,2025-01-06 21:08:08,198.734,,,,,,,
81,2025-01-06 22:39:33,2025-01-06 22:42:52,198.732,,,,,,,
82,2025-01-07 00:14:18,2025-01-07 00:17:36,198.737,,,,,,,
83,2025-01-07 01:49:02,2025-01-07 01:52:21,198.74,,,,,,,
84,2025-01-07 03:23:46,2025-01-07 03:27:05,198.733,,,,,,,
85,2025-01-07 04:58:31,2025-01-07 05:01:49,198.74,,,,,,,
86,2025-01-07 06:33:15,2025-01-07 06:36:34,198.735,,,,,,,
87,2025-01-07 08:08:00,2025-01-07 08:11:18,198.735,,,,,,,
88,2025-01-07 09:42:44,2025-01-07 09:46:03,198.734,,,,,,,
89,2025-01-07 11:17:28,2025-01-07 11:20:47,198.735,,,,,,,
90,2025-01-07 12:52:13,2025-01-07 12:55:31,198.735,,,,,,,
91,2025-01-07 14:26:57,2025-01-07 14:30:16,198.736,,,,,,,
92,2025-01-07 16:01:41,2025-01-07 16:05:00,198.733,,,,,,,
93,2025-01-07 17:36:26,2025-01-07 17:39:45,198.736,,,,,,,
94,2025-01-07 19:11:10,2025-01-07 19:14:29,198.733,,,,,,,
95,2025-01-07 20:45:55,2025-01-07 20:49:13,198.736,,,,,,,
96,2025-01-07 22:20:39,2025-01-07 22:23:58,198.736,,,,,,,
97,2025-01-07 23:55:23,2025-01-07 23:58:42,198.74,,,,,,,
98,2025-01-08 01:30:08,2025-01-08 01:33:27,198.732,,,,,,,
99,2025-01-08 03:04:52,2025-01-08 03:08:11,198.732,,,,,,,
100,2025-01-08 04:39:37,2025-01-08 04:42:55,198.733,,,,,,,
101,2025-01-08 06:14:21,2025-01-08 06:17:40,198.735,,,,,,,
102,2025-01-08 07:49:05,2025-01-08 07:52:24,198.736,,,,,,,
103,2025-01-08 09:23:50,2025-01-08 09:27:08,198.735,,,,,,,
104,2025-01-08 10:58:34,2025-01-08 11:01:53,198.735,,,,,,,
105,2025-01-08 12:33:18,2025-01-08 12:36:37,198.735,,,,,,,
106,2025-01-08 14:08:03,2025-01-08 14:11:22,198.735,,,,,,,
107,2025-01-08 15:42:47,2025-01-08 15:46:06,198.734,,,,,,,
108,2025-01-08 17:17:32,2025-01-08 17:20:50,198.735,,,,,,,
109,2025-01-08 18:52:16,2025-01-08 18:55:35,198.733,,,,,,,
110,2025-01-08 20:27:00,2025-01-08 20:30:19,198.735,,,,,,,
111,2025-01-08 22:01:45,2025-01-08 22:05:04,198.738,,,,,,,
112,2025-01-08 23:36:29,2025-01-08 23:39:48,198.738,,,,,,,
113,2025-01-09 01:11:14,2025-01-09 01:14:32,198.733,,,,,,,
114,2025-01-09 02:45:58,2025-01-09 02:49:17,198.732,,,,,,,
115,2025-01-09 04:20:42,2025-01-09 04:24:01,198.731,,,,,,,
116,2025-01-09 05:55:27,2025-01-09 05:58:45,198.735,,,,,,,
117,2025-01-09 07:30:11,2025-01-09 07:33:30,198.735,,,,,,,
118,2025-01-09 09:04:55,2025-01-09 09:08:14,198.734,,,,,,,
119,2025-01-09 10:39:40,2025-01-09 10:42:59,198.735,,,,,,,
120,2025-01-09 12:14:24,2025-01-09 12:17:43,198.735,,,,,,,
121,2025-01-09 13:49:09,2025-01-09 13:52:27,198.735,,,,,,,
122,2025-01-09 15:23:53,2025-01-09 15:27:12,198.734,,,,,,,
123,2025-01-09 16:58:37,2025-01-09 17:01:56,198.732,,,,,,,
124,2025-01-09 18:33:22,2025-01-09 18:36:41,198.732,,,,,,,
125,2025-01-09 20:08:06,2025-01-09 20:11:25,198.735,,,,,,,
126,2025-01-09 21:42:51,2025-01-09 21:46:09,198.74,,,,,,,
127,2025-01-09 23:17:35,2025-01-09 23:20:54,198.736,,,,,,,
128,2025-01-10 00:52:19,2025-01-10 00:55:38,198.733,,,,,,,
129,2025-01-10 02:27:04,2025-01-10 02:30:22,198.731,,,,,,,
130,2025-01-10 04:01:48,2025-01-10 04:05:07,198.731,,,,,,,
131,2025-01-10 05:36:33,2025-01-10 05:39:51,198.736,,,,,,,
132,2025-01-10 07:11:17,2025-01-10 07:14:36,198.735,,,,,,,
133,2025-01-10 08:46:01,2025-01-10 08:49:20,198.735,,,,,,,
134,2025-01-10 10:20:46,2025-01-10 10:24:04,198.735,,,,,,,
135,2025-01-10 11:55:30,2025-01-10 11:58:49,198.735,,,,,,,
136,2025-01-10 13:30:14,2025-01-10 13:33:33,198.735,,,,,,,
137,2025-01-10 15:04:59,2025-01-10 15:08:18,198.733,,,,,,,
138,2025-01-10 16:39:43,2025-01-10 16:43:02,198.733,,,,,,,
139,2025-01-10 18:14:28,2025-01-10 18:17:46,198.732,,,,,,,
140,2025-01-10 19:49:12,2025-01-10 19:52:31,198.735,,,,,,,
141,2025-01-10 21:23:56,2025-01-10 21:27:15,198.74,,,,,,,
142,2025-01-10 22:58:41,2025-01-10 23:01:59,198.737,,,,,,,
143,2025-01-11 00:33:25,2025-01-11 00:36:44,198.732,,,,,,,
144,2025-01-11 02:08:10,2025-01-11 02:11:28,198.731,,,,,,,
145,2025-01-11 03:42:54,2025-01-11 03:46:13,198.732,,,,,,,
146,2025-01-11 05:17:38,2025-01-11 05:20:57,198.734,,,,,,,
147,2025-01-11 06:52:23,2025-01-11 06:55:41,198.731,,,,,,,
148,2025-01-11 08:27:07,2025-01-11 08:30:26,198.733,,,,,,,
149,2025-01-11 10:01:51,2025-01-11 10:05:10,198.737,,,,,,,
150,2025-01-11 11:36:36,2025-01-11 11:39:55,198.736,,,,,,,
151,2025-01-11 13:11:20,2025-01-11 13:14:39,198.736,,,,,,,
152,2025-01-11 14:46:05,2025-01-11 14:49:23,198.733,,,,,,,
153,2025-01-11 16:20:49,2025-01-11 16:24:08,198.732,,,,,,,
154,2025-01-11 17:55:33,2025-01-11 17:58:52,198.735,,,,,,,
155,2025-01-11 19:30:18,2025-01-11 19:33:37,198.74,,,,,,,
156,2025-01-11 21:05:02,2025-01-11 21:08:21,198.733,,,,,,,
157,2025-01-11 22:39:47,2025-01-11 22:43:05,198.731,,,,,,,
158,2025-01-12 00:14:31,2025-01-12 00:17:50,198.736,,,,,,,
159,2025-01-12 01:49:15,2025-01-12 01:52:34,198.739,,,,,,,
160,2025-01-12 03:24:00,2025-01-12 03:27:18,198.732,,,,,,,
161,2025-01-12 04:58:44,2025-01-12 05:02:03,198.74,,,,,,,
162,2025-01-12 06:33:28,2025-01-12 06:36:47,198.735,,,,,,,
163,2025-01-12 08:08:13,2025-01-12 08:11:32,198.734,,,,,,,
164,2025-01-12 09:42:57,2025-01-12 09:46:16,198.734,,,,,,,
165,2025-01-12 11:17:42,2025-01-12 11:21:00,198.734,,,,,,,
166,2025-01-12 12:52:26,2025-01-12 12:55:45,198.734,,,,,,,
167,2025-01-12 14:27:10,2025-01-12 14:30:29,198.735,,,,,,,
168,2025-01-12 16:01:55,2025-01-12 16:05:14,198.733,,,,,,,
169,2025-01-12 17:36:39,2025-01-12 17:39:58,198.736,,,,,,,
170,2025-01-12 19:11:24,2025-01-12 19:14:42,198.733,,,,,,,
171,2025-01-12 20:46:08,2025-01-12 20:49:27,198.736,,,,,,,
172,2025-01-12 22:20:52,2025-01-12 22:24:11,198.735,,,,,,,
173,2025-01-12 23:55:37,2025-01-12 23:58:55,198.739,,,,,,,
174,2025-01-13 01:30:21,2025-01-13 01:33:40,198.732,,,,,,,
175,2025-01-13 03:05:05,2025-01-13 03:08:24,198.732,,,,,,,
176,2025-01-13 04:39:50,2025-01-13 04:43:09,198.733,,,,,,,
177,2025-01-13 06:14:34,2025-01-13 06:17:53,198.735,,,,,,,
178,2025-01-13 07:49:19,2025-01-13 07:52:37,198.736,,,,,,,
179,2025-01-13 09:24:03,2025-01-13 09:27:22,198.735,,,,,,,
180,2025-01-13 10:58:47,2025-01-13 11:02:06,198.735,,,,,,,
181,2025-01-13 12:33:32,2025-01-13 12:36:51,198.735,,,,,,,
182,2025-01-13 14:08:16,2025-01-13 14:11:35,198.735,,,,,,,
183,2025-01-13 15:43:01,2025-01-13 15:46:19,198.734,,,,,,,
184,2025-01-13 17:17:45,2025-01-13 17:21:04,198.736,,,,,,,
185,2025-01-13 18:52:29,2025-01-13 18:55:48,198.733,,,,,,,
186,2025-01-13 20:27:14,2025-01-13 20:30:32,198.735,,,,,,,
187,2025-01-13 22:01:58,2025-01-13 22:05:17,198.738,,,,,,,
188,2025-01-13 23:36:42,2025-01-13 23:40:01,198.738,,,,,,,
189,2025-01-14 01:11:27,2025-01-14 01:14:46,198.733,,,,,,,
190,2025-01-14 02:46:11,2025-01-14 02:49:30,198.732,,,,,,,
191,2025-01-14 04:20:56,2025-01-14 04:24:14,198.731,,,,,,,
192,2025-01-14 05:55:40,2025-01-14 05:58:59,198.735,,,,,,,
193,2025-01-14 07:30:24,2025-01-14 07:33:43,198.735,,,,,,,
194,2025-01-14 09:05:09,2025-01-14 09:08:28,198.735,,,,,,,
195,2025-01-14 10:39:53,2025-01-14 10:43:12,198.735,,,,,,,
196,2025-01-14 12:14:38,2025-01-14 12:17:56,198.735,,,,,,,
197,2025-01-14 13:49:22,2025-01-14 13:52:41,198.736,,,,,,,
198,2025-01-14 15:24:06,2025-01-14 15:27:25,198.734,,,,,,,
199,2025-01-14 16:58:51,2025-01-14 17:02:09,198.733,,,,,,,
200,2025-01-14 18:33:35,2025-01-14 18:36:54,198.733,,,,,,,
201,2025-01-14 20:08:20,2025-01-14 20:11:38,198.736,,,,,,,
202,2025-01-14 21:43:04,2025-01-14 21:46:23,198.741,,,,,,,
203,2025-01-14 23:17:48,2025-01-14 23:21:07,198.737,,,,,,,
204,2025-01-15 00:52:33,2025-01-15 00:55:51,198.733,,,,,,,
205,2025-01-15 02:27:17,2025-01-15 02:30:36,198.732,,,,,,,
206,2025-01-15 04:02:01,2025-01-15 04:05:20,198.732,,,,,,,
207,2025-01-15 05:36:46,2025-01-15 05:40:05,198.735,,,,,,,
208,2025-01-15 07:11:30,2025-01-15 07:14:49,198.736,,,,,,,
209,2025-01-15 08:46:15,2025-01-15 08:49:33,198.736,,,,,,,
210,2025-01-15 10:20:59,2025-01-15 10:24:18,198.736,,,,,,,
211,2025-01-15 11:55:43,2025-01-15 11:59:02,198.736,,,,,,,
212,2025-01-15 13:30:28,2025-01-15 13:33:46,198.737,,,,,,,
213,2025-01-15 15:05:12,2025-01-15 15:08:31,198.734,,,,,,,
214,2025-01-15 16:39:57,2025-01-15 16:43:15,198.734,,,,,,,
215,2025-01-15 18:14:41,2025-01-15 18:18:00,198.733,,,,,,,
216,2025-01-15 19:49:25,2025-01-15 19:52:44,198.736,,,,,,,
217,2025-01-15 21:24:10,2025-01-15 21:27:28,198.741,,,,,,,
218,2025-01-15 22:58:54,2025-01-15 23:02:13,198.738,,,,,,,
219,2025-01-16 00:33:38,2025-01-16 00:36:57,198.734,,,,,,,
220,2025-01-16 02:08:23,2025-01-16 02:11:42,198.733,,,,,,,
221,2025-01-16 03:43:07,2025-01-16 03:46:26,198.734,,,,,,,
222,2025-01-16 05:17:52,2025-01-16 05:21:10,198.736,,,,,,,
223,2025-01-16 06:52:36,2025-01-16 06:55:55,198.732,,,,,,,
224,2025-01-16 08:27:20,2025-01-16 08:30:39,198.734,,,,,,,
225,2025-01-16 10:02:05,2025-01-16 10:05:24,198.738,,,,,,,
226,2025-01-16 11:36:49,2025-01-16 11:40:08,198.737,,,,,,,
227,2025-01-16 13:11:34,2025-01-16 13:14:52,198.737,,,,,,,
228,2025-01-16 14:46:18,2025-01-16 14:49:37,198.735,,,,,,,
229,2025-01-16 16:21:02,2025-01-16 16:24:21,198.734,,,,,,,
230,2025-01-16 17:55:47,2025-01-16 17:59:05,198.737,,,,,,,
231,2025-01-16 19:30:31,2025-01-16 19:33:50,198.742,,,,,,,
232,2025-01-16 21:05:15,2025-01-16 21:08:34,198.734,,,,,,,
233,2025-01-16 22:40:00,2025-01-16 22:43:19,198.733,,,,,,,
234,2025-01-17 00:14:44,2025-01-17 00:18:03,198.737,,,,,,,
235,2025-01-17 01:49:29,2025-01-17 01:52:47,198.74,,,,,,,
236,2025-01-17 03:24:13,2025-01-17 03:27:32,198.734,,,,,,,
237,2025-01-17 04:58:57,2025-01-17 05:02:16,198.741,,,,,,,
238,2025-01-17 06:33:42,2025-01-17 06:37:01,198.736,,,,,,,
239,2025-01-17 08:08:26,2025-01-17 08:11:45,198.736,,,,,,,
240,2025-01-17 09:43:11,2025-01-17 09:46:29,198.735,,,,,,,
241,2025-01-17 11:17:55,2025-01-17 11:21:14,198.736,,,,,,,
242,2025-01-17 12:52:39,2025-01-17 12:55:58,198.736,,,,,,,
243,2025-01-17 14:27:24,2025-01-17 14:30:42,198.737,,,,,,,
244,2025-01-17 16:02:08,2025-01-17 16:05:27,198.735,,,,,,,
245,2025-01-17 17:36:52,2025-01-17 17:40:11,198.737,,,,,,,
246,2025-01-17 19:11:37,2025-01-17 19:14:56,198.735,,,,,,,
247,2025-01-17 20:46:21,2025-01-17 20:49:40,198.737,,,,,,,
248,2025-01-17 22:21:06,2025-01-17 22:24:24,198.737,,,,,,,
249,2025-01-17 23:55:50,2025-01-17 23:59:09,198.741,,,,,,,
250,2025-01-18 01:30:34,2025-01-18 01:33:53,198.733,,,,,,,
251,2025-01-18 03:05:19,2025-01-18 03:08:38,198.734,,,,,,,
252,2025-01-18 04:40:03,2025-01-18 04:43:22,198.734,,,,,,,
253,2025-01-18 06:14:48,2025-01-18 06:18:06,198.737,,,,,,,
254,2025-01-18 07:49:32,2025-01-18 07:52:51,198.738,,,,,,,
255,2025-01-18 09:24:16,2025-01-18 09:27:35,198.736,,,,,,,
256,2025-01-18 10:59:01,2025-01-18 11:02:19,198.737,,,,,,,
257,2025-01-18 12:33:45,2025-01-18 12:37:04,198.737,,,,,,,
258,2025-01-18 14:08:29,2025-01-18 14:11:48,198.737,,,,,,,
259,2025-01-18 15:43:14,2025-01-18 15:46:33,198.736,,,,,,,
260,2025-01-18 17:17:58,2025-01-18 17:21:17,198.739,,,,,,,
261,2025-01-18 18:52:43,2025-01-18 18:56:01,198.734,,,,,,,
262,2025-01-18 20:27:27,2025-01-18 20:30:46,198.737,,,,,,,
263,2025-01-18 22:02:11,2025-01-18 22:05:30,198.739,,,,,,,
264,2025-01-18 23:36:56,2025-01-18 23:40:15,198.74,,,,,,,
265,2025-01-19 01:11:40,2025-01-19 01:14:59,198.732,,,,,,,
266,2025-01-19 02:46:25,2025-01-19 02:49:43,198.733,,,,,,,
267,2025-01-19 04:21:09,2025-01-19 04:24:28,198.732,,,,,,,
268,2025-01-19 05:55:53,2025-01-19 05:59:12,198.736,,,,,,,
269,2025-01-19 07:30:38,2025-01-19 07:33:56,198.736,,,,,,,
270,2025-01-19 09:05:22,2025-01-19 09:08:41,198.736,,,,,,,
271,2025-01-19 10:40:07,2025-01-19 10:43:25,198.736,,,,,,,
272,2025-01-19 12:14:51,2025-01-19 12:18:10,198.737,,,,,,,
273,2025-01-19 13:49:35,2025-01-19 13:52:54,198.737,,,,,,,
274,2025-01-19 15:24:20,2025-01-19 15:27:38,198.736,,,,,,,
275,2025-01-19 16:59:04,2025-01-19 17:02:23,198.734,,,,,,,
276,2025-01-19 18:33:48,2025-01-19 18:37:07,198.734,,,,,,,
277,2025-01-19 20:08:33,2025-01-19 20:11:52,198.737,,,,,,,
278,2025-01-19 21:43:17,2025-01-19 21:46:36,198.742,,,,,,,
279,2025-01-19 23:18:02,2025-01-19 23:21:20,198.738,,,,,,,
280,2025-01-20 00:52:46,2025-01-20 00:56:05,198.734,,,,,,,
281,2025-01-20 02:27:30,2025-01-20 02:30:49,198.733,,,,,,,
282,2025-01-20 04:02:15,2025-01-20 04:05:33,198.733,,,,,,,
283,2025-01-20 05:36:59,2025-01-20 05:40:18,198.736,,,,,,,
284,2025-01-20 07:11:44,2025-01-20 07:15:02,198.736,,,,,,,
285,2025-01-20 08:46:28,2025-01-20 08:49:47,198.736,,,,,,,
286,2025-01-20 10:21:12,2025-01-20 10:24:31,198.737,,,,,,,
287,2025-01-20 11:55:57,2025-01-20 11:59:15,198.736,,,,,,,
288,2025-01-20 13:30:41,2025-01-20 13:34:00,198.737,,,,,,,
289,2025-01-20 15:05:25,2025-01-20 15:08:44,198.735,,,,,,,
290,2025-01-20 16:40:10,2025-01-20 16:43:29,198.735,,,,,,,
291,2025-01-20 18:14:54,2025-01-20 18:18:13,198.734,,,,,,,
292,2025-01-20 19:49:39,2025-01-20 19:52:57,198.737,,,,,,,
293,2025-01-20 21:24:23,2025-01-20 21:27:42,198.742,,,,,,,
294,2025-01-20 22:59:07,2025-01-20 23:02:26,198.739,,,,,,,
295,2025-01-21 00:33:52,2025-01-21 00:37:11,198.734,,,,,,,
296,2025-01-21 02:08:36,2025-01-21 02:11:55,198.733,,,,,,,
297,2025-01-21 03:43:21,2025-01-21 03:46:39,198.734,,,,,,,
298,2025-01-21 05:18:05,2025-01-21 05:21:24,198.736,,,,,,,
299,2025-01-21 06:52:49,2025-01-21 06:56:08,198.732,,,,,,,
300,2025-01-21 08:27:34,2025-01-21 08:30:52,198.734,,,,,,,
301,2025-01-21 10:02:18,2025-01-21 10:05:37,198.738,,,,,,,
302,2025-01-21 11:37:02,2025-01-21 11:40:21,198.737,,,,,,,
303,2025-01-21 13:11:47,2025-01-21 13:15:06,198.737,,,,,,,
304,2025-01-21 14:46:31,2025-01-21 14:49:50,198.735,,,,,,,
305,2025-01-21 16:21:16,2025-01-21 16:24:34,198.734,,,,,,,
306,2025-01-21 17:56:00,2025-01-21 17:59:19,198.737,,,,,,,
307,2025-01-21 19:30:44,2025-01-21 19:34:03,198.742,,,,,,,
308,2025-01-21 21:05:29,2025-01-21 21:08:48,198.734,,,,,,,
309,2025-01-21 22:40:13,2025-01-21 22:43:32,198.733,,,,,,,
310,2025-01-22 00:14:58,2025-01-22 00:18:16,198.736,,,,,,,
311,2025-01-22 01:49:42,2025-01-22 01:53:01,198.74,,,,,,,
312,2025-01-22 03:24:26,2025-01-22 03:27:45,198.734,,,,,,,
313,2025-01-22 04:59:11,2025-01-22 05:02:29,198.741,,,,,,,
314,2025-01-22 06:33:55,2025-01-22 06:37:14,198.736,,,,,,,
315,2025-01-22 08:08:39,2025-01-22 08:11:58,198.735,,,,,,,
316,2025-01-22 09:43:24,2025-01-22 09:46:43,198.735,,,,,,,
317,2025-01-22 11:18:08,2025-01-22 11:21:27,198.735,,,,,,,
318,2025-01-22 12:52:53,2025-01-22 12:56:11,198.736,,,,,,,
319,2025-01-22 14:27:37,2025-01-22 14:30:56,198.737,,,,,,,
320,2025-01-22 16:02:21,2025-01-22 16:05:40,198.734,,,,,,,
321,2025-01-22 17:37:06,2025-01-22 17:40:25,198.737,,,,,,,
322,2025-01-22 19:11:50,2025-01-22 19:15:09,198.734,,,,,,,
323,2025-01-22 20:46:35,2025-01-22 20:49:53,198.737,,,,,,,
324,2025-01-22 22:21:19,2025-01-22 22:24:38,198.736,,,,,,,
325,2025-01-22 23:56:03,2025-01-22 23:59:22,198.74,,,,,,,
326,2025-01-23 01:30:48,2025-01-23 01:34:06,198.732,,,,,,,
327,2025-01-23 03:05:32,2025-01-23 03:08:51,198.733,,,,,,,
328,2025-01-23 04:40:16,2025-01-23 04:43:35,198.733,,,,,,,
329,2025-01-23 06:15:01,2025-01-23 06:18:20,198.736,,,,,,,
330,2025-01-23 07:49:45,2025-01-23 07:53:04,198.737,,,,,,,
331,2025-01-23 09:24:30,2025-01-23 09:27:48,198.735,,,,,,,
332,2025-01-23 10:59:14,2025-01-23 11:02:33,198.735,,,,,,,
333,2025-01-23 12:33:58,2025-01-23 12:37:17,198.736,,,,,,,
334,2025-01-23 14:08:43,2025-01-23 14:12:02,198.736,,,,,,,
335,2025-01-23 15:43:27,2025-01-23 15:46:46,198.735,,,,,,,
336,2025-01-23 17:18:12,2025-01-23 17:21:30,198.738,,,,,,,
337,2025-01-23 18:52:56,2025-01-23 18:56:15,198.733,,,,,,,
338,2025-01-23 20:27:40,2025-01-23 20:30:59,198.736,,,,,,,
339,2025-01-23 22:02:25,2025-01-23 22:05:43,198.737,,,,,,,
340,2025-01-23 23:37:09,2025-01-23 23:40:28,198.738,,,,,,,
341,2025-01-24 01:11:54,2025-01-24 01:15:12,198.731,,,,,,,
342,2025-01-24 02:46:38,2025-01-24 02:49:57,198.732,,,,,,,
343,2025-01-24 04:21:22,2025-01-24 04:24:41,198.731,,,,,,,
344,2025-01-24 05:56:07,2025-01-24 05:59:25,198.735,,,,,,,
345,2025-01-24 07:30:51,2025-01-24 07:34:10,198.735,,,,,,,
346,2025-01-24 09:05:35,2025-01-24 09:08:54,198.734,,,,,,,
347,2025-01-24 10:40:20,2025-01-24 10:43:39,198.735,,,,,,,
348,2025-01-24 12:15:04,2025-01-24 12:18:23,198.735,,,,,,,
349,2025-01-24 13:49:49,2025-01-24 13:53:07,198.735,,,,,,,
350,2025-01-24 15:24:33,2025-01-24 15:27:52,198.734,,,,,,,
351,2025-01-24 16:59:17,2025-01-24 17:02:36,198.733,,,,,,,
352,2025-01-24 18:34:02,2025-01-24 18:37:20,198.732,,,,,,,
353,2025-01-24 20:08:46,2025-01-24 20:12:05,198.735,,,,,,,
354,2025-01-24 21:43:31,2025-01-24 21:46:49,198.74,,,,,,,
355,2025-01-24 23:18:15,2025-01-24 23:21:34,198.736,,,,,,,
356,2025-01-25 00:52:59,2025-01-25 00:56:18,198.733,,,,,,,
357,2025-01-25 02:27:44,2025-01-25 02:31:02,198.731,,,,,,,
358,2025-01-25 04:02:28,2025-01-25 04:05:47,198.732,,,,,,,
359,2025-01-25 05:37:12,2025-01-25 05:40:31,198.734,,,,,,,
360,2025-01-25 07:11:57,2025-01-25 07:15:16,198.735,,,,,,,
361,2025-01-25 08:46:41,2025-01-25 08:50:00,198.735,,,,,,,
362,2025-01-25 10:21:26,2025-01-25 10:24:44,198.735,,,,,,,
363,2025-01-25 11:56:10,2025-01-25 11:59:29,198.735,,,,,,,
364,2025-01-25 13:30:54,2025-01-25 13:34:13,198.735,,,,,,,
365,2025-01-25 15:05:39,2025-01-25 15:08:58,198.733,,,,,,,
366,2025-01-25 16:40:23,2025-01-25 16:43:42,198.733,,,,,,,
367,2025-01-25 18:15:08,2025-01-25 18:18:26,198.732,,,,,,,
368,2025-01-25 19:49:52,2025-01-25 19:53:11,198.735,,,,,,,
369,2025-01-25 21:24:36,2025-01-25 21:27:55,198.74,,,,,,,
370,2025-01-25 22:59:21,2025-01-25 23:02:39,198.737,,,,,,,
371,2025-01-26 00:34:05,2025-01-26 00:37:24,198.732,,,,,,,
372,2025-01-26 02:08:49,2025-01-26 02:12:08,198.731,,,,,,,
373,2025-01-26 03:43:34,2025-01-26 03:46:53,198.732,,,,,,,
374,2025-01-26 05:18:18,2025-01-26 05:21:37,198.734,,,,,,,
375,2025-01-26 06:53:03,2025-01-26 06:56:21,198.73,,,,,,,
376,2025-01-26 08:27:47,2025-01-26 08:31:06,198.733,,,,,,,
377,2025-01-26 10:02:31,2025-01-26 10:05:50,198.737,,,,,,,
378,2025-01-26 11:37:16,2025-01-26 11:40:35,198.736,,,,,,,
379,2025-01-26 13:12:00,2025-01-26 13:15:19,198.736,,,,,,,
380,2025-01-26 14:46:45,2025-01-26 14:50:03,198.733,,,,,,,
381,2025-01-26 16:21:29,2025-01-26 16:24:48,198.732,,,,,,,
382,2025-01-26 17:56:13,2025-01-26 17:59:32,198.735,,,,,,,
383,2025-01-26 19:30:58,2025-01-26 19:34:16,198.74,,,,,,,
384,2025-01-26 21:05:42,2025-01-26 21:09:01,198.733,,,,,,,
385,2025-01-26 22:40:26,2025-01-26 22:43:45,198.731,,,,,,,
386,2025-01-27 00:15:11,2025-01-27 00:18:30,198.734,,,,,,,
387,2025-01-27 01:49:55,2025-01-27 01:53:14,198.738,,,,,,,
388,2025-01-27 03:24:40,2025-01-27 03:27:58,198.732,,,,,,,
389,2025-01-27 04:59:24,2025-01-27 05:02:43,198.739,,,,,,,
390,2025-01-27 06:34:08,2025-01-27 06:37:27,198.734,,,,,,,
391,2025-01-27 08:08:53,2025-01-27 08:12:12,198.733,,,,,,,
392,2025-01-27 09:43:37,2025-01-27 09:46:56,198.733,,,,,,,
393,2025-01-27 11:18:22,2025-01-27 11:21:40,198.734,,,,,,,
394,2025-01-27 12:53:06,2025-01-27 12:56:25,198.734,,,,,,,
395,2025-01-27 14:27:50,2025-01-27 14:31:09,198.735,,,,,,,
396,2025-01-27 16:02:35,2025-01-27 16:05:53,198.732,,,,,,,
397,2025-01-27 17:37:19,2025-01-27 17:40:38,198.735,,,,,,,
398,2025-01-27 19:12:04,2025-01-27 19:15:22,198.733,,,,,,,
399,2025-01-27 20:46:48,2025-01-27 20:50:07,198.735,,,,,,,
400,2025-01-27 22:21:32,2025-01-27 22:24:51,198.735,,,,,,,
401,2025-01-27 23:56:17,2025-01-27 23:59:35,198.739,,,,,,,
402,2025-01-28 01:31:01,2025-01-28 01:34:20,198.731,,,,,,,
403,2025-01-28 03:05:45,2025-01-28 03:09:04,198.731,,,,,,,
404,2025-01-28 04:40:30,2025-01-28 04:43:49,198.732,,,,,,,
405,2025-01-28 06:15:14,2025-01-28 06:18:33,198.735,,,,,,,
406,2025-01-28 07:49:59,2025-01-28 07:53:17,198.736,,,,,,,
407,2025-01-28 09:24:43,2025-01-28 09:28:02,198.734,,,,,,,
408,2025-01-28 10:59:27,2025-01-28 11:02:46,198.734,,,,,,,
409,2025-01-28 12:34:12,2025-01-28 12:37:30,198.735,,,,,,,
410,2025-01-28 14:08:56,2025-01-28 14:12:15,198.735,,,,,,,
411,2025-01-28 15:43:41,2025-01-28 15:46:59,198.734,,,,,,,
412,2025-01-28 17:18:25,2025-01-28 17:21:44,198.738,,,,,,,
413,2025-01-28 18:53:09,2025-01-28 18:56:28,198.732,,,,,,,
414,2025-01-28 20:27:54,2025-01-28 20:31:12,198.735,,,,,,,
415,2025-01-28 22:02:38,2025-01-28 22:05:57,198.736,,,,,,,
416,2025-01-28 23:37:22,2025-01-28 23:40:41,198.737,,,,,,,
417,2025-01-29 01:12:07,2025-01-29 01:15:26,198.73,,,,,,,
418,2025-01-29 02:46:51,2025-01-29 02:50:10,198.731,,,,,,,
419,2025-01-29 04:21:36,2025-01-29 04:24:54,198.73,,,,,,,
420,2025-01-29 05:56:20,2025-01-29 05:59:39,198.734,,,,,,,
421,2025-01-29 07:31:04,2025-01-29 07:34:23,198.734,,,,,,,
422,2025-01-29 09:05:49,2025-01-29 09:09:07,198.734,,,,,,,
423,2025-01-29 10:40:33,2025-01-29 10:43:52,198.734,,,,,,,
424,2025-01-29 12:15:18,2025-01-29 12:18:36,198.735,,,,,,,
425,2025-01-29 13:50:02,2025-01-29 13:53:21,198.735,,,,,,,
426,2025-01-29 15:24:46,2025-01-29 15:28:05,198.734,,,,,,,
427,2025-01-29 16:59:31,2025-01-29 17:02:49,198.732,,,,,,,
428,2025-01-29 18:34:15,2025-01-29 18:37:34,198.732,,,,,,,
429,2025-01-29 20:08:59,2025-01-29 20:12:18,198.735,,,,,,,
430,2025-01-29 21:43:44,2025-01-29 21:47:03,198.74,,,,,,,
431,2025-01-29 23:18:28,2025-01-29 23:21:47,198.736,,,,,,,
432,2025-01-30 00:53:13,2025-01-30 00:56:31,198.733,,,,,,,
433,2025-01-30 02:27:57,2025-01-30 02:31:16,198.731,,,,,,,
434,2025-01-30 04:02:41,2025-01-30 04:06:00,198.731,,,,,,,
435,2025-01-30 05:37:26,2025-01-30 05:40:45,198.734,,,,,,,
436,2025-01-30 07:12:10,2025-01-30 07:15:29,198.735,,,,,,,
437,2025-01-30 08:46:55,2025-01-30 08:50:13,198.735,,,,,,,
438,2025-01-30 10:21:39,2025-01-30 10:24:58,198.735,,,,,,,
439,2025-01-30 11:56:23,2025-01-30 11:59:42,198.735,,,,,,,
440,2025-01-30 13:31:08,2025-01-30 13:34:26,198.736,,,,,,,
441,2025-01-30 15:05:52,2025-01-30 15:09:11,198.733,,,,,,,
442,2025-01-30 16:40:36,2025-01-30 16:43:55,198.733,,,,,,,
443,2025-01-30 18:15:21,2025-01-30 18:18:40,198.732,,,,,,,
444,2025-01-30 19:50:05,2025-01-30 19:53:24,198.735,,,,,,,
445,2025-01-30 21:24:50,2025-01-30 21:28:08,198.74,,,,,,,
446,2025-01-30 22:59:34,2025-01-30 23:02:53,198.737,,,,,,,
447,2025-01-31 00:34:18,2025-01-31 00:37:37,198.732,,,,,,,
448,2025-01-31 02:09:03,2025-01-31 02:12:22,198.732,,,,,,,
449,2025-01-31 03:43:47,2025-01-31 03:47:06,198.732,,,,,,,
450,2025-01-31 05:18:32,2025-01-31 05:21:50,198.735,,,,,,,
451,2025-01-31 06:53:16,2025-01-31 06:56:35,198.731,,,,,,,
452,2025-01-31 08:28:00,2025-01-31 08:31:19,198.733,,,,,,,
453,2025-01-31 10:02:45,2025-01-31 10:06:03,198.737,,,,,,,
454,2025-01-31 11:37:29,2025-01-31 11:40:48,198.736,,,,,,,
455,2025-01-31 13:12:13,2025-01-31 13:15:32,198.736,,,,,,,
456,2025-01-31 14:46:58,2025-01-31 14:50:17,198.733,,,,,,,
457,2025-01-31 16:21:42,2025-01-31 16:25:01,198.733,,,,,,,
458,2025-01-31 17:56:27,2025-01-31 17:59:45,198.735,,,,,,,
459,2025-01-31 19:31:11,2025-01-31 19:34:30,198.741,,,,,,,
460,2025-01-31 21:05:55,2025-01-31 21:09:14,198.733,,,,,,,
461,2025-01-31 22:40:40,2025-01-31 22:43:59,198.732,,,,,,,
462,2025-02-01 00:15:24,2025-02-01 00:18:43,198.734,,,,,,,
463,2025-02-01 01:50:09,2025-02-01 01:53:27,198.739,,,,,,,
464,2025-02-01 03:24:53,2025-02-01 03:28:12,198.733,,,,,,,
465,2025-02-01 04:59:37,2025-02-01 05:02:56,198.74,,,,,,,
466,2025-02-01 06:34:22,2025-02-01 06:37:40,198.735,,,,,,,
467,2025-02-01 08:09:06,2025-02-01 08:12:25,198.734,,,,,,,
468,2025-02-01 09:43:51,2025-02-01 09:47:09,198.734,,,,,,,
469,2025-02-01 11:18:35,2025-02-01 11:21:54,198.734,,,,,,,
470,2025-02-01 12:53:19,2025-02-01 12:56:38,198.735,,,,,,,
471,2025-02-01 14:28:04,2025-02-01 14:31:22,198.736,,,,,,,
472,2025-02-01 16:02:48,2025-02-01 16:06:07,198.733,,,,,,,
473,2025-02-01 17:37:32,2025-02-01 17:40:51,198.736,,,,,,,
474,2025-02-01 19:12:17,2025-02-01 19:15:36,198.733,,,,,,,
475,2025-02-01 20:47:01,2025-02-01 20:50:20,198.736,,,,,,,
476,2025-02-01 22:21:46,2025-02-01 22:25:04,198.735,,,,,,,
477,2025-02-01 23:56:30,2025-02-01 23:59:49,198.739,,,,,,,
478,2025-02-02 01:31:14,2025-02-02 01:34:33,198.732,,,,,,,
479,2025-02-02 03:05:59,2025-02-02 03:09:17,198.732,,,,,,,
480,2025-02-02 04:40:43,2025-02-02 04:44:02,198.733,,,,,,,
481,2025-02-02 06:15:28,2025-02-02 06:18:46,198.735,,,,,,,
482,2025-02-02 07:50:12,2025-02-02 07:53:31,198.736,,,,,,,
483,2025-02-02 09:24:56,2025-02-02 09:28:15,198.735,,,,,,,
484,2025-02-02 10:59:41,2025-02-02 11:02:59,198.735,,,,,,,
485,2025-02-02 12:34:25,2025-02-02 12:37:44,198.735,,,,,,,
486,2025-02-02 14:09:09,2025-02-02 14:12:28,198.735,,,,,,,
487,2025-02-02 15:43:54,2025-02-02 15:47:13,198.734,,,,,,,
488,2025-02-02 17:18:38,2025-02-02 17:21:57,198.734,,,,,,,
489,2025-02-02 18:53:23,2025-02-02 18:56:41,198.733,,,,,,,
490,2025-02-02 20:28:07,2025-02-02 20:31:26,198.735,,,,,,,
491,2025-02-02 22:02:51,2025-02-02 22:06:10,198.736,,,,,,,
492,2025-02-02 23:37:36,2025-02-02 23:40:55,198.738,,,,,,,
493,2025-02-03 01:12:20,2025-02-03 01:15:39,198.73,,,,,,,
494,2025-02-03 02:47:05,2025-02-03 02:50:23,198.731,,,,,,,
495,2025-02-03 04:21:49,2025-02-03 04:25:08,198.73,,,,,,,
496,2025-02-03 05:56:33,2025-02-03 05:59:52,198.734,,,,,,,
497,2025-02-03 07:31:18,2025-02-03 07:34:36,198.734,,,,,,,
498,2025-02-03 09:06:02,2025-02-03 09:09:21,198.734,,,,,,,
499,2025-02-03 10:40:46,2025-02-03 10:44:05,198.734,,,,,,,
500,2025-02-03 12:15:31,2025-02-03 12:18:50,198.735,,,,,,,
501,2025-02-03 13:50:15,2025-02-03 13:53:34,198.735,,,,,,,
502,2025-02-03 15:25:00,2025-02-03 15:28:18,198.733,,,,,,,
503,2025-02-03 16:59:44,2025-02-03 17:03:03,198.732,,,,,,,
504,2025-02-03 18:34:28,2025-02-03 18:37:47,198.732,,,,,,,
505,2025-02-03 20:09:13,2025-02-03 20:12:32,198.735,,,,,,,
506,2025-02-03 21:43:57,2025-02-03 21:47:16,198.74,,,,,,,
507,2025-02-03 23:18:42,2025-02-03 23:22:00,198.736,,,,,,,
508,2025-02-04 00:53:26,2025-02-04 00:56:45,198.732,,,,,,,
509,2025-02-04 02:28:10,2025-02-04 02:31:29,198.731,,,,,,,
510,2025-02-04 04:02:55,2025-02-04 04:06:13,198.731,,,,,,,
511,2025-02-04 05:37:39,2025-02-04 05:40:58,198.734,,,,,,,
512,2025-02-04 07:12:23,2025-02-04 07:15:42,198.734,,,,,,,
513,2025-02-04 08:47:08,2025-02-04 08:50:27,198.734,,,,,,,
514,2025-02-04 10:21:52,2025-02-04 10:25:11,198.734,,,,,,,
515,2025-02-04 11:56:37,2025-02-04 11:59:55,198.734,,,,,,,
516,2025-02-04 13:31:21,2025-02-04 13:34:40,198.735,,,,,,,
517,2025-02-04 15:06:05,2025-02-04 15:09:24,198.732,,,,,,,
518,2025-02-04 16:40:50,2025-02-04 16:44:09,198.732,,,,,,,
519,2025-02-04 18:15:34,2025-02-04 18:18:53,198.731,,,,,,,
520,2025-02-04 19:50:19,2025-02-04 19:53:37,198.734,,,,,,,
521,2025-02-04 21:25:03,2025-02-04 21:28:22,198.739,,,,,,,
522,2025-02-04 22:59:47,2025-02-04 23:03:06,198.736,,,,,,,
523,2025-02-05 00:34:32,2025-02-05 00:37:50,198.731,,,,,,,
524,2025-02-05 02:09:16,2025-02-05 02:12:35,198.73,,,,,,,
525,2025-02-05 03:44:00,2025-02-05 03:47:19,198.731,,,,,,,
526,2025-02-05 05:18:45,2025-02-05 05:22:04,198.733,,,,,,,
527,2025-02-05 06:53:29,2025-02-05 06:56:48,198.729,,,,,,,
528,2025-02-05 08:28:14,2025-02-05 08:31:32,198.731,,,,,,,
529,2025-02-05 10:02:58,2025-02-05 10:06:17,198.736,,,,,,,
530,2025-02-05 11:37:42,2025-02-05 11:41:01,198.734,,,,,,,
531,2025-02-05 13:12:27,2025-02-05 13:15:46,198.735,,,,,,,
532,2025-02-05 14:47:11,2025-02-05 14:50:30,198.732,,,,,,,
533,2025-02-05 16:21:56,2025-02-05 16:25:14,198.731,,,,,,,
534,2025-02-05 17:56:40,2025-02-05 17:59:59,198.734,,,,,,,
535,2025-02-05 19:31:24,2025-02-05 19:34:43,198.739,,,,,,,
536,2025-02-05 21:06:09,2025-02-05 21:09:27,198.731,,,,,,,
537,2025-02-05 22:40:53,2025-02-05 22:44:12,198.73,,,,,,,
538,2025-02-06 00:15:38,2025-02-06 00:18:56,198.732,,,,,,,
539,2025-02-06 01:50:22,2025-02-06 01:53:41,198.737,,,,,,,
540,2025-02-06 03:25:06,2025-02-06 03:28:25,198.731,,,,,,,
541,2025-02-06 04:59:51,2025-02-06 05:03:09,198.738,,,,,,,
542,2025-02-06 06:34:35,2025-02-06 06:37:54,198.733,,,,,,,
543,2025-02-06 08:09:19,2025-02-06 08:12:38,198.732,,,,,,,
544,2025-02-06 09:44:04,2025-02-06 09:47:23,198.732,,,,,,,
545,2025-02-06 11:18:48,2025-02-06 11:22:07,198.732,,,,,,,
546,2025-02-06 12:53:33,2025-02-06 12:56:51,198.732,,,,,,,
547,2025-02-06 14:28:17,2025-02-06 14:31:36,198.733,,,,,,,
548,2025-02-06 16:03:01,2025-02-06 16:06:20,198.731,,,,,,,
549,2025-02-06 17:37:46,2025-02-06 17:41:04,198.733,,,,,,,
550,2025-02-06 19:12:30,2025-02-06 19:15:49,198.731,,,,,,,
551,2025-02-06 20:47:15,2025-02-06 20:50:33,198.733,,,,,,,
552,2025-02-06 22:21:59,2025-02-06 22:25:18,198.733,,,,,,,
553,2025-02-06 23:56:43,2025-02-07 00:00:02,198.737,,,,,,,
554,2025-02-07 01:31:28,2025-02-07 01:34:46,198.729,,,,,,,
555,2025-02-07 03:06:12,2025-02-07 03:09:31,198.729,,,,,,,
556,2025-02-07 04:40:56,2025-02-07 04:44:15,198.73,,,,,,,
557,2025-02-07 06:15:41,2025-02-07 06:19:00,198.732,,,,,,,
558,2025-02-07 07:50:25,2025-02-07 07:53:44,198.734,,,,,,,
559,2025-02-07 09:25:10,2025-02-07 09:28:28,198.732,,,,,,,
560,2025-02-07 10:59:54,2025-02-07 11:03:13,198.732,,,,,,,
561,2025-02-07 12:34:38,2025-02-07 12:37:57,198.732,,,,,,,
562,2025-02-07 14:09:23,2025-02-07 14:12:42,198.732,,,,,,,
563,2025-02-07 15:44:07,2025-02-07 15:47:26,198.731,,,,,,,
564,2025-02-07 17:18:52,2025-02-07 17:22:10,198.736,,,,,,,
565,2025-02-07 18:53:36,2025-02-07 18:56:55,198.73,,,,,,,
566,2025-02-07 20:28:20,2025-02-07 20:31:39,198.732,,,,,,,
567,2025-02-07 22:03:05,2025-02-07 22:06:23,198.733,,,,,,,
568,2025-02-07 23:37:49,2025-02-07 23:41:08,198.735,,,,,,,
569,2025-02-08 01:12:33,2025-02-08 01:15:52,198.727,,,,,,,
570,2025-02-08 02:47:18,2025-02-08 02:50:37,198.728,,,,,,,
571,2025-02-08 04:22:02,2025-02-08 04:25:21,198.727,,,,,,,
572,2025-02-08 05:56:47,2025-02-08 06:00:05,198.731,,,,,,,
573,2025-02-08 07:31:31,2025-02-08 07:34:50,198.731,,,,,,,
574,2025-02-08 09:06:15,2025-02-08 09:09:34,198.731,,,,,,,
575,2025-02-08 10:41:00,2025-02-08 10:44:19,198.731,,,,,,,
576,2025-02-08 12:15:44,2025-02-08 12:19:03,198.731,,,,,,,
577,2025-02-08 13:50:29,2025-02-08 13:53:47,198.732,,,,,,,
578,2025-02-08 15:25:13,2025-02-08 15:28:32,198.73,,,,,,,
579,2025-02-08 16:59:57,2025-02-08 17:03:16,198.729,,,,,,,
580,2025-02-08 18:34:42,2025-02-08 18:38:00,198.729,,,,,,,
581,2025-02-08 20:09:26,2025-02-08 20:12:45,198.732,,,,,,,
582,2025-02-08 21:44:10,2025-02-08 21:47:29,198.737,,,,,,,
583,2025-02-08 23:18:55,2025-02-08 23:22:14,198.733,,,,,,,
584,2025-02-09 00:53:39,2025-02-09 00:56:58,198.729,,,,,,,
585,2025-02-09 02:28:24,2025-02-09 02:31:42,198.728,,,,,,,
586,2025-02-09 04:03:08,2025-02-09 04:06:27,198.728,,,,,,,
587,2025-02-09 05:37:52,2025-02-09 05:41:11,198.731,,,,,,,
588,2025-02-09 07:12:37,2025-02-09 07:15:56,198.731,,,,,,,
589,2025-02-09 08:47:21,2025-02-09 08:50:40,198.731,,,,,,,
590,2025-02-09 10:22:06,2025-02-09 10:25:24,198.731,,,,,,,
591,2025-02-09 11:56:50,2025-02-09 12:00:09,198.731,,,,,,,
592,2025-02-09 13:31:34,2025-02-09 13:34:53,198.732,,,,,,,
593,2025-02-09 15:06:19,2025-02-09 15:09:37,198.729,,,,,,,
594,2025-02-09 16:41:03,2025-02-09 16:44:22,198.73,,,,,,,
595,2025-02-09 18:15:48,2025-02-09 18:19:06,198.728,,,,,,,
596,2025-02-09 19:50:32,2025-02-09 19:53:51,198.731,,,,,,,
597,2025-02-09 21:25:16,2025-02-09 21:28:35,198.736,,,,,,,
598,2025-02-09 23:00:01,2025-02-09 23:03:19,198.734,,,,,,,
599,2025-02-10 00:34:45,2025-02-10 00:38:04,198.729,,,,,,,
600,2025-02-10 02:09:29,2025-02-10 02:12:48,198.728,,,,,,,
601,2025-02-10 03:44:14,2025-02-10 03:47:33,198.728,,,,,,,
602,2025-02-10 05:18:58,2025-02-10 05:22:17,198.731,,,,,,,
603,2025-02-10 06:53:43,2025-02-10 06:57:01,198.727,,,,,,,
604,2025-02-10 08:28:27,2025-02-10 08:31:46,198.729,,,,,,,
605,2025-02-10 10:03:11,2025-02-10 10:06:30,198.733,,,,,,,
606,2025-02-10 11:37:56,2025-02-10 11:41:14,198.732,,,,,,,
607,2025-02-10 13:12:40,2025-02-10 13:15:59,198.732,,,,,,,
608,2025-02-10 14:47:25,2025-02-10 14:50:43,198.729,,,,,,,
609,2025-02-10 16:22:09,2025-02-10 16:25:28,198.728,,,,,,,
610,2025-02-10 17:56:53,2025-02-10 18:00:12,198.731,,,,,,,
611,2025-02-10 19:31:38,2025-02-10 19:34:56,198.736,,,,,,,
612,2025-02-10 21:06:22,2025-02-10 21:09:41,198.729,,,,,,,
613,2025-02-10 22:41:06,2025-02-10 22:44:25,198.727,,,,,,,
614,2025-02-11 00:15:51,2025-02-11 00:19:10,198.729,,,,,,,
615,2025-02-11 01:50:35,2025-02-11 01:53:54,198.735,,,,,,,
616,2025-02-11 03:25:20,2025-02-11 03:28:38,198.729,,,,,,,
617,2025-02-11 05:00:04,2025-02-11 05:03:23,198.736,,,,,,,
618,2025-02-11 06:34:48,2025-02-11 06:38:07,198.731,,,,,,,
619,2025-02-11 08:09:33,2025-02-11 08:12:51,198.73,,,,,,,
620,2025-02-11 09:44:17,2025-02-11 09:47:36,198.73,,,,,,,
621,2025-02-11 11:19:02,2025-02-11 11:22:20,198.73,,,,,,,
622,2025-02-11 12:53:46,2025-02-11 12:57:05,198.731,,,,,,,
623,2025-02-11 14:28:30,2025-02-11 14:31:49,198.732,,,,,,,
624,2025-02-11 16:03:15,2025-02-11 16:06:33,198.729,,,,,,,
625,2025-02-11 17:37:59,2025-02-11 17:41:18,198.732,,,,,,,
626,2025-02-11 19:12:43,2025-02-11 19:16:02,198.729,,,,,,,
627,2025-02-11 20:47:28,2025-02-11 20:50:47,198.732,,,,,,,
628,2025-02-11 22:22:12,2025-02-11 22:25:31,198.731,,,,,,,
629,2025-02-11 23:56:57,2025-02-12 00:00:15,198.735,,,,,,,
630,2025-02-12 01:31:41,2025-02-12 01:35:00,198.728,,,,,,,
631,2025-02-12 03:06:25,2025-02-12 03:09:44,198.728,,,,,,,
632,2025-02-12 04:41:10,2025-02-12 04:44:29,198.729,,,,,,,
633,2025-02-12 06:15:54,2025-02-12 06:19:13,198.731,,,,,,,
634,2025-02-12 07:50:39,2025-02-12 07:53:57,198.732,,,,,,,
635,2025-02-12 09:25:23,2025-02-12 09:28:42,198.73,,,,,,,
636,2025-02-12 11:00:07,2025-02-12 11:03:26,198.731,,,,,,,
637,2025-02-12 12:34:52,2025-02-12 12:38:10,198.731,,,,,,,
638,2025-02-12 14:09:36,2025-02-12 14:12:55,198.731,,,,,,,
639,2025-02-12 15:44:20,2025-02-12 15:47:39,198.73,,,,,,,
640,2025-02-12 17:19:05,2025-02-12 17:22:24,198.73,,,,,,,
641,2025-02-12 18:53:49,2025-02-12 18:57:08,198.729,,,,,,,
642,2025-02-12 20:28:34,2025-02-12 20:31:52,198.731,,,,,,,
643,2025-02-12 22:03:18,2025-02-12 22:06:37,198.732,,,,,,,
644,2025-02-12 23:38:02,2025-02-12 23:41:21,198.734,,,,,,,
645,2025-02-13 01:12:47,2025-02-13 01:16:06,198.726,,,,,,,
646,2025-02-13 02:47:31,2025-02-13 02:50:50,198.727,,,,,,,
647,2025-02-13 04:22:16,2025-02-13 04:25:34,198.726,,,,,,,
648,2025-02-13 05:57:00,2025-02-13 06:00:19,198.731,,,,,,,
649,2025-02-13 07:31:44,2025-02-13 07:35:03,198.731,,,,,,,
650,2025-02-13 09:06:29,2025-02-13 09:09:47,198.73,,,,,,,
651,2025-02-13 10:41:13,2025-02-13 10:44:32,198.73,,,,,,,
652,2025-02-13 12:15:57,2025-02-13 12:19:16,198.731,,,,,,,
653,2025-02-13 13:50:42,2025-02-13 13:54:01,198.731,,,,,,,
654,2025-02-13 15:25:26,2025-02-13 15:28:45,198.73,,,,,,,
655,2025-02-13 17:00:11,2025-02-13 17:03:29,198.728,,,,,,,
656,2025-02-13 18:34:55,2025-02-13 18:38:14,198.728,,,,,,,
657,2025-02-13 20:09:39,2025-02-13 20:12:58,198.731,,,,,,,
658,2025-02-13 21:44:24,2025-02-13 21:47:43,198.736,,,,,,,
659,2025-02-13 23:19:08,2025-02-13 23:22:27,198.732,,,,,,,
660,2025-02-14 00:53:53,2025-02-14 00:57:11,198.729,,,,,,,
661,2025-02-14 02:28:37,2025-02-14 02:31:56,198.727,,,,,,,
662,2025-02-14 04:03:21,2025-02-14 04:06:40,198.727,,,,,,,
663,2025-02-14 05:38:06,2025-02-14 05:41:24,198.73,,,,,,,
664,2025-02-14 07:12:50,2025-02-14 07:16:09,198.73,,,,,,,
665,2025-02-14 08:47:35,2025-02-14 08:50:53,198.73,,,,,,,
666,2025-02-14 10:22:19,2025-02-14 10:25:38,198.731,,,,,,,
667,2025-02-14 11:57:03,2025-02-14 12:00:22,198.731,,,,,,,
668,2025-02-14 13:31:48,2025-02-14 13:35:06,198.731,,,,,,,
669,2025-02-14 15:06:32,2025-02-14 15:09:51,198.729,,,,,,,
670,2025-02-14 16:41:16,2025-02-14 16:44:35,198.729,,,,,,,
671,2025-02-14 18:16:01,2025-02-14 18:19:20,198.728,,,,,,,
672,2025-02-14 19:50:45,2025-02-14 19:54:04,198.731,,,,,,,
673,2025-02-14 21:25:30,2025-02-14 21:28:48,198.736,,,,,,,
674,2025-02-14 23:00:14,2025-02-14 23:03:33,198.733,,,,,,,
675,2025-02-15 00:34:58,2025-02-15 00:38:17,198.728,,,,,,,
676,2025-02-15 02:09:43,2025-02-15 02:13:01,198.727,,,,,,,
677,2025-02-15 03:44:27,2025-02-15 03:47:46,198.728,,,,,,,
678,2025-02-15 05:19:12,2025-02-15 05:22:30,198.73,,,,,,,
679,2025-02-15 06:53:56,2025-02-15 06:57:15,198.726,,,,,,,
680,2025-02-15 08:28:40,2025-02-15 08:31:59,198.728,,,,,,,
681,2025-02-15 10:03:25,2025-02-15 10:06:43,198.733,,,,,,,
682,2025-02-15 11:38:09,2025-02-15 11:41:28,198.732,,,,,,,
683,2025-02-15 13:12:53,2025-02-15 13:16:12,198.732,,,,,,,
684,2025-02-15 14:47:38,2025-02-15 14:50:57,198.729,,,,,,,
685,2025-02-15 16:22:22,2025-02-15 16:25:41,198.728,,,,,,,
686,2025-02-15 17:57:07,2025-02-15 18:00:25,198.731,,,,,,,
687,2025-02-15 19:31:51,2025-02-15 19:35:10,198.736,,,,,,,
688,2025-02-15 21:06:35,2025-02-15 21:09:54,198.729,,,,,,,
689,2025-02-15 22:41:20,2025-02-15 22:44:38,198.727,,,,,,,
690,2025-02-16 00:16:04,2025-02-16 00:19:23,198.728,,,,,,,
691,2025-02-16 01:50:49,2025-02-16 01:54:07,198.734,,,,,,,
692,2025-02-16 03:25:33,2025-02-16 03:28:52,198.728,,,,,,,
693,2025-02-16 05:00:17,2025-02-16 05:03:36,198.735,,,,,,,
694,2025-02-16 06:35:02,2025-02-16 06:38:20,198.73,,,,,,,
695,2025-02-16 08:09:46,2025-02-16 08:13:05,198.729,,,,,,,
696,2025-02-16 09:44:30,2025-02-16 09:47:49,198.729,,,,,,,
697,2025-02-16 11:19:15,2025-02-16 11:22:34,198.729,,,,,,,
698,2025-02-16 12:53:59,2025-02-16 12:57:18,198.73,,,,,,,
699,2025-02-16 14:28:44,2025-02-16 14:32:02,198.731,,,,,,,
700,2025-02-16 16:03:28,2025-02-16 16:06:47,198.728,,,,,,,
701,2025-02-16 17:38:12,2025-02-16 17:41:31,198.731,,,,,,,
702,2025-02-16 19:12:57,2025-02-16 19:16:16,198.728,,,,,,,
703,2025-02-16 20:47:41,2025-02-16 20:51:00,198.73,,,,,,,
704,2025-02-16 22:22:26,2025-02-16 22:25:44,198.73,,,,,,,
705,2025-02-16 23:57:10,2025-02-17 00:00:29,198.734,,,,,,,
706,2025-02-17 01:31:54,2025-02-17 01:35:13,198.727,,,,,,,
707,2025-02-17 03:06:39,2025-02-17 03:09:57,198.727,,,,,,,
708,2025-02-17 04:41:23,2025-02-17 04:44:42,198.728,,,,,,,
709,2025-02-17 06:16:07,2025-02-17 06:19:26,198.73,,,,,,,
710,2025-02-17 07:50:52,2025-02-17 07:54:11,198.731,,,,,,,
711,2025-02-17 09:25:36,2025-02-17 09:28:55,198.729,,,,,,,
712,2025-02-17 11:00:21,2025-02-17 11:03:39,198.73,,,,,,,
713,2025-02-17 12:35:05,2025-02-17 12:38:24,198.73,,,,,,,
714,2025-02-17 14:09:49,2025-02-17 14:13:08,198.73,,,,,,,
715,2025-02-17 15:44:34,2025-02-17 15:47:53,198.729,,,,,,,
716,2025-02-17 17:19:18,2025-02-17 17:22:37,198.734,,,,,,,
717,2025-02-17 18:54:03,2025-02-17 18:57:21,198.727,,,,,,,
718,2025-02-17 20:28:47,2025-02-17 20:32:06,198.73,,,,,,,
719,2025-02-17 22:03:31,2025-02-17 22:06:50,198.73,,,,,,,
720,2025-02-17 23:38:16,2025-02-17 23:41:34,198.732,,,,,,,
721,2025-02-18 01:13:00,2025-02-18 01:16:19,198.725,,,,,,,
722,2025-02-18 02:47:44,2025-02-18 02:51:03,198.726,,,,,,,
723,2025-02-18 04:22:29,2025-02-18 04:25:48,198.725,,,,,,,
724,2025-02-18 05:57:13,2025-02-18 06:00:32,198.729,,,,,,,
725,2025-02-18 07:31:58,2025-02-18 07:35:16,198.729,,,,,,,
726,2025-02-18 09:06:42,2025-02-18 09:10:01,198.728,,,,,,,
727,2025-02-18 10:41:26,2025-02-18 10:44:45,198.729,,,,,,,
728,2025-02-18 12:16:11,2025-02-18 12:19:30,198.729,,,,,,,
729,2025-02-18 13:50:55,2025-02-18 13:54:14,198.729,,,,,,,
730,2025-02-18 15:25:40,2025-02-18 15:28:58,198.728,,,,,,,
731,2025-02-18 17:00:24,2025-02-18 17:03:43,198.727,,,,,,,
732,2025-02-18 18:35:08,2025-02-18 18:38:27,198.726,,,,,,,
733,2025-02-18 20:09:53,2025-02-18 20:13:11,198.729,,,,,,,
734,2025-02-18 21:44:37,2025-02-18 21:47:56,198.734,,,,,,,
735,2025-02-18 23:19:22,2025-02-18 23:22:40,198.73,,,,,,,
736,2025-02-19 00:54:06,2025-02-19 00:57:25,198.727,,,,,,,
737,2025-02-19 02:28:50,2025-02-19 02:32:09,198.725,,,,,,,
738,2025-02-19 04:03:35,2025-02-19 04:06:53,198.725,,,,,,,
739,2025-02-19 05:38:19,2025-02-19 05:41:38,198.728,,,,,,,
740,2025-02-19 07:13:03,2025-02-19 07:16:22,198.728,,,,,,,
741,2025-02-19 08:47:48,2025-02-19 08:51:07,198.728,,,,,,,
742,2025-02-19 10:22:32,2025-02-19 10:25:51,198.729,,,,,,,
743,2025-02-19 11:57:17,2025-02-19 12:00:35,198.728,,,,,,,
744,2025-02-19 13:32:01,2025-02-19 13:35:20,198.729,,,,,,,
745,2025-02-19 15:06:45,2025-02-19 15:10:04,198.727,,,,,,,
746,2025-02-19 16:41:30,2025-02-19 16:44:48,198.727,,,,,,,
747,2025-02-19 18:16:14,2025-02-19 18:19:33,198.725,,,,,,,
748,2025-02-19 19:50:59,2025-02-19 19:54:17,198.729,,,,,,,
749,2025-02-19 21:25:43,2025-02-19 21:29:02,198.733,,,,,,,
750,2025-02-19 23:00:27,2025-02-19 23:03:46,198.731,,,,,,,
751,2025-02-20 00:35:12,2025-02-20 00:38:30,198.726,,,,,,,
752,2025-02-20 02:09:56,2025-02-20 02:13:15,198.725,,,,,,,
753,2025-02-20 03:44:40,2025-02-20 03:47:59,198.725,,,,,,,
754,2025-02-20 05:19:25,2025-02-20 05:22:44,198.728,,,,,,,
755,2025-02-20 06:54:09,2025-02-20 06:57:28,198.724,,,,,,,
756,2025-02-20 08:28:54,2025-02-20 08:32:12,198.726,,,,,,,
757,2025-02-20 10:03:38,2025-02-20 10:06:57,198.73,,,,,,,
758,2025-02-20 11:38:22,2025-02-20 11:41:41,198.729,,,,,,,
759,2025-02-20 13:13:07,2025-02-20 13:16:26,198.729,,,,,,,
760,2025-02-20 14:47:51,2025-02-20 14:51:10,198.726,,,,,,,
761,2025-02-20 16:22:36,2025-02-20 16:25:54,198.725,,,,,,,
762,2025-02-20 17:57:20,2025-02-20 18:00:39,198.728,,,,,,,
763,2025-02-20 19:32:04,2025-02-20 19:35:23,198.733,,,,,,,
764,2025-02-20 21:06:49,2025-02-20 21:10:07,198.726,,,,,,,
765,2025-02-20 22:41:33,2025-02-20 22:44:52,198.724,,,,,,,
766,2025-02-21 00:16:17,2025-02-21 00:19:36,198.725,,,,,,,
767,2025-02-21 01:51:02,2025-02-21 01:54:21,198.731,,,,,,,
768,2025-02-21 03:25:46,2025-02-21 03:29:05,198.725,,,,,,,
769,2025-02-21 05:00:31,2025-02-21 05:03:49,198.732,,,,,,,
770,2025-02-21 06:35:15,2025-02-21 06:38:34,198.727,,,,,,,
771,2025-02-21 08:09:59,2025-02-21 08:13:18,198.726,,,,,,,
772,2025-02-21 09:44:44,2025-02-21 09:48:03,198.726,,,,,,,
773,2025-02-21 11:19:28,2025-02-21 11:22:47,198.726,,,,,,,
774,2025-02-21 12:54:13,2025-02-21 12:57:31,198.727,,,,,,,
775,2025-02-21 14:28:57,2025-02-21 14:32:16,198.727,,,,,,,
776,2025-02-21 16:03:41,2025-02-21 16:07:00,198.725,,,,,,,
777,2025-02-21 17:38:26,2025-02-21 17:41:44,198.727,,,,,,,
778,2025-02-21 19:13:10,2025-02-21 19:16:29,198.725,,,,,,,
779,2025-02-21 20:47:54,2025-02-21 20:51:13,198.726,,,,,,,
780,2025-02-21 22:22:39,2025-02-21 22:25:58,198.727,,,,,,,
781,2025-02-21 23:57:23,2025-02-22 00:00:42,198.731,,,,,,,
782,2025-02-22 01:32:08,2025-02-22 01:35:26,198.723,,,,,,,
783,2025-02-22 03:06:52,2025-02-22 03:10:11,198.723,,,,,,,
784,2025-02-22 04:41:36,2025-02-22 04:44:55,198.724,,,,,,,
785,2025-02-22 06:16:21,2025-02-22 06:19:40,198.726,,,,,,,
786,2025-02-22 07:51:05,2025-02-22 07:54:24,198.728,,,,,,,
787,2025-02-22 09:25:50,2025-02-22 09:29:08,198.726,,,,,,,
788,2025-02-22 11:00:34,2025-02-22 11:03:53,198.726,,,,,,,
789,2025-02-22 12:35:18,2025-02-22 12:38:37,198.726,,,,,,,
790,2025-02-22 14:10:03,2025-02-22 14:13:21,198.726,,,,,,,
791,2025-02-22 15:44:47,2025-02-22 15:48:06,198.725,,,,,,,
792,2025-02-22 17:19:32,2025-02-22 17:22:50,198.73,,,,,,,
793,2025-02-22 18:54:16,2025-02-22 18:57:35,198.724,,,,,,,
794,2025-02-22 20:29:00,2025-02-22 20:32:19,198.726,,,,,,,
795,2025-02-22 22:03:45,2025-02-22 22:07:03,198.726,,,,,,,
796,2025-02-22 23:38:29,2025-02-22 23:41:48,198.729,,,,,,,
797,2025-02-23 01:13:13,2025-02-23 01:16:32,198.721,,,,,,,
798,2025-02-23 02:47:58,2025-02-23 02:51:17,198.722,,,,,,,
799,2025-02-23 04:22:42,2025-02-23 04:26:01,198.721,,,,,,,
800,2025-02-23 05:57:27,2025-02-23 06:00:45,198.725,,,,,,,
801,2025-02-23 07:32:11,2025-02-23 07:35:30,198.725,,,,,,,
802,2025-02-23 09:06:55,2025-02-23 09:10:14,198.725,,,,,,,
803,2025-02-23 10:41:40,2025-02-23 10:44:58,198.725,,,,,,,
804,2025-02-23 12:16:24,2025-02-23 12:19:43,198.725,,,,,,,
805,2025-02-23 13:51:09,2025-02-23 13:54:27,198.725,,,,,,,
806,2025-02-23 15:25:53,2025-02-23 15:29:12,198.724,,,,,,,
807,2025-02-23 17:00:37,2025-02-23 17:03:56,198.723,,,,,,,
808,2025-02-23 18:35:22,2025-02-23 18:38:40,198.722,,,,,,,
809,2025-02-23 20:10:06,2025-02-23 20:13:25,198.726,,,,,,,
810,2025-02-23 21:44:50,2025-02-23 21:48:09,198.73,,,,,,,
811,2025-02-23 23:19:35,2025-02-23 23:22:54,198.727,,,,,,,
812,2025-02-24 00:54:19,2025-02-24 00:57:38,198.723,,,,,,,
813,2025-02-24 02:29:04,2025-02-24 02:32:22,198.722,,,,,,,
814,2025-02-24 04:03:48,2025-02-24 04:07:07,198.722,,,,,,,
815,2025-02-24 05:38:32,2025-02-24 05:41:51,198.725,,,,,,,
816,2025-02-24 07:13:17,2025-02-24 07:16:35,198.725,,,,,,,
817,2025-02-24 08:48:01,2025-02-24 08:51:20,198.725,,,,,,,
818,2025-02-24 10:22:46,2025-02-24 10:26:04,198.725,,,,,,,
819,2025-02-24 11:57:30,2025-02-24 12:00:49,198.725,,,,,,,
820,2025-02-24 13:32:14,2025-02-24 13:35:33,198.725,,,,,,,
821,2025-02-24 15:06:59,2025-02-24 15:10:17,198.723,,,,,,,
822,2025-02-24 16:41:43,2025-02-24 16:45:02,198.723,,,,,,,
823,2025-02-24 18:16:27,2025-02-24 18:19:46,198.722,,,,,,,
824,2025-02-24 19:51:12,2025-02-24 19:54:31,198.725,,,,,,,
825,2025-02-24 21:25:56,2025-02-24 21:29:15,198.73,,,,,,,
826,2025-02-24 23:00:41,2025-02-24 23:03:59,198.727,,,,,,,
827,2025-02-25 00:35:25,2025-02-25 00:38:44,198.722,,,,,,,
828,2025-02-25 02:10:09,2025-02-25 02:13:28,198.721,,,,,,,
829,2025-02-25 03:44:54,2025-02-25 03:48:13,198.722,,,,,,,
830,2025-02-25 05:19:38,2025-02-25 05:22:57,198.724,,,,,,,
831,2025-02-25 06:54:23,2025-02-25 06:57:41,198.72,,,,,,,
832,2025-02-25 08:29:07,2025-02-25 08:32:26,198.722,,,,,,,
833,2025-02-25 10:03:51,2025-02-25 10:07:10,198.727,,,,,,,
834,2025-02-25 11:38:36,2025-02-25 11:41:54,198.725,,,,,,,
835,2025-02-25 13:13:20,2025-02-25 13:16:39,198.726,,,,,,,
836,2025-02-25 14:48:04,2025-02-25 14:51:23,198.723,,,,,,,
837,2025-02-25 16:22:49,2025-02-25 16:26:08,198.722,,,,,,,
838,2025-02-25 17:57:33,2025-02-25 18:00:52,198.725,,,,,,,
839,2025-02-25 19:32:18,2025-02-25 19:35:36,198.73,,,,,,,
840,2025-02-25 21:07:02,2025-02-25 21:10:21,198.723,,,,,,,
841,2025-02-25 22:41:46,2025-02-25 22:45:05,198.721,,,,,,,
842,2025-02-26 00:16:31,2025-02-26 00:19:50,198.722,,,,,,,
843,2025-02-26 01:51:15,2025-02-26 01:54:34,198.728,,,,,,,
844,2025-02-26 03:26:00,2025-02-26 03:29:18,198.722,,,,,,,
845,2025-02-26 05:00:44,2025-02-26 05:04:03,198.729,,,,,,,
846,2025-02-26 06:35:28,2025-02-26 06:38:47,198.724,,,,,,,
847,2025-02-26 08:10:13,2025-02-26 08:13:31,198.723,,,,,,,
848,2025-02-26 09:44:57,2025-02-26 09:48:16,198.723,,,,,,,
849,2025-02-26 11:19:41,2025-02-26 11:23:00,198.723,,,,,,,
850,2025-02-26 12:54:26,2025-02-26 12:57:45,198.724,,,,,,,
851,2025-02-26 14:29:10,2025-02-26 14:32:29,198.725,,,,,,,
852,2025-02-26 16:03:55,2025-02-26 16:07:13,198.722,,,,,,,
853,2025-02-26 17:38:39,2025-02-26 17:41:58,198.725,,,,,,,
854,2025-02-26 19:13:23,2025-02-26 19:16:42,198.722,,,,,,,
855,2025-02-26 20:48:08,2025-02-26 20:51:27,198.723,,,,,,,
856,2025-02-26 22:22:52,2025-02-26 22:26:11,198.725,,,,,,,
857,2025-02-26 23:57:37,2025-02-27 00:00:55,198.728,,,,,,,
858,2025-02-27 01:32:21,2025-02-27 01:35:40,198.721,,,,,,,
859,2025-02-27 03:07:05,2025-02-27 03:10:24,198.721,,,,,,,
860,2025-02-27 04:41:50,2025-02-27 04:45:08,198.722,,,,,,,
861,2025-02-27 06:16:34,2025-02-27 06:19:53,198.724,,,,,,,
862,2025-02-27 07:51:19,2025-02-27 07:54:37,198.726,,,,,,,
863,2025-02-27 09:26:03,2025-02-27 09:29:22,198.724,,,,,,,
864,2025-02-27 11:00:47,2025-02-27 11:04:06,198.724,,,,,,,
865,2025-02-27 12:35:32,2025-02-27 12:38:50,198.724,,,,,,,
866,2025-02-27 14:10:16,2025-02-27 14:13:35,198.724,,,,,,,
867,2025-02-27 15:45:00,2025-02-27 15:48:19,198.723,,,,,,,
868,2025-02-27 17:19:45,2025-02-27 17:23:04,198.728,,,,,,,
869,2025-02-27 18:54:29,2025-02-27 18:57:48,198.722,,,,,,,
870,2025-02-27 20:29:14,2025-02-27 20:32:32,198.724,,,,,,,
871,2025-02-27 22:03:58,2025-02-27 22:07:17,198.724,,,,,,,
872,2025-02-27 23:38:42,2025-02-27 23:42:01,198.727,,,,,,,
873,2025-02-28 01:13:27,2025-02-28 01:16:45,198.72,,,,,,,
874,2025-02-28 02:48:11,2025-02-28 02:51:30,198.721,,,,,,,
875,2025-02-28 04:22:56,2025-02-28 04:26:14,198.72,,,,,,,
876,2025-02-28 05:57:40,2025-02-28 06:00:59,198.724,,,,,,,
877,2025-02-28 07:32:24,2025-02-28 07:35:43,198.724,,,,,,,
878,2025-02-28 09:07:09,2025-02-28 09:10:27,198.723,,,,,,,
879,2025-02-28 10:41:53,2025-02-28 10:45:12,198.724,,,,,,,
880,2025-02-28 12:16:37,2025-02-28 12:19:56,198.724,,,,,,,
881,2025-02-28 13:51:22,2025-02-28 13:54:41,198.724,,,,,,,
882,2025-02-28 15:26:06,2025-02-28 15:29:25,198.723,,,,,,,
883,2025-02-28 17:00:51,2025-02-28 17:04:09,198.722,,,,,,,
884,2025-02-28 18:35:35,2025-02-28 18:38:54,198.721,,,,,,,
885,2025-02-28 20:10:19,2025-02-28 20:13:38,198.724,,,,,,,
886,2025-02-28 21:45:04,2025-02-28 21:48:22,198.729,,,,,,,
887,2025-02-28 23:19:48,2025-02-28 23:23:07,198.725,,,,,,,
888,2025-03-01 00:54:33,2025-03-01 00:57:51,198.722,,,,,,,
889,2025-03-01 02:29:17,2025-03-01 02:32:36,198.72,,,,,,,
890,2025-03-01 04:04:01,2025-03-01 04:07:20,198.72,,,,,,,
891,2025-03-01 05:38:46,2025-03-01 05:42:04,198.723,,,,,,,
892,2025-03-01 07:13:30,2025-03-01 07:16:49,198.723,,,,,,,
893,2025-03-01 08:48:14,2025-03-01 08:51:33,198.723,,,,,,,
894,2025-03-01 10:22:59,2025-03-01 10:26:18,198.724,,,,,,,
895,2025-03-01 11:57:43,2025-03-01 12:01:02,198.723,,,,,,,
896,2025-03-01 13:32:28,2025-03-01 13:35:46,198.724,,,,,,,
897,2025-03-01 15:07:12,2025-03-01 15:10:31,198.722,,,,,,,
898,2025-03-01 16:41:56,2025-03-01 16:45:15,198.722,,,,,,,
899,2025-03-01 18:16:41,2025-03-01 18:20:00,198.721,,,,,,,
900,2025-03-01 19:51:25,2025-03-01 19:54:44,198.724,,,,,,,
901,2025-03-01 21:26:10,2025-03-01 21:29:28,198.729,,,,,,,
902,2025-03-01 23:00:54,2025-03-01 23:04:13,198.726,,,,,,,
903,2025-03-02 00:35:38,2025-03-02 00:38:57,198.721,,,,,,,
904,2025-03-02 02:10:23,2025-03-02 02:13:41,198.72,,,,,,,
905,2025-03-02 03:45:07,2025-03-02 03:48:26,198.721,,,,,,,
906,2025-03-02 05:19:51,2025-03-02 05:23:10,198.723,,,,,,,
907,2025-03-02 06:54:36,2025-03-02 06:57:55,198.719,,,,,,,
908,2025-03-02 08:29:20,2025-03-02 08:32:39,198.721,,,,,,,
909,2025-03-02 10:04:05,2025-03-02 10:07:23,198.725,,,,,,,
910,2025-03-02 11:38:49,2025-03-02 11:42:08,198.724,,,,,,,
911,2025-03-02 13:13:33,2025-03-02 13:16:52,198.724,,,,,,,
912,2025-03-02 14:48:18,2025-03-02 14:51:37,198.722,,,,,,,
913,2025-03-02 16:23:02,2025-03-02 16:26:21,198.721,,,,,,,
914,2025-03-02 17:57:47,2025-03-02 18:01:05,198.723,,,,,,,
915,2025-03-02 19:32:31,2025-03-02 19:35:50,198.729,,,,,,,
916,2025-03-02 21:07:15,2025-03-02 21:10:34,198.719,,,,,,,
917,2025-03-02 22:42:00,2025-03-02 22:45:18,198.719,,,,,,,
918,2025-03-03 00:16:44,2025-03-03 00:20:03,198.72,,,,,,,
919,2025-03-03 01:51:28,2025-03-03 01:54:47,198.727,,,,,,,
920,2025-03-03 03:26:13,2025-03-03 03:29:32,198.721,,,,,,,
921,2025-03-03 05:00:57,2025-03-03 05:04:16,198.728,,,,,,,
922,2025-03-03 06:35:42,2025-03-03 06:39:00,198.722,,,,,,,
923,2025-03-03 08:10:26,2025-03-03 08:13:45,198.722,,,,,,,
924,2025-03-03 09:45:10,2025-03-03 09:48:29,198.722,,,,,,,
925,2025-03-03 11:19:55,2025-03-03 11:23:14,198.722,,,,,,,
926,2025-03-03 12:54:39,2025-03-03 12:57:58,198.722,,,,,,,
927,2025-03-03 14:29:24,2025-03-03 14:32:42,198.723,,,,,,,
928,2025-03-03 16:04:08,2025-03-03 16:07:27,198.72,,,,,,,
929,2025-03-03 17:38:52,2025-03-03 17:42:11,198.723,,,,,,,
930,2025-03-03 19:13:37,2025-03-03 19:16:55,198.721,,,,,,,
931,2025-03-03 20:48:21,2025-03-03 20:51:40,198.72,,,,,,,
932,2025-03-03 22:23:06,2025-03-03 22:26:24,198.723,,,,,,,
933,2025-03-03 23:57:50,2025-03-04 00:01:09,198.726,,,,,,,
934,2025-03-04 01:32:34,2025-03-04 01:35:53,198.719,,,,,,,
935,2025-03-04 03:07:19,2025-03-04 03:10:37,198.719,,,,,,,
936,2025-03-04 04:42:03,2025-03-04 04:45:22,198.72,,,,,,,
937,2025-03-04 06:16:47,2025-03-04 06:20:06,198.722,,,,,,,
938,2025-03-04 07:51:32,2025-03-04 07:54:51,198.724,,,,,,,
939,2025-03-04 09:26:16,2025-03-04 09:29:35,198.721,,,,,,,
940,2025-03-04 11:01:01,2025-03-04 11:04:19,198.722,,,,,,,
941,2025-03-04 12:35:45,2025-03-04 12:39:04,198.722,,,,,,,
942,2025-03-04 14:10:29,2025-03-04 14:13:48,198.722,,,,,,,
943,2025-03-04 15:45:14,2025-03-04 15:48:32,198.721,,,,,,,
944,2025-03-04 17:19:58,2025-03-04 17:23:17,198.726,,,,,,,
945,2025-03-04 18:54:43,2025-03-04 18:58:01,198.719,,,,,,,
946,2025-03-04 20:29:27,2025-03-04 20:32:46,198.722,,,,,,,
947,2025-03-04 22:04:11,2025-03-04 22:07:30,198.722,,,,,,,
948,2025-03-04 23:38:56,2025-03-04 23:42:14,198.724,,,,,,,
949,2025-03-05 01:13:40,2025-03-05 01:16:59,198.717,,,,,,,
950,2025-03-05 02:48:24,2025-03-05 02:51:43,198.718,,,,,,,
951,2025-03-05 04:23:09,2025-03-05 04:26:28,198.717,,,,,,,
952,2025-03-05 05:57:53,2025-03-05 06:01:12,198.721,,,,,,,
953,2025-03-05 07:32:38,2025-03-05 07:35:56,198.721,,,,,,,
954,2025-03-05 09:07:22,2025-03-05 09:10:41,198.72,,,,,,,
955,2025-03-05 10:42:06,2025-03-05 10:45:25,198.72,,,,,,,
956,2025-03-05 12:16:51,2025-03-05 12:20:09,198.721,,,,,,,
957,2025-03-05 13:51:35,2025-03-05 13:54:54,198.721,,,,,,,
958,2025-03-05 15:26:20,2025-03-05 15:29:38,198.719,,,,,,,
959,2025-03-05 17:01:04,2025-03-05 17:04:23,198.718,,,,,,,
960,2025-03-05 18:35:48,2025-03-05 18:39:07,198.717,,,,,,,
961,2025-03-05 20:10:33,2025-03-05 20:13:51,198.721,,,,,,,
962,2025-03-05 21:45:17,2025-03-05 21:48:36,198.725,,,,,,,
963,2025-03-05 23:20:01,2025-03-05 23:23:20,198.722,,,,,,,
964,2025-03-06 00:54:46,2025-03-06 00:58:05,198.718,,,,,,,
965,2025-03-06 02:29:30,2025-03-06 02:32:49,198.717,,,,,,,
966,2025-03-06 04:04:15,2025-03-06 04:07:33,198.717,,,,,,,
967,2025-03-06 05:38:59,2025-03-06 05:42:18,198.719,,,,,,,
968,2025-03-06 07:13:43,2025-03-06 07:17:02,198.719,,,,,,,
969,2025-03-06 08:48:28,2025-03-06 08:51:47,198.719,,,,,,,
970,2025-03-06 10:23:12,2025-03-06 10:26:31,198.72,,,,,,,
971,2025-03-06 11:57:57,2025-03-06 12:01:15,198.719,,,,,,,
972,2025-03-06 13:32:41,2025-03-06 13:36:00,198.72,,,,,,,
973,2025-03-06 15:07:25,2025-03-06 15:10:44,198.718,,,,,,,
974,2025-03-06 16:42:10,2025-03-06 16:45:28,198.718,,,,,,,
975,2025-03-06 18:16:54,2025-03-06 18:20:13,198.717,,,,,,,
976,2025-03-06 19:51:38,2025-03-06 19:54:57,198.72,,,,,,,
977,2025-03-06 21:26:23,2025-03-06 21:29:42,198.724,,,,,,,
978,2025-03-06 23:01:07,2025-03-06 23:04:26,198.722,,,,,,,
979,2025-03-07 00:35:52,2025-03-07 00:39:10,198.717,,,,,,,
980,2025-03-07 02:10:36,2025-03-07 02:13:55,198.716,,,,,,,
981,2025-03-07 03:45:20,2025-03-07 03:48:39,198.716,,,,,,,
982,2025-03-07 05:20:05,2025-03-07 05:23:24,198.719,,,,,,,
983,2025-03-07 06:54:49,2025-03-07 06:58:08,198.715,,,,,,,
984,2025-03-07 08:29:34,2025-03-07 08:32:52,198.717,,,,,,,
985,2025-03-07 10:04:18,2025-03-07 10:07:37,198.721,,,,,,,
986,2025-03-07 11:39:02,2025-03-07 11:42:21,198.72,,,,,,,
987,2025-03-07 13:13:47,2025-03-07 13:17:05,198.72,,,,,,,
988,2025-03-07 14:48:31,2025-03-07 14:51:50,198.717,,,,,,,
989,2025-03-07 16:23:16,2025-03-07 16:26:34,198.716,,,,,,,
990,2025-03-07 17:58:00,2025-03-07 18:01:19,198.719,,,,,,,
991,2025-03-07 19:32:44,2025-03-07 19:36:03,198.724,,,,,,,
992,2025-03-07 21:07:29,2025-03-07 21:10:47,198.714,,,,,,,
993,2025-03-07 22:42:13,2025-03-07 22:45:32,198.715,,,,,,,
994,2025-03-08 00:16:57,2025-03-08 00:20:16,198.719,,,,,,,
995,2025-03-08 01:51:42,2025-03-08 01:55:01,198.722,,,,,,,
996,2025-03-08 03:26:26,2025-03-08 03:29:45,198.716,,,,,,,
997,2025-03-08 05:01:11,2025-03-08 05:04:29,198.723,,,,,,,
998,2025-03-08 06:35:55,2025-03-08 06:39:14,198.718,,,,,,,
999,2025-03-08 08:10:39,2025-03-08 08:13:58,198.717,,,,,,,
1000,2025-03-08 09:45:24,2025-03-08 09:48:42,198.717,,,,,,,
1001,2025-03-08 11:20:08,2025-03-08 11:23:27,198.717,,,,,,,
1002,2025-03-08 12:54:53,2025-03-08 12:58:11,198.717,,,,,,,
1003,2025-03-08 14:29:37,2025-03-08 14:32:56,198.718,,,,,,,
1004,2025-03-08 16:04:21,2025-03-08 16:07:40,198.716,,,,,,,
1005,2025-03-08 17:39:06,2025-03-08 17:42:24,198.718,,,,,,,
1006,2025-03-08 19:13:50,2025-03-08 19:17:09,198.716,,,,,,,
1007,2025-03-08 20:48:34,2025-03-08 20:51:53,198.715,,,,,,,
1008,2025-03-08 22:23:19,2025-03-08 22:26:38,198.718,,,,,,,
1009,2025-03-08 23:58:03,2025-03-09 00:01:22,198.722,,,,,,,
1010,2025-03-09 01:32:48,2025-03-09 01:36:06,198.714,,,,,,,
1011,2025-03-09 03:07:32,2025-03-09 03:10:51,198.714,,,,,,,
1012,2025-03-09 04:42:16,2025-03-09 04:45:35,198.715,,,,,,,
1013,2025-03-09 06:17:01,2025-03-09 06:20:19,198.717,,,,,,,
1014,2025-03-09 07:51:45,2025-03-09 07:55:04,198.719,,,,,,,
1015,2025-03-09 09:26:30,2025-03-09 09:29:48,198.717,,,,,,,
