3UCubedIntegratedSim/Reports & Plots/Area Target Access Data/CSV/Sat5.csv

Access,Start Time (UTCG),Stop Time (UTCG),Duration (sec),,,Global Statistics,,,,
1,2025-01-01 16:21:45,2025-01-01 16:24:12,147.214,,,Min Duration,1888,2025-05-05 19:55:41,2025-05-05 19:58:08,147.178
2,2025-01-01 17:56:29,2025-01-01 17:58:57,147.217,,,Max Duration,4352,2025-10-14 22:34:28,2025-10-14 22:36:55,147.313
3,2025-01-01 19:31:14,2025-01-01 19:33:41,147.216,,,Mean Duration,,,,147.236
4,2025-01-01 21:05:58,2025-01-01 21:08:25,147.216,,,Total Duration,,,,816866.274
5,2025-01-01 22:40:43,2025-01-01 22:43:10,147.214,,,,,,,
6,2025-01-02 00:15:27,2025-01-02 00:17:54,147.218,,,,,,,
7,2025-01-02 01:50:11,2025-01-02 01:52:39,147.215,,,,,,,
8,2025-01-02 03:24:56,2025-01-02 03:27:23,147.217,,,,,,,
9,2025-01-02 04:59:40,2025-01-02 05:02:07,147.216,,,,,,,
10,2025-01-02 06:34:25,2025-01-02 06:36:52,147.219,,,,,,,
11,2025-01-02 08:09:09,2025-01-02 08:11:36,147.22,,,,,,,
12,2025-01-02 09:43:53,2025-01-02 09:46:21,147.22,,,,,,,
13,2025-01-02 11:18:38,2025-01-02 11:21:05,147.22,,,,,,,
14,2025-01-02 12:53:22,2025-01-02 12:55:49,147.218,,,,,,,
15,2025-01-02 14:28:07,2025-01-02 14:30:34,147.213,,,,,,,
16,2025-01-02 16:02:51,2025-01-02 16:05:18,147.218,,,,,,,
17,2025-01-02 17:37:35,2025-01-02 17:40:02,147.217,,,,,,,
18,2025-01-02 19:12:20,2025-01-02 19:14:47,147.216,,,,,,,
19,2025-01-02 20:47:04,2025-01-02 20:49:31,147.212,,,,,,,
20,2025-01-02 22:21:48,2025-01-02 22:24:16,147.22,,,,,,,
21,2025-01-02 23:56:33,2025-01-02 23:59:00,147.219,,,,,,,
22,2025-01-03 01:31:17,2025-01-03 01:33:44,147.214,,,,,,,
23,2025-01-03 03:06:02,2025-01-03 03:08:29,147.217,,,,,,,
24,2025-01-03 04:40:46,2025-01-03 04:43:13,147.218,,,,,,,
25,2025-01-03 06:15:30,2025-01-03 06:17:58,147.216,,,,,,,
26,2025-01-03 07:50:15,2025-01-03 07:52:42,147.217,,,,,,,
27,2025-01-03 09:24:59,2025-01-03 09:27:26,147.219,,,,,,,
28,2025-01-03 10:59:44,2025-01-03 11:02:11,147.219,,,,,,,
29,2025-01-03 12:34:28,2025-01-03 12:36:55,147.214,,,,,,,
30,2025-01-03 14:09:12,2025-01-03 14:11:40,147.216,,,,,,,
31,2025-01-03 15:43:57,2025-01-03 15:46:24,147.217,,,,,,,
32,2025-01-03 17:18:41,2025-01-03 17:21:08,147.217,,,,,,,
33,2025-01-03 18:53:25,2025-01-03 18:55:53,147.217,,,,,,,
34,2025-01-03 20:28:10,2025-01-03 20:30:37,147.217,,,,,,,
35,2025-01-03 22:02:54,2025-01-03 22:05:21,147.214,,,,,,,
36,2025-01-03 23:37:39,2025-01-03 23:40:06,147.219,,,,,,,
37,2025-01-04 01:12:23,2025-01-04 01:14:50,147.218,,,,,,,
38,2025-01-04 02:47:07,2025-01-04 02:49:35,147.219,,,,,,,
39,2025-01-04 04:21:52,2025-01-04 04:24:19,147.217,,,,,,,
40,2025-01-04 05:56:36,2025-01-04 05:59:03,147.216,,,,,,,
41,2025-01-04 07:31:21,2025-01-04 07:33:48,147.216,,,,,,,
42,2025-01-04 09:06:05,2025-01-04 09:08:32,147.215,,,,,,,
43,2025-01-04 10:40:49,2025-01-04 10:43:17,147.214,,,,,,,
44,2025-01-04 12:15:34,2025-01-04 12:18:01,147.22,,,,,,,
45,2025-01-04 13:50:18,2025-01-04 13:52:45,147.216,,,,,,,
46,2025-01-04 15:25:02,2025-01-04 15:27:30,147.217,,,,,,,
47,2025-01-04 16:59:47,2025-01-04 17:02:14,147.218,,,,,,,
48,2025-01-04 18:34:31,2025-01-04 18:36:58,147.216,,,,,,,
49,2025-01-04 20:09:16,2025-01-04 20:11:43,147.215,,,,,,,
50,2025-01-04 21:44:00,2025-01-04 21:46:27,147.219,,,,,,,
51,2025-01-04 23:18:44,2025-01-04 23:21:12,147.218,,,,,,,
52,2025-01-05 00:53:29,2025-01-05 00:55:56,147.217,,,,,,,
53,2025-01-05 02:28:13,2025-01-05 02:30:40,147.216,,,,,,,
54,2025-01-05 04:02:58,2025-01-05 04:05:25,147.217,,,,,,,
55,2025-01-05 05:37:42,2025-01-05 05:40:09,147.217,,,,,,,
56,2025-01-05 07:12:26,2025-01-05 07:14:54,147.218,,,,,,,
57,2025-01-05 08:47:11,2025-01-05 08:49:38,147.213,,,,,,,
58,2025-01-05 10:21:55,2025-01-05 10:24:22,147.214,,,,,,,
59,2025-01-05 11:56:39,2025-01-05 11:59:07,147.213,,,,,,,
60,2025-01-05 13:31:24,2025-01-05 13:33:51,147.214,,,,,,,
61,2025-01-05 15:06:08,2025-01-05 15:08:35,147.219,,,,,,,
62,2025-01-05 16:40:53,2025-01-05 16:43:20,147.217,,,,,,,
63,2025-01-05 18:15:37,2025-01-05 18:18:04,147.219,,,,,,,
64,2025-01-05 19:50:21,2025-01-05 19:52:49,147.212,,,,,,,
65,2025-01-05 21:25:06,2025-01-05 21:27:33,147.217,,,,,,,
66,2025-01-05 22:59:50,2025-01-05 23:02:17,147.217,,,,,,,
67,2025-01-06 00:34:35,2025-01-06 00:37:02,147.221,,,,,,,
68,2025-01-06 02:09:19,2025-01-06 02:11:46,147.215,,,,,,,
69,2025-01-06 03:44:03,2025-01-06 03:46:31,147.218,,,,,,,
70,2025-01-06 05:18:48,2025-01-06 05:21:15,147.217,,,,,,,
71,2025-01-06 06:53:32,2025-01-06 06:55:59,147.218,,,,,,,
72,2025-01-06 08:28:16,2025-01-06 08:30:44,147.217,,,,,,,
73,2025-01-06 10:03:01,2025-01-06 10:05:28,147.216,,,,,,,
74,2025-01-06 11:37:45,2025-01-06 11:40:12,147.216,,,,,,,
75,2025-01-06 13:12:30,2025-01-06 13:14:57,147.216,,,,,,,
76,2025-01-06 14:47:14,2025-01-06 14:49:41,147.219,,,,,,,
77,2025-01-06 16:21:58,2025-01-06 16:24:26,147.217,,,,,,,
78,2025-01-06 17:56:43,2025-01-06 17:59:10,147.218,,,,,,,
79,2025-01-06 19:31:27,2025-01-06 19:33:54,147.217,,,,,,,
80,2025-01-06 21:06:12,2025-01-06 21:08:39,147.214,,,,,,,
81,2025-01-06 22:40:56,2025-01-06 22:43:23,147.221,,,,,,,
82,2025-01-07 00:15:40,2025-01-07 00:18:08,147.22,,,,,,,
83,2025-01-07 01:50:25,2025-01-07 01:52:52,147.215,,,,,,,
84,2025-01-07 03:25:09,2025-01-07 03:27:36,147.218,,,,,,,
85,2025-01-07 04:59:54,2025-01-07 05:02:21,147.218,,,,,,,
86,2025-01-07 06:34:38,2025-01-07 06:37:05,147.214,,,,,,,
87,2025-01-07 08:09:22,2025-01-07 08:11:50,147.217,,,,,,,
88,2025-01-07 09:44:07,2025-01-07 09:46:34,147.219,,,,,,,
89,2025-01-07 11:18:51,2025-01-07 11:21:18,147.216,,,,,,,
90,2025-01-07 12:53:35,2025-01-07 12:56:03,147.217,,,,,,,
91,2025-01-07 14:28:20,2025-01-07 14:30:47,147.216,,,,,,,
92,2025-01-07 16:03:04,2025-01-07 16:05:31,147.217,,,,,,,
93,2025-01-07 17:37:49,2025-01-07 17:40:16,147.218,,,,,,,
94,2025-01-07 19:12:33,2025-01-07 19:15:00,147.217,,,,,,,
95,2025-01-07 20:47:17,2025-01-07 20:49:45,147.212,,,,,,,
96,2025-01-07 22:22:02,2025-01-07 22:24:29,147.22,,,,,,,
97,2025-01-07 23:56:46,2025-01-07 23:59:13,147.219,,,,,,,
98,2025-01-08 01:31:31,2025-01-08 01:33:58,147.214,,,,,,,
99,2025-01-08 03:06:15,2025-01-08 03:08:42,147.218,,,,,,,
100,2025-01-08 04:40:59,2025-01-08 04:43:27,147.218,,,,,,,
101,2025-01-08 06:15:44,2025-01-08 06:18:11,147.214,,,,,,,
102,2025-01-08 07:50:28,2025-01-08 07:52:55,147.217,,,,,,,
103,2025-01-08 09:25:12,2025-01-08 09:27:40,147.219,,,,,,,
104,2025-01-08 10:59:57,2025-01-08 11:02:24,147.219,,,,,,,
105,2025-01-08 12:34:41,2025-01-08 12:37:08,147.214,,,,,,,
106,2025-01-08 14:09:26,2025-01-08 14:11:53,147.216,,,,,,,
107,2025-01-08 15:44:10,2025-01-08 15:46:37,147.217,,,,,,,
108,2025-01-08 17:18:54,2025-01-08 17:21:22,147.217,,,,,,,
109,2025-01-08 18:53:39,2025-01-08 18:56:06,147.217,,,,,,,
110,2025-01-08 20:28:23,2025-01-08 20:30:50,147.217,,,,,,,
111,2025-01-08 22:03:08,2025-01-08 22:05:35,147.214,,,,,,,
112,2025-01-08 23:37:52,2025-01-08 23:40:19,147.219,,,,,,,
113,2025-01-09 01:12:36,2025-01-09 01:15:04,147.218,,,,,,,
114,2025-01-09 02:47:21,2025-01-09 02:49:48,147.218,,,,,,,
115,2025-01-09 04:22:05,2025-01-09 04:24:32,147.216,,,,,,,
116,2025-01-09 05:56:49,2025-01-09 05:59:17,147.215,,,,,,,
117,2025-01-09 07:31:34,2025-01-09 07:34:01,147.214,,,,,,,
118,2025-01-09 09:06:18,2025-01-09 09:08:45,147.214,,,,,,,
119,2025-01-09 10:41:03,2025-01-09 10:43:30,147.213,,,,,,,
120,2025-01-09 12:15:47,2025-01-09 12:18:14,147.219,,,,,,,
121,2025-01-09 13:50:31,2025-01-09 13:52:59,147.215,,,,,,,
122,2025-01-09 15:25:16,2025-01-09 15:27:43,147.216,,,,,,,
123,2025-01-09 17:00:00,2025-01-09 17:02:27,147.217,,,,,,,
124,2025-01-09 18:34:45,2025-01-09 18:37:12,147.215,,,,,,,
125,2025-01-09 20:09:29,2025-01-09 20:11:56,147.214,,,,,,,
126,2025-01-09 21:44:13,2025-01-09 21:46:41,147.219,,,,,,,
127,2025-01-09 23:18:58,2025-01-09 23:21:25,147.217,,,,,,,
128,2025-01-10 00:53:42,2025-01-10 00:56:09,147.216,,,,,,,
129,2025-01-10 02:28:26,2025-01-10 02:30:54,147.215,,,,,,,
130,2025-01-10 04:03:11,2025-01-10 04:05:38,147.216,,,,,,,
131,2025-01-10 05:37:55,2025-01-10 05:40:22,147.216,,,,,,,
132,2025-01-10 07:12:40,2025-01-10 07:15:07,147.217,,,,,,,
133,2025-01-10 08:47:24,2025-01-10 08:49:51,147.212,,,,,,,
134,2025-01-10 10:22:08,2025-01-10 10:24:36,147.213,,,,,,,
135,2025-01-10 11:56:53,2025-01-10 11:59:20,147.212,,,,,,,
136,2025-01-10 13:31:37,2025-01-10 13:34:04,147.213,,,,,,,
137,2025-01-10 15:06:22,2025-01-10 15:08:49,147.218,,,,,,,
138,2025-01-10 16:41:06,2025-01-10 16:43:33,147.216,,,,,,,
139,2025-01-10 18:15:50,2025-01-10 18:18:18,147.218,,,,,,,
140,2025-01-10 19:50:35,2025-01-10 19:53:02,147.211,,,,,,,
141,2025-01-10 21:25:19,2025-01-10 21:27:46,147.216,,,,,,,
142,2025-01-10 23:00:04,2025-01-10 23:02:31,147.216,,,,,,,
143,2025-01-11 00:34:48,2025-01-11 00:37:15,147.22,,,,,,,
144,2025-01-11 02:09:32,2025-01-11 02:11:59,147.214,,,,,,,
145,2025-01-11 03:44:17,2025-01-11 03:46:44,147.217,,,,,,,
146,2025-01-11 05:19:01,2025-01-11 05:21:28,147.216,,,,,,,
147,2025-01-11 06:53:45,2025-01-11 06:56:13,147.217,,,,,,,
148,2025-01-11 08:28:30,2025-01-11 08:30:57,147.216,,,,,,,
149,2025-01-11 10:03:14,2025-01-11 10:05:41,147.215,,,,,,,
150,2025-01-11 11:37:59,2025-01-11 11:40:26,147.215,,,,,,,
151,2025-01-11 13:12:43,2025-01-11 13:15:10,147.215,,,,,,,
152,2025-01-11 14:47:27,2025-01-11 14:49:55,147.218,,,,,,,
153,2025-01-11 16:22:12,2025-01-11 16:24:39,147.216,,,,,,,
154,2025-01-11 17:56:56,2025-01-11 17:59:23,147.217,,,,,,,
155,2025-01-11 19:31:41,2025-01-11 19:34:08,147.216,,,,,,,
156,2025-01-11 21:06:25,2025-01-11 21:08:52,147.212,,,,,,,
157,2025-01-11 22:41:09,2025-01-11 22:43:37,147.22,,,,,,,
158,2025-01-12 00:15:54,2025-01-12 00:18:21,147.219,,,,,,,
159,2025-01-12 01:50:38,2025-01-12 01:53:05,147.214,,,,,,,
160,2025-01-12 03:25:22,2025-01-12 03:27:50,147.217,,,,,,,
161,2025-01-12 05:00:07,2025-01-12 05:02:34,147.217,,,,,,,
162,2025-01-12 06:34:51,2025-01-12 06:37:18,147.213,,,,,,,
163,2025-01-12 08:09:36,2025-01-12 08:12:03,147.216,,,,,,,
164,2025-01-12 09:44:20,2025-01-12 09:46:47,147.218,,,,,,,
165,2025-01-12 11:19:04,2025-01-12 11:21:32,147.215,,,,,,,
166,2025-01-12 12:53:49,2025-01-12 12:56:16,147.215,,,,,,,
167,2025-01-12 14:28:33,2025-01-12 14:31:00,147.215,,,,,,,
168,2025-01-12 16:03:18,2025-01-12 16:05:45,147.216,,,,,,,
169,2025-01-12 17:38:02,2025-01-12 17:40:29,147.216,,,,,,,
170,2025-01-12 19:12:46,2025-01-12 19:15:14,147.216,,,,,,,
171,2025-01-12 20:47:31,2025-01-12 20:49:58,147.211,,,,,,,
172,2025-01-12 22:22:15,2025-01-12 22:24:42,147.219,,,,,,,
173,2025-01-12 23:56:59,2025-01-12 23:59:27,147.218,,,,,,,
174,2025-01-13 01:31:44,2025-01-13 01:34:11,147.213,,,,,,,
175,2025-01-13 03:06:28,2025-01-13 03:08:55,147.217,,,,,,,
176,2025-01-13 04:41:13,2025-01-13 04:43:40,147.217,,,,,,,
177,2025-01-13 06:15:57,2025-01-13 06:18:24,147.213,,,,,,,
178,2025-01-13 07:50:41,2025-01-13 07:53:09,147.216,,,,,,,
179,2025-01-13 09:25:26,2025-01-13 09:27:53,147.218,,,,,,,
180,2025-01-13 11:00:10,2025-01-13 11:02:37,147.218,,,,,,,
181,2025-01-13 12:34:55,2025-01-13 12:37:22,147.213,,,,,,,
182,2025-01-13 14:09:39,2025-01-13 14:12:06,147.215,,,,,,,
183,2025-01-13 15:44:23,2025-01-13 15:46:51,147.216,,,,,,,
184,2025-01-13 17:19:08,2025-01-13 17:21:35,147.216,,,,,,,
185,2025-01-13 18:53:52,2025-01-13 18:56:19,147.216,,,,,,,
186,2025-01-13 20:28:36,2025-01-13 20:31:04,147.216,,,,,,,
187,2025-01-13 22:03:21,2025-01-13 22:05:48,147.213,,,,,,,
188,2025-01-13 23:38:05,2025-01-13 23:40:32,147.218,,,,,,,
189,2025-01-14 01:12:50,2025-01-14 01:15:17,147.217,,,,,,,
190,2025-01-14 02:47:34,2025-01-14 02:50:01,147.218,,,,,,,
191,2025-01-14 04:22:18,2025-01-14 04:24:46,147.215,,,,,,,
192,2025-01-14 05:57:03,2025-01-14 05:59:30,147.215,,,,,,,
193,2025-01-14 07:31:47,2025-01-14 07:34:14,147.215,,,,,,,
194,2025-01-14 09:06:32,2025-01-14 09:08:59,147.214,,,,,,,
195,2025-01-14 10:41:16,2025-01-14 10:43:43,147.213,,,,,,,
196,2025-01-14 12:16:00,2025-01-14 12:18:28,147.219,,,,,,,
197,2025-01-14 13:50:45,2025-01-14 13:53:12,147.215,,,,,,,
198,2025-01-14 15:25:29,2025-01-14 15:27:56,147.215,,,,,,,
199,2025-01-14 17:00:13,2025-01-14 17:02:41,147.217,,,,,,,
200,2025-01-14 18:34:58,2025-01-14 18:37:25,147.215,,,,,,,
201,2025-01-14 20:09:42,2025-01-14 20:12:09,147.214,,,,,,,
202,2025-01-14 21:44:27,2025-01-14 21:46:54,147.218,,,,,,,
203,2025-01-14 23:19:11,2025-01-14 23:21:38,147.217,,,,,,,
204,2025-01-15 00:53:55,2025-01-15 00:56:23,147.216,,,,,,,
205,2025-01-15 02:28:40,2025-01-15 02:31:07,147.215,,,,,,,
206,2025-01-15 04:03:24,2025-01-15 04:05:51,147.216,,,,,,,
207,2025-01-15 05:38:09,2025-01-15 05:40:36,147.216,,,,,,,
208,2025-01-15 07:12:53,2025-01-15 07:15:20,147.217,,,,,,,
209,2025-01-15 08:47:37,2025-01-15 08:50:05,147.212,,,,,,,
210,2025-01-15 10:22:22,2025-01-15 10:24:49,147.213,,,,,,,
211,2025-01-15 11:57:06,2025-01-15 11:59:33,147.212,,,,,,,
212,2025-01-15 13:31:51,2025-01-15 13:34:18,147.213,,,,,,,
213,2025-01-15 15:06:35,2025-01-15 15:09:02,147.218,,,,,,,
214,2025-01-15 16:41:19,2025-01-15 16:43:46,147.216,,,,,,,
215,2025-01-15 18:16:04,2025-01-15 18:18:31,147.218,,,,,,,
216,2025-01-15 19:50:48,2025-01-15 19:53:15,147.211,,,,,,,
217,2025-01-15 21:25:32,2025-01-15 21:28:00,147.217,,,,,,,
218,2025-01-15 23:00:17,2025-01-15 23:02:44,147.216,,,,,,,
219,2025-01-16 00:35:01,2025-01-16 00:37:28,147.22,,,,,,,
220,2025-01-16 02:09:46,2025-01-16 02:12:13,147.214,,,,,,,
221,2025-01-16 03:44:30,2025-01-16 03:46:57,147.217,,,,,,,
222,2025-01-16 05:19:14,2025-01-16 05:21:42,147.216,,,,,,,
223,2025-01-16 06:53:59,2025-01-16 06:56:26,147.217,,,,,,,
224,2025-01-16 08:28:43,2025-01-16 08:31:10,147.216,,,,,,,
225,2025-01-16 10:03:28,2025-01-16 10:05:55,147.215,,,,,,,
226,2025-01-16 11:38:12,2025-01-16 11:40:39,147.215,,,,,,,
227,2025-01-16 13:12:56,2025-01-16 13:15:24,147.215,,,,,,,
228,2025-01-16 14:47:41,2025-01-16 14:50:08,147.218,,,,,,,
229,2025-01-16 16:22:25,2025-01-16 16:24:52,147.216,,,,,,,
230,2025-01-16 17:57:09,2025-01-16 17:59:37,147.217,,,,,,,
231,2025-01-16 19:31:54,2025-01-16 19:34:21,147.216,,,,,,,
232,2025-01-16 21:06:38,2025-01-16 21:09:05,147.213,,,,,,,
233,2025-01-16 22:41:23,2025-01-16 22:43:50,147.22,,,,,,,
234,2025-01-17 00:16:07,2025-01-17 00:18:34,147.219,,,,,,,
235,2025-01-17 01:50:51,2025-01-17 01:53:19,147.214,,,,,,,
236,2025-01-17 03:25:36,2025-01-17 03:28:03,147.217,,,,,,,
237,2025-01-17 05:00:20,2025-01-17 05:02:47,147.217,,,,,,,
238,2025-01-17 06:35:05,2025-01-17 06:37:32,147.214,,,,,,,
239,2025-01-17 08:09:49,2025-01-17 08:12:16,147.217,,,,,,,
240,2025-01-17 09:44:33,2025-01-17 09:47:01,147.218,,,,,,,
241,2025-01-17 11:19:18,2025-01-17 11:21:45,147.215,,,,,,,
242,2025-01-17 12:54:02,2025-01-17 12:56:29,147.216,,,,,,,
243,2025-01-17 14:28:46,2025-01-17 14:31:14,147.216,,,,,,,
244,2025-01-17 16:03:31,2025-01-17 16:05:58,147.216,,,,,,,
245,2025-01-17 17:38:15,2025-01-17 17:40:42,147.217,,,,,,,
246,2025-01-17 19:13:00,2025-01-17 19:15:27,147.216,,,,,,,
247,2025-01-17 20:47:44,2025-01-17 20:50:11,147.212,,,,,,,
248,2025-01-17 22:22:28,2025-01-17 22:24:56,147.22,,,,,,,
249,2025-01-17 23:57:13,2025-01-17 23:59:40,147.219,,,,,,,
250,2025-01-18 01:31:57,2025-01-18 01:34:24,147.214,,,,,,,
251,2025-01-18 03:06:42,2025-01-18 03:09:09,147.218,,,,,,,
252,2025-01-18 04:41:26,2025-01-18 04:43:53,147.217,,,,,,,
253,2025-01-18 06:16:10,2025-01-18 06:18:38,147.213,,,,,,,
254,2025-01-18 07:50:55,2025-01-18 07:53:22,147.217,,,,,,,
255,2025-01-18 09:25:39,2025-01-18 09:28:06,147.219,,,,,,,
256,2025-01-18 11:00:23,2025-01-18 11:02:51,147.219,,,,,,,
257,2025-01-18 12:35:08,2025-01-18 12:37:35,147.214,,,,,,,
258,2025-01-18 14:09:52,2025-01-18 14:12:19,147.216,,,,,,,
259,2025-01-18 15:44:37,2025-01-18 15:47:04,147.216,,,,,,,
260,2025-01-18 17:19:21,2025-01-18 17:21:48,147.216,,,,,,,
261,2025-01-18 18:54:05,2025-01-18 18:56:33,147.217,,,,,,,
262,2025-01-18 20:28:50,2025-01-18 20:31:17,147.217,,,,,,,
263,2025-01-18 22:03:34,2025-01-18 22:06:01,147.214,,,,,,,
264,2025-01-18 23:38:19,2025-01-18 23:40:46,147.219,,,,,,,
265,2025-01-19 01:13:03,2025-01-19 01:15:30,147.217,,,,,,,
266,2025-01-19 02:47:47,2025-01-19 02:50:15,147.218,,,,,,,
267,2025-01-19 04:22:32,2025-01-19 04:24:59,147.216,,,,,,,
268,2025-01-19 05:57:16,2025-01-19 05:59:43,147.216,,,,,,,
269,2025-01-19 07:32:00,2025-01-19 07:34:28,147.217,,,,,,,
270,2025-01-19 09:06:45,2025-01-19 09:09:12,147.214,,,,,,,
271,2025-01-19 10:41:29,2025-01-19 10:43:56,147.213,,,,,,,
272,2025-01-19 12:16:14,2025-01-19 12:18:41,147.219,,,,,,,
273,2025-01-19 13:50:58,2025-01-19 13:53:25,147.215,,,,,,,
274,2025-01-19 15:25:42,2025-01-19 15:28:10,147.216,,,,,,,
275,2025-01-19 17:00:27,2025-01-19 17:02:54,147.217,,,,,,,
276,2025-01-19 18:35:11,2025-01-19 18:37:38,147.215,,,,,,,
277,2025-01-19 20:09:56,2025-01-19 20:12:23,147.214,,,,,,,
278,2025-01-19 21:44:40,2025-01-19 21:47:07,147.219,,,,,,,
279,2025-01-19 23:19:24,2025-01-19 23:21:52,147.217,,,,,,,
280,2025-01-20 00:54:09,2025-01-20 00:56:36,147.217,,,,,,,
281,2025-01-20 02:28:53,2025-01-20 02:31:20,147.215,,,,,,,
282,2025-01-20 04:03:38,2025-01-20 04:06:05,147.216,,,,,,,
283,2025-01-20 05:38:22,2025-01-20 05:40:49,147.216,,,,,,,
284,2025-01-20 07:13:06,2025-01-20 07:15:33,147.217,,,,,,,
285,2025-01-20 08:47:51,2025-01-20 08:50:18,147.212,,,,,,,
286,2025-01-20 10:22:35,2025-01-20 10:25:02,147.213,,,,,,,
287,2025-01-20 11:57:19,2025-01-20 11:59:47,147.213,,,,,,,
288,2025-01-20 13:32:04,2025-01-20 13:34:31,147.213,,,,,,,
289,2025-01-20 15:06:48,2025-01-20 15:09:15,147.218,,,,,,,
290,2025-01-20 16:41:33,2025-01-20 16:44:00,147.216,,,,,,,
291,2025-01-20 18:16:17,2025-01-20 18:18:44,147.218,,,,,,,
292,2025-01-20 19:51:01,2025-01-20 19:53:29,147.211,,,,,,,
293,2025-01-20 21:25:46,2025-01-20 21:28:13,147.217,,,,,,,
294,2025-01-20 23:00:30,2025-01-20 23:02:57,147.216,,,,,,,
295,2025-01-21 00:35:15,2025-01-21 00:37:42,147.22,,,,,,,
296,2025-01-21 02:09:59,2025-01-21 02:12:26,147.214,,,,,,,
297,2025-01-21 03:44:43,2025-01-21 03:47:11,147.217,,,,,,,
298,2025-01-21 05:19:28,2025-01-21 05:21:55,147.216,,,,,,,
299,2025-01-21 06:54:12,2025-01-21 06:56:39,147.217,,,,,,,
300,2025-01-21 08:28:56,2025-01-21 08:31:24,147.216,,,,,,,
301,2025-01-21 10:03:41,2025-01-21 10:06:08,147.215,,,,,,,
302,2025-01-21 11:38:25,2025-01-21 11:40:52,147.215,,,,,,,
303,2025-01-21 13:13:10,2025-01-21 13:15:37,147.215,,,,,,,
304,2025-01-21 14:47:54,2025-01-21 14:50:21,147.218,,,,,,,
305,2025-01-21 16:22:38,2025-01-21 16:25:06,147.216,,,,,,,
306,2025-01-21 17:57:23,2025-01-21 17:59:50,147.217,,,,,,,
307,2025-01-21 19:32:07,2025-01-21 19:34:34,147.216,,,,,,,
308,2025-01-21 21:06:52,2025-01-21 21:09:19,147.212,,,,,,,
309,2025-01-21 22:41:36,2025-01-21 22:44:03,147.22,,,,,,,
310,2025-01-22 00:16:20,2025-01-22 00:18:48,147.219,,,,,,,
311,2025-01-22 01:51:05,2025-01-22 01:53:32,147.214,,,,,,,
312,2025-01-22 03:25:49,2025-01-22 03:28:16,147.217,,,,,,,
313,2025-01-22 05:00:33,2025-01-22 05:03:01,147.217,,,,,,,
314,2025-01-22 06:35:18,2025-01-22 06:37:45,147.213,,,,,,,
315,2025-01-22 08:10:02,2025-01-22 08:12:29,147.216,,,,,,,
316,2025-01-22 09:44:47,2025-01-22 09:47:14,147.218,,,,,,,
317,2025-01-22 11:19:31,2025-01-22 11:21:58,147.214,,,,,,,
318,2025-01-22 12:54:15,2025-01-22 12:56:43,147.215,,,,,,,
319,2025-01-22 14:29:00,2025-01-22 14:31:27,147.215,,,,,,,
320,2025-01-22 16:03:44,2025-01-22 16:06:11,147.216,,,,,,,
321,2025-01-22 17:38:29,2025-01-22 17:40:56,147.216,,,,,,,
322,2025-01-22 19:13:13,2025-01-22 19:15:40,147.215,,,,,,,
323,2025-01-22 20:47:57,2025-01-22 20:50:25,147.211,,,,,,,
324,2025-01-22 22:22:42,2025-01-22 22:25:09,147.219,,,,,,,
325,2025-01-22 23:57:26,2025-01-22 23:59:53,147.218,,,,,,,
326,2025-01-23 01:32:10,2025-01-23 01:34:38,147.213,,,,,,,
327,2025-01-23 03:06:55,2025-01-23 03:09:22,147.217,,,,,,,
328,2025-01-23 04:41:39,2025-01-23 04:44:06,147.216,,,,,,,
329,2025-01-23 06:16:24,2025-01-23 06:18:51,147.212,,,,,,,
330,2025-01-23 07:51:08,2025-01-23 07:53:35,147.216,,,,,,,
331,2025-01-23 09:25:52,2025-01-23 09:28:20,147.218,,,,,,,
332,2025-01-23 11:00:37,2025-01-23 11:03:04,147.217,,,,,,,
333,2025-01-23 12:35:21,2025-01-23 12:37:48,147.212,,,,,,,
334,2025-01-23 14:10:06,2025-01-23 14:12:33,147.215,,,,,,,
335,2025-01-23 15:44:50,2025-01-23 15:47:17,147.215,,,,,,,
336,2025-01-23 17:19:34,2025-01-23 17:22:02,147.215,,,,,,,
337,2025-01-23 18:54:19,2025-01-23 18:56:46,147.215,,,,,,,
338,2025-01-23 20:29:03,2025-01-23 20:31:30,147.216,,,,,,,
339,2025-01-23 22:03:47,2025-01-23 22:06:15,147.212,,,,,,,
340,2025-01-23 23:38:32,2025-01-23 23:40:59,147.217,,,,,,,
341,2025-01-24 01:13:16,2025-01-24 01:15:43,147.216,,,,,,,
342,2025-01-24 02:48:01,2025-01-24 02:50:28,147.217,,,,,,,
343,2025-01-24 04:22:45,2025-01-24 04:25:12,147.215,,,,,,,
344,2025-01-24 05:57:29,2025-01-24 05:59:57,147.214,,,,,,,
345,2025-01-24 07:32:14,2025-01-24 07:34:41,147.216,,,,,,,
346,2025-01-24 09:06:58,2025-01-24 09:09:25,147.213,,,,,,,
347,2025-01-24 10:41:43,2025-01-24 10:44:10,147.212,,,,,,,
348,2025-01-24 12:16:27,2025-01-24 12:18:54,147.217,,,,,,,
349,2025-01-24 13:51:11,2025-01-24 13:53:39,147.214,,,,,,,
350,2025-01-24 15:25:56,2025-01-24 15:28:23,147.214,,,,,,,
351,2025-01-24 17:00:40,2025-01-24 17:03:07,147.216,,,,,,,
352,2025-01-24 18:35:25,2025-01-24 18:37:52,147.214,,,,,,,
353,2025-01-24 20:10:09,2025-01-24 20:12:36,147.212,,,,,,,
354,2025-01-24 21:44:53,2025-01-24 21:47:21,147.217,,,,,,,
355,2025-01-24 23:19:38,2025-01-24 23:22:05,147.215,,,,,,,
356,2025-01-25 00:54:22,2025-01-25 00:56:49,147.215,,,,,,,
357,2025-01-25 02:29:06,2025-01-25 02:31:34,147.213,,,,,,,
358,2025-01-25 04:03:51,2025-01-25 04:06:18,147.214,,,,,,,
359,2025-01-25 05:38:35,2025-01-25 05:41:02,147.215,,,,,,,
360,2025-01-25 07:13:20,2025-01-25 07:15:47,147.215,,,,,,,
361,2025-01-25 08:48:04,2025-01-25 08:50:31,147.21,,,,,,,
362,2025-01-25 10:22:48,2025-01-25 10:25:16,147.211,,,,,,,
363,2025-01-25 11:57:33,2025-01-25 12:00:00,147.211,,,,,,,
364,2025-01-25 13:32:17,2025-01-25 13:34:44,147.211,,,,,,,
365,2025-01-25 15:07:02,2025-01-25 15:09:29,147.216,,,,,,,
366,2025-01-25 16:41:46,2025-01-25 16:44:13,147.214,,,,,,,
367,2025-01-25 18:16:30,2025-01-25 18:18:58,147.216,,,,,,,
368,2025-01-25 19:51:15,2025-01-25 19:53:42,147.209,,,,,,,
369,2025-01-25 21:25:59,2025-01-25 21:28:26,147.215,,,,,,,
370,2025-01-25 23:00:43,2025-01-25 23:03:11,147.214,,,,,,,
371,2025-01-26 00:35:28,2025-01-26 00:37:55,147.218,,,,,,,
372,2025-01-26 02:10:12,2025-01-26 02:12:39,147.212,,,,,,,
373,2025-01-26 03:44:57,2025-01-26 03:47:24,147.215,,,,,,,
374,2025-01-26 05:19:41,2025-01-26 05:22:08,147.215,,,,,,,
375,2025-01-26 06:54:25,2025-01-26 06:56:53,147.215,,,,,,,
376,2025-01-26 08:29:10,2025-01-26 08:31:37,147.214,,,,,,,
377,2025-01-26 10:03:54,2025-01-26 10:06:21,147.213,,,,,,,
378,2025-01-26 11:38:39,2025-01-26 11:41:06,147.213,,,,,,,
379,2025-01-26 13:13:23,2025-01-26 13:15:50,147.213,,,,,,,
380,2025-01-26 14:48:07,2025-01-26 14:50:35,147.216,,,,,,,
381,2025-01-26 16:22:52,2025-01-26 16:25:19,147.214,,,,,,,
382,2025-01-26 17:57:36,2025-01-26 18:00:03,147.215,,,,,,,
383,2025-01-26 19:32:20,2025-01-26 19:34:48,147.214,,,,,,,
384,2025-01-26 21:07:05,2025-01-26 21:09:32,147.211,,,,,,,
385,2025-01-26 22:41:49,2025-01-26 22:44:16,147.218,,,,,,,
386,2025-01-27 00:16:34,2025-01-27 00:19:01,147.217,,,,,,,
387,2025-01-27 01:51:18,2025-01-27 01:53:45,147.212,,,,,,,
388,2025-01-27 03:26:02,2025-01-27 03:28:30,147.215,,,,,,,
389,2025-01-27 05:00:47,2025-01-27 05:03:14,147.215,,,,,,,
390,2025-01-27 06:35:31,2025-01-27 06:37:58,147.211,,,,,,,
391,2025-01-27 08:10:16,2025-01-27 08:12:43,147.214,,,,,,,
392,2025-01-27 09:45:00,2025-01-27 09:47:27,147.216,,,,,,,
393,2025-01-27 11:19:44,2025-01-27 11:22:12,147.213,,,,,,,
394,2025-01-27 12:54:29,2025-01-27 12:56:56,147.213,,,,,,,
395,2025-01-27 14:29:13,2025-01-27 14:31:40,147.213,,,,,,,
396,2025-01-27 16:03:57,2025-01-27 16:06:25,147.214,,,,,,,
397,2025-01-27 17:38:42,2025-01-27 17:41:09,147.215,,,,,,,
398,2025-01-27 19:13:26,2025-01-27 19:15:53,147.214,,,,,,,
399,2025-01-27 20:48:11,2025-01-27 20:50:38,147.209,,,,,,,
400,2025-01-27 22:22:55,2025-01-27 22:25:22,147.217,,,,,,,
401,2025-01-27 23:57:39,2025-01-28 00:00:07,147.216,,,,,,,
402,2025-01-28 01:32:24,2025-01-28 01:34:51,147.211,,,,,,,
403,2025-01-28 03:07:08,2025-01-28 03:09:35,147.215,,,,,,,
404,2025-01-28 04:41:53,2025-01-28 04:44:20,147.215,,,,,,,
405,2025-01-28 06:16:37,2025-01-28 06:19:04,147.211,,,,,,,
406,2025-01-28 07:51:21,2025-01-28 07:53:49,147.214,,,,,,,
407,2025-01-28 09:26:06,2025-01-28 09:28:33,147.216,,,,,,,
408,2025-01-28 11:00:50,2025-01-28 11:03:17,147.216,,,,,,,
409,2025-01-28 12:35:35,2025-01-28 12:38:02,147.211,,,,,,,
410,2025-01-28 14:10:19,2025-01-28 14:12:46,147.213,,,,,,,
411,2025-01-28 15:45:03,2025-01-28 15:47:30,147.214,,,,,,,
412,2025-01-28 17:19:48,2025-01-28 17:22:15,147.214,,,,,,,
413,2025-01-28 18:54:32,2025-01-28 18:56:59,147.214,,,,,,,
414,2025-01-28 20:29:16,2025-01-28 20:31:44,147.214,,,,,,,
415,2025-01-28 22:04:01,2025-01-28 22:06:28,147.211,,,,,,,
416,2025-01-28 23:38:45,2025-01-28 23:41:12,147.216,,,,,,,
417,2025-01-29 01:13:30,2025-01-29 01:15:57,147.215,,,,,,,
418,2025-01-29 02:48:14,2025-01-29 02:50:41,147.216,,,,,,,
419,2025-01-29 04:22:58,2025-01-29 04:25:26,147.213,,,,,,,
420,2025-01-29 05:57:43,2025-01-29 06:00:10,147.213,,,,,,,
421,2025-01-29 07:32:27,2025-01-29 07:34:54,147.215,,,,,,,
422,2025-01-29 09:07:12,2025-01-29 09:09:39,147.211,,,,,,,
423,2025-01-29 10:41:56,2025-01-29 10:44:23,147.211,,,,,,,
424,2025-01-29 12:16:40,2025-01-29 12:19:08,147.216,,,,,,,
425,2025-01-29 13:51:25,2025-01-29 13:53:52,147.213,,,,,,,
426,2025-01-29 15:26:09,2025-01-29 15:28:36,147.213,,,,,,,
427,2025-01-29 17:00:53,2025-01-29 17:03:21,147.215,,,,,,,
428,2025-01-29 18:35:38,2025-01-29 18:38:05,147.213,,,,,,,
429,2025-01-29 20:10:22,2025-01-29 20:12:49,147.211,,,,,,,
430,2025-01-29 21:45:07,2025-01-29 21:47:34,147.216,,,,,,,
431,2025-01-29 23:19:51,2025-01-29 23:22:18,147.214,,,,,,,
432,2025-01-30 00:54:35,2025-01-30 00:57:03,147.214,,,,,,,
433,2025-01-30 02:29:20,2025-01-30 02:31:47,147.213,,,,,,,
434,2025-01-30 04:04:04,2025-01-30 04:06:31,147.214,,,,,,,
435,2025-01-30 05:38:49,2025-01-30 05:41:16,147.214,,,,,,,
436,2025-01-30 07:13:33,2025-01-30 07:16:00,147.214,,,,,,,
437,2025-01-30 08:48:17,2025-01-30 08:50:45,147.209,,,,,,,
438,2025-01-30 10:23:02,2025-01-30 10:25:29,147.21,,,,,,,
439,2025-01-30 11:57:46,2025-01-30 12:00:13,147.21,,,,,,,
440,2025-01-30 13:32:30,2025-01-30 13:34:58,147.211,,,,,,,
441,2025-01-30 15:07:15,2025-01-30 15:09:42,147.215,,,,,,,
442,2025-01-30 16:41:59,2025-01-30 16:44:26,147.214,,,,,,,
443,2025-01-30 18:16:44,2025-01-30 18:19:11,147.215,,,,,,,
444,2025-01-30 19:51:28,2025-01-30 19:53:55,147.209,,,,,,,
445,2025-01-30 21:26:12,2025-01-30 21:28:40,147.215,,,,,,,
446,2025-01-30 23:00:57,2025-01-30 23:03:24,147.214,,,,,,,
447,2025-01-31 00:35:41,2025-01-31 00:38:08,147.217,,,,,,,
448,2025-01-31 02:10:26,2025-01-31 02:12:53,147.212,,,,,,,
449,2025-01-31 03:45:10,2025-01-31 03:47:37,147.215,,,,,,,
450,2025-01-31 05:19:54,2025-01-31 05:22:22,147.214,,,,,,,
451,2025-01-31 06:54:39,2025-01-31 06:57:06,147.215,,,,,,,
452,2025-01-31 08:29:23,2025-01-31 08:31:50,147.214,,,,,,,
453,2025-01-31 10:04:07,2025-01-31 10:06:35,147.213,,,,,,,
454,2025-01-31 11:38:52,2025-01-31 11:41:19,147.212,,,,,,,
455,2025-01-31 13:13:36,2025-01-31 13:16:03,147.213,,,,,,,
456,2025-01-31 14:48:21,2025-01-31 14:50:48,147.216,,,,,,,
457,2025-01-31 16:23:05,2025-01-31 16:25:32,147.214,,,,,,,
458,2025-01-31 17:57:49,2025-01-31 18:00:17,147.215,,,,,,,
459,2025-01-31 19:32:34,2025-01-31 19:35:01,147.214,,,,,,,
460,2025-01-31 21:07:18,2025-01-31 21:09:45,147.211,,,,,,,
461,2025-01-31 22:42:03,2025-01-31 22:44:30,147.218,,,,,,,
462,2025-02-01 00:16:47,2025-02-01 00:19:14,147.217,,,,,,,
463,2025-02-01 01:51:31,2025-02-01 01:53:59,147.212,,,,,,,
464,2025-02-01 03:26:16,2025-02-01 03:28:43,147.215,,,,,,,
465,2025-02-01 05:01:00,2025-02-01 05:03:27,147.215,,,,,,,
466,2025-02-01 06:35:44,2025-02-01 06:38:12,147.211,,,,,,,
467,2025-02-01 08:10:29,2025-02-01 08:12:56,147.214,,,,,,,
468,2025-02-01 09:45:13,2025-02-01 09:47:40,147.216,,,,,,,
469,2025-02-01 11:19:58,2025-02-01 11:22:25,147.214,,,,,,,
470,2025-02-01 12:54:42,2025-02-01 12:57:09,147.213,,,,,,,
471,2025-02-01 14:29:26,2025-02-01 14:31:54,147.213,,,,,,,
472,2025-02-01 16:04:11,2025-02-01 16:06:38,147.214,,,,,,,
473,2025-02-01 17:38:55,2025-02-01 17:41:22,147.215,,,,,,,
474,2025-02-01 19:13:40,2025-02-01 19:16:07,147.214,,,,,,,
475,2025-02-01 20:48:24,2025-02-01 20:50:51,147.209,,,,,,,
476,2025-02-01 22:23:08,2025-02-01 22:25:36,147.217,,,,,,,
477,2025-02-01 23:57:53,2025-02-02 00:00:20,147.216,,,,,,,
478,2025-02-02 01:32:37,2025-02-02 01:35:04,147.211,,,,,,,
479,2025-02-02 03:07:22,2025-02-02 03:09:49,147.215,,,,,,,
480,2025-02-02 04:42:06,2025-02-02 04:44:33,147.215,,,,,,,
481,2025-02-02 06:16:50,2025-02-02 06:19:17,147.211,,,,,,,
482,2025-02-02 07:51:35,2025-02-02 07:54:02,147.214,,,,,,,
483,2025-02-02 09:26:19,2025-02-02 09:28:46,147.216,,,,,,,
484,2025-02-02 11:01:03,2025-02-02 11:03:31,147.216,,,,,,,
485,2025-02-02 12:35:48,2025-02-02 12:38:15,147.211,,,,,,,
486,2025-02-02 14:10:32,2025-02-02 14:12:59,147.213,,,,,,,
487,2025-02-02 15:45:17,2025-02-02 15:47:44,147.214,,,,,,,
488,2025-02-02 17:20:01,2025-02-02 17:22:28,147.214,,,,,,,
489,2025-02-02 18:54:45,2025-02-02 18:57:13,147.214,,,,,,,
490,2025-02-02 20:29:30,2025-02-02 20:31:57,147.214,,,,,,,
491,2025-02-02 22:04:14,2025-02-02 22:06:41,147.211,,,,,,,
492,2025-02-02 23:38:59,2025-02-02 23:41:26,147.216,,,,,,,
493,2025-02-03 01:13:43,2025-02-03 01:16:10,147.214,,,,,,,
494,2025-02-03 02:48:27,2025-02-03 02:50:55,147.216,,,,,,,
495,2025-02-03 04:23:12,2025-02-03 04:25:39,147.213,,,,,,,
496,2025-02-03 05:57:56,2025-02-03 06:00:23,147.213,,,,,,,
497,2025-02-03 07:32:40,2025-02-03 07:35:08,147.215,,,,,,,
498,2025-02-03 09:07:25,2025-02-03 09:09:52,147.211,,,,,,,
499,2025-02-03 10:42:09,2025-02-03 10:44:36,147.21,,,,,,,
500,2025-02-03 12:16:54,2025-02-03 12:19:21,147.216,,,,,,,
501,2025-02-03 13:51:38,2025-02-03 13:54:05,147.212,,,,,,,
502,2025-02-03 15:26:22,2025-02-03 15:28:50,147.213,,,,,,,
503,2025-02-03 17:01:07,2025-02-03 17:03:34,147.214,,,,,,,
504,2025-02-03 18:35:51,2025-02-03 18:38:18,147.212,,,,,,,
505,2025-02-03 20:10:36,2025-02-03 20:13:03,147.211,,,,,,,
506,2025-02-03 21:45:20,2025-02-03 21:47:47,147.216,,,,,,,
507,2025-02-03 23:20:04,2025-02-03 23:22:32,147.214,,,,,,,
508,2025-02-04 00:54:49,2025-02-04 00:57:16,147.213,,,,,,,
509,2025-02-04 02:29:33,2025-02-04 02:32:00,147.212,,,,,,,
510,2025-02-04 04:04:17,2025-02-04 04:06:45,147.213,,,,,,,
511,2025-02-04 05:39:02,2025-02-04 05:41:29,147.213,,,,,,,
512,2025-02-04 07:13:46,2025-02-04 07:16:13,147.214,,,,,,,
513,2025-02-04 08:48:31,2025-02-04 08:50:58,147.209,,,,,,,
514,2025-02-04 10:23:15,2025-02-04 10:25:42,147.21,,,,,,,
515,2025-02-04 11:57:59,2025-02-04 12:00:27,147.209,,,,,,,
516,2025-02-04 13:32:44,2025-02-04 13:35:11,147.21,,,,,,,
517,2025-02-04 15:07:28,2025-02-04 15:09:55,147.214,,,,,,,
518,2025-02-04 16:42:13,2025-02-04 16:44:40,147.213,,,,,,,
519,2025-02-04 18:16:57,2025-02-04 18:19:24,147.214,,,,,,,
520,2025-02-04 19:51:41,2025-02-04 19:54:09,147.208,,,,,,,
521,2025-02-04 21:26:26,2025-02-04 21:28:53,147.214,,,,,,,
522,2025-02-04 23:01:10,2025-02-04 23:03:37,147.212,,,,,,,
523,2025-02-05 00:35:54,2025-02-05 00:38:22,147.216,,,,,,,
524,2025-02-05 02:10:39,2025-02-05 02:13:06,147.211,,,,,,,
525,2025-02-05 03:45:23,2025-02-05 03:47:50,147.213,,,,,,,
526,2025-02-05 05:20:08,2025-02-05 05:22:35,147.213,,,,,,,
527,2025-02-05 06:54:52,2025-02-05 06:57:19,147.213,,,,,,,
528,2025-02-05 08:29:36,2025-02-05 08:32:04,147.213,,,,,,,
529,2025-02-05 10:04:21,2025-02-05 10:06:48,147.211,,,,,,,
530,2025-02-05 11:39:05,2025-02-05 11:41:32,147.211,,,,,,,
531,2025-02-05 13:13:50,2025-02-05 13:16:17,147.211,,,,,,,
532,2025-02-05 14:48:34,2025-02-05 14:51:01,147.214,,,,,,,
533,2025-02-05 16:23:18,2025-02-05 16:25:46,147.212,,,,,,,
534,2025-02-05 17:58:03,2025-02-05 18:00:30,147.213,,,,,,,
535,2025-02-05 19:32:47,2025-02-05 19:35:14,147.212,,,,,,,
536,2025-02-05 21:07:32,2025-02-05 21:09:59,147.209,,,,,,,
537,2025-02-05 22:42:16,2025-02-05 22:44:43,147.216,,,,,,,
538,2025-02-06 00:17:00,2025-02-06 00:19:27,147.215,,,,,,,
539,2025-02-06 01:51:45,2025-02-06 01:54:12,147.21,,,,,,,
540,2025-02-06 03:26:29,2025-02-06 03:28:56,147.213,,,,,,,
541,2025-02-06 05:01:13,2025-02-06 05:03:41,147.213,,,,,,,
542,2025-02-06 06:35:58,2025-02-06 06:38:25,147.209,,,,,,,
543,2025-02-06 08:10:42,2025-02-06 08:13:09,147.212,,,,,,,
544,2025-02-06 09:45:27,2025-02-06 09:47:54,147.214,,,,,,,
545,2025-02-06 11:20:11,2025-02-06 11:22:38,147.212,,,,,,,
546,2025-02-06 12:54:55,2025-02-06 12:57:23,147.211,,,,,,,
547,2025-02-06 14:29:40,2025-02-06 14:32:07,147.211,,,,,,,
548,2025-02-06 16:04:24,2025-02-06 16:06:51,147.212,,,,,,,
549,2025-02-06 17:39:09,2025-02-06 17:41:36,147.212,,,,,,,
550,2025-02-06 19:13:53,2025-02-06 19:16:20,147.211,,,,,,,
551,2025-02-06 20:48:37,2025-02-06 20:51:04,147.207,,,,,,,
552,2025-02-06 22:23:22,2025-02-06 22:25:49,147.215,,,,,,,
553,2025-02-06 23:58:06,2025-02-07 00:00:33,147.214,,,,,,,
554,2025-02-07 01:32:50,2025-02-07 01:35:18,147.209,,,,,,,
555,2025-02-07 03:07:35,2025-02-07 03:10:02,147.213,,,,,,,
556,2025-02-07 04:42:19,2025-02-07 04:44:46,147.212,,,,,,,
557,2025-02-07 06:17:04,2025-02-07 06:19:31,147.208,,,,,,,
558,2025-02-07 07:51:48,2025-02-07 07:54:15,147.212,,,,,,,
559,2025-02-07 09:26:32,2025-02-07 09:29:00,147.214,,,,,,,
560,2025-02-07 11:01:17,2025-02-07 11:03:44,147.213,,,,,,,
561,2025-02-07 12:36:01,2025-02-07 12:38:28,147.208,,,,,,,
562,2025-02-07 14:10:46,2025-02-07 14:13:13,147.211,,,,,,,
563,2025-02-07 15:45:30,2025-02-07 15:47:57,147.211,,,,,,,
564,2025-02-07 17:20:14,2025-02-07 17:22:42,147.211,,,,,,,
565,2025-02-07 18:54:59,2025-02-07 18:57:26,147.211,,,,,,,
566,2025-02-07 20:29:43,2025-02-07 20:32:10,147.212,,,,,,,
567,2025-02-07 22:04:27,2025-02-07 22:06:55,147.208,,,,,,,
568,2025-02-07 23:39:12,2025-02-07 23:41:39,147.213,,,,,,,
569,2025-02-08 01:13:56,2025-02-08 01:16:23,147.212,,,,,,,
570,2025-02-08 02:48:41,2025-02-08 02:51:08,147.213,,,,,,,
571,2025-02-08 04:23:25,2025-02-08 04:25:52,147.21,,,,,,,
572,2025-02-08 05:58:09,2025-02-08 06:00:37,147.21,,,,,,,
573,2025-02-08 07:32:54,2025-02-08 07:35:21,147.212,,,,,,,
574,2025-02-08 09:07:38,2025-02-08 09:10:05,147.208,,,,,,,
575,2025-02-08 10:42:23,2025-02-08 10:44:50,147.208,,,,,,,
576,2025-02-08 12:17:07,2025-02-08 12:19:34,147.213,,,,,,,
577,2025-02-08 13:51:51,2025-02-08 13:54:19,147.21,,,,,,,
578,2025-02-08 15:26:36,2025-02-08 15:29:03,147.21,,,,,,,
579,2025-02-08 17:01:20,2025-02-08 17:03:47,147.211,,,,,,,
580,2025-02-08 18:36:04,2025-02-08 18:38:32,147.209,,,,,,,
581,2025-02-08 20:10:49,2025-02-08 20:13:16,147.208,,,,,,,
582,2025-02-08 21:45:33,2025-02-08 21:48:00,147.213,,,,,,,
583,2025-02-08 23:20:18,2025-02-08 23:22:45,147.211,,,,,,,
584,2025-02-09 00:55:02,2025-02-09 00:57:29,147.211,,,,,,,
585,2025-02-09 02:29:46,2025-02-09 02:32:14,147.209,,,,,,,
586,2025-02-09 04:04:31,2025-02-09 04:06:58,147.21,,,,,,,
587,2025-02-09 05:39:15,2025-02-09 05:41:42,147.21,,,,,,,
588,2025-02-09 07:14:00,2025-02-09 07:16:27,147.211,,,,,,,
589,2025-02-09 08:48:44,2025-02-09 08:51:11,147.206,,,,,,,
590,2025-02-09 10:23:28,2025-02-09 10:25:56,147.207,,,,,,,
591,2025-02-09 11:58:13,2025-02-09 12:00:40,147.206,,,,,,,
592,2025-02-09 13:32:57,2025-02-09 13:35:24,147.207,,,,,,,
593,2025-02-09 15:07:41,2025-02-09 15:10:09,147.212,,,,,,,
594,2025-02-09 16:42:26,2025-02-09 16:44:53,147.21,,,,,,,
595,2025-02-09 18:17:10,2025-02-09 18:19:37,147.212,,,,,,,
596,2025-02-09 19:51:55,2025-02-09 19:54:22,147.205,,,,,,,
597,2025-02-09 21:26:39,2025-02-09 21:29:06,147.211,,,,,,,
598,2025-02-09 23:01:23,2025-02-09 23:03:51,147.21,,,,,,,
599,2025-02-10 00:36:08,2025-02-10 00:38:35,147.214,,,,,,,
600,2025-02-10 02:10:52,2025-02-10 02:13:19,147.208,,,,,,,
601,2025-02-10 03:45:37,2025-02-10 03:48:04,147.211,,,,,,,
602,2025-02-10 05:20:21,2025-02-10 05:22:48,147.21,,,,,,,
603,2025-02-10 06:55:05,2025-02-10 06:57:33,147.209,,,,,,,
604,2025-02-10 08:29:50,2025-02-10 08:32:17,147.21,,,,,,,
605,2025-02-10 10:04:34,2025-02-10 10:07:01,147.209,,,,,,,
606,2025-02-10 11:39:19,2025-02-10 11:41:46,147.208,,,,,,,
607,2025-02-10 13:14:03,2025-02-10 13:16:30,147.209,,,,,,,
608,2025-02-10 14:48:47,2025-02-10 14:51:14,147.212,,,,,,,
609,2025-02-10 16:23:32,2025-02-10 16:25:59,147.21,,,,,,,
610,2025-02-10 17:58:16,2025-02-10 18:00:43,147.211,,,,,,,
611,2025-02-10 19:33:00,2025-02-10 19:35:28,147.21,,,,,,,
612,2025-02-10 21:07:45,2025-02-10 21:10:12,147.207,,,,,,,
613,2025-02-10 22:42:29,2025-02-10 22:44:56,147.214,,,,,,,
614,2025-02-11 00:17:14,2025-02-11 00:19:41,147.213,,,,,,,
615,2025-02-11 01:51:58,2025-02-11 01:54:25,147.208,,,,,,,
616,2025-02-11 03:26:42,2025-02-11 03:29:10,147.211,,,,,,,
617,2025-02-11 05:01:27,2025-02-11 05:03:54,147.211,,,,,,,
618,2025-02-11 06:36:11,2025-02-11 06:38:38,147.207,,,,,,,
619,2025-02-11 08:10:56,2025-02-11 08:13:23,147.21,,,,,,,
620,2025-02-11 09:45:40,2025-02-11 09:48:07,147.212,,,,,,,
621,2025-02-11 11:20:24,2025-02-11 11:22:51,147.21,,,,,,,
622,2025-02-11 12:55:09,2025-02-11 12:57:36,147.209,,,,,,,
623,2025-02-11 14:29:53,2025-02-11 14:32:20,147.209,,,,,,,
624,2025-02-11 16:04:37,2025-02-11 16:07:05,147.21,,,,,,,
625,2025-02-11 17:39:22,2025-02-11 17:41:49,147.21,,,,,,,
626,2025-02-11 19:14:06,2025-02-11 19:16:33,147.21,,,,,,,
627,2025-02-11 20:48:51,2025-02-11 20:51:18,147.205,,,,,,,
628,2025-02-11 22:23:35,2025-02-11 22:26:02,147.213,,,,,,,
629,2025-02-11 23:58:19,2025-02-12 00:00:47,147.212,,,,,,,
630,2025-02-12 01:33:04,2025-02-12 01:35:31,147.207,,,,,,,
631,2025-02-12 03:07:48,2025-02-12 03:10:15,147.211,,,,,,,
632,2025-02-12 04:42:33,2025-02-12 04:45:00,147.211,,,,,,,
633,2025-02-12 06:17:17,2025-02-12 06:19:44,147.207,,,,,,,
634,2025-02-12 07:52:01,2025-02-12 07:54:29,147.21,,,,,,,
635,2025-02-12 09:26:46,2025-02-12 09:29:13,147.212,,,,,,,
636,2025-02-12 11:01:30,2025-02-12 11:03:57,147.212,,,,,,,
637,2025-02-12 12:36:14,2025-02-12 12:38:42,147.207,,,,,,,
638,2025-02-12 14:10:59,2025-02-12 14:13:26,147.209,,,,,,,
639,2025-02-12 15:45:43,2025-02-12 15:48:10,147.21,,,,,,,
640,2025-02-12 17:20:28,2025-02-12 17:22:55,147.21,,,,,,,
641,2025-02-12 18:55:12,2025-02-12 18:57:39,147.205,,,,,,,
642,2025-02-12 20:29:56,2025-02-12 20:32:24,147.21,,,,,,,
643,2025-02-12 22:04:41,2025-02-12 22:07:08,147.207,,,,,,,
644,2025-02-12 23:39:25,2025-02-12 23:41:52,147.212,,,,,,,
645,2025-02-13 01:14:10,2025-02-13 01:16:37,147.21,,,,,,,
646,2025-02-13 02:48:54,2025-02-13 02:51:21,147.212,,,,,,,
647,2025-02-13 04:23:38,2025-02-13 04:26:06,147.209,,,,,,,
648,2025-02-13 05:58:23,2025-02-13 06:00:50,147.209,,,,,,,
649,2025-02-13 07:33:07,2025-02-13 07:35:34,147.211,,,,,,,
650,2025-02-13 09:07:51,2025-02-13 09:10:19,147.207,,,,,,,
651,2025-02-13 10:42:36,2025-02-13 10:45:03,147.207,,,,,,,
652,2025-02-13 12:17:20,2025-02-13 12:19:47,147.212,,,,,,,
653,2025-02-13 13:52:05,2025-02-13 13:54:32,147.208,,,,,,,
654,2025-02-13 15:26:49,2025-02-13 15:29:16,147.209,,,,,,,
655,2025-02-13 17:01:33,2025-02-13 17:04:01,147.21,,,,,,,
656,2025-02-13 18:36:18,2025-02-13 18:38:45,147.208,,,,,,,
657,2025-02-13 20:11:02,2025-02-13 20:13:29,147.207,,,,,,,
658,2025-02-13 21:45:47,2025-02-13 21:48:14,147.212,,,,,,,
659,2025-02-13 23:20:31,2025-02-13 23:22:58,147.21,,,,,,,
660,2025-02-14 00:55:15,2025-02-14 00:57:43,147.21,,,,,,,
661,2025-02-14 02:30:00,2025-02-14 02:32:27,147.208,,,,,,,
662,2025-02-14 04:04:44,2025-02-14 04:07:11,147.209,,,,,,,
663,2025-02-14 05:39:28,2025-02-14 05:41:56,147.209,,,,,,,
664,2025-02-14 07:14:13,2025-02-14 07:16:40,147.21,,,,,,,
665,2025-02-14 08:48:57,2025-02-14 08:51:24,147.205,,,,,,,
666,2025-02-14 10:23:42,2025-02-14 10:26:09,147.206,,,,,,,
667,2025-02-14 11:58:26,2025-02-14 12:00:53,147.206,,,,,,,
668,2025-02-14 13:33:10,2025-02-14 13:35:38,147.206,,,,,,,
669,2025-02-14 15:07:55,2025-02-14 15:10:22,147.211,,,,,,,
670,2025-02-14 16:42:39,2025-02-14 16:45:06,147.209,,,,,,,
671,2025-02-14 18:17:24,2025-02-14 18:19:51,147.211,,,,,,,
672,2025-02-14 19:52:08,2025-02-14 19:54:35,147.205,,,,,,,
673,2025-02-14 21:26:52,2025-02-14 21:29:20,147.21,,,,,,,
674,2025-02-14 23:01:37,2025-02-14 23:04:04,147.209,,,,,,,
675,2025-02-15 00:36:21,2025-02-15 00:38:48,147.213,,,,,,,
676,2025-02-15 02:11:06,2025-02-15 02:13:33,147.207,,,,,,,
677,2025-02-15 03:45:50,2025-02-15 03:48:17,147.21,,,,,,,
678,2025-02-15 05:20:34,2025-02-15 05:23:01,147.21,,,,,,,
679,2025-02-15 06:55:19,2025-02-15 06:57:46,147.206,,,,,,,
680,2025-02-15 08:30:03,2025-02-15 08:32:30,147.209,,,,,,,
681,2025-02-15 10:04:47,2025-02-15 10:07:15,147.208,,,,,,,
682,2025-02-15 11:39:32,2025-02-15 11:41:59,147.208,,,,,,,
683,2025-02-15 13:14:16,2025-02-15 13:16:43,147.208,,,,,,,
684,2025-02-15 14:49:01,2025-02-15 14:51:28,147.211,,,,,,,
685,2025-02-15 16:23:45,2025-02-15 16:26:12,147.209,,,,,,,
686,2025-02-15 17:58:29,2025-02-15 18:00:57,147.21,,,,,,,
687,2025-02-15 19:33:14,2025-02-15 19:35:41,147.209,,,,,,,
688,2025-02-15 21:07:58,2025-02-15 21:10:25,147.206,,,,,,,
689,2025-02-15 22:42:43,2025-02-15 22:45:10,147.213,,,,,,,
690,2025-02-16 00:17:27,2025-02-16 00:19:54,147.212,,,,,,,
691,2025-02-16 01:52:11,2025-02-16 01:54:39,147.207,,,,,,,
692,2025-02-16 03:26:56,2025-02-16 03:29:23,147.21,,,,,,,
693,2025-02-16 05:01:40,2025-02-16 05:04:07,147.21,,,,,,,
694,2025-02-16 06:36:24,2025-02-16 06:38:52,147.207,,,,,,,
695,2025-02-16 08:11:09,2025-02-16 08:13:36,147.209,,,,,,,
696,2025-02-16 09:45:53,2025-02-16 09:48:20,147.211,,,,,,,
697,2025-02-16 11:20:38,2025-02-16 11:23:05,147.209,,,,,,,
698,2025-02-16 12:55:22,2025-02-16 12:57:49,147.209,,,,,,,
699,2025-02-16 14:30:06,2025-02-16 14:32:34,147.208,,,,,,,
700,2025-02-16 16:04:51,2025-02-16 16:07:18,147.209,,,,,,,
701,2025-02-16 17:39:35,2025-02-16 17:42:02,147.21,,,,,,,
702,2025-02-16 19:14:20,2025-02-16 19:16:47,147.209,,,,,,,
703,2025-02-16 20:49:04,2025-02-16 20:51:31,147.204,,,,,,,
704,2025-02-16 22:23:48,2025-02-16 22:26:16,147.212,,,,,,,
705,2025-02-16 23:58:33,2025-02-17 00:01:00,147.211,,,,,,,
706,2025-02-17 01:33:17,2025-02-17 01:35:44,147.207,,,,,,,
707,2025-02-17 03:08:01,2025-02-17 03:10:29,147.21,,,,,,,
708,2025-02-17 04:42:46,2025-02-17 04:45:13,147.21,,,,,,,
709,2025-02-17 06:17:30,2025-02-17 06:19:57,147.206,,,,,,,
710,2025-02-17 07:52:15,2025-02-17 07:54:42,147.209,,,,,,,
711,2025-02-17 09:26:59,2025-02-17 09:29:26,147.211,,,,,,,
712,2025-02-17 11:01:43,2025-02-17 11:04:11,147.211,,,,,,,
713,2025-02-17 12:36:28,2025-02-17 12:38:55,147.206,,,,,,,
714,2025-02-17 14:11:12,2025-02-17 14:13:39,147.208,,,,,,,
715,2025-02-17 15:45:57,2025-02-17 15:48:24,147.209,,,,,,,
716,2025-02-17 17:20:41,2025-02-17 17:23:08,147.209,,,,,,,
717,2025-02-17 18:55:25,2025-02-17 18:57:53,147.204,,,,,,,
718,2025-02-17 20:30:10,2025-02-17 20:32:37,147.209,,,,,,,
719,2025-02-17 22:04:54,2025-02-17 22:07:21,147.206,,,,,,,
720,2025-02-17 23:39:38,2025-02-17 23:42:06,147.211,,,,,,,
721,2025-02-18 01:14:23,2025-02-18 01:16:50,147.209,,,,,,,
722,2025-02-18 02:49:07,2025-02-18 02:51:34,147.21,,,,,,,
723,2025-02-18 04:23:52,2025-02-18 04:26:19,147.208,,,,,,,
724,2025-02-18 05:58:36,2025-02-18 06:01:03,147.208,,,,,,,
725,2025-02-18 07:33:20,2025-02-18 07:35:48,147.21,,,,,,,
726,2025-02-18 09:08:05,2025-02-18 09:10:32,147.206,,,,,,,
727,2025-02-18 10:42:49,2025-02-18 10:45:16,147.205,,,,,,,
728,2025-02-18 12:17:34,2025-02-18 12:20:01,147.211,,,,,,,
729,2025-02-18 13:52:18,2025-02-18 13:54:45,147.207,,,,,,,
730,2025-02-18 15:27:02,2025-02-18 15:29:30,147.208,,,,,,,
731,2025-02-18 17:01:47,2025-02-18 17:04:14,147.209,,,,,,,
732,2025-02-18 18:36:31,2025-02-18 18:38:58,147.207,,,,,,,
733,2025-02-18 20:11:15,2025-02-18 20:13:43,147.206,,,,,,,
734,2025-02-18 21:46:00,2025-02-18 21:48:27,147.211,,,,,,,
735,2025-02-18 23:20:44,2025-02-18 23:23:11,147.208,,,,,,,
736,2025-02-19 00:55:29,2025-02-19 00:57:56,147.208,,,,,,,
737,2025-02-19 02:30:13,2025-02-19 02:32:40,147.207,,,,,,,
738,2025-02-19 04:04:57,2025-02-19 04:07:25,147.208,,,,,,,
739,2025-02-19 05:39:42,2025-02-19 05:42:09,147.208,,,,,,,
740,2025-02-19 07:14:26,2025-02-19 07:16:53,147.208,,,,,,,
741,2025-02-19 08:49:11,2025-02-19 08:51:38,147.203,,,,,,,
742,2025-02-19 10:23:55,2025-02-19 10:26:22,147.204,,,,,,,
743,2025-02-19 11:58:39,2025-02-19 12:01:07,147.204,,,,,,,
744,2025-02-19 13:33:24,2025-02-19 13:35:51,147.204,,,,,,,
745,2025-02-19 15:08:08,2025-02-19 15:10:35,147.209,,,,,,,
746,2025-02-19 16:42:53,2025-02-19 16:45:20,147.207,,,,,,,
747,2025-02-19 18:17:37,2025-02-19 18:20:04,147.209,,,,,,,
748,2025-02-19 19:52:21,2025-02-19 19:54:48,147.203,,,,,,,
749,2025-02-19 21:27:06,2025-02-19 21:29:33,147.208,,,,,,,
750,2025-02-19 23:01:50,2025-02-19 23:04:17,147.207,,,,,,,
751,2025-02-20 00:36:34,2025-02-20 00:39:02,147.211,,,,,,,
752,2025-02-20 02:11:19,2025-02-20 02:13:46,147.206,,,,,,,
753,2025-02-20 03:46:03,2025-02-20 03:48:30,147.208,,,,,,,
754,2025-02-20 05:20:48,2025-02-20 05:23:15,147.208,,,,,,,
755,2025-02-20 06:55:32,2025-02-20 06:57:59,147.204,,,,,,,
756,2025-02-20 08:30:16,2025-02-20 08:32:44,147.207,,,,,,,
757,2025-02-20 10:05:01,2025-02-20 10:07:28,147.206,,,,,,,
758,2025-02-20 11:39:45,2025-02-20 11:42:12,147.206,,,,,,,
759,2025-02-20 13:14:30,2025-02-20 13:16:57,147.206,,,,,,,
760,2025-02-20 14:49:14,2025-02-20 14:51:41,147.209,,,,,,,
761,2025-02-20 16:23:58,2025-02-20 16:26:26,147.207,,,,,,,
762,2025-02-20 17:58:43,2025-02-20 18:01:10,147.208,,,,,,,
763,2025-02-20 19:33:27,2025-02-20 19:35:54,147.207,,,,,,,
764,2025-02-20 21:08:11,2025-02-20 21:10:39,147.204,,,,,,,
765,2025-02-20 22:42:56,2025-02-20 22:45:23,147.211,,,,,,,
766,2025-02-21 00:17:40,2025-02-21 00:20:07,147.21,,,,,,,
767,2025-02-21 01:52:25,2025-02-21 01:54:52,147.205,,,,,,,
768,2025-02-21 03:27:09,2025-02-21 03:29:36,147.208,,,,,,,
769,2025-02-21 05:01:53,2025-02-21 05:04:21,147.207,,,,,,,
770,2025-02-21 06:36:38,2025-02-21 06:39:05,147.204,,,,,,,
771,2025-02-21 08:11:22,2025-02-21 08:13:49,147.207,,,,,,,
772,2025-02-21 09:46:07,2025-02-21 09:48:34,147.208,,,,,,,
773,2025-02-21 11:20:51,2025-02-21 11:23:18,147.207,,,,,,,
774,2025-02-21 12:55:35,2025-02-21 12:58:03,147.206,,,,,,,
775,2025-02-21 14:30:20,2025-02-21 14:32:47,147.206,,,,,,,
776,2025-02-21 16:05:04,2025-02-21 16:07:31,147.206,,,,,,,
777,2025-02-21 17:39:48,2025-02-21 17:42:16,147.207,,,,,,,
778,2025-02-21 19:14:33,2025-02-21 19:17:00,147.206,,,,,,,
779,2025-02-21 20:49:17,2025-02-21 20:51:44,147.202,,,,,,,
780,2025-02-21 22:24:02,2025-02-21 22:26:29,147.21,,,,,,,
781,2025-02-21 23:58:46,2025-02-22 00:01:13,147.209,,,,,,,
782,2025-02-22 01:33:30,2025-02-22 01:35:58,147.204,,,,,,,
783,2025-02-22 03:08:15,2025-02-22 03:10:42,147.207,,,,,,,
784,2025-02-22 04:42:59,2025-02-22 04:45:26,147.207,,,,,,,
785,2025-02-22 06:17:44,2025-02-22 06:20:11,147.203,,,,,,,
786,2025-02-22 07:52:28,2025-02-22 07:54:55,147.207,,,,,,,
787,2025-02-22 09:27:12,2025-02-22 09:29:40,147.208,,,,,,,
788,2025-02-22 11:01:57,2025-02-22 11:04:24,147.208,,,,,,,
789,2025-02-22 12:36:41,2025-02-22 12:39:08,147.203,,,,,,,
790,2025-02-22 14:11:25,2025-02-22 14:13:53,147.205,,,,,,,
791,2025-02-22 15:46:10,2025-02-22 15:48:37,147.206,,,,,,,
792,2025-02-22 17:20:54,2025-02-22 17:23:21,147.206,,,,,,,
793,2025-02-22 18:55:39,2025-02-22 18:58:06,147.201,,,,,,,
794,2025-02-22 20:30:23,2025-02-22 20:32:50,147.206,,,,,,,
795,2025-02-22 22:05:07,2025-02-22 22:07:35,147.203,,,,,,,
796,2025-02-22 23:39:52,2025-02-22 23:42:19,147.208,,,,,,,
797,2025-02-23 01:14:36,2025-02-23 01:17:03,147.206,,,,,,,
798,2025-02-23 02:49:21,2025-02-23 02:51:48,147.208,,,,,,,
799,2025-02-23 04:24:05,2025-02-23 04:26:32,147.205,,,,,,,
800,2025-02-23 05:58:49,2025-02-23 06:01:17,147.205,,,,,,,
801,2025-02-23 07:33:34,2025-02-23 07:36:01,147.204,,,,,,,
802,2025-02-23 09:08:18,2025-02-23 09:10:45,147.203,,,,,,,
803,2025-02-23 10:43:03,2025-02-23 10:45:30,147.202,,,,,,,
804,2025-02-23 12:17:47,2025-02-23 12:20:14,147.208,,,,,,,
805,2025-02-23 13:52:31,2025-02-23 13:54:58,147.204,,,,,,,
806,2025-02-23 15:27:16,2025-02-23 15:29:43,147.205,,,,,,,
807,2025-02-23 17:02:00,2025-02-23 17:04:27,147.206,,,,,,,
808,2025-02-23 18:36:44,2025-02-23 18:39:12,147.204,,,,,,,
809,2025-02-23 20:11:29,2025-02-23 20:13:56,147.203,,,,,,,
810,2025-02-23 21:46:13,2025-02-23 21:48:40,147.208,,,,,,,
811,2025-02-23 23:20:58,2025-02-23 23:23:25,147.205,,,,,,,
812,2025-02-24 00:55:42,2025-02-24 00:58:09,147.205,,,,,,,
813,2025-02-24 02:30:26,2025-02-24 02:32:54,147.204,,,,,,,
814,2025-02-24 04:05:11,2025-02-24 04:07:38,147.205,,,,,,,
815,2025-02-24 05:39:55,2025-02-24 05:42:22,147.205,,,,,,,
816,2025-02-24 07:14:40,2025-02-24 07:17:07,147.205,,,,,,,
817,2025-02-24 08:49:24,2025-02-24 08:51:51,147.201,,,,,,,
818,2025-02-24 10:24:08,2025-02-24 10:26:35,147.201,,,,,,,
819,2025-02-24 11:58:53,2025-02-24 12:01:20,147.201,,,,,,,
820,2025-02-24 13:33:37,2025-02-24 13:36:04,147.201,,,,,,,
821,2025-02-24 15:08:21,2025-02-24 15:10:49,147.206,,,,,,,
822,2025-02-24 16:43:06,2025-02-24 16:45:33,147.204,,,,,,,
823,2025-02-24 18:17:50,2025-02-24 18:20:17,147.206,,,,,,,
824,2025-02-24 19:52:35,2025-02-24 19:55:02,147.2,,,,,,,
825,2025-02-24 21:27:19,2025-02-24 21:29:46,147.206,,,,,,,
826,2025-02-24 23:02:03,2025-02-24 23:04:31,147.204,,,,,,,
827,2025-02-25 00:36:48,2025-02-25 00:39:15,147.208,,,,,,,
828,2025-02-25 02:11:32,2025-02-25 02:13:59,147.203,,,,,,,
829,2025-02-25 03:46:17,2025-02-25 03:48:44,147.205,,,,,,,
830,2025-02-25 05:21:01,2025-02-25 05:23:28,147.205,,,,,,,
831,2025-02-25 06:55:45,2025-02-25 06:58:13,147.201,,,,,,,
832,2025-02-25 08:30:30,2025-02-25 08:32:57,147.205,,,,,,,
833,2025-02-25 10:05:14,2025-02-25 10:07:41,147.203,,,,,,,
834,2025-02-25 11:39:58,2025-02-25 11:42:26,147.203,,,,,,,
835,2025-02-25 13:14:43,2025-02-25 13:17:10,147.203,,,,,,,
836,2025-02-25 14:49:27,2025-02-25 14:51:54,147.206,,,,,,,
837,2025-02-25 16:24:12,2025-02-25 16:26:39,147.204,,,,,,,
838,2025-02-25 17:58:56,2025-02-25 18:01:23,147.205,,,,,,,
839,2025-02-25 19:33:40,2025-02-25 19:36:08,147.204,,,,,,,
840,2025-02-25 21:08:25,2025-02-25 21:10:52,147.201,,,,,,,
841,2025-02-25 22:43:09,2025-02-25 22:45:36,147.208,,,,,,,
842,2025-02-26 00:17:54,2025-02-26 00:20:21,147.207,,,,,,,
843,2025-02-26 01:52:38,2025-02-26 01:55:05,147.202,,,,,,,
844,2025-02-26 03:27:22,2025-02-26 03:29:50,147.205,,,,,,,
845,2025-02-26 05:02:07,2025-02-26 05:04:34,147.205,,,,,,,
846,2025-02-26 06:36:51,2025-02-26 06:39:18,147.202,,,,,,,
847,2025-02-26 08:11:35,2025-02-26 08:14:03,147.205,,,,,,,
848,2025-02-26 09:46:20,2025-02-26 09:48:47,147.206,,,,,,,
849,2025-02-26 11:21:04,2025-02-26 11:23:31,147.204,,,,,,,
850,2025-02-26 12:55:49,2025-02-26 12:58:16,147.204,,,,,,,
851,2025-02-26 14:30:33,2025-02-26 14:33:00,147.203,,,,,,,
852,2025-02-26 16:05:17,2025-02-26 16:07:45,147.204,,,,,,,
853,2025-02-26 17:40:02,2025-02-26 17:42:29,147.205,,,,,,,
854,2025-02-26 19:14:46,2025-02-26 19:17:13,147.204,,,,,,,
855,2025-02-26 20:49:31,2025-02-26 20:51:58,147.199,,,,,,,
856,2025-02-26 22:24:15,2025-02-26 22:26:42,147.208,,,,,,,
857,2025-02-26 23:58:59,2025-02-27 00:01:27,147.206,,,,,,,
858,2025-02-27 01:33:44,2025-02-27 01:36:11,147.202,,,,,,,
859,2025-02-27 03:08:28,2025-02-27 03:10:55,147.205,,,,,,,
860,2025-02-27 04:43:12,2025-02-27 04:45:40,147.205,,,,,,,
861,2025-02-27 06:17:57,2025-02-27 06:20:24,147.201,,,,,,,
862,2025-02-27 07:52:41,2025-02-27 07:55:08,147.205,,,,,,,
863,2025-02-27 09:27:26,2025-02-27 09:29:53,147.206,,,,,,,
864,2025-02-27 11:02:10,2025-02-27 11:04:37,147.206,,,,,,,
865,2025-02-27 12:36:54,2025-02-27 12:39:22,147.201,,,,,,,
866,2025-02-27 14:11:39,2025-02-27 14:14:06,147.204,,,,,,,
867,2025-02-27 15:46:23,2025-02-27 15:48:50,147.204,,,,,,,
868,2025-02-27 17:21:08,2025-02-27 17:23:35,147.204,,,,,,,
869,2025-02-27 18:55:52,2025-02-27 18:58:19,147.199,,,,,,,
870,2025-02-27 20:30:36,2025-02-27 20:33:04,147.204,,,,,,,
871,2025-02-27 22:05:21,2025-02-27 22:07:48,147.201,,,,,,,
872,2025-02-27 23:40:05,2025-02-27 23:42:32,147.206,,,,,,,
873,2025-02-28 01:14:50,2025-02-28 01:17:17,147.204,,,,,,,
874,2025-02-28 02:49:34,2025-02-28 02:52:01,147.206,,,,,,,
875,2025-02-28 04:24:18,2025-02-28 04:26:45,147.203,,,,,,,
876,2025-02-28 05:59:03,2025-02-28 06:01:30,147.203,,,,,,,
877,2025-02-28 07:33:47,2025-02-28 07:36:14,147.203,,,,,,,
878,2025-02-28 09:08:31,2025-02-28 09:10:59,147.201,,,,,,,
879,2025-02-28 10:43:16,2025-02-28 10:45:43,147.201,,,,,,,
880,2025-02-28 12:18:00,2025-02-28 12:20:27,147.206,,,,,,,
881,2025-02-28 13:52:45,2025-02-28 13:55:12,147.203,,,,,,,
882,2025-02-28 15:27:29,2025-02-28 15:29:56,147.203,,,,,,,
883,2025-02-28 17:02:13,2025-02-28 17:04:41,147.205,,,,,,,
884,2025-02-28 18:36:58,2025-02-28 18:39:25,147.202,,,,,,,
885,2025-02-28 20:11:42,2025-02-28 20:14:09,147.201,,,,,,,
886,2025-02-28 21:46:27,2025-02-28 21:48:54,147.206,,,,,,,
887,2025-02-28 23:21:11,2025-02-28 23:23:38,147.204,,,,,,,
888,2025-03-01 00:55:55,2025-03-01 00:58:22,147.204,,,,,,,
889,2025-03-01 02:30:40,2025-03-01 02:33:07,147.202,,,,,,,
890,2025-03-01 04:05:24,2025-03-01 04:07:51,147.203,,,,,,,
891,2025-03-01 05:40:08,2025-03-01 05:42:36,147.203,,,,,,,
892,2025-03-01 07:14:53,2025-03-01 07:17:20,147.204,,,,,,,
893,2025-03-01 08:49:37,2025-03-01 08:52:04,147.199,,,,,,,
894,2025-03-01 10:24:22,2025-03-01 10:26:49,147.2,,,,,,,
895,2025-03-01 11:59:06,2025-03-01 12:01:33,147.2,,,,,,,
896,2025-03-01 13:33:50,2025-03-01 13:36:18,147.2,,,,,,,
897,2025-03-01 15:08:35,2025-03-01 15:11:02,147.205,,,,,,,
898,2025-03-01 16:43:19,2025-03-01 16:45:46,147.203,,,,,,,
899,2025-03-01 18:18:04,2025-03-01 18:20:31,147.205,,,,,,,
900,2025-03-01 19:52:48,2025-03-01 19:55:15,147.199,,,,,,,
901,2025-03-01 21:27:32,2025-03-01 21:30:00,147.204,,,,,,,
902,2025-03-01 23:02:17,2025-03-01 23:04:44,147.203,,,,,,,
903,2025-03-02 00:37:01,2025-03-02 00:39:28,147.207,,,,,,,
904,2025-03-02 02:11:45,2025-03-02 02:14:13,147.202,,,,,,,
905,2025-03-02 03:46:30,2025-03-02 03:48:57,147.204,,,,,,,
906,2025-03-02 05:21:14,2025-03-02 05:23:41,147.204,,,,,,,
907,2025-03-02 06:55:59,2025-03-02 06:58:26,147.2,,,,,,,
908,2025-03-02 08:30:43,2025-03-02 08:33:10,147.204,,,,,,,
909,2025-03-02 10:05:27,2025-03-02 10:07:55,147.202,,,,,,,
910,2025-03-02 11:40:12,2025-03-02 11:42:39,147.202,,,,,,,
911,2025-03-02 13:14:56,2025-03-02 13:17:23,147.202,,,,,,,
912,2025-03-02 14:49:41,2025-03-02 14:52:08,147.205,,,,,,,
913,2025-03-02 16:24:25,2025-03-02 16:26:52,147.203,,,,,,,
914,2025-03-02 17:59:09,2025-03-02 18:01:37,147.204,,,,,,,
915,2025-03-02 19:33:54,2025-03-02 19:36:21,147.203,,,,,,,
916,2025-03-02 21:08:38,2025-03-02 21:11:05,147.2,,,,,,,
917,2025-03-02 22:43:22,2025-03-02 22:45:50,147.207,,,,,,,
918,2025-03-03 00:18:07,2025-03-03 00:20:34,147.206,,,,,,,
919,2025-03-03 01:52:51,2025-03-03 01:55:18,147.201,,,,,,,
920,2025-03-03 03:27:36,2025-03-03 03:30:03,147.204,,,,,,,
921,2025-03-03 05:02:20,2025-03-03 05:04:47,147.204,,,,,,,
922,2025-03-03 06:37:04,2025-03-03 06:39:32,147.2,,,,,,,
923,2025-03-03 08:11:49,2025-03-03 08:14:16,147.203,,,,,,,
924,2025-03-03 09:46:33,2025-03-03 09:49:00,147.205,,,,,,,
925,2025-03-03 11:21:18,2025-03-03 11:23:45,147.203,,,,,,,
926,2025-03-03 12:56:02,2025-03-03 12:58:29,147.202,,,,,,,
927,2025-03-03 14:30:46,2025-03-03 14:33:14,147.202,,,,,,,
928,2025-03-03 16:05:31,2025-03-03 16:07:58,147.203,,,,,,,
929,2025-03-03 17:40:15,2025-03-03 17:42:42,147.203,,,,,,,
930,2025-03-03 19:15:00,2025-03-03 19:17:27,147.202,,,,,,,
931,2025-03-03 20:49:44,2025-03-03 20:52:11,147.198,,,,,,,
932,2025-03-03 22:24:28,2025-03-03 22:26:55,147.206,,,,,,,
933,2025-03-03 23:59:13,2025-03-04 00:01:40,147.205,,,,,,,
934,2025-03-04 01:33:57,2025-03-04 01:36:24,147.2,,,,,,,
935,2025-03-04 03:08:41,2025-03-04 03:11:09,147.204,,,,,,,
936,2025-03-04 04:43:26,2025-03-04 04:45:53,147.203,,,,,,,
937,2025-03-04 06:18:10,2025-03-04 06:20:37,147.199,,,,,,,
938,2025-03-04 07:52:55,2025-03-04 07:55:22,147.203,,,,,,,
939,2025-03-04 09:27:39,2025-03-04 09:30:06,147.205,,,,,,,
940,2025-03-04 11:02:23,2025-03-04 11:04:51,147.204,,,,,,,
941,2025-03-04 12:37:08,2025-03-04 12:39:35,147.199,,,,,,,
942,2025-03-04 14:11:52,2025-03-04 14:14:19,147.202,,,,,,,
943,2025-03-04 15:46:37,2025-03-04 15:49:04,147.202,,,,,,,
944,2025-03-04 17:21:21,2025-03-04 17:23:48,147.202,,,,,,,
945,2025-03-04 18:56:05,2025-03-04 18:58:32,147.198,,,,,,,
946,2025-03-04 20:30:50,2025-03-04 20:33:17,147.203,,,,,,,
947,2025-03-04 22:05:34,2025-03-04 22:08:01,147.199,,,,,,,
948,2025-03-04 23:40:18,2025-03-04 23:42:46,147.204,,,,,,,
949,2025-03-05 01:15:03,2025-03-05 01:17:30,147.202,,,,,,,
950,2025-03-05 02:49:47,2025-03-05 02:52:14,147.204,,,,,,,
951,2025-03-05 04:24:32,2025-03-05 04:26:59,147.201,,,,,,,
952,2025-03-05 05:59:16,2025-03-05 06:01:43,147.201,,,,,,,
953,2025-03-05 07:34:00,2025-03-05 07:36:28,147.201,,,,,,,
954,2025-03-05 09:08:45,2025-03-05 09:11:12,147.199,,,,,,,
955,2025-03-05 10:43:29,2025-03-05 10:45:56,147.198,,,,,,,
956,2025-03-05 12:18:14,2025-03-05 12:20:41,147.204,,,,,,,
957,2025-03-05 13:52:58,2025-03-05 13:55:25,147.2,,,,,,,
958,2025-03-05 15:27:42,2025-03-05 15:30:10,147.201,,,,,,,
959,2025-03-05 17:02:27,2025-03-05 17:04:54,147.202,,,,,,,
960,2025-03-05 18:37:11,2025-03-05 18:39:38,147.2,,,,,,,
961,2025-03-05 20:11:55,2025-03-05 20:14:23,147.199,,,,,,,
962,2025-03-05 21:46:40,2025-03-05 21:49:07,147.204,,,,,,,
963,2025-03-05 23:21:24,2025-03-05 23:23:51,147.201,,,,,,,
964,2025-03-06 00:56:09,2025-03-06 00:58:36,147.201,,,,,,,
965,2025-03-06 02:30:53,2025-03-06 02:33:20,147.2,,,,,,,
966,2025-03-06 04:05:37,2025-03-06 04:08:05,147.201,,,,,,,
967,2025-03-06 05:40:22,2025-03-06 05:42:49,147.201,,,,,,,
968,2025-03-06 07:15:06,2025-03-06 07:17:33,147.201,,,,,,,
969,2025-03-06 08:49:51,2025-03-06 08:52:18,147.197,,,,,,,
970,2025-03-06 10:24:35,2025-03-06 10:27:02,147.197,,,,,,,
971,2025-03-06 11:59:19,2025-03-06 12:01:47,147.197,,,,,,,
972,2025-03-06 13:34:04,2025-03-06 13:36:31,147.197,,,,,,,
973,2025-03-06 15:08:48,2025-03-06 15:11:15,147.202,,,,,,,
974,2025-03-06 16:43:32,2025-03-06 16:46:00,147.2,,,,,,,
975,2025-03-06 18:18:17,2025-03-06 18:20:44,147.202,,,,,,,
976,2025-03-06 19:53:01,2025-03-06 19:55:28,147.196,,,,,,,
977,2025-03-06 21:27:46,2025-03-06 21:30:13,147.201,,,,,,,
978,2025-03-06 23:02:30,2025-03-06 23:04:57,147.2,,,,,,,
979,2025-03-07 00:37:14,2025-03-07 00:39:42,147.204,,,,,,,
980,2025-03-07 02:11:59,2025-03-07 02:14:26,147.198,,,,,,,
981,2025-03-07 03:46:43,2025-03-07 03:49:10,147.201,,,,,,,
982,2025-03-07 05:21:28,2025-03-07 05:23:55,147.2,,,,,,,
983,2025-03-07 06:56:12,2025-03-07 06:58:39,147.197,,,,,,,
984,2025-03-07 08:30:56,2025-03-07 08:33:24,147.2,,,,,,,
985,2025-03-07 10:05:41,2025-03-07 10:08:08,147.199,,,,,,,
986,2025-03-07 11:40:25,2025-03-07 11:42:52,147.198,,,,,,,
987,2025-03-07 13:15:09,2025-03-07 13:17:37,147.198,,,,,,,
988,2025-03-07 14:49:54,2025-03-07 14:52:21,147.202,,,,,,,
989,2025-03-07 16:24:38,2025-03-07 16:27:05,147.2,,,,,,,
990,2025-03-07 17:59:23,2025-03-07 18:01:50,147.201,,,,,,,
991,2025-03-07 19:34:07,2025-03-07 19:36:34,147.2,,,,,,,
992,2025-03-07 21:08:51,2025-03-07 21:11:19,147.197,,,,,,,
993,2025-03-07 22:43:36,2025-03-07 22:46:03,147.204,,,,,,,
994,2025-03-08 00:18:20,2025-03-08 00:20:47,147.203,,,,,,,
995,2025-03-08 01:53:05,2025-03-08 01:55:32,147.198,,,,,,,
996,2025-03-08 03:27:49,2025-03-08 03:30:16,147.2,,,,,,,
997,2025-03-08 05:02:33,2025-03-08 05:05:01,147.2,,,,,,,
998,2025-03-08 06:37:18,2025-03-08 06:39:45,147.197,,,,,,,
999,2025-03-08 08:12:02,2025-03-08 08:14:29,147.2,,,,,,,
1000,2025-03-08 09:46:47,2025-03-08 09:49:14,147.201,,,,,,,
1001,2025-03-08 11:21:31,2025-03-08 11:23:58,147.199,,,,,,,
1002,2025-03-08 12:56:15,2025-03-08 12:58:42,147.199,,,,,,,
1003,2025-03-08 14:31:00,2025-03-08 14:33:27,147.199,,,,,,,
1004,2025-03-08 16:05:44,2025-03-08 16:08:11,147.199,,,,,,,
1005,2025-03-08 17:40:28,2025-03-08 17:42:56,147.2,,,,,,,
1006,2025-03-08 19:15:13,2025-03-08 19:17:40,147.199,,,,,,,
1007,2025-03-08 20:49:57,2025-03-08 20:52:24,147.194,,,,,,,
1008,2025-03-08 22:24:42,2025-03-08 22:27:09,147.203,,,,,,,
1009,2025-03-08 23:59:26,2025-03-09 00:01:53,147.201,,,,,,,
1010,2025-03-09 01:34:10,2025-03-09 01:36:38,147.197,,,,,,,
1011,2025-03-09 03:08:55,2025-03-09 03:11:22,147.2,,,,,,,
1012,2025-03-09 04:43:39,2025-03-09 04:46:06,147.2,,,,,,,
1013,2025-03-09 06:18:24,2025-03-09 06:20:51,147.196,,,,,,,
1014,2025-03-09 07:53:08,2025-03-09 07:55:35,147.199,,,,,,,
1015,2025-03-09 09:27:52,2025-03-09 09:30:19,147.201,,,,,,,
1016,2025-03-09 11:02:37,2025-03-09 11:05:04,147.201,,,,,,,
