3UCubedIntegratedSim/Reports & Plots/Area Target Access Data/CSV/Sat6.csv

Access,Start Time (UTCG),Stop Time (UTCG),Duration (sec),,,Global Statistics,,,,
1,2025-01-01 16:22:34,2025-01-01 16:24:48,134.408,,,Min Duration,1669,2025-04-21 10:08:29,2025-04-21 10:10:44,134.378
2,2025-01-01 17:57:18,2025-01-01 17:59:33,134.412,,,Max Duration,4167,2025-10-02 18:28:25,2025-10-02 18:30:39,134.497
3,2025-01-01 19:32:03,2025-01-01 19:34:17,134.412,,,Mean Duration,,,,134.428
4,2025-01-01 21:06:47,2025-01-01 21:09:01,134.412,,,Total Duration,,,,745806.769
5,2025-01-01 22:41:31,2025-01-01 22:43:46,134.414,,,,,,,
6,2025-01-02 00:16:16,2025-01-02 00:18:30,134.415,,,,,,,
7,2025-01-02 01:51:00,2025-01-02 01:53:15,134.413,,,,,,,
8,2025-01-02 03:25:45,2025-01-02 03:27:59,134.412,,,,,,,
9,2025-01-02 05:00:29,2025-01-02 05:02:43,134.409,,,,,,,
10,2025-01-02 06:35:13,2025-01-02 06:37:28,134.412,,,,,,,
11,2025-01-02 08:09:58,2025-01-02 08:12:12,134.415,,,,,,,
12,2025-01-02 09:44:42,2025-01-02 09:46:57,134.412,,,,,,,
13,2025-01-02 11:19:27,2025-01-02 11:21:41,134.412,,,,,,,
14,2025-01-02 12:54:11,2025-01-02 12:56:25,134.411,,,,,,,
15,2025-01-02 14:28:55,2025-01-02 14:31:10,134.411,,,,,,,
16,2025-01-02 16:03:40,2025-01-02 16:05:54,134.408,,,,,,,
17,2025-01-02 17:38:24,2025-01-02 17:40:38,134.412,,,,,,,
18,2025-01-02 19:13:08,2025-01-02 19:15:23,134.412,,,,,,,
19,2025-01-02 20:47:53,2025-01-02 20:50:07,134.412,,,,,,,
20,2025-01-02 22:22:37,2025-01-02 22:24:52,134.416,,,,,,,
21,2025-01-02 23:57:22,2025-01-02 23:59:36,134.413,,,,,,,
22,2025-01-03 01:32:06,2025-01-03 01:34:20,134.412,,,,,,,
23,2025-01-03 03:06:50,2025-01-03 03:09:05,134.412,,,,,,,
24,2025-01-03 04:41:35,2025-01-03 04:43:49,134.408,,,,,,,
25,2025-01-03 06:16:19,2025-01-03 06:18:34,134.412,,,,,,,
26,2025-01-03 07:51:04,2025-01-03 07:53:18,134.408,,,,,,,
27,2025-01-03 09:25:48,2025-01-03 09:28:02,134.408,,,,,,,
28,2025-01-03 11:00:32,2025-01-03 11:02:47,134.408,,,,,,,
29,2025-01-03 12:35:17,2025-01-03 12:37:31,134.408,,,,,,,
30,2025-01-03 14:10:01,2025-01-03 14:12:15,134.408,,,,,,,
31,2025-01-03 15:44:45,2025-01-03 15:47:00,134.408,,,,,,,
32,2025-01-03 17:19:30,2025-01-03 17:21:44,134.412,,,,,,,
33,2025-01-03 18:54:14,2025-01-03 18:56:29,134.412,,,,,,,
34,2025-01-03 20:28:59,2025-01-03 20:31:13,134.413,,,,,,,
35,2025-01-03 22:03:43,2025-01-03 22:05:57,134.412,,,,,,,
36,2025-01-03 23:38:27,2025-01-03 23:40:42,134.414,,,,,,,
37,2025-01-04 01:13:12,2025-01-04 01:15:26,134.412,,,,,,,
38,2025-01-04 02:47:56,2025-01-04 02:50:11,134.412,,,,,,,
39,2025-01-04 04:22:41,2025-01-04 04:24:55,134.411,,,,,,,
40,2025-01-04 05:57:25,2025-01-04 05:59:39,134.416,,,,,,,
41,2025-01-04 07:32:09,2025-01-04 07:34:24,134.412,,,,,,,
42,2025-01-04 09:06:54,2025-01-04 09:09:08,134.408,,,,,,,
43,2025-01-04 10:41:38,2025-01-04 10:43:52,134.41,,,,,,,
44,2025-01-04 12:16:22,2025-01-04 12:18:37,134.408,,,,,,,
45,2025-01-04 13:51:07,2025-01-04 13:53:21,134.408,,,,,,,
46,2025-01-04 15:25:51,2025-01-04 15:28:06,134.408,,,,,,,
47,2025-01-04 17:00:36,2025-01-04 17:02:50,134.413,,,,,,,
48,2025-01-04 18:35:20,2025-01-04 18:37:34,134.412,,,,,,,
49,2025-01-04 20:10:04,2025-01-04 20:12:19,134.412,,,,,,,
50,2025-01-04 21:44:49,2025-01-04 21:47:03,134.413,,,,,,,
51,2025-01-04 23:19:33,2025-01-04 23:21:48,134.412,,,,,,,
52,2025-01-05 00:54:18,2025-01-05 00:56:32,134.413,,,,,,,
53,2025-01-05 02:29:02,2025-01-05 02:31:16,134.412,,,,,,,
54,2025-01-05 04:03:46,2025-01-05 04:06:01,134.413,,,,,,,
55,2025-01-05 05:38:31,2025-01-05 05:40:45,134.416,,,,,,,
56,2025-01-05 07:13:15,2025-01-05 07:15:30,134.412,,,,,,,
57,2025-01-05 08:47:59,2025-01-05 08:50:14,134.409,,,,,,,
58,2025-01-05 10:22:44,2025-01-05 10:24:58,134.41,,,,,,,
59,2025-01-05 11:57:28,2025-01-05 11:59:43,134.408,,,,,,,
60,2025-01-05 13:32:13,2025-01-05 13:34:27,134.409,,,,,,,
61,2025-01-05 15:06:57,2025-01-05 15:09:11,134.408,,,,,,,
62,2025-01-05 16:41:41,2025-01-05 16:43:56,134.413,,,,,,,
63,2025-01-05 18:16:26,2025-01-05 18:18:40,134.417,,,,,,,
64,2025-01-05 19:51:10,2025-01-05 19:53:25,134.409,,,,,,,
65,2025-01-05 21:25:55,2025-01-05 21:28:09,134.412,,,,,,,
66,2025-01-05 23:00:39,2025-01-05 23:02:53,134.408,,,,,,,
67,2025-01-06 00:35:23,2025-01-06 00:37:38,134.412,,,,,,,
68,2025-01-06 02:10:08,2025-01-06 02:12:22,134.416,,,,,,,
69,2025-01-06 03:44:52,2025-01-06 03:47:07,134.414,,,,,,,
70,2025-01-06 05:19:37,2025-01-06 05:21:51,134.412,,,,,,,
71,2025-01-06 06:54:21,2025-01-06 06:56:35,134.416,,,,,,,
72,2025-01-06 08:29:05,2025-01-06 08:31:20,134.41,,,,,,,
73,2025-01-06 10:03:50,2025-01-06 10:06:04,134.408,,,,,,,
74,2025-01-06 11:38:34,2025-01-06 11:40:48,134.408,,,,,,,
75,2025-01-06 13:13:18,2025-01-06 13:15:33,134.408,,,,,,,
76,2025-01-06 14:48:03,2025-01-06 14:50:17,134.408,,,,,,,
77,2025-01-06 16:22:47,2025-01-06 16:25:02,134.409,,,,,,,
78,2025-01-06 17:57:32,2025-01-06 17:59:46,134.413,,,,,,,
79,2025-01-06 19:32:16,2025-01-06 19:34:30,134.413,,,,,,,
80,2025-01-06 21:07:00,2025-01-06 21:09:15,134.412,,,,,,,
81,2025-01-06 22:41:45,2025-01-06 22:43:59,134.414,,,,,,,
82,2025-01-07 00:16:29,2025-01-07 00:18:44,134.416,,,,,,,
83,2025-01-07 01:51:14,2025-01-07 01:53:28,134.412,,,,,,,
84,2025-01-07 03:25:58,2025-01-07 03:28:12,134.412,,,,,,,
85,2025-01-07 05:00:42,2025-01-07 05:02:57,134.409,,,,,,,
86,2025-01-07 06:35:27,2025-01-07 06:37:41,134.412,,,,,,,
87,2025-01-07 08:10:11,2025-01-07 08:12:25,134.416,,,,,,,
88,2025-01-07 09:44:55,2025-01-07 09:47:10,134.412,,,,,,,
89,2025-01-07 11:19:40,2025-01-07 11:21:54,134.412,,,,,,,
90,2025-01-07 12:54:24,2025-01-07 12:56:39,134.411,,,,,,,
91,2025-01-07 14:29:09,2025-01-07 14:31:23,134.411,,,,,,,
92,2025-01-07 16:03:53,2025-01-07 16:06:07,134.408,,,,,,,
93,2025-01-07 17:38:37,2025-01-07 17:40:52,134.412,,,,,,,
94,2025-01-07 19:13:22,2025-01-07 19:15:36,134.412,,,,,,,
95,2025-01-07 20:48:06,2025-01-07 20:50:21,134.412,,,,,,,
96,2025-01-07 22:22:51,2025-01-07 22:25:05,134.416,,,,,,,
97,2025-01-07 23:57:35,2025-01-07 23:59:49,134.413,,,,,,,
98,2025-01-08 01:32:19,2025-01-08 01:34:34,134.412,,,,,,,
99,2025-01-08 03:07:04,2025-01-08 03:09:18,134.412,,,,,,,
100,2025-01-08 04:41:48,2025-01-08 04:44:02,134.408,,,,,,,
101,2025-01-08 06:16:32,2025-01-08 06:18:47,134.412,,,,,,,
102,2025-01-08 07:51:17,2025-01-08 07:53:31,134.408,,,,,,,
103,2025-01-08 09:26:01,2025-01-08 09:28:16,134.408,,,,,,,
104,2025-01-08 11:00:46,2025-01-08 11:03:00,134.407,,,,,,,
105,2025-01-08 12:35:30,2025-01-08 12:37:44,134.407,,,,,,,
106,2025-01-08 14:10:14,2025-01-08 14:12:29,134.407,,,,,,,
107,2025-01-08 15:44:59,2025-01-08 15:47:13,134.407,,,,,,,
108,2025-01-08 17:19:43,2025-01-08 17:21:58,134.412,,,,,,,
109,2025-01-08 18:54:28,2025-01-08 18:56:42,134.412,,,,,,,
110,2025-01-08 20:29:12,2025-01-08 20:31:26,134.413,,,,,,,
111,2025-01-08 22:03:56,2025-01-08 22:06:11,134.411,,,,,,,
112,2025-01-08 23:38:41,2025-01-08 23:40:55,134.413,,,,,,,
113,2025-01-09 01:13:25,2025-01-09 01:15:40,134.411,,,,,,,
114,2025-01-09 02:48:09,2025-01-09 02:50:24,134.411,,,,,,,
115,2025-01-09 04:22:54,2025-01-09 04:25:08,134.41,,,,,,,
116,2025-01-09 05:57:38,2025-01-09 05:59:53,134.415,,,,,,,
117,2025-01-09 07:32:23,2025-01-09 07:34:37,134.411,,,,,,,
118,2025-01-09 09:07:07,2025-01-09 09:09:21,134.407,,,,,,,
119,2025-01-09 10:41:51,2025-01-09 10:44:06,134.409,,,,,,,
120,2025-01-09 12:16:36,2025-01-09 12:18:50,134.408,,,,,,,
121,2025-01-09 13:51:20,2025-01-09 13:53:35,134.407,,,,,,,
122,2025-01-09 15:26:05,2025-01-09 15:28:19,134.407,,,,,,,
123,2025-01-09 17:00:49,2025-01-09 17:03:03,134.412,,,,,,,
124,2025-01-09 18:35:33,2025-01-09 18:37:48,134.411,,,,,,,
125,2025-01-09 20:10:18,2025-01-09 20:12:32,134.411,,,,,,,
126,2025-01-09 21:45:02,2025-01-09 21:47:17,134.412,,,,,,,
127,2025-01-09 23:19:46,2025-01-09 23:22:01,134.411,,,,,,,
128,2025-01-10 00:54:31,2025-01-10 00:56:45,134.412,,,,,,,
129,2025-01-10 02:29:15,2025-01-10 02:31:30,134.411,,,,,,,
130,2025-01-10 04:04:00,2025-01-10 04:06:14,134.412,,,,,,,
131,2025-01-10 05:38:44,2025-01-10 05:40:58,134.415,,,,,,,
132,2025-01-10 07:13:28,2025-01-10 07:15:43,134.411,,,,,,,
133,2025-01-10 08:48:13,2025-01-10 08:50:27,134.408,,,,,,,
134,2025-01-10 10:22:57,2025-01-10 10:25:12,134.408,,,,,,,
135,2025-01-10 11:57:42,2025-01-10 11:59:56,134.407,,,,,,,
136,2025-01-10 13:32:26,2025-01-10 13:34:40,134.408,,,,,,,
137,2025-01-10 15:07:10,2025-01-10 15:09:25,134.407,,,,,,,
138,2025-01-10 16:41:55,2025-01-10 16:44:09,134.411,,,,,,,
139,2025-01-10 18:16:39,2025-01-10 18:18:54,134.415,,,,,,,
140,2025-01-10 19:51:24,2025-01-10 19:53:38,134.407,,,,,,,
141,2025-01-10 21:26:08,2025-01-10 21:28:22,134.411,,,,,,,
142,2025-01-10 23:00:52,2025-01-10 23:03:07,134.406,,,,,,,
143,2025-01-11 00:35:37,2025-01-11 00:37:51,134.411,,,,,,,
144,2025-01-11 02:10:21,2025-01-11 02:12:35,134.415,,,,,,,
145,2025-01-11 03:45:05,2025-01-11 03:47:20,134.412,,,,,,,
146,2025-01-11 05:19:50,2025-01-11 05:22:04,134.411,,,,,,,
147,2025-01-11 06:54:34,2025-01-11 06:56:49,134.414,,,,,,,
148,2025-01-11 08:29:19,2025-01-11 08:31:33,134.409,,,,,,,
149,2025-01-11 10:04:03,2025-01-11 10:06:17,134.406,,,,,,,
150,2025-01-11 11:38:47,2025-01-11 11:41:02,134.406,,,,,,,
151,2025-01-11 13:13:32,2025-01-11 13:15:46,134.406,,,,,,,
152,2025-01-11 14:48:16,2025-01-11 14:50:31,134.406,,,,,,,
153,2025-01-11 16:23:01,2025-01-11 16:25:15,134.407,,,,,,,
154,2025-01-11 17:57:45,2025-01-11 17:59:59,134.411,,,,,,,
155,2025-01-11 19:32:29,2025-01-11 19:34:44,134.411,,,,,,,
156,2025-01-11 21:07:14,2025-01-11 21:09:28,134.411,,,,,,,
157,2025-01-11 22:41:58,2025-01-11 22:44:12,134.413,,,,,,,
158,2025-01-12 00:16:42,2025-01-12 00:18:57,134.414,,,,,,,
159,2025-01-12 01:51:27,2025-01-12 01:53:41,134.411,,,,,,,
160,2025-01-12 03:26:11,2025-01-12 03:28:26,134.41,,,,,,,
161,2025-01-12 05:00:56,2025-01-12 05:03:10,134.408,,,,,,,
162,2025-01-12 06:35:40,2025-01-12 06:37:54,134.411,,,,,,,
163,2025-01-12 08:10:24,2025-01-12 08:12:39,134.414,,,,,,,
164,2025-01-12 09:45:09,2025-01-12 09:47:23,134.41,,,,,,,
165,2025-01-12 11:19:53,2025-01-12 11:22:08,134.41,,,,,,,
166,2025-01-12 12:54:38,2025-01-12 12:56:52,134.409,,,,,,,
167,2025-01-12 14:29:22,2025-01-12 14:31:36,134.409,,,,,,,
168,2025-01-12 16:04:06,2025-01-12 16:06:21,134.407,,,,,,,
169,2025-01-12 17:38:51,2025-01-12 17:41:05,134.411,,,,,,,
170,2025-01-12 19:13:35,2025-01-12 19:15:49,134.41,,,,,,,
171,2025-01-12 20:48:19,2025-01-12 20:50:34,134.411,,,,,,,
172,2025-01-12 22:23:04,2025-01-12 22:25:18,134.415,,,,,,,
173,2025-01-12 23:57:48,2025-01-13 00:00:03,134.411,,,,,,,
174,2025-01-13 01:32:33,2025-01-13 01:34:47,134.411,,,,,,,
175,2025-01-13 03:07:17,2025-01-13 03:09:31,134.41,,,,,,,
176,2025-01-13 04:42:01,2025-01-13 04:44:16,134.406,,,,,,,
177,2025-01-13 06:16:46,2025-01-13 06:19:00,134.41,,,,,,,
178,2025-01-13 07:51:30,2025-01-13 07:53:45,134.407,,,,,,,
179,2025-01-13 09:26:15,2025-01-13 09:28:29,134.406,,,,,,,
180,2025-01-13 11:00:59,2025-01-13 11:03:13,134.406,,,,,,,
181,2025-01-13 12:35:43,2025-01-13 12:37:58,134.406,,,,,,,
182,2025-01-13 14:10:28,2025-01-13 14:12:42,134.406,,,,,,,
183,2025-01-13 15:45:12,2025-01-13 15:47:27,134.406,,,,,,,
184,2025-01-13 17:19:56,2025-01-13 17:22:11,134.411,,,,,,,
185,2025-01-13 18:54:41,2025-01-13 18:56:55,134.41,,,,,,,
186,2025-01-13 20:29:25,2025-01-13 20:31:40,134.411,,,,,,,
187,2025-01-13 22:04:10,2025-01-13 22:06:24,134.41,,,,,,,
188,2025-01-13 23:38:54,2025-01-13 23:41:08,134.412,,,,,,,
189,2025-01-14 01:13:38,2025-01-14 01:15:53,134.41,,,,,,,
190,2025-01-14 02:48:23,2025-01-14 02:50:37,134.41,,,,,,,
191,2025-01-14 04:23:07,2025-01-14 04:25:22,134.409,,,,,,,
192,2025-01-14 05:57:52,2025-01-14 06:00:06,134.414,,,,,,,
193,2025-01-14 07:32:36,2025-01-14 07:34:50,134.41,,,,,,,
194,2025-01-14 09:07:20,2025-01-14 09:09:35,134.406,,,,,,,
195,2025-01-14 10:42:05,2025-01-14 10:44:19,134.408,,,,,,,
196,2025-01-14 12:16:49,2025-01-14 12:19:04,134.406,,,,,,,
197,2025-01-14 13:51:33,2025-01-14 13:53:48,134.406,,,,,,,
198,2025-01-14 15:26:18,2025-01-14 15:28:32,134.406,,,,,,,
199,2025-01-14 17:01:02,2025-01-14 17:03:17,134.41,,,,,,,
200,2025-01-14 18:35:47,2025-01-14 18:38:01,134.41,,,,,,,
201,2025-01-14 20:10:31,2025-01-14 20:12:45,134.41,,,,,,,
202,2025-01-14 21:45:15,2025-01-14 21:47:30,134.411,,,,,,,
203,2025-01-14 23:20:00,2025-01-14 23:22:14,134.41,,,,,,,
204,2025-01-15 00:54:44,2025-01-15 00:56:59,134.411,,,,,,,
205,2025-01-15 02:29:29,2025-01-15 02:31:43,134.41,,,,,,,
206,2025-01-15 04:04:13,2025-01-15 04:06:27,134.411,,,,,,,
207,2025-01-15 05:38:57,2025-01-15 05:41:12,134.414,,,,,,,
208,2025-01-15 07:13:42,2025-01-15 07:15:56,134.41,,,,,,,
209,2025-01-15 08:48:26,2025-01-15 08:50:41,134.407,,,,,,,
210,2025-01-15 10:23:11,2025-01-15 10:25:25,134.407,,,,,,,
211,2025-01-15 11:57:55,2025-01-15 12:00:09,134.406,,,,,,,
212,2025-01-15 13:32:39,2025-01-15 13:34:54,134.407,,,,,,,
213,2025-01-15 15:07:24,2025-01-15 15:09:38,134.406,,,,,,,
214,2025-01-15 16:42:08,2025-01-15 16:44:22,134.411,,,,,,,
215,2025-01-15 18:16:52,2025-01-15 18:19:07,134.415,,,,,,,
216,2025-01-15 19:51:37,2025-01-15 19:53:51,134.407,,,,,,,
217,2025-01-15 21:26:21,2025-01-15 21:28:36,134.41,,,,,,,
218,2025-01-15 23:01:06,2025-01-15 23:03:20,134.406,,,,,,,
219,2025-01-16 00:35:50,2025-01-16 00:38:04,134.41,,,,,,,
220,2025-01-16 02:10:34,2025-01-16 02:12:49,134.414,,,,,,,
221,2025-01-16 03:45:19,2025-01-16 03:47:33,134.412,,,,,,,
222,2025-01-16 05:20:03,2025-01-16 05:22:18,134.41,,,,,,,
223,2025-01-16 06:54:48,2025-01-16 06:57:02,134.414,,,,,,,
224,2025-01-16 08:29:32,2025-01-16 08:31:46,134.408,,,,,,,
225,2025-01-16 10:04:16,2025-01-16 10:06:31,134.406,,,,,,,
226,2025-01-16 11:39:01,2025-01-16 11:41:15,134.406,,,,,,,
227,2025-01-16 13:13:45,2025-01-16 13:15:59,134.406,,,,,,,
228,2025-01-16 14:48:29,2025-01-16 14:50:44,134.406,,,,,,,
229,2025-01-16 16:23:14,2025-01-16 16:25:28,134.407,,,,,,,
230,2025-01-16 17:57:58,2025-01-16 18:00:13,134.411,,,,,,,
231,2025-01-16 19:32:43,2025-01-16 19:34:57,134.411,,,,,,,
232,2025-01-16 21:07:27,2025-01-16 21:09:41,134.411,,,,,,,
233,2025-01-16 22:42:11,2025-01-16 22:44:26,134.412,,,,,,,
234,2025-01-17 00:16:56,2025-01-17 00:19:10,134.414,,,,,,,
235,2025-01-17 01:51:40,2025-01-17 01:53:55,134.411,,,,,,,
236,2025-01-17 03:26:25,2025-01-17 03:28:39,134.41,,,,,,,
237,2025-01-17 05:01:09,2025-01-17 05:03:23,134.407,,,,,,,
238,2025-01-17 06:35:53,2025-01-17 06:38:08,134.411,,,,,,,
239,2025-01-17 08:10:38,2025-01-17 08:12:52,134.414,,,,,,,
240,2025-01-17 09:45:22,2025-01-17 09:47:36,134.41,,,,,,,
241,2025-01-17 11:20:06,2025-01-17 11:22:21,134.41,,,,,,,
242,2025-01-17 12:54:51,2025-01-17 12:57:05,134.409,,,,,,,
243,2025-01-17 14:29:35,2025-01-17 14:31:50,134.409,,,,,,,
244,2025-01-17 16:04:20,2025-01-17 16:06:34,134.407,,,,,,,
245,2025-01-17 17:39:04,2025-01-17 17:41:18,134.411,,,,,,,
246,2025-01-17 19:13:48,2025-01-17 19:16:03,134.41,,,,,,,
247,2025-01-17 20:48:33,2025-01-17 20:50:47,134.411,,,,,,,
248,2025-01-17 22:23:17,2025-01-17 22:25:32,134.415,,,,,,,
249,2025-01-17 23:58:02,2025-01-18 00:00:16,134.411,,,,,,,
250,2025-01-18 01:32:46,2025-01-18 01:35:00,134.411,,,,,,,
251,2025-01-18 03:07:30,2025-01-18 03:09:45,134.41,,,,,,,
252,2025-01-18 04:42:15,2025-01-18 04:44:29,134.406,,,,,,,
253,2025-01-18 06:16:59,2025-01-18 06:19:14,134.411,,,,,,,
254,2025-01-18 07:51:43,2025-01-18 07:53:58,134.407,,,,,,,
255,2025-01-18 09:26:28,2025-01-18 09:28:42,134.406,,,,,,,
256,2025-01-18 11:01:12,2025-01-18 11:03:27,134.406,,,,,,,
257,2025-01-18 12:35:57,2025-01-18 12:38:11,134.406,,,,,,,
258,2025-01-18 14:10:41,2025-01-18 14:12:55,134.406,,,,,,,
259,2025-01-18 15:45:25,2025-01-18 15:47:40,134.406,,,,,,,
260,2025-01-18 17:20:10,2025-01-18 17:22:24,134.411,,,,,,,
261,2025-01-18 18:54:54,2025-01-18 18:57:09,134.41,,,,,,,
262,2025-01-18 20:29:39,2025-01-18 20:31:53,134.411,,,,,,,
263,2025-01-18 22:04:23,2025-01-18 22:06:37,134.41,,,,,,,
264,2025-01-18 23:39:07,2025-01-18 23:41:22,134.412,,,,,,,
265,2025-01-19 01:13:52,2025-01-19 01:16:06,134.41,,,,,,,
266,2025-01-19 02:48:36,2025-01-19 02:50:51,134.41,,,,,,,
267,2025-01-19 04:23:21,2025-01-19 04:25:35,134.409,,,,,,,
268,2025-01-19 05:58:05,2025-01-19 06:00:19,134.414,,,,,,,
269,2025-01-19 07:32:49,2025-01-19 07:35:04,134.41,,,,,,,
270,2025-01-19 09:07:34,2025-01-19 09:09:48,134.406,,,,,,,
271,2025-01-19 10:42:18,2025-01-19 10:44:32,134.408,,,,,,,
272,2025-01-19 12:17:02,2025-01-19 12:19:17,134.406,,,,,,,
273,2025-01-19 13:51:47,2025-01-19 13:54:01,134.406,,,,,,,
274,2025-01-19 15:26:31,2025-01-19 15:28:46,134.406,,,,,,,
275,2025-01-19 17:01:16,2025-01-19 17:03:30,134.411,,,,,,,
276,2025-01-19 18:36:00,2025-01-19 18:38:14,134.41,,,,,,,
277,2025-01-19 20:10:44,2025-01-19 20:12:59,134.41,,,,,,,
278,2025-01-19 21:45:29,2025-01-19 21:47:43,134.411,,,,,,,
279,2025-01-19 23:20:13,2025-01-19 23:22:28,134.41,,,,,,,
280,2025-01-20 00:54:58,2025-01-20 00:57:12,134.411,,,,,,,
281,2025-01-20 02:29:42,2025-01-20 02:31:56,134.41,,,,,,,
282,2025-01-20 04:04:26,2025-01-20 04:06:41,134.411,,,,,,,
283,2025-01-20 05:39:11,2025-01-20 05:41:25,134.414,,,,,,,
284,2025-01-20 07:13:55,2025-01-20 07:16:09,134.41,,,,,,,
285,2025-01-20 08:48:39,2025-01-20 08:50:54,134.407,,,,,,,
286,2025-01-20 10:23:24,2025-01-20 10:25:38,134.407,,,,,,,
287,2025-01-20 11:58:08,2025-01-20 12:00:23,134.406,,,,,,,
288,2025-01-20 13:32:53,2025-01-20 13:35:07,134.407,,,,,,,
289,2025-01-20 15:07:37,2025-01-20 15:09:51,134.406,,,,,,,
290,2025-01-20 16:42:21,2025-01-20 16:44:36,134.41,,,,,,,
291,2025-01-20 18:17:06,2025-01-20 18:19:20,134.415,,,,,,,
292,2025-01-20 19:51:50,2025-01-20 19:54:05,134.407,,,,,,,
293,2025-01-20 21:26:35,2025-01-20 21:28:49,134.41,,,,,,,
294,2025-01-20 23:01:19,2025-01-20 23:03:33,134.405,,,,,,,
295,2025-01-21 00:36:03,2025-01-21 00:38:18,134.41,,,,,,,
296,2025-01-21 02:10:48,2025-01-21 02:13:02,134.414,,,,,,,
297,2025-01-21 03:45:32,2025-01-21 03:47:46,134.411,,,,,,,
298,2025-01-21 05:20:16,2025-01-21 05:22:31,134.41,,,,,,,
299,2025-01-21 06:55:01,2025-01-21 06:57:15,134.413,,,,,,,
300,2025-01-21 08:29:45,2025-01-21 08:32:00,134.408,,,,,,,
301,2025-01-21 10:04:30,2025-01-21 10:06:44,134.405,,,,,,,
302,2025-01-21 11:39:14,2025-01-21 11:41:28,134.405,,,,,,,
303,2025-01-21 13:13:58,2025-01-21 13:16:13,134.405,,,,,,,
304,2025-01-21 14:48:43,2025-01-21 14:50:57,134.405,,,,,,,
305,2025-01-21 16:23:27,2025-01-21 16:25:42,134.406,,,,,,,
306,2025-01-21 17:58:12,2025-01-21 18:00:26,134.41,,,,,,,
307,2025-01-21 19:32:56,2025-01-21 19:35:10,134.41,,,,,,,
308,2025-01-21 21:07:40,2025-01-21 21:09:55,134.41,,,,,,,
309,2025-01-21 22:42:25,2025-01-21 22:44:39,134.412,,,,,,,
310,2025-01-22 00:17:09,2025-01-22 00:19:23,134.414,,,,,,,
311,2025-01-22 01:51:53,2025-01-22 01:54:08,134.41,,,,,,,
312,2025-01-22 03:26:38,2025-01-22 03:28:52,134.41,,,,,,,
313,2025-01-22 05:01:22,2025-01-22 05:03:37,134.407,,,,,,,
314,2025-01-22 06:36:07,2025-01-22 06:38:21,134.41,,,,,,,
315,2025-01-22 08:10:51,2025-01-22 08:13:05,134.413,,,,,,,
316,2025-01-22 09:45:35,2025-01-22 09:47:50,134.41,,,,,,,
317,2025-01-22 11:20:20,2025-01-22 11:22:34,134.409,,,,,,,
318,2025-01-22 12:55:04,2025-01-22 12:57:19,134.408,,,,,,,
319,2025-01-22 14:29:49,2025-01-22 14:32:03,134.408,,,,,,,
320,2025-01-22 16:04:33,2025-01-22 16:06:47,134.406,,,,,,,
321,2025-01-22 17:39:17,2025-01-22 17:41:32,134.41,,,,,,,
322,2025-01-22 19:14:02,2025-01-22 19:16:16,134.41,,,,,,,
323,2025-01-22 20:48:46,2025-01-22 20:51:01,134.41,,,,,,,
324,2025-01-22 22:23:30,2025-01-22 22:25:45,134.414,,,,,,,
325,2025-01-22 23:58:15,2025-01-23 00:00:29,134.41,,,,,,,
326,2025-01-23 01:32:59,2025-01-23 01:35:14,134.41,,,,,,,
327,2025-01-23 03:07:44,2025-01-23 03:09:58,134.409,,,,,,,
328,2025-01-23 04:42:28,2025-01-23 04:44:42,134.405,,,,,,,
329,2025-01-23 06:17:12,2025-01-23 06:19:27,134.409,,,,,,,
330,2025-01-23 07:51:57,2025-01-23 07:54:11,134.406,,,,,,,
331,2025-01-23 09:26:41,2025-01-23 09:28:56,134.405,,,,,,,
332,2025-01-23 11:01:26,2025-01-23 11:03:40,134.405,,,,,,,
333,2025-01-23 12:36:10,2025-01-23 12:38:24,134.405,,,,,,,
334,2025-01-23 14:10:54,2025-01-23 14:13:09,134.405,,,,,,,
335,2025-01-23 15:45:39,2025-01-23 15:47:53,134.405,,,,,,,
336,2025-01-23 17:20:23,2025-01-23 17:22:38,134.409,,,,,,,
337,2025-01-23 18:55:08,2025-01-23 18:57:22,134.409,,,,,,,
338,2025-01-23 20:29:52,2025-01-23 20:32:06,134.41,,,,,,,
339,2025-01-23 22:04:36,2025-01-23 22:06:51,134.408,,,,,,,
340,2025-01-23 23:39:21,2025-01-23 23:41:35,134.411,,,,,,,
341,2025-01-24 01:14:05,2025-01-24 01:16:19,134.408,,,,,,,
342,2025-01-24 02:48:49,2025-01-24 02:51:04,134.409,,,,,,,
343,2025-01-24 04:23:34,2025-01-24 04:25:48,134.407,,,,,,,
344,2025-01-24 05:58:18,2025-01-24 06:00:33,134.412,,,,,,,
345,2025-01-24 07:33:03,2025-01-24 07:35:17,134.408,,,,,,,
346,2025-01-24 09:07:47,2025-01-24 09:10:01,134.404,,,,,,,
347,2025-01-24 10:42:31,2025-01-24 10:44:46,134.406,,,,,,,
348,2025-01-24 12:17:16,2025-01-24 12:19:30,134.405,,,,,,,
349,2025-01-24 13:52:00,2025-01-24 13:54:15,134.404,,,,,,,
350,2025-01-24 15:26:45,2025-01-24 15:28:59,134.404,,,,,,,
351,2025-01-24 17:01:29,2025-01-24 17:03:43,134.409,,,,,,,
352,2025-01-24 18:36:13,2025-01-24 18:38:28,134.409,,,,,,,
353,2025-01-24 20:10:58,2025-01-24 20:13:12,134.408,,,,,,,
354,2025-01-24 21:45:42,2025-01-24 21:47:56,134.41,,,,,,,
355,2025-01-24 23:20:26,2025-01-24 23:22:41,134.408,,,,,,,
356,2025-01-25 00:55:11,2025-01-25 00:57:25,134.409,,,,,,,
357,2025-01-25 02:29:55,2025-01-25 02:32:10,134.408,,,,,,,
358,2025-01-25 04:04:40,2025-01-25 04:06:54,134.409,,,,,,,
359,2025-01-25 05:39:24,2025-01-25 05:41:38,134.412,,,,,,,
360,2025-01-25 07:14:08,2025-01-25 07:16:23,134.408,,,,,,,
361,2025-01-25 08:48:53,2025-01-25 08:51:07,134.405,,,,,,,
362,2025-01-25 10:23:37,2025-01-25 10:25:52,134.405,,,,,,,
363,2025-01-25 11:58:22,2025-01-25 12:00:36,134.404,,,,,,,
364,2025-01-25 13:33:06,2025-01-25 13:35:20,134.405,,,,,,,
365,2025-01-25 15:07:50,2025-01-25 15:10:05,134.404,,,,,,,
366,2025-01-25 16:42:35,2025-01-25 16:44:49,134.408,,,,,,,
367,2025-01-25 18:17:19,2025-01-25 18:19:33,134.413,,,,,,,
368,2025-01-25 19:52:03,2025-01-25 19:54:18,134.405,,,,,,,
369,2025-01-25 21:26:48,2025-01-25 21:29:02,134.408,,,,,,,
370,2025-01-25 23:01:32,2025-01-25 23:03:47,134.403,,,,,,,
371,2025-01-26 00:36:17,2025-01-26 00:38:31,134.408,,,,,,,
372,2025-01-26 02:11:01,2025-01-26 02:13:15,134.412,,,,,,,
373,2025-01-26 03:45:45,2025-01-26 03:48:00,134.409,,,,,,,
374,2025-01-26 05:20:30,2025-01-26 05:22:44,134.408,,,,,,,
375,2025-01-26 06:55:14,2025-01-26 06:57:29,134.411,,,,,,,
376,2025-01-26 08:29:59,2025-01-26 08:32:13,134.406,,,,,,,
377,2025-01-26 10:04:43,2025-01-26 10:06:57,134.403,,,,,,,
378,2025-01-26 11:39:27,2025-01-26 11:41:42,134.403,,,,,,,
379,2025-01-26 13:14:12,2025-01-26 13:16:26,134.403,,,,,,,
380,2025-01-26 14:48:56,2025-01-26 14:51:10,134.403,,,,,,,
381,2025-01-26 16:23:40,2025-01-26 16:25:55,134.404,,,,,,,
382,2025-01-26 17:58:25,2025-01-26 18:00:39,134.408,,,,,,,
383,2025-01-26 19:33:09,2025-01-26 19:35:24,134.408,,,,,,,
384,2025-01-26 21:07:54,2025-01-26 21:10:08,134.408,,,,,,,
385,2025-01-26 22:42:38,2025-01-26 22:44:52,134.409,,,,,,,
386,2025-01-27 00:17:22,2025-01-27 00:19:37,134.412,,,,,,,
387,2025-01-27 01:52:07,2025-01-27 01:54:21,134.408,,,,,,,
388,2025-01-27 03:26:51,2025-01-27 03:29:06,134.407,,,,,,,
389,2025-01-27 05:01:36,2025-01-27 05:03:50,134.405,,,,,,,
390,2025-01-27 06:36:20,2025-01-27 06:38:34,134.408,,,,,,,
391,2025-01-27 08:11:04,2025-01-27 08:13:19,134.411,,,,,,,
392,2025-01-27 09:45:49,2025-01-27 09:48:03,134.407,,,,,,,
393,2025-01-27 11:20:33,2025-01-27 11:22:48,134.407,,,,,,,
394,2025-01-27 12:55:17,2025-01-27 12:57:32,134.406,,,,,,,
395,2025-01-27 14:30:02,2025-01-27 14:32:16,134.406,,,,,,,
396,2025-01-27 16:04:46,2025-01-27 16:07:01,134.404,,,,,,,
397,2025-01-27 17:39:31,2025-01-27 17:41:45,134.408,,,,,,,
398,2025-01-27 19:14:15,2025-01-27 19:16:29,134.407,,,,,,,
399,2025-01-27 20:48:59,2025-01-27 20:51:14,134.408,,,,,,,
400,2025-01-27 22:23:44,2025-01-27 22:25:58,134.412,,,,,,,
401,2025-01-27 23:58:28,2025-01-28 00:00:43,134.408,,,,,,,
402,2025-01-28 01:33:13,2025-01-28 01:35:27,134.408,,,,,,,
403,2025-01-28 03:07:57,2025-01-28 03:10:11,134.407,,,,,,,
404,2025-01-28 04:42:41,2025-01-28 04:44:56,134.403,,,,,,,
405,2025-01-28 06:17:26,2025-01-28 06:19:40,134.407,,,,,,,
406,2025-01-28 07:52:10,2025-01-28 07:54:25,134.404,,,,,,,
407,2025-01-28 09:26:55,2025-01-28 09:29:09,134.403,,,,,,,
408,2025-01-28 11:01:39,2025-01-28 11:03:53,134.403,,,,,,,
409,2025-01-28 12:36:23,2025-01-28 12:38:38,134.403,,,,,,,
410,2025-01-28 14:11:08,2025-01-28 14:13:22,134.403,,,,,,,
411,2025-01-28 15:45:52,2025-01-28 15:48:06,134.403,,,,,,,
412,2025-01-28 17:20:36,2025-01-28 17:22:51,134.407,,,,,,,
413,2025-01-28 18:55:21,2025-01-28 18:57:35,134.407,,,,,,,
414,2025-01-28 20:30:05,2025-01-28 20:32:20,134.408,,,,,,,
415,2025-01-28 22:04:50,2025-01-28 22:07:04,134.406,,,,,,,
416,2025-01-28 23:39:34,2025-01-28 23:41:48,134.409,,,,,,,
417,2025-01-29 01:14:18,2025-01-29 01:16:33,134.407,,,,,,,
418,2025-01-29 02:49:03,2025-01-29 02:51:17,134.407,,,,,,,
419,2025-01-29 04:23:47,2025-01-29 04:26:02,134.406,,,,,,,
420,2025-01-29 05:58:32,2025-01-29 06:00:46,134.41,,,,,,,
421,2025-01-29 07:33:16,2025-01-29 07:35:30,134.407,,,,,,,
422,2025-01-29 09:08:00,2025-01-29 09:10:15,134.402,,,,,,,
423,2025-01-29 10:42:45,2025-01-29 10:44:59,134.404,,,,,,,
424,2025-01-29 12:17:29,2025-01-29 12:19:43,134.403,,,,,,,
425,2025-01-29 13:52:13,2025-01-29 13:54:28,134.403,,,,,,,
426,2025-01-29 15:26:58,2025-01-29 15:29:12,134.402,,,,,,,
427,2025-01-29 17:01:42,2025-01-29 17:03:57,134.407,,,,,,,
428,2025-01-29 18:36:27,2025-01-29 18:38:41,134.407,,,,,,,
429,2025-01-29 20:11:11,2025-01-29 20:13:25,134.407,,,,,,,
430,2025-01-29 21:45:55,2025-01-29 21:48:10,134.408,,,,,,,
431,2025-01-29 23:20:40,2025-01-29 23:22:54,134.407,,,,,,,
432,2025-01-30 00:55:24,2025-01-30 00:57:39,134.408,,,,,,,
433,2025-01-30 02:30:09,2025-01-30 02:32:23,134.407,,,,,,,
434,2025-01-30 04:04:53,2025-01-30 04:07:07,134.407,,,,,,,
435,2025-01-30 05:39:37,2025-01-30 05:41:52,134.41,,,,,,,
436,2025-01-30 07:14:22,2025-01-30 07:16:36,134.407,,,,,,,
437,2025-01-30 08:49:06,2025-01-30 08:51:20,134.404,,,,,,,
438,2025-01-30 10:23:50,2025-01-30 10:26:05,134.404,,,,,,,
439,2025-01-30 11:58:35,2025-01-30 12:00:49,134.403,,,,,,,
440,2025-01-30 13:33:19,2025-01-30 13:35:34,134.403,,,,,,,
441,2025-01-30 15:08:04,2025-01-30 15:10:18,134.403,,,,,,,
442,2025-01-30 16:42:48,2025-01-30 16:45:02,134.407,,,,,,,
443,2025-01-30 18:17:32,2025-01-30 18:19:47,134.411,,,,,,,
444,2025-01-30 19:52:17,2025-01-30 19:54:31,134.403,,,,,,,
445,2025-01-30 21:27:01,2025-01-30 21:29:16,134.407,,,,,,,
446,2025-01-30 23:01:46,2025-01-30 23:04:00,134.402,,,,,,,
447,2025-01-31 00:36:30,2025-01-31 00:38:44,134.407,,,,,,,
448,2025-01-31 02:11:14,2025-01-31 02:13:29,134.411,,,,,,,
449,2025-01-31 03:45:59,2025-01-31 03:48:13,134.408,,,,,,,
450,2025-01-31 05:20:43,2025-01-31 05:22:58,134.407,,,,,,,
451,2025-01-31 06:55:27,2025-01-31 06:57:42,134.41,,,,,,,
452,2025-01-31 08:30:12,2025-01-31 08:32:26,134.405,,,,,,,
453,2025-01-31 10:04:56,2025-01-31 10:07:11,134.402,,,,,,,
454,2025-01-31 11:39:41,2025-01-31 11:41:55,134.402,,,,,,,
455,2025-01-31 13:14:25,2025-01-31 13:16:39,134.402,,,,,,,
456,2025-01-31 14:49:09,2025-01-31 14:51:24,134.402,,,,,,,
457,2025-01-31 16:23:54,2025-01-31 16:26:08,134.403,,,,,,,
458,2025-01-31 17:58:38,2025-01-31 18:00:53,134.407,,,,,,,
459,2025-01-31 19:33:23,2025-01-31 19:35:37,134.407,,,,,,,
460,2025-01-31 21:08:07,2025-01-31 21:10:21,134.407,,,,,,,
461,2025-01-31 22:42:51,2025-01-31 22:45:06,134.409,,,,,,,
462,2025-02-01 00:17:36,2025-02-01 00:19:50,134.411,,,,,,,
463,2025-02-01 01:52:20,2025-02-01 01:54:35,134.407,,,,,,,
464,2025-02-01 03:27:04,2025-02-01 03:29:19,134.407,,,,,,,
465,2025-02-01 05:01:49,2025-02-01 05:04:03,134.404,,,,,,,
466,2025-02-01 06:36:33,2025-02-01 06:38:48,134.407,,,,,,,
467,2025-02-01 08:11:18,2025-02-01 08:13:32,134.41,,,,,,,
468,2025-02-01 09:46:02,2025-02-01 09:48:16,134.407,,,,,,,
469,2025-02-01 11:20:46,2025-02-01 11:23:01,134.407,,,,,,,
470,2025-02-01 12:55:31,2025-02-01 12:57:45,134.406,,,,,,,
471,2025-02-01 14:30:15,2025-02-01 14:32:30,134.406,,,,,,,
472,2025-02-01 16:05:00,2025-02-01 16:07:14,134.403,,,,,,,
473,2025-02-01 17:39:44,2025-02-01 17:41:58,134.407,,,,,,,
474,2025-02-01 19:14:28,2025-02-01 19:16:43,134.407,,,,,,,
475,2025-02-01 20:49:13,2025-02-01 20:51:27,134.407,,,,,,,
476,2025-02-01 22:23:57,2025-02-01 22:26:12,134.411,,,,,,,
477,2025-02-01 23:58:42,2025-02-02 00:00:56,134.408,,,,,,,
478,2025-02-02 01:33:26,2025-02-02 01:35:40,134.407,,,,,,,
479,2025-02-02 03:08:10,2025-02-02 03:10:25,134.407,,,,,,,
480,2025-02-02 04:42:55,2025-02-02 04:45:09,134.403,,,,,,,
481,2025-02-02 06:17:39,2025-02-02 06:19:53,134.407,,,,,,,
482,2025-02-02 07:52:23,2025-02-02 07:54:38,134.403,,,,,,,
483,2025-02-02 09:27:08,2025-02-02 09:29:22,134.402,,,,,,,
484,2025-02-02 11:01:52,2025-02-02 11:04:07,134.402,,,,,,,
485,2025-02-02 12:36:37,2025-02-02 12:38:51,134.402,,,,,,,
486,2025-02-02 14:11:21,2025-02-02 14:13:35,134.402,,,,,,,
487,2025-02-02 15:46:05,2025-02-02 15:48:20,134.402,,,,,,,
488,2025-02-02 17:20:50,2025-02-02 17:23:04,134.407,,,,,,,
489,2025-02-02 18:55:34,2025-02-02 18:57:49,134.407,,,,,,,
490,2025-02-02 20:30:19,2025-02-02 20:32:33,134.407,,,,,,,
491,2025-02-02 22:05:03,2025-02-02 22:07:17,134.406,,,,,,,
492,2025-02-02 23:39:47,2025-02-02 23:42:02,134.408,,,,,,,
493,2025-02-03 01:14:32,2025-02-03 01:16:46,134.406,,,,,,,
494,2025-02-03 02:49:16,2025-02-03 02:51:30,134.406,,,,,,,
495,2025-02-03 04:24:00,2025-02-03 04:26:15,134.405,,,,,,,
496,2025-02-03 05:58:45,2025-02-03 06:00:59,134.41,,,,,,,
497,2025-02-03 07:33:29,2025-02-03 07:35:44,134.406,,,,,,,
498,2025-02-03 09:08:14,2025-02-03 09:10:28,134.402,,,,,,,
499,2025-02-03 10:42:58,2025-02-03 10:45:12,134.404,,,,,,,
500,2025-02-03 12:17:42,2025-02-03 12:19:57,134.402,,,,,,,
501,2025-02-03 13:52:27,2025-02-03 13:54:41,134.402,,,,,,,
502,2025-02-03 15:27:11,2025-02-03 15:29:26,134.402,,,,,,,
503,2025-02-03 17:01:56,2025-02-03 17:04:10,134.407,,,,,,,
504,2025-02-03 18:36:40,2025-02-03 18:38:54,134.406,,,,,,,
505,2025-02-03 20:11:24,2025-02-03 20:13:39,134.409,,,,,,,
506,2025-02-03 21:46:09,2025-02-03 21:48:23,134.407,,,,,,,
507,2025-02-03 23:20:53,2025-02-03 23:23:07,134.406,,,,,,,
508,2025-02-04 00:55:37,2025-02-04 00:57:52,134.407,,,,,,,
509,2025-02-04 02:30:22,2025-02-04 02:32:36,134.406,,,,,,,
510,2025-02-04 04:05:06,2025-02-04 04:07:21,134.407,,,,,,,
511,2025-02-04 05:39:51,2025-02-04 05:42:05,134.41,,,,,,,
512,2025-02-04 07:14:35,2025-02-04 07:16:49,134.406,,,,,,,
513,2025-02-04 08:49:19,2025-02-04 08:51:34,134.403,,,,,,,
514,2025-02-04 10:24:04,2025-02-04 10:26:18,134.403,,,,,,,
515,2025-02-04 11:58:48,2025-02-04 12:01:03,134.402,,,,,,,
516,2025-02-04 13:33:33,2025-02-04 13:35:47,134.403,,,,,,,
517,2025-02-04 15:08:17,2025-02-04 15:10:31,134.402,,,,,,,
518,2025-02-04 16:43:01,2025-02-04 16:45:16,134.406,,,,,,,
519,2025-02-04 18:17:46,2025-02-04 18:20:00,134.41,,,,,,,
520,2025-02-04 19:52:30,2025-02-04 19:54:45,134.402,,,,,,,
521,2025-02-04 21:27:14,2025-02-04 21:29:29,134.406,,,,,,,
522,2025-02-04 23:01:59,2025-02-04 23:04:13,134.401,,,,,,,
523,2025-02-05 00:36:43,2025-02-05 00:38:58,134.406,,,,,,,
524,2025-02-05 02:11:28,2025-02-05 02:13:42,134.41,,,,,,,
525,2025-02-05 03:46:12,2025-02-05 03:48:26,134.407,,,,,,,
526,2025-02-05 05:20:56,2025-02-05 05:23:11,134.405,,,,,,,
527,2025-02-05 06:55:41,2025-02-05 06:57:55,134.409,,,,,,,
528,2025-02-05 08:30:25,2025-02-05 08:32:40,134.404,,,,,,,
529,2025-02-05 10:05:10,2025-02-05 10:07:24,134.401,,,,,,,
530,2025-02-05 11:39:54,2025-02-05 11:42:08,134.401,,,,,,,
531,2025-02-05 13:14:38,2025-02-05 13:16:53,134.401,,,,,,,
532,2025-02-05 14:49:23,2025-02-05 14:51:37,134.401,,,,,,,
533,2025-02-05 16:24:07,2025-02-05 16:26:22,134.402,,,,,,,
534,2025-02-05 17:58:52,2025-02-05 18:01:06,134.406,,,,,,,
535,2025-02-05 19:33:36,2025-02-05 19:35:50,134.406,,,,,,,
536,2025-02-05 21:08:20,2025-02-05 21:10:35,134.405,,,,,,,
537,2025-02-05 22:43:05,2025-02-05 22:45:19,134.407,,,,,,,
538,2025-02-06 00:17:49,2025-02-06 00:20:03,134.409,,,,,,,
539,2025-02-06 01:52:33,2025-02-06 01:54:48,134.405,,,,,,,
540,2025-02-06 03:27:18,2025-02-06 03:29:32,134.405,,,,,,,
541,2025-02-06 05:02:02,2025-02-06 05:04:17,134.402,,,,,,,
542,2025-02-06 06:36:47,2025-02-06 06:39:01,134.405,,,,,,,
543,2025-02-06 08:11:31,2025-02-06 08:13:45,134.408,,,,,,,
544,2025-02-06 09:46:15,2025-02-06 09:48:30,134.405,,,,,,,
545,2025-02-06 11:21:00,2025-02-06 11:23:14,134.405,,,,,,,
546,2025-02-06 12:55:44,2025-02-06 12:57:59,134.404,,,,,,,
547,2025-02-06 14:30:29,2025-02-06 14:32:43,134.404,,,,,,,
548,2025-02-06 16:05:13,2025-02-06 16:07:27,134.401,,,,,,,
549,2025-02-06 17:39:57,2025-02-06 17:42:12,134.405,,,,,,,
550,2025-02-06 19:14:42,2025-02-06 19:16:56,134.405,,,,,,,
551,2025-02-06 20:49:26,2025-02-06 20:51:40,134.405,,,,,,,
552,2025-02-06 22:24:10,2025-02-06 22:26:25,134.409,,,,,,,
553,2025-02-06 23:58:55,2025-02-07 00:01:09,134.406,,,,,,,
554,2025-02-07 01:33:39,2025-02-07 01:35:54,134.405,,,,,,,
555,2025-02-07 03:08:24,2025-02-07 03:10:38,134.404,,,,,,,
556,2025-02-07 04:43:08,2025-02-07 04:45:22,134.4,,,,,,,
557,2025-02-07 06:17:52,2025-02-07 06:20:07,134.405,,,,,,,
558,2025-02-07 07:52:37,2025-02-07 07:54:51,134.401,,,,,,,
559,2025-02-07 09:27:21,2025-02-07 09:29:36,134.4,,,,,,,
560,2025-02-07 11:02:06,2025-02-07 11:04:20,134.4,,,,,,,
561,2025-02-07 12:36:50,2025-02-07 12:39:04,134.4,,,,,,,
562,2025-02-07 14:11:34,2025-02-07 14:13:49,134.4,,,,,,,
563,2025-02-07 15:46:19,2025-02-07 15:48:33,134.4,,,,,,,
564,2025-02-07 17:21:03,2025-02-07 17:23:17,134.404,,,,,,,
565,2025-02-07 18:55:47,2025-02-07 18:58:02,134.404,,,,,,,
566,2025-02-07 20:30:32,2025-02-07 20:32:46,134.405,,,,,,,
567,2025-02-07 22:05:16,2025-02-07 22:07:31,134.403,,,,,,,
568,2025-02-07 23:40:01,2025-02-07 23:42:15,134.406,,,,,,,
569,2025-02-08 01:14:45,2025-02-08 01:16:59,134.404,,,,,,,
570,2025-02-08 02:49:29,2025-02-08 02:51:44,134.404,,,,,,,
571,2025-02-08 04:24:14,2025-02-08 04:26:28,134.402,,,,,,,
572,2025-02-08 05:58:58,2025-02-08 06:01:13,134.407,,,,,,,
573,2025-02-08 07:33:43,2025-02-08 07:35:57,134.403,,,,,,,
574,2025-02-08 09:08:27,2025-02-08 09:10:41,134.399,,,,,,,
575,2025-02-08 10:43:11,2025-02-08 10:45:26,134.401,,,,,,,
576,2025-02-08 12:17:56,2025-02-08 12:20:10,134.4,,,,,,,
577,2025-02-08 13:52:40,2025-02-08 13:54:54,134.399,,,,,,,
578,2025-02-08 15:27:24,2025-02-08 15:29:39,134.399,,,,,,,
579,2025-02-08 17:02:09,2025-02-08 17:04:23,134.404,,,,,,,
580,2025-02-08 18:36:53,2025-02-08 18:39:08,134.404,,,,,,,
581,2025-02-08 20:11:38,2025-02-08 20:13:52,134.406,,,,,,,
582,2025-02-08 21:46:22,2025-02-08 21:48:36,134.405,,,,,,,
583,2025-02-08 23:21:06,2025-02-08 23:23:21,134.403,,,,,,,
584,2025-02-09 00:55:51,2025-02-09 00:58:05,134.405,,,,,,,
585,2025-02-09 02:30:35,2025-02-09 02:32:50,134.403,,,,,,,
586,2025-02-09 04:05:20,2025-02-09 04:07:34,134.404,,,,,,,
587,2025-02-09 05:40:04,2025-02-09 05:42:18,134.407,,,,,,,
588,2025-02-09 07:14:48,2025-02-09 07:17:03,134.403,,,,,,,
589,2025-02-09 08:49:33,2025-02-09 08:51:47,134.4,,,,,,,
590,2025-02-09 10:24:17,2025-02-09 10:26:32,134.4,,,,,,,
591,2025-02-09 11:59:01,2025-02-09 12:01:16,134.399,,,,,,,
592,2025-02-09 13:33:46,2025-02-09 13:36:00,134.4,,,,,,,
593,2025-02-09 15:08:30,2025-02-09 15:10:45,134.399,,,,,,,
594,2025-02-09 16:43:15,2025-02-09 16:45:29,134.403,,,,,,,
595,2025-02-09 18:17:59,2025-02-09 18:20:13,134.408,,,,,,,
596,2025-02-09 19:52:43,2025-02-09 19:54:58,134.4,,,,,,,
597,2025-02-09 21:27:28,2025-02-09 21:29:42,134.403,,,,,,,
598,2025-02-09 23:02:12,2025-02-09 23:04:27,134.398,,,,,,,
599,2025-02-10 00:36:57,2025-02-10 00:39:11,134.403,,,,,,,
600,2025-02-10 02:11:41,2025-02-10 02:13:55,134.407,,,,,,,
601,2025-02-10 03:46:25,2025-02-10 03:48:40,134.404,,,,,,,
602,2025-02-10 05:21:10,2025-02-10 05:23:24,134.403,,,,,,,
603,2025-02-10 06:55:54,2025-02-10 06:58:09,134.406,,,,,,,
604,2025-02-10 08:30:39,2025-02-10 08:32:53,134.401,,,,,,,
605,2025-02-10 10:05:23,2025-02-10 10:07:37,134.398,,,,,,,
606,2025-02-10 11:40:07,2025-02-10 11:42:22,134.398,,,,,,,
607,2025-02-10 13:14:52,2025-02-10 13:17:06,134.398,,,,,,,
608,2025-02-10 14:49:36,2025-02-10 14:51:50,134.398,,,,,,,
609,2025-02-10 16:24:20,2025-02-10 16:26:35,134.399,,,,,,,
610,2025-02-10 17:59:05,2025-02-10 18:01:19,134.403,,,,,,,
611,2025-02-10 19:33:49,2025-02-10 19:36:04,134.403,,,,,,,
612,2025-02-10 21:08:34,2025-02-10 21:10:48,134.403,,,,,,,
613,2025-02-10 22:43:18,2025-02-10 22:45:32,134.404,,,,,,,
614,2025-02-11 00:18:02,2025-02-11 00:20:17,134.407,,,,,,,
615,2025-02-11 01:52:47,2025-02-11 01:55:01,134.403,,,,,,,
616,2025-02-11 03:27:31,2025-02-11 03:29:46,134.403,,,,,,,
617,2025-02-11 05:02:16,2025-02-11 05:04:30,134.4,,,,,,,
618,2025-02-11 06:37:00,2025-02-11 06:39:14,134.403,,,,,,,
619,2025-02-11 08:11:44,2025-02-11 08:13:59,134.406,,,,,,,
620,2025-02-11 09:46:29,2025-02-11 09:48:43,134.403,,,,,,,
621,2025-02-11 11:21:13,2025-02-11 11:23:27,134.402,,,,,,,
622,2025-02-11 12:55:57,2025-02-11 12:58:12,134.402,,,,,,,
623,2025-02-11 14:30:42,2025-02-11 14:32:56,134.401,,,,,,,
624,2025-02-11 16:05:26,2025-02-11 16:07:41,134.399,,,,,,,
625,2025-02-11 17:40:11,2025-02-11 17:42:25,134.403,,,,,,,
626,2025-02-11 19:14:55,2025-02-11 19:17:09,134.403,,,,,,,
627,2025-02-11 20:49:39,2025-02-11 20:51:54,134.403,,,,,,,
628,2025-02-11 22:24:24,2025-02-11 22:26:38,134.407,,,,,,,
629,2025-02-11 23:59:08,2025-02-12 00:01:23,134.403,,,,,,,
630,2025-02-12 01:33:53,2025-02-12 01:36:07,134.403,,,,,,,
631,2025-02-12 03:08:37,2025-02-12 03:10:51,134.402,,,,,,,
632,2025-02-12 04:43:21,2025-02-12 04:45:36,134.398,,,,,,,
633,2025-02-12 06:18:06,2025-02-12 06:20:20,134.403,,,,,,,
634,2025-02-12 07:52:50,2025-02-12 07:55:04,134.399,,,,,,,
635,2025-02-12 09:27:34,2025-02-12 09:29:49,134.398,,,,,,,
636,2025-02-12 11:02:19,2025-02-12 11:04:33,134.398,,,,,,,
637,2025-02-12 12:37:03,2025-02-12 12:39:18,134.398,,,,,,,
638,2025-02-12 14:11:48,2025-02-12 14:14:02,134.398,,,,,,,
639,2025-02-12 15:46:32,2025-02-12 15:48:46,134.398,,,,,,,
640,2025-02-12 17:21:16,2025-02-12 17:23:31,134.403,,,,,,,
641,2025-02-12 18:56:01,2025-02-12 18:58:15,134.402,,,,,,,
642,2025-02-12 20:30:45,2025-02-12 20:33:00,134.403,,,,,,,
643,2025-02-12 22:05:30,2025-02-12 22:07:44,134.402,,,,,,,
644,2025-02-12 23:40:14,2025-02-12 23:42:28,134.404,,,,,,,
645,2025-02-13 01:14:58,2025-02-13 01:17:13,134.402,,,,,,,
646,2025-02-13 02:49:43,2025-02-13 02:51:57,134.402,,,,,,,
647,2025-02-13 04:24:27,2025-02-13 04:26:41,134.401,,,,,,,
648,2025-02-13 05:59:11,2025-02-13 06:01:26,134.406,,,,,,,
649,2025-02-13 07:33:56,2025-02-13 07:36:10,134.397,,,,,,,
650,2025-02-13 09:08:40,2025-02-13 09:10:55,134.397,,,,,,,
651,2025-02-13 10:43:25,2025-02-13 10:45:39,134.4,,,,,,,
652,2025-02-13 12:18:09,2025-02-13 12:20:23,134.398,,,,,,,
653,2025-02-13 13:52:53,2025-02-13 13:55:08,134.398,,,,,,,
654,2025-02-13 15:27:38,2025-02-13 15:29:52,134.398,,,,,,,
655,2025-02-13 17:02:22,2025-02-13 17:04:37,134.402,,,,,,,
656,2025-02-13 18:37:07,2025-02-13 18:39:21,134.402,,,,,,,
657,2025-02-13 20:11:51,2025-02-13 20:14:05,134.404,,,,,,,
658,2025-02-13 21:46:35,2025-02-13 21:48:50,134.403,,,,,,,
659,2025-02-13 23:21:20,2025-02-13 23:23:34,134.402,,,,,,,
660,2025-02-14 00:56:04,2025-02-14 00:58:19,134.403,,,,,,,
661,2025-02-14 02:30:48,2025-02-14 02:33:03,134.402,,,,,,,
662,2025-02-14 04:05:33,2025-02-14 04:07:47,134.403,,,,,,,
663,2025-02-14 05:40:17,2025-02-14 05:42:32,134.406,,,,,,,
664,2025-02-14 07:15:02,2025-02-14 07:17:16,134.402,,,,,,,
665,2025-02-14 08:49:46,2025-02-14 08:52:00,134.399,,,,,,,
666,2025-02-14 10:24:30,2025-02-14 10:26:45,134.399,,,,,,,
667,2025-02-14 11:59:15,2025-02-14 12:01:29,134.398,,,,,,,
668,2025-02-14 13:33:59,2025-02-14 13:36:14,134.399,,,,,,,
669,2025-02-14 15:08:44,2025-02-14 15:10:58,134.398,,,,,,,
670,2025-02-14 16:43:28,2025-02-14 16:45:42,134.402,,,,,,,
671,2025-02-14 18:18:12,2025-02-14 18:20:27,134.407,,,,,,,
672,2025-02-14 19:52:57,2025-02-14 19:55:11,134.399,,,,,,,
673,2025-02-14 21:27:41,2025-02-14 21:29:56,134.402,,,,,,,
674,2025-02-14 23:02:26,2025-02-14 23:04:40,134.397,,,,,,,
675,2025-02-15 00:37:10,2025-02-15 00:39:24,134.402,,,,,,,
676,2025-02-15 02:11:54,2025-02-15 02:14:09,134.406,,,,,,,
677,2025-02-15 03:46:39,2025-02-15 03:48:53,134.403,,,,,,,
678,2025-02-15 05:21:23,2025-02-15 05:23:37,134.402,,,,,,,
679,2025-02-15 06:56:07,2025-02-15 06:58:22,134.405,,,,,,,
680,2025-02-15 08:30:52,2025-02-15 08:33:06,134.4,,,,,,,
681,2025-02-15 10:05:36,2025-02-15 10:07:51,134.397,,,,,,,
682,2025-02-15 11:40:21,2025-02-15 11:42:35,134.397,,,,,,,
683,2025-02-15 13:15:05,2025-02-15 13:17:19,134.397,,,,,,,
684,2025-02-15 14:49:49,2025-02-15 14:52:04,134.397,,,,,,,
685,2025-02-15 16:24:34,2025-02-15 16:26:48,134.398,,,,,,,
686,2025-02-15 17:59:18,2025-02-15 18:01:33,134.402,,,,,,,
687,2025-02-15 19:34:03,2025-02-15 19:36:17,134.402,,,,,,,
688,2025-02-15 21:08:47,2025-02-15 21:11:01,134.402,,,,,,,
689,2025-02-15 22:43:31,2025-02-15 22:45:46,134.404,,,,,,,
690,2025-02-16 00:18:16,2025-02-16 00:20:30,134.406,,,,,,,
691,2025-02-16 01:53:00,2025-02-16 01:55:14,134.402,,,,,,,
692,2025-02-16 03:27:44,2025-02-16 03:29:59,134.402,,,,,,,
693,2025-02-16 05:02:29,2025-02-16 05:04:43,134.399,,,,,,,
694,2025-02-16 06:37:13,2025-02-16 06:39:28,134.402,,,,,,,
695,2025-02-16 08:11:58,2025-02-16 08:14:12,134.405,,,,,,,
696,2025-02-16 09:46:42,2025-02-16 09:48:56,134.402,,,,,,,
697,2025-02-16 11:21:26,2025-02-16 11:23:41,134.402,,,,,,,
698,2025-02-16 12:56:11,2025-02-16 12:58:25,134.401,,,,,,,
699,2025-02-16 14:30:55,2025-02-16 14:33:10,134.401,,,,,,,
700,2025-02-16 16:05:40,2025-02-16 16:07:54,134.398,,,,,,,
701,2025-02-16 17:40:24,2025-02-16 17:42:38,134.402,,,,,,,
702,2025-02-16 19:15:08,2025-02-16 19:17:23,134.402,,,,,,,
703,2025-02-16 20:49:53,2025-02-16 20:52:07,134.402,,,,,,,
704,2025-02-16 22:24:37,2025-02-16 22:26:51,134.406,,,,,,,
705,2025-02-16 23:59:21,2025-02-17 00:01:36,134.403,,,,,,,
706,2025-02-17 01:34:06,2025-02-17 01:36:20,134.402,,,,,,,
707,2025-02-17 03:08:50,2025-02-17 03:11:05,134.401,,,,,,,
708,2025-02-17 04:43:35,2025-02-17 04:45:49,134.397,,,,,,,
709,2025-02-17 06:18:19,2025-02-17 06:20:33,134.402,,,,,,,
710,2025-02-17 07:53:03,2025-02-17 07:55:18,134.398,,,,,,,
711,2025-02-17 09:27:48,2025-02-17 09:30:02,134.397,,,,,,,
712,2025-02-17 11:02:32,2025-02-17 11:04:47,134.397,,,,,,,
713,2025-02-17 12:37:17,2025-02-17 12:39:31,134.397,,,,,,,
714,2025-02-17 14:12:01,2025-02-17 14:14:15,134.397,,,,,,,
715,2025-02-17 15:46:45,2025-02-17 15:49:00,134.397,,,,,,,
716,2025-02-17 17:21:30,2025-02-17 17:23:44,134.402,,,,,,,
717,2025-02-17 18:56:14,2025-02-17 18:58:29,134.401,,,,,,,
718,2025-02-17 20:30:58,2025-02-17 20:33:13,134.402,,,,,,,
719,2025-02-17 22:05:43,2025-02-17 22:07:57,134.401,,,,,,,
720,2025-02-17 23:40:27,2025-02-17 23:42:42,134.403,,,,,,,
721,2025-02-18 01:15:12,2025-02-18 01:17:26,134.401,,,,,,,
722,2025-02-18 02:49:56,2025-02-18 02:52:10,134.401,,,,,,,
723,2025-02-18 04:24:40,2025-02-18 04:26:55,134.4,,,,,,,
724,2025-02-18 05:59:25,2025-02-18 06:01:39,134.405,,,,,,,
725,2025-02-18 07:34:09,2025-02-18 07:36:24,134.396,,,,,,,
726,2025-02-18 09:08:54,2025-02-18 09:11:08,134.396,,,,,,,
727,2025-02-18 10:43:38,2025-02-18 10:45:52,134.398,,,,,,,
728,2025-02-18 12:18:22,2025-02-18 12:20:37,134.397,,,,,,,
729,2025-02-18 13:53:07,2025-02-18 13:55:21,134.397,,,,,,,
730,2025-02-18 15:27:51,2025-02-18 15:30:06,134.396,,,,,,,
731,2025-02-18 17:02:36,2025-02-18 17:04:50,134.401,,,,,,,
732,2025-02-18 18:37:20,2025-02-18 18:39:34,134.401,,,,,,,
733,2025-02-18 20:12:04,2025-02-18 20:14:19,134.403,,,,,,,
734,2025-02-18 21:46:49,2025-02-18 21:49:03,134.402,,,,,,,
735,2025-02-18 23:21:33,2025-02-18 23:23:47,134.401,,,,,,,
736,2025-02-19 00:56:17,2025-02-19 00:58:32,134.402,,,,,,,
737,2025-02-19 02:31:02,2025-02-19 02:33:16,134.401,,,,,,,
738,2025-02-19 04:05:46,2025-02-19 04:08:01,134.401,,,,,,,
739,2025-02-19 05:40:31,2025-02-19 05:42:45,134.404,,,,,,,
740,2025-02-19 07:15:15,2025-02-19 07:17:29,134.4,,,,,,,
741,2025-02-19 08:49:59,2025-02-19 08:52:14,134.397,,,,,,,
742,2025-02-19 10:24:44,2025-02-19 10:26:58,134.397,,,,,,,
743,2025-02-19 11:59:28,2025-02-19 12:01:43,134.396,,,,,,,
744,2025-02-19 13:34:13,2025-02-19 13:36:27,134.397,,,,,,,
745,2025-02-19 15:08:57,2025-02-19 15:11:11,134.397,,,,,,,
746,2025-02-19 16:43:41,2025-02-19 16:45:56,134.401,,,,,,,
747,2025-02-19 18:18:26,2025-02-19 18:20:40,134.405,,,,,,,
748,2025-02-19 19:53:10,2025-02-19 19:55:24,134.397,,,,,,,
749,2025-02-19 21:27:54,2025-02-19 21:30:09,134.401,,,,,,,
750,2025-02-19 23:02:39,2025-02-19 23:04:53,134.396,,,,,,,
751,2025-02-20 00:37:23,2025-02-20 00:39:38,134.4,,,,,,,
752,2025-02-20 02:12:08,2025-02-20 02:14:22,134.404,,,,,,,
753,2025-02-20 03:46:52,2025-02-20 03:49:06,134.402,,,,,,,
754,2025-02-20 05:21:36,2025-02-20 05:23:51,134.4,,,,,,,
755,2025-02-20 06:56:21,2025-02-20 06:58:35,134.404,,,,,,,
756,2025-02-20 08:31:05,2025-02-20 08:33:20,134.398,,,,,,,
757,2025-02-20 10:05:50,2025-02-20 10:08:04,134.395,,,,,,,
758,2025-02-20 11:40:34,2025-02-20 11:42:48,134.395,,,,,,,
759,2025-02-20 13:15:18,2025-02-20 13:17:33,134.396,,,,,,,
760,2025-02-20 14:50:03,2025-02-20 14:52:17,134.396,,,,,,,
761,2025-02-20 16:24:47,2025-02-20 16:27:01,134.396,,,,,,,
762,2025-02-20 17:59:31,2025-02-20 18:01:46,134.4,,,,,,,
763,2025-02-20 19:34:16,2025-02-20 19:36:30,134.4,,,,,,,
764,2025-02-20 21:09:00,2025-02-20 21:11:15,134.4,,,,,,,
765,2025-02-20 22:43:45,2025-02-20 22:45:59,134.402,,,,,,,
766,2025-02-21 00:18:29,2025-02-21 00:20:43,134.404,,,,,,,
767,2025-02-21 01:53:13,2025-02-21 01:55:28,134.4,,,,,,,
768,2025-02-21 03:27:58,2025-02-21 03:30:12,134.4,,,,,,,
769,2025-02-21 05:02:42,2025-02-21 05:04:57,134.397,,,,,,,
770,2025-02-21 06:37:27,2025-02-21 06:39:41,134.4,,,,,,,
771,2025-02-21 08:12:11,2025-02-21 08:14:25,134.403,,,,,,,
772,2025-02-21 09:46:55,2025-02-21 09:49:10,134.4,,,,,,,
773,2025-02-21 11:21:40,2025-02-21 11:23:54,134.399,,,,,,,
774,2025-02-21 12:56:24,2025-02-21 12:58:38,134.399,,,,,,,
775,2025-02-21 14:31:08,2025-02-21 14:33:23,134.398,,,,,,,
776,2025-02-21 16:05:53,2025-02-21 16:08:07,134.396,,,,,,,
777,2025-02-21 17:40:37,2025-02-21 17:42:52,134.4,,,,,,,
778,2025-02-21 19:15:22,2025-02-21 19:17:36,134.399,,,,,,,
779,2025-02-21 20:50:06,2025-02-21 20:52:20,134.399,,,,,,,
780,2025-02-21 22:24:50,2025-02-21 22:27:05,134.404,,,,,,,
781,2025-02-21 23:59:35,2025-02-22 00:01:49,134.4,,,,,,,
782,2025-02-22 01:34:19,2025-02-22 01:36:34,134.4,,,,,,,
783,2025-02-22 03:09:04,2025-02-22 03:11:18,134.399,,,,,,,
784,2025-02-22 04:43:48,2025-02-22 04:46:02,134.395,,,,,,,
785,2025-02-22 06:18:32,2025-02-22 06:20:47,134.399,,,,,,,
786,2025-02-22 07:53:17,2025-02-22 07:55:31,134.396,,,,,,,
787,2025-02-22 09:28:01,2025-02-22 09:30:16,134.395,,,,,,,
788,2025-02-22 11:02:45,2025-02-22 11:05:00,134.394,,,,,,,
789,2025-02-22 12:37:30,2025-02-22 12:39:44,134.394,,,,,,,
790,2025-02-22 14:12:14,2025-02-22 14:14:29,134.394,,,,,,,
791,2025-02-22 15:46:59,2025-02-22 15:49:13,134.394,,,,,,,
792,2025-02-22 17:21:43,2025-02-22 17:23:57,134.399,,,,,,,
793,2025-02-22 18:56:27,2025-02-22 18:58:42,134.399,,,,,,,
794,2025-02-22 20:31:12,2025-02-22 20:33:26,134.399,,,,,,,
795,2025-02-22 22:05:56,2025-02-22 22:08:11,134.398,,,,,,,
796,2025-02-22 23:40:41,2025-02-22 23:42:55,134.4,,,,,,,
797,2025-02-23 01:15:25,2025-02-23 01:17:39,134.398,,,,,,,
798,2025-02-23 02:50:09,2025-02-23 02:52:24,134.398,,,,,,,
799,2025-02-23 04:24:54,2025-02-23 04:27:08,134.397,,,,,,,
800,2025-02-23 05:59:38,2025-02-23 06:01:53,134.402,,,,,,,
801,2025-02-23 07:34:23,2025-02-23 07:36:37,134.393,,,,,,,
802,2025-02-23 09:09:07,2025-02-23 09:11:21,134.393,,,,,,,
803,2025-02-23 10:43:51,2025-02-23 10:46:06,134.396,,,,,,,
804,2025-02-23 12:18:36,2025-02-23 12:20:50,134.394,,,,,,,
805,2025-02-23 13:53:20,2025-02-23 13:55:34,134.394,,,,,,,
806,2025-02-23 15:28:04,2025-02-23 15:30:19,134.394,,,,,,,
807,2025-02-23 17:02:49,2025-02-23 17:05:03,134.399,,,,,,,
808,2025-02-23 18:37:33,2025-02-23 18:39:48,134.398,,,,,,,
809,2025-02-23 20:12:18,2025-02-23 20:14:32,134.4,,,,,,,
810,2025-02-23 21:47:02,2025-02-23 21:49:16,134.4,,,,,,,
811,2025-02-23 23:21:46,2025-02-23 23:24:01,134.398,,,,,,,
812,2025-02-24 00:56:31,2025-02-24 00:58:45,134.399,,,,,,,
813,2025-02-24 02:31:15,2025-02-24 02:33:30,134.398,,,,,,,
814,2025-02-24 04:06:00,2025-02-24 04:08:14,134.398,,,,,,,
815,2025-02-24 05:40:44,2025-02-24 05:42:58,134.401,,,,,,,
816,2025-02-24 07:15:28,2025-02-24 07:17:43,134.397,,,,,,,
817,2025-02-24 08:50:13,2025-02-24 08:52:27,134.394,,,,,,,
818,2025-02-24 10:24:57,2025-02-24 10:27:11,134.394,,,,,,,
819,2025-02-24 11:59:41,2025-02-24 12:01:56,134.394,,,,,,,
820,2025-02-24 13:34:26,2025-02-24 13:36:40,134.394,,,,,,,
821,2025-02-24 15:09:10,2025-02-24 15:11:25,134.394,,,,,,,
822,2025-02-24 16:43:55,2025-02-24 16:46:09,134.398,,,,,,,
823,2025-02-24 18:18:39,2025-02-24 18:20:53,134.402,,,,,,,
824,2025-02-24 19:53:23,2025-02-24 19:55:38,134.394,,,,,,,
825,2025-02-24 21:28:08,2025-02-24 21:30:22,134.398,,,,,,,
826,2025-02-24 23:02:52,2025-02-24 23:05:07,134.393,,,,,,,
827,2025-02-25 00:37:37,2025-02-25 00:39:51,134.397,,,,,,,
828,2025-02-25 02:12:21,2025-02-25 02:14:35,134.401,,,,,,,
829,2025-02-25 03:47:05,2025-02-25 03:49:20,134.399,,,,,,,
830,2025-02-25 05:21:50,2025-02-25 05:24:04,134.397,,,,,,,
831,2025-02-25 06:56:34,2025-02-25 06:58:48,134.401,,,,,,,
832,2025-02-25 08:31:18,2025-02-25 08:33:33,134.396,,,,,,,
833,2025-02-25 10:06:03,2025-02-25 10:08:17,134.393,,,,,,,
834,2025-02-25 11:40:47,2025-02-25 11:43:02,134.393,,,,,,,
835,2025-02-25 13:15:32,2025-02-25 13:17:46,134.393,,,,,,,
836,2025-02-25 14:50:16,2025-02-25 14:52:30,134.393,,,,,,,
837,2025-02-25 16:25:00,2025-02-25 16:27:15,134.394,,,,,,,
838,2025-02-25 17:59:45,2025-02-25 18:01:59,134.398,,,,,,,
839,2025-02-25 19:34:29,2025-02-25 19:36:44,134.398,,,,,,,
840,2025-02-25 21:09:14,2025-02-25 21:11:28,134.397,,,,,,,
841,2025-02-25 22:43:58,2025-02-25 22:46:12,134.399,,,,,,,
842,2025-02-26 00:18:42,2025-02-26 00:20:57,134.401,,,,,,,
843,2025-02-26 01:53:27,2025-02-26 01:55:41,134.398,,,,,,,
844,2025-02-26 03:28:11,2025-02-26 03:30:25,134.397,,,,,,,
845,2025-02-26 05:02:55,2025-02-26 05:05:10,134.394,,,,,,,
846,2025-02-26 06:37:40,2025-02-26 06:39:54,134.397,,,,,,,
847,2025-02-26 08:12:24,2025-02-26 08:14:39,134.401,,,,,,,
848,2025-02-26 09:47:09,2025-02-26 09:49:23,134.397,,,,,,,
849,2025-02-26 11:21:53,2025-02-26 11:24:07,134.397,,,,,,,
850,2025-02-26 12:56:37,2025-02-26 12:58:52,134.396,,,,,,,
851,2025-02-26 14:31:22,2025-02-26 14:33:36,134.396,,,,,,,
852,2025-02-26 16:06:06,2025-02-26 16:08:21,134.393,,,,,,,
853,2025-02-26 17:40:51,2025-02-26 17:43:05,134.397,,,,,,,
854,2025-02-26 19:15:35,2025-02-26 19:17:49,134.397,,,,,,,
855,2025-02-26 20:50:19,2025-02-26 20:52:34,134.397,,,,,,,
856,2025-02-26 22:25:04,2025-02-26 22:27:18,134.401,,,,,,,
857,2025-02-26 23:59:48,2025-02-27 00:02:03,134.398,,,,,,,
858,2025-02-27 01:34:32,2025-02-27 01:36:47,134.397,,,,,,,
859,2025-02-27 03:09:17,2025-02-27 03:11:31,134.397,,,,,,,
860,2025-02-27 04:44:01,2025-02-27 04:46:16,134.393,,,,,,,
861,2025-02-27 06:18:46,2025-02-27 06:21:00,134.397,,,,,,,
862,2025-02-27 07:53:30,2025-02-27 07:55:44,134.394,,,,,,,
863,2025-02-27 09:28:14,2025-02-27 09:30:29,134.393,,,,,,,
864,2025-02-27 11:02:59,2025-02-27 11:05:13,134.392,,,,,,,
865,2025-02-27 12:37:43,2025-02-27 12:39:58,134.392,,,,,,,
866,2025-02-27 14:12:28,2025-02-27 14:14:42,134.392,,,,,,,
867,2025-02-27 15:47:12,2025-02-27 15:49:26,134.392,,,,,,,
868,2025-02-27 17:21:56,2025-02-27 17:24:11,134.397,,,,,,,
869,2025-02-27 18:56:41,2025-02-27 18:58:55,134.397,,,,,,,
870,2025-02-27 20:31:25,2025-02-27 20:33:40,134.398,,,,,,,
871,2025-02-27 22:06:10,2025-02-27 22:08:24,134.396,,,,,,,
872,2025-02-27 23:40:54,2025-02-27 23:43:08,134.399,,,,,,,
873,2025-02-28 01:15:38,2025-02-28 01:17:53,134.396,,,,,,,
874,2025-02-28 02:50:23,2025-02-28 02:52:37,134.397,,,,,,,
875,2025-02-28 04:25:07,2025-02-28 04:27:21,134.395,,,,,,,
876,2025-02-28 05:59:51,2025-02-28 06:02:06,134.4,,,,,,,
877,2025-02-28 07:34:36,2025-02-28 07:36:50,134.392,,,,,,,
878,2025-02-28 09:09:20,2025-02-28 09:11:35,134.392,,,,,,,
879,2025-02-28 10:44:05,2025-02-28 10:46:19,134.394,,,,,,,
880,2025-02-28 12:18:49,2025-02-28 12:21:03,134.393,,,,,,,
881,2025-02-28 13:53:33,2025-02-28 13:55:48,134.392,,,,,,,
882,2025-02-28 15:28:18,2025-02-28 15:30:32,134.392,,,,,,,
883,2025-02-28 17:03:02,2025-02-28 17:05:17,134.397,,,,,,,
884,2025-02-28 18:37:47,2025-02-28 18:40:01,134.397,,,,,,,
885,2025-02-28 20:12:31,2025-02-28 20:14:45,134.399,,,,,,,
886,2025-02-28 21:47:15,2025-02-28 21:49:30,134.398,,,,,,,
887,2025-02-28 23:22:00,2025-02-28 23:24:14,134.397,,,,,,,
888,2025-03-01 00:56:44,2025-03-01 00:58:58,134.398,,,,,,,
889,2025-03-01 02:31:28,2025-03-01 02:33:43,134.396,,,,,,,
890,2025-03-01 04:06:13,2025-03-01 04:08:27,134.397,,,,,,,
891,2025-03-01 05:40:57,2025-03-01 05:43:12,134.4,,,,,,,
892,2025-03-01 07:15:42,2025-03-01 07:17:56,134.396,,,,,,,
893,2025-03-01 08:50:26,2025-03-01 08:52:40,134.393,,,,,,,
894,2025-03-01 10:25:10,2025-03-01 10:27:25,134.393,,,,,,,
895,2025-03-01 11:59:55,2025-03-01 12:02:09,134.392,,,,,,,
896,2025-03-01 13:34:39,2025-03-01 13:36:54,134.393,,,,,,,
897,2025-03-01 15:09:24,2025-03-01 15:11:38,134.392,,,,,,,
898,2025-03-01 16:44:08,2025-03-01 16:46:22,134.397,,,,,,,
899,2025-03-01 18:18:52,2025-03-01 18:21:07,134.401,,,,,,,
900,2025-03-01 19:53:37,2025-03-01 19:55:51,134.393,,,,,,,
901,2025-03-01 21:28:21,2025-03-01 21:30:35,134.397,,,,,,,
902,2025-03-01 23:03:05,2025-03-01 23:05:20,134.392,,,,,,,
903,2025-03-02 00:37:50,2025-03-02 00:40:04,134.396,,,,,,,
904,2025-03-02 02:12:34,2025-03-02 02:14:49,134.4,,,,,,,
905,2025-03-02 03:47:19,2025-03-02 03:49:33,134.398,,,,,,,
906,2025-03-02 05:22:03,2025-03-02 05:24:17,134.396,,,,,,,
907,2025-03-02 06:56:47,2025-03-02 06:59:02,134.4,,,,,,,
908,2025-03-02 08:31:32,2025-03-02 08:33:46,134.395,,,,,,,
909,2025-03-02 10:06:16,2025-03-02 10:08:31,134.391,,,,,,,
910,2025-03-02 11:41:01,2025-03-02 11:43:15,134.392,,,,,,,
911,2025-03-02 13:15:45,2025-03-02 13:17:59,134.392,,,,,,,
912,2025-03-02 14:50:29,2025-03-02 14:52:44,134.392,,,,,,,
913,2025-03-02 16:25:14,2025-03-02 16:27:28,134.393,,,,,,,
914,2025-03-02 17:59:58,2025-03-02 18:02:13,134.397,,,,,,,
915,2025-03-02 19:34:42,2025-03-02 19:36:57,134.397,,,,,,,
916,2025-03-02 21:09:27,2025-03-02 21:11:41,134.396,,,,,,,
917,2025-03-02 22:44:11,2025-03-02 22:46:26,134.398,,,,,,,
918,2025-03-03 00:18:56,2025-03-03 00:21:10,134.4,,,,,,,
919,2025-03-03 01:53:40,2025-03-03 01:55:54,134.397,,,,,,,
920,2025-03-03 03:28:24,2025-03-03 03:30:39,134.396,,,,,,,
921,2025-03-03 05:03:09,2025-03-03 05:05:23,134.393,,,,,,,
922,2025-03-03 06:37:53,2025-03-03 06:40:08,134.396,,,,,,,
923,2025-03-03 08:12:38,2025-03-03 08:14:52,134.399,,,,,,,
924,2025-03-03 09:47:22,2025-03-03 09:49:36,134.396,,,,,,,
925,2025-03-03 11:22:06,2025-03-03 11:24:21,134.396,,,,,,,
926,2025-03-03 12:56:51,2025-03-03 12:59:05,134.395,,,,,,,
927,2025-03-03 14:31:35,2025-03-03 14:33:50,134.395,,,,,,,
928,2025-03-03 16:06:20,2025-03-03 16:08:34,134.392,,,,,,,
929,2025-03-03 17:41:04,2025-03-03 17:43:18,134.396,,,,,,,
930,2025-03-03 19:15:48,2025-03-03 19:18:03,134.396,,,,,,,
931,2025-03-03 20:50:33,2025-03-03 20:52:47,134.396,,,,,,,
932,2025-03-03 22:25:17,2025-03-03 22:27:31,134.4,,,,,,,
933,2025-03-04 00:00:01,2025-03-04 00:02:16,134.397,,,,,,,
934,2025-03-04 01:34:46,2025-03-04 01:37:00,134.396,,,,,,,
935,2025-03-04 03:09:30,2025-03-04 03:11:45,134.396,,,,,,,
936,2025-03-04 04:44:15,2025-03-04 04:46:29,134.391,,,,,,,
937,2025-03-04 06:18:59,2025-03-04 06:21:13,134.396,,,,,,,
938,2025-03-04 07:53:43,2025-03-04 07:55:58,134.392,,,,,,,
939,2025-03-04 09:28:28,2025-03-04 09:30:42,134.391,,,,,,,
940,2025-03-04 11:03:12,2025-03-04 11:05:27,134.391,,,,,,,
941,2025-03-04 12:37:57,2025-03-04 12:40:11,134.391,,,,,,,
942,2025-03-04 14:12:41,2025-03-04 14:14:55,134.391,,,,,,,
943,2025-03-04 15:47:25,2025-03-04 15:49:40,134.391,,,,,,,
944,2025-03-04 17:22:10,2025-03-04 17:24:24,134.396,,,,,,,
945,2025-03-04 18:56:54,2025-03-04 18:59:08,134.395,,,,,,,
946,2025-03-04 20:31:38,2025-03-04 20:33:53,134.396,,,,,,,
947,2025-03-04 22:06:23,2025-03-04 22:08:37,134.395,,,,,,,
948,2025-03-04 23:41:07,2025-03-04 23:43:22,134.397,,,,,,,
949,2025-03-05 01:15:52,2025-03-05 01:18:06,134.395,,,,,,,
950,2025-03-05 02:50:36,2025-03-05 02:52:50,134.395,,,,,,,
951,2025-03-05 04:25:20,2025-03-05 04:27:35,134.394,,,,,,,
952,2025-03-05 06:00:05,2025-03-05 06:02:19,134.398,,,,,,,
953,2025-03-05 07:34:49,2025-03-05 07:37:04,134.39,,,,,,,
954,2025-03-05 09:09:34,2025-03-05 09:11:48,134.39,,,,,,,
955,2025-03-05 10:44:18,2025-03-05 10:46:32,134.392,,,,,,,
956,2025-03-05 12:19:02,2025-03-05 12:21:17,134.391,,,,,,,
957,2025-03-05 13:53:47,2025-03-05 13:56:01,134.391,,,,,,,
958,2025-03-05 15:28:31,2025-03-05 15:30:45,134.39,,,,,,,
959,2025-03-05 17:03:15,2025-03-05 17:05:30,134.395,,,,,,,
960,2025-03-05 18:38:00,2025-03-05 18:40:14,134.395,,,,,,,
961,2025-03-05 20:12:44,2025-03-05 20:14:59,134.397,,,,,,,
962,2025-03-05 21:47:29,2025-03-05 21:49:43,134.396,,,,,,,
963,2025-03-05 23:22:13,2025-03-05 23:24:27,134.395,,,,,,,
964,2025-03-06 00:56:57,2025-03-06 00:59:12,134.396,,,,,,,
965,2025-03-06 02:31:42,2025-03-06 02:33:56,134.394,,,,,,,
966,2025-03-06 04:06:26,2025-03-06 04:08:41,134.395,,,,,,,
967,2025-03-06 05:41:11,2025-03-06 05:43:25,134.398,,,,,,,
968,2025-03-06 07:15:55,2025-03-06 07:18:09,134.394,,,,,,,
969,2025-03-06 08:50:39,2025-03-06 08:52:54,134.391,,,,,,,
970,2025-03-06 10:25:24,2025-03-06 10:27:38,134.391,,,,,,,
971,2025-03-06 12:00:08,2025-03-06 12:02:22,134.39,,,,,,,
972,2025-03-06 13:34:52,2025-03-06 13:37:07,134.391,,,,,,,
973,2025-03-06 15:09:37,2025-03-06 15:11:51,134.39,,,,,,,
974,2025-03-06 16:44:21,2025-03-06 16:46:36,134.394,,,,,,,
975,2025-03-06 18:19:06,2025-03-06 18:21:20,134.399,,,,,,,
976,2025-03-06 19:53:50,2025-03-06 19:56:04,134.391,,,,,,,
977,2025-03-06 21:28:34,2025-03-06 21:30:49,134.394,,,,,,,
978,2025-03-06 23:03:19,2025-03-06 23:05:33,134.389,,,,,,,
979,2025-03-07 00:38:03,2025-03-07 00:40:18,134.394,,,,,,,
980,2025-03-07 02:12:48,2025-03-07 02:15:02,134.398,,,,,,,
981,2025-03-07 03:47:32,2025-03-07 03:49:46,134.395,,,,,,,
982,2025-03-07 05:22:16,2025-03-07 05:24:31,134.394,,,,,,,
983,2025-03-07 06:57:01,2025-03-07 06:59:15,134.397,,,,,,,
984,2025-03-07 08:31:45,2025-03-07 08:34:00,134.392,,,,,,,
985,2025-03-07 10:06:29,2025-03-07 10:08:44,134.389,,,,,,,
986,2025-03-07 11:41:14,2025-03-07 11:43:28,134.389,,,,,,,
987,2025-03-07 13:15:58,2025-03-07 13:18:13,134.389,,,,,,,
988,2025-03-07 14:50:43,2025-03-07 14:52:57,134.389,,,,,,,
989,2025-03-07 16:25:27,2025-03-07 16:27:41,134.39,,,,,,,
990,2025-03-07 18:00:11,2025-03-07 18:02:26,134.394,,,,,,,
991,2025-03-07 19:34:56,2025-03-07 19:37:10,134.394,,,,,,,
992,2025-03-07 21:09:40,2025-03-07 21:11:55,134.394,,,,,,,
993,2025-03-07 22:44:25,2025-03-07 22:46:39,134.395,,,,,,,
994,2025-03-08 00:19:09,2025-03-08 00:21:23,134.397,,,,,,,
995,2025-03-08 01:53:53,2025-03-08 01:56:08,134.394,,,,,,,
996,2025-03-08 03:28:38,2025-03-08 03:30:52,134.393,,,,,,,
997,2025-03-08 05:03:22,2025-03-08 05:05:37,134.39,,,,,,,
998,2025-03-08 06:38:07,2025-03-08 06:40:21,134.393,,,,,,,
999,2025-03-08 08:12:51,2025-03-08 08:15:05,134.397,,,,,,,
1000,2025-03-08 09:47:35,2025-03-08 09:49:50,134.393,,,,,,,
1001,2025-03-08 11:22:20,2025-03-08 11:24:34,134.393,,,,,,,
1002,2025-03-08 12:57:04,2025-03-08 12:59:18,134.392,,,,,,,
1003,2025-03-08 14:31:48,2025-03-08 14:34:03,134.392,,,,,,,
1004,2025-03-08 16:06:33,2025-03-08 16:08:47,134.389,,,,,,,
1005,2025-03-08 17:41:17,2025-03-08 17:43:32,134.393,,,,,,,
1006,2025-03-08 19:16:02,2025-03-08 19:18:16,134.393,,,,,,,
1007,2025-03-08 20:50:46,2025-03-08 20:53:00,134.393,,,,,,,
1008,2025-03-08 22:25:30,2025-03-08 22:27:45,134.397,,,,,,,
1009,2025-03-09 00:00:15,2025-03-09 00:02:29,134.394,,,,,,,
1010,2025-03-09 01:34:59,2025-03-09 01:37:14,134.393,,,,,,,
1011,2025-03-09 03:09:44,2025-03-09 03:11:58,134.393,,,,,,,
1012,2025-03-09 04:44:28,2025-03-09 04:46:42,134.388,,,,,,,
1013,2025-03-09 06:19:12,2025-03-09 06:21:27,134.393,,,,,,,
1014,2025-03-09 07:53:57,2025-03-09 07:56:11,134.389,,,,,,,
1015,2025-03-09 09:28:41,2025-03-09 09:30:55,134.388,,,,,,,
1016,2025-03-09 11:03:25,2025-03-09 11:05:40,134.388,,,,,,,
