3UCubedIntegratedSim/Reports & Plots/Area Target Access Data/CSV/Sat7.csv

Access,Start Time (UTCG),Stop Time (UTCG),Duration (sec),,,Global Statistics,,,,
1,2025-01-01 16:23:10,2025-01-01 16:25:37,147.215,,,Min Duration,5539,2026-01-01 00:51:58,2026-01-01 00:54:25,147.154
2,2025-01-01 17:57:54,2025-01-01 18:00:21,147.214,,,Max Duration,3939,2025-09-17 18:28:21,2025-09-17 18:30:48,147.302
3,2025-01-01 19:32:39,2025-01-01 19:35:06,147.215,,,Mean Duration,,,,147.231
4,2025-01-01 21:07:23,2025-01-01 21:09:50,147.214,,,Total Duration,,,,816835.685
5,2025-01-01 22:42:07,2025-01-01 22:44:35,147.21,,,,,,,
6,2025-01-02 00:16:52,2025-01-02 00:19:19,147.211,,,,,,,
7,2025-01-02 01:51:36,2025-01-02 01:54:03,147.218,,,,,,,
8,2025-01-02 03:26:21,2025-01-02 03:28:48,147.215,,,,,,,
9,2025-01-02 05:01:05,2025-01-02 05:03:32,147.214,,,,,,,
10,2025-01-02 06:35:49,2025-01-02 06:38:17,147.214,,,,,,,
11,2025-01-02 08:10:34,2025-01-02 08:13:01,147.214,,,,,,,
12,2025-01-02 09:45:18,2025-01-02 09:47:45,147.214,,,,,,,
13,2025-01-02 11:20:02,2025-01-02 11:22:30,147.211,,,,,,,
14,2025-01-02 12:54:47,2025-01-02 12:57:14,147.214,,,,,,,
15,2025-01-02 14:29:31,2025-01-02 14:31:58,147.214,,,,,,,
16,2025-01-02 16:04:16,2025-01-02 16:06:43,147.214,,,,,,,
17,2025-01-02 17:39:00,2025-01-02 17:41:27,147.216,,,,,,,
18,2025-01-02 19:13:44,2025-01-02 19:16:12,147.214,,,,,,,
19,2025-01-02 20:48:29,2025-01-02 20:50:56,147.214,,,,,,,
20,2025-01-02 22:23:13,2025-01-02 22:25:40,147.214,,,,,,,
21,2025-01-02 23:57:58,2025-01-03 00:00:25,147.211,,,,,,,
22,2025-01-03 01:32:42,2025-01-03 01:35:09,147.21,,,,,,,
23,2025-01-03 03:07:26,2025-01-03 03:09:54,147.214,,,,,,,
24,2025-01-03 04:42:11,2025-01-03 04:44:38,147.215,,,,,,,
25,2025-01-03 06:16:55,2025-01-03 06:19:22,147.215,,,,,,,
26,2025-01-03 07:51:39,2025-01-03 07:54:07,147.215,,,,,,,
27,2025-01-03 09:26:24,2025-01-03 09:28:51,147.21,,,,,,,
28,2025-01-03 11:01:08,2025-01-03 11:03:35,147.214,,,,,,,
29,2025-01-03 12:35:53,2025-01-03 12:38:20,147.211,,,,,,,
30,2025-01-03 14:10:37,2025-01-03 14:13:04,147.215,,,,,,,
31,2025-01-03 15:45:21,2025-01-03 15:47:49,147.215,,,,,,,
32,2025-01-03 17:20:06,2025-01-03 17:22:33,147.214,,,,,,,
33,2025-01-03 18:54:50,2025-01-03 18:57:17,147.216,,,,,,,
34,2025-01-03 20:29:35,2025-01-03 20:32:02,147.21,,,,,,,
35,2025-01-03 22:04:19,2025-01-03 22:06:46,147.214,,,,,,,
36,2025-01-03 23:39:03,2025-01-03 23:41:31,147.219,,,,,,,
37,2025-01-04 01:13:48,2025-01-04 01:16:15,147.216,,,,,,,
38,2025-01-04 02:48:32,2025-01-04 02:50:59,147.214,,,,,,,
39,2025-01-04 04:23:17,2025-01-04 04:25:44,147.216,,,,,,,
40,2025-01-04 05:58:01,2025-01-04 06:00:28,147.215,,,,,,,
41,2025-01-04 07:32:45,2025-01-04 07:35:13,147.214,,,,,,,
42,2025-01-04 09:07:30,2025-01-04 09:09:57,147.215,,,,,,,
43,2025-01-04 10:42:14,2025-01-04 10:44:41,147.217,,,,,,,
44,2025-01-04 12:16:58,2025-01-04 12:19:26,147.217,,,,,,,
45,2025-01-04 13:51:43,2025-01-04 13:54:10,147.218,,,,,,,
46,2025-01-04 15:26:27,2025-01-04 15:28:54,147.215,,,,,,,
47,2025-01-04 17:01:12,2025-01-04 17:03:39,147.215,,,,,,,
48,2025-01-04 18:35:56,2025-01-04 18:38:23,147.219,,,,,,,
49,2025-01-04 20:10:40,2025-01-04 20:13:08,147.21,,,,,,,
50,2025-01-04 21:45:25,2025-01-04 21:47:52,147.218,,,,,,,
51,2025-01-04 23:20:09,2025-01-04 23:22:36,147.217,,,,,,,
52,2025-01-05 00:54:54,2025-01-05 00:57:21,147.21,,,,,,,
53,2025-01-05 02:29:38,2025-01-05 02:32:05,147.211,,,,,,,
54,2025-01-05 04:04:22,2025-01-05 04:06:50,147.217,,,,,,,
55,2025-01-05 05:39:07,2025-01-05 05:41:34,147.215,,,,,,,
56,2025-01-05 07:13:51,2025-01-05 07:16:18,147.214,,,,,,,
57,2025-01-05 08:48:35,2025-01-05 08:51:03,147.216,,,,,,,
58,2025-01-05 10:23:20,2025-01-05 10:25:47,147.215,,,,,,,
59,2025-01-05 11:58:04,2025-01-05 12:00:31,147.215,,,,,,,
60,2025-01-05 13:32:49,2025-01-05 13:35:16,147.215,,,,,,,
61,2025-01-05 15:07:33,2025-01-05 15:10:00,147.215,,,,,,,
62,2025-01-05 16:42:17,2025-01-05 16:44:45,147.215,,,,,,,
63,2025-01-05 18:17:02,2025-01-05 18:19:29,147.219,,,,,,,
64,2025-01-05 19:51:46,2025-01-05 19:54:13,147.21,,,,,,,
65,2025-01-05 21:26:31,2025-01-05 21:28:58,147.219,,,,,,,
66,2025-01-05 23:01:15,2025-01-05 23:03:42,147.215,,,,,,,
67,2025-01-06 00:35:59,2025-01-06 00:38:27,147.21,,,,,,,
68,2025-01-06 02:10:44,2025-01-06 02:13:11,147.211,,,,,,,
69,2025-01-06 03:45:28,2025-01-06 03:47:55,147.218,,,,,,,
70,2025-01-06 05:20:12,2025-01-06 05:22:40,147.214,,,,,,,
71,2025-01-06 06:54:57,2025-01-06 06:57:24,147.214,,,,,,,
72,2025-01-06 08:29:41,2025-01-06 08:32:08,147.216,,,,,,,
73,2025-01-06 10:04:26,2025-01-06 10:06:53,147.215,,,,,,,
74,2025-01-06 11:39:10,2025-01-06 11:41:37,147.215,,,,,,,
75,2025-01-06 13:13:54,2025-01-06 13:16:22,147.215,,,,,,,
76,2025-01-06 14:48:39,2025-01-06 14:51:06,147.215,,,,,,,
77,2025-01-06 16:23:23,2025-01-06 16:25:50,147.215,,,,,,,
78,2025-01-06 17:58:08,2025-01-06 18:00:35,147.218,,,,,,,
79,2025-01-06 19:32:52,2025-01-06 19:35:19,147.214,,,,,,,
80,2025-01-06 21:07:36,2025-01-06 21:10:04,147.214,,,,,,,
81,2025-01-06 22:42:21,2025-01-06 22:44:48,147.216,,,,,,,
82,2025-01-07 00:17:05,2025-01-07 00:19:32,147.211,,,,,,,
83,2025-01-07 01:51:49,2025-01-07 01:54:17,147.212,,,,,,,
84,2025-01-07 03:26:34,2025-01-07 03:29:01,147.218,,,,,,,
85,2025-01-07 05:01:18,2025-01-07 05:03:45,147.214,,,,,,,
86,2025-01-07 06:36:03,2025-01-07 06:38:30,147.215,,,,,,,
87,2025-01-07 08:10:47,2025-01-07 08:13:14,147.215,,,,,,,
88,2025-01-07 09:45:31,2025-01-07 09:47:59,147.214,,,,,,,
89,2025-01-07 11:20:16,2025-01-07 11:22:43,147.212,,,,,,,
90,2025-01-07 12:55:00,2025-01-07 12:57:27,147.214,,,,,,,
91,2025-01-07 14:29:45,2025-01-07 14:32:12,147.215,,,,,,,
92,2025-01-07 16:04:29,2025-01-07 16:06:56,147.215,,,,,,,
93,2025-01-07 17:39:13,2025-01-07 17:41:41,147.218,,,,,,,
94,2025-01-07 19:13:58,2025-01-07 19:16:25,147.213,,,,,,,
95,2025-01-07 20:48:42,2025-01-07 20:51:09,147.216,,,,,,,
96,2025-01-07 22:23:27,2025-01-07 22:25:54,147.211,,,,,,,
97,2025-01-07 23:58:11,2025-01-08 00:00:38,147.21,,,,,,,
98,2025-01-08 01:32:55,2025-01-08 01:35:22,147.218,,,,,,,
99,2025-01-08 03:07:40,2025-01-08 03:10:07,147.217,,,,,,,
100,2025-01-08 04:42:24,2025-01-08 04:44:51,147.214,,,,,,,
101,2025-01-08 06:17:08,2025-01-08 06:19:36,147.217,,,,,,,
102,2025-01-08 07:51:53,2025-01-08 07:54:20,147.214,,,,,,,
103,2025-01-08 09:26:37,2025-01-08 09:29:04,147.215,,,,,,,
104,2025-01-08 11:01:22,2025-01-08 11:03:49,147.215,,,,,,,
105,2025-01-08 12:36:06,2025-01-08 12:38:33,147.215,,,,,,,
106,2025-01-08 14:10:50,2025-01-08 14:13:18,147.215,,,,,,,
107,2025-01-08 15:45:35,2025-01-08 15:48:02,147.214,,,,,,,
108,2025-01-08 17:20:19,2025-01-08 17:22:46,147.214,,,,,,,
109,2025-01-08 18:55:04,2025-01-08 18:57:31,147.216,,,,,,,
110,2025-01-08 20:29:48,2025-01-08 20:32:15,147.209,,,,,,,
111,2025-01-08 22:04:32,2025-01-08 22:07:00,147.214,,,,,,,
112,2025-01-08 23:39:17,2025-01-08 23:41:44,147.218,,,,,,,
113,2025-01-09 01:14:01,2025-01-09 01:16:28,147.214,,,,,,,
114,2025-01-09 02:48:45,2025-01-09 02:51:13,147.213,,,,,,,
115,2025-01-09 04:23:30,2025-01-09 04:25:57,147.215,,,,,,,
116,2025-01-09 05:58:14,2025-01-09 06:00:41,147.213,,,,,,,
117,2025-01-09 07:32:59,2025-01-09 07:35:26,147.213,,,,,,,
118,2025-01-09 09:07:43,2025-01-09 09:10:10,147.214,,,,,,,
119,2025-01-09 10:42:27,2025-01-09 10:44:55,147.216,,,,,,,
120,2025-01-09 12:17:12,2025-01-09 12:19:39,147.216,,,,,,,
121,2025-01-09 13:51:56,2025-01-09 13:54:23,147.216,,,,,,,
122,2025-01-09 15:26:41,2025-01-09 15:29:08,147.217,,,,,,,
123,2025-01-09 17:01:25,2025-01-09 17:03:52,147.214,,,,,,,
124,2025-01-09 18:36:09,2025-01-09 18:38:37,147.218,,,,,,,
125,2025-01-09 20:10:54,2025-01-09 20:13:21,147.209,,,,,,,
126,2025-01-09 21:45:38,2025-01-09 21:48:05,147.217,,,,,,,
127,2025-01-09 23:20:22,2025-01-09 23:22:50,147.216,,,,,,,
128,2025-01-10 00:55:07,2025-01-10 00:57:34,147.208,,,,,,,
129,2025-01-10 02:29:51,2025-01-10 02:32:18,147.209,,,,,,,
130,2025-01-10 04:04:36,2025-01-10 04:07:03,147.216,,,,,,,
131,2025-01-10 05:39:20,2025-01-10 05:41:47,147.213,,,,,,,
132,2025-01-10 07:14:04,2025-01-10 07:16:32,147.212,,,,,,,
133,2025-01-10 08:48:49,2025-01-10 08:51:16,147.214,,,,,,,
134,2025-01-10 10:23:33,2025-01-10 10:26:00,147.214,,,,,,,
135,2025-01-10 11:58:18,2025-01-10 12:00:45,147.213,,,,,,,
136,2025-01-10 13:33:02,2025-01-10 13:35:29,147.213,,,,,,,
137,2025-01-10 15:07:46,2025-01-10 15:10:14,147.213,,,,,,,
138,2025-01-10 16:42:31,2025-01-10 16:44:58,147.213,,,,,,,
139,2025-01-10 18:17:15,2025-01-10 18:19:42,147.217,,,,,,,
140,2025-01-10 19:51:59,2025-01-10 19:54:27,147.208,,,,,,,
141,2025-01-10 21:26:44,2025-01-10 21:29:11,147.217,,,,,,,
142,2025-01-10 23:01:28,2025-01-10 23:03:55,147.213,,,,,,,
143,2025-01-11 00:36:13,2025-01-11 00:38:40,147.208,,,,,,,
144,2025-01-11 02:10:57,2025-01-11 02:13:24,147.209,,,,,,,
145,2025-01-11 03:45:41,2025-01-11 03:48:09,147.215,,,,,,,
146,2025-01-11 05:20:26,2025-01-11 05:22:53,147.212,,,,,,,
147,2025-01-11 06:55:10,2025-01-11 06:57:37,147.211,,,,,,,
148,2025-01-11 08:29:55,2025-01-11 08:32:22,147.213,,,,,,,
149,2025-01-11 10:04:39,2025-01-11 10:07:06,147.213,,,,,,,
150,2025-01-11 11:39:23,2025-01-11 11:41:51,147.213,,,,,,,
151,2025-01-11 13:14:08,2025-01-11 13:16:35,147.213,,,,,,,
152,2025-01-11 14:48:52,2025-01-11 14:51:19,147.213,,,,,,,
153,2025-01-11 16:23:36,2025-01-11 16:26:04,147.212,,,,,,,
154,2025-01-11 17:58:21,2025-01-11 18:00:48,147.216,,,,,,,
155,2025-01-11 19:33:05,2025-01-11 19:35:32,147.211,,,,,,,
156,2025-01-11 21:07:50,2025-01-11 21:10:17,147.212,,,,,,,
157,2025-01-11 22:42:34,2025-01-11 22:45:01,147.214,,,,,,,
158,2025-01-12 00:17:18,2025-01-12 00:19:46,147.208,,,,,,,
159,2025-01-12 01:52:03,2025-01-12 01:54:30,147.209,,,,,,,
160,2025-01-12 03:26:47,2025-01-12 03:29:14,147.215,,,,,,,
161,2025-01-12 05:01:32,2025-01-12 05:03:59,147.212,,,,,,,
162,2025-01-12 06:36:16,2025-01-12 06:38:43,147.213,,,,,,,
163,2025-01-12 08:11:00,2025-01-12 08:13:28,147.213,,,,,,,
164,2025-01-12 09:45:45,2025-01-12 09:48:12,147.212,,,,,,,
165,2025-01-12 11:20:29,2025-01-12 11:22:56,147.21,,,,,,,
166,2025-01-12 12:55:14,2025-01-12 12:57:41,147.212,,,,,,,
167,2025-01-12 14:29:58,2025-01-12 14:32:25,147.212,,,,,,,
168,2025-01-12 16:04:42,2025-01-12 16:07:09,147.212,,,,,,,
169,2025-01-12 17:39:27,2025-01-12 17:41:54,147.216,,,,,,,
170,2025-01-12 19:14:11,2025-01-12 19:16:38,147.211,,,,,,,
171,2025-01-12 20:48:55,2025-01-12 20:51:23,147.213,,,,,,,
172,2025-01-12 22:23:40,2025-01-12 22:26:07,147.209,,,,,,,
173,2025-01-12 23:58:24,2025-01-13 00:00:51,147.208,,,,,,,
174,2025-01-13 01:33:09,2025-01-13 01:35:36,147.215,,,,,,,
175,2025-01-13 03:07:53,2025-01-13 03:10:20,147.215,,,,,,,
176,2025-01-13 04:42:37,2025-01-13 04:45:05,147.211,,,,,,,
177,2025-01-13 06:17:22,2025-01-13 06:19:49,147.214,,,,,,,
178,2025-01-13 07:52:06,2025-01-13 07:54:33,147.212,,,,,,,
179,2025-01-13 09:26:51,2025-01-13 09:29:18,147.213,,,,,,,
180,2025-01-13 11:01:35,2025-01-13 11:04:02,147.212,,,,,,,
181,2025-01-13 12:36:19,2025-01-13 12:38:47,147.212,,,,,,,
182,2025-01-13 14:11:04,2025-01-13 14:13:31,147.212,,,,,,,
183,2025-01-13 15:45:48,2025-01-13 15:48:15,147.212,,,,,,,
184,2025-01-13 17:20:32,2025-01-13 17:23:00,147.212,,,,,,,
185,2025-01-13 18:55:17,2025-01-13 18:57:44,147.214,,,,,,,
186,2025-01-13 20:30:01,2025-01-13 20:32:28,147.207,,,,,,,
187,2025-01-13 22:04:46,2025-01-13 22:07:13,147.212,,,,,,,
188,2025-01-13 23:39:30,2025-01-13 23:41:57,147.215,,,,,,,
189,2025-01-14 01:14:14,2025-01-14 01:16:42,147.212,,,,,,,
190,2025-01-14 02:48:59,2025-01-14 02:51:26,147.211,,,,,,,
191,2025-01-14 04:23:43,2025-01-14 04:26:10,147.213,,,,,,,
192,2025-01-14 05:58:28,2025-01-14 06:00:55,147.211,,,,,,,
193,2025-01-14 07:33:12,2025-01-14 07:35:39,147.211,,,,,,,
194,2025-01-14 09:07:56,2025-01-14 09:10:24,147.212,,,,,,,
195,2025-01-14 10:42:41,2025-01-14 10:45:08,147.214,,,,,,,
196,2025-01-14 12:17:25,2025-01-14 12:19:52,147.214,,,,,,,
197,2025-01-14 13:52:09,2025-01-14 13:54:37,147.214,,,,,,,
198,2025-01-14 15:26:54,2025-01-14 15:29:21,147.215,,,,,,,
199,2025-01-14 17:01:38,2025-01-14 17:04:05,147.212,,,,,,,
200,2025-01-14 18:36:23,2025-01-14 18:38:50,147.216,,,,,,,
201,2025-01-14 20:11:07,2025-01-14 20:13:34,147.207,,,,,,,
202,2025-01-14 21:45:51,2025-01-14 21:48:19,147.215,,,,,,,
203,2025-01-14 23:20:36,2025-01-14 23:23:03,147.214,,,,,,,
204,2025-01-15 00:55:20,2025-01-15 00:57:47,147.207,,,,,,,
205,2025-01-15 02:30:05,2025-01-15 02:32:32,147.208,,,,,,,
206,2025-01-15 04:04:49,2025-01-15 04:07:16,147.214,,,,,,,
207,2025-01-15 05:39:33,2025-01-15 05:42:01,147.211,,,,,,,
208,2025-01-15 07:14:18,2025-01-15 07:16:45,147.211,,,,,,,
209,2025-01-15 08:49:02,2025-01-15 08:51:29,147.213,,,,,,,
210,2025-01-15 10:23:46,2025-01-15 10:26:14,147.212,,,,,,,
211,2025-01-15 11:58:31,2025-01-15 12:00:58,147.212,,,,,,,
212,2025-01-15 13:33:15,2025-01-15 13:35:42,147.212,,,,,,,
213,2025-01-15 15:08:00,2025-01-15 15:10:27,147.212,,,,,,,
214,2025-01-15 16:42:44,2025-01-15 16:45:11,147.211,,,,,,,
215,2025-01-15 18:17:28,2025-01-15 18:19:56,147.215,,,,,,,
216,2025-01-15 19:52:13,2025-01-15 19:54:40,147.207,,,,,,,
217,2025-01-15 21:26:57,2025-01-15 21:29:24,147.215,,,,,,,
218,2025-01-15 23:01:42,2025-01-15 23:04:09,147.212,,,,,,,
219,2025-01-16 00:36:26,2025-01-16 00:38:53,147.207,,,,,,,
220,2025-01-16 02:11:10,2025-01-16 02:13:38,147.208,,,,,,,
221,2025-01-16 03:45:55,2025-01-16 03:48:22,147.214,,,,,,,
222,2025-01-16 05:20:39,2025-01-16 05:23:06,147.21,,,,,,,
223,2025-01-16 06:55:24,2025-01-16 06:57:51,147.21,,,,,,,
224,2025-01-16 08:30:08,2025-01-16 08:32:35,147.212,,,,,,,
225,2025-01-16 10:04:52,2025-01-16 10:07:19,147.211,,,,,,,
226,2025-01-16 11:39:37,2025-01-16 11:42:04,147.211,,,,,,,
227,2025-01-16 13:14:21,2025-01-16 13:16:48,147.212,,,,,,,
228,2025-01-16 14:49:05,2025-01-16 14:51:33,147.212,,,,,,,
229,2025-01-16 16:23:50,2025-01-16 16:26:17,147.211,,,,,,,
230,2025-01-16 17:58:34,2025-01-16 18:01:01,147.215,,,,,,,
231,2025-01-16 19:33:19,2025-01-16 19:35:46,147.21,,,,,,,
232,2025-01-16 21:08:03,2025-01-16 21:10:30,147.211,,,,,,,
233,2025-01-16 22:42:47,2025-01-16 22:45:15,147.213,,,,,,,
234,2025-01-17 00:17:32,2025-01-17 00:19:59,147.207,,,,,,,
235,2025-01-17 01:52:16,2025-01-17 01:54:43,147.208,,,,,,,
236,2025-01-17 03:27:01,2025-01-17 03:29:28,147.215,,,,,,,
237,2025-01-17 05:01:45,2025-01-17 05:04:12,147.211,,,,,,,
238,2025-01-17 06:36:29,2025-01-17 06:38:56,147.212,,,,,,,
239,2025-01-17 08:11:14,2025-01-17 08:13:41,147.212,,,,,,,
240,2025-01-17 09:45:58,2025-01-17 09:48:25,147.211,,,,,,,
241,2025-01-17 11:20:42,2025-01-17 11:23:10,147.209,,,,,,,
242,2025-01-17 12:55:27,2025-01-17 12:57:54,147.211,,,,,,,
243,2025-01-17 14:30:11,2025-01-17 14:32:38,147.212,,,,,,,
244,2025-01-17 16:04:56,2025-01-17 16:07:23,147.211,,,,,,,
245,2025-01-17 17:39:40,2025-01-17 17:42:07,147.215,,,,,,,
246,2025-01-17 19:14:24,2025-01-17 19:16:52,147.21,,,,,,,
247,2025-01-17 20:49:09,2025-01-17 20:51:36,147.213,,,,,,,
248,2025-01-17 22:23:53,2025-01-17 22:26:20,147.208,,,,,,,
249,2025-01-17 23:58:38,2025-01-18 00:01:05,147.207,,,,,,,
250,2025-01-18 01:33:22,2025-01-18 01:35:49,147.215,,,,,,,
251,2025-01-18 03:08:06,2025-01-18 03:10:34,147.214,,,,,,,
252,2025-01-18 04:42:51,2025-01-18 04:45:18,147.211,,,,,,,
253,2025-01-18 06:17:35,2025-01-18 06:20:02,147.214,,,,,,,
254,2025-01-18 07:52:19,2025-01-18 07:54:47,147.211,,,,,,,
255,2025-01-18 09:27:04,2025-01-18 09:29:31,147.212,,,,,,,
256,2025-01-18 11:01:48,2025-01-18 11:04:15,147.212,,,,,,,
257,2025-01-18 12:36:33,2025-01-18 12:39:00,147.212,,,,,,,
258,2025-01-18 14:11:17,2025-01-18 14:13:44,147.212,,,,,,,
259,2025-01-18 15:46:01,2025-01-18 15:48:29,147.212,,,,,,,
260,2025-01-18 17:20:46,2025-01-18 17:23:13,147.211,,,,,,,
261,2025-01-18 18:55:30,2025-01-18 18:57:57,147.214,,,,,,,
262,2025-01-18 20:30:15,2025-01-18 20:32:42,147.207,,,,,,,
263,2025-01-18 22:04:59,2025-01-18 22:07:26,147.211,,,,,,,
264,2025-01-18 23:39:43,2025-01-18 23:42:11,147.215,,,,,,,
265,2025-01-19 01:14:28,2025-01-19 01:16:55,147.212,,,,,,,
266,2025-01-19 02:49:12,2025-01-19 02:51:39,147.21,,,,,,,
267,2025-01-19 04:23:56,2025-01-19 04:26:24,147.213,,,,,,,
268,2025-01-19 05:58:41,2025-01-19 06:01:08,147.211,,,,,,,
269,2025-01-19 07:33:25,2025-01-19 07:35:52,147.211,,,,,,,
270,2025-01-19 09:08:10,2025-01-19 09:10:37,147.212,,,,,,,
271,2025-01-19 10:42:54,2025-01-19 10:45:21,147.214,,,,,,,
272,2025-01-19 12:17:38,2025-01-19 12:20:06,147.214,,,,,,,
273,2025-01-19 13:52:23,2025-01-19 13:54:50,147.214,,,,,,,
274,2025-01-19 15:27:07,2025-01-19 15:29:34,147.214,,,,,,,
275,2025-01-19 17:01:52,2025-01-19 17:04:19,147.211,,,,,,,
276,2025-01-19 18:36:36,2025-01-19 18:39:03,147.215,,,,,,,
277,2025-01-19 20:11:20,2025-01-19 20:13:48,147.207,,,,,,,
278,2025-01-19 21:46:05,2025-01-19 21:48:32,147.214,,,,,,,
279,2025-01-19 23:20:49,2025-01-19 23:23:16,147.214,,,,,,,
280,2025-01-20 00:55:33,2025-01-20 00:58:01,147.206,,,,,,,
281,2025-01-20 02:30:18,2025-01-20 02:32:45,147.207,,,,,,,
282,2025-01-20 04:05:02,2025-01-20 04:07:29,147.214,,,,,,,
283,2025-01-20 05:39:47,2025-01-20 05:42:14,147.211,,,,,,,
284,2025-01-20 07:14:31,2025-01-20 07:16:58,147.21,,,,,,,
285,2025-01-20 08:49:15,2025-01-20 08:51:43,147.212,,,,,,,
286,2025-01-20 10:24:00,2025-01-20 10:26:27,147.211,,,,,,,
287,2025-01-20 11:58:44,2025-01-20 12:01:11,147.211,,,,,,,
288,2025-01-20 13:33:29,2025-01-20 13:35:56,147.211,,,,,,,
289,2025-01-20 15:08:13,2025-01-20 15:10:40,147.211,,,,,,,
290,2025-01-20 16:42:57,2025-01-20 16:45:25,147.211,,,,,,,
291,2025-01-20 18:17:42,2025-01-20 18:20:09,147.215,,,,,,,
292,2025-01-20 19:52:26,2025-01-20 19:54:53,147.206,,,,,,,
293,2025-01-20 21:27:11,2025-01-20 21:29:38,147.215,,,,,,,
294,2025-01-20 23:01:55,2025-01-20 23:04:22,147.211,,,,,,,
295,2025-01-21 00:36:39,2025-01-21 00:39:06,147.206,,,,,,,
296,2025-01-21 02:11:24,2025-01-21 02:13:51,147.207,,,,,,,
297,2025-01-21 03:46:08,2025-01-21 03:48:35,147.214,,,,,,,
298,2025-01-21 05:20:52,2025-01-21 05:23:20,147.21,,,,,,,
299,2025-01-21 06:55:37,2025-01-21 06:58:04,147.21,,,,,,,
300,2025-01-21 08:30:21,2025-01-21 08:32:48,147.212,,,,,,,
301,2025-01-21 10:05:06,2025-01-21 10:07:33,147.211,,,,,,,
302,2025-01-21 11:39:50,2025-01-21 11:42:17,147.211,,,,,,,
303,2025-01-21 13:14:34,2025-01-21 13:17:02,147.211,,,,,,,
304,2025-01-21 14:49:19,2025-01-21 14:51:46,147.211,,,,,,,
305,2025-01-21 16:24:03,2025-01-21 16:26:30,147.211,,,,,,,
306,2025-01-21 17:58:48,2025-01-21 18:01:15,147.214,,,,,,,
307,2025-01-21 19:33:32,2025-01-21 19:35:59,147.209,,,,,,,
308,2025-01-21 21:08:16,2025-01-21 21:10:44,147.21,,,,,,,
309,2025-01-21 22:43:01,2025-01-21 22:45:28,147.212,,,,,,,
310,2025-01-22 00:17:45,2025-01-22 00:20:12,147.206,,,,,,,
311,2025-01-22 01:52:29,2025-01-22 01:54:57,147.207,,,,,,,
312,2025-01-22 03:27:14,2025-01-22 03:29:41,147.214,,,,,,,
313,2025-01-22 05:01:58,2025-01-22 05:04:25,147.21,,,,,,,
314,2025-01-22 06:36:43,2025-01-22 06:39:10,147.211,,,,,,,
315,2025-01-22 08:11:27,2025-01-22 08:13:54,147.211,,,,,,,
316,2025-01-22 09:46:11,2025-01-22 09:48:39,147.21,,,,,,,
317,2025-01-22 11:20:56,2025-01-22 11:23:23,147.208,,,,,,,
318,2025-01-22 12:55:40,2025-01-22 12:58:07,147.21,,,,,,,
319,2025-01-22 14:30:25,2025-01-22 14:32:52,147.21,,,,,,,
320,2025-01-22 16:05:09,2025-01-22 16:07:36,147.21,,,,,,,
321,2025-01-22 17:39:53,2025-01-22 17:42:21,147.214,,,,,,,
322,2025-01-22 19:14:38,2025-01-22 19:17:05,147.209,,,,,,,
323,2025-01-22 20:49:22,2025-01-22 20:51:49,147.211,,,,,,,
324,2025-01-22 22:24:06,2025-01-22 22:26:34,147.207,,,,,,,
325,2025-01-22 23:58:51,2025-01-23 00:01:18,147.206,,,,,,,
326,2025-01-23 01:33:35,2025-01-23 01:36:02,147.214,,,,,,,
327,2025-01-23 03:08:20,2025-01-23 03:10:47,147.213,,,,,,,
328,2025-01-23 04:43:04,2025-01-23 04:45:31,147.209,,,,,,,
329,2025-01-23 06:17:48,2025-01-23 06:20:16,147.212,,,,,,,
330,2025-01-23 07:52:33,2025-01-23 07:55:00,147.21,,,,,,,
331,2025-01-23 09:27:17,2025-01-23 09:29:44,147.211,,,,,,,
332,2025-01-23 11:02:02,2025-01-23 11:04:29,147.21,,,,,,,
333,2025-01-23 12:36:46,2025-01-23 12:39:13,147.21,,,,,,,
334,2025-01-23 14:11:30,2025-01-23 14:13:58,147.21,,,,,,,
335,2025-01-23 15:46:15,2025-01-23 15:48:42,147.21,,,,,,,
336,2025-01-23 17:20:59,2025-01-23 17:23:26,147.21,,,,,,,
337,2025-01-23 18:55:43,2025-01-23 18:58:11,147.212,,,,,,,
338,2025-01-23 20:30:28,2025-01-23 20:32:55,147.205,,,,,,,
339,2025-01-23 22:05:12,2025-01-23 22:07:39,147.21,,,,,,,
340,2025-01-23 23:39:57,2025-01-23 23:42:24,147.213,,,,,,,
341,2025-01-24 01:14:41,2025-01-24 01:17:08,147.21,,,,,,,
342,2025-01-24 02:49:25,2025-01-24 02:51:53,147.209,,,,,,,
343,2025-01-24 04:24:10,2025-01-24 04:26:37,147.211,,,,,,,
344,2025-01-24 05:58:54,2025-01-24 06:01:21,147.209,,,,,,,
345,2025-01-24 07:33:39,2025-01-24 07:36:06,147.209,,,,,,,
346,2025-01-24 09:08:23,2025-01-24 09:10:50,147.21,,,,,,,
347,2025-01-24 10:43:07,2025-01-24 10:45:35,147.212,,,,,,,
348,2025-01-24 12:17:52,2025-01-24 12:20:19,147.212,,,,,,,
349,2025-01-24 13:52:36,2025-01-24 13:55:03,147.212,,,,,,,
350,2025-01-24 15:27:20,2025-01-24 15:29:48,147.212,,,,,,,
351,2025-01-24 17:02:05,2025-01-24 17:04:32,147.209,,,,,,,
352,2025-01-24 18:36:49,2025-01-24 18:39:16,147.213,,,,,,,
353,2025-01-24 20:11:34,2025-01-24 20:14:01,147.205,,,,,,,
354,2025-01-24 21:46:18,2025-01-24 21:48:45,147.212,,,,,,,
355,2025-01-24 23:21:02,2025-01-24 23:23:30,147.212,,,,,,,
356,2025-01-25 00:55:47,2025-01-25 00:58:14,147.208,,,,,,,
357,2025-01-25 02:30:31,2025-01-25 02:32:58,147.205,,,,,,,
358,2025-01-25 04:05:16,2025-01-25 04:07:43,147.211,,,,,,,
359,2025-01-25 05:40:00,2025-01-25 05:42:27,147.209,,,,,,,
360,2025-01-25 07:14:44,2025-01-25 07:17:12,147.208,,,,,,,
361,2025-01-25 08:49:29,2025-01-25 08:51:56,147.21,,,,,,,
362,2025-01-25 10:24:13,2025-01-25 10:26:40,147.209,,,,,,,
363,2025-01-25 11:58:58,2025-01-25 12:01:25,147.209,,,,,,,
364,2025-01-25 13:33:42,2025-01-25 13:36:09,147.209,,,,,,,
365,2025-01-25 15:08:26,2025-01-25 15:10:53,147.209,,,,,,,
366,2025-01-25 16:43:11,2025-01-25 16:45:38,147.209,,,,,,,
367,2025-01-25 18:17:55,2025-01-25 18:20:22,147.212,,,,,,,
368,2025-01-25 19:52:39,2025-01-25 19:55:07,147.204,,,,,,,
369,2025-01-25 21:27:24,2025-01-25 21:29:51,147.212,,,,,,,
370,2025-01-25 23:02:08,2025-01-25 23:04:35,147.209,,,,,,,
371,2025-01-26 00:36:53,2025-01-26 00:39:20,147.204,,,,,,,
372,2025-01-26 02:11:37,2025-01-26 02:14:04,147.205,,,,,,,
373,2025-01-26 03:46:21,2025-01-26 03:48:49,147.211,,,,,,,
374,2025-01-26 05:21:06,2025-01-26 05:23:33,147.207,,,,,,,
375,2025-01-26 06:55:50,2025-01-26 06:58:17,147.207,,,,,,,
376,2025-01-26 08:30:35,2025-01-26 08:33:02,147.209,,,,,,,
377,2025-01-26 10:05:19,2025-01-26 10:07:46,147.208,,,,,,,
378,2025-01-26 11:40:03,2025-01-26 11:42:30,147.208,,,,,,,
379,2025-01-26 13:14:48,2025-01-26 13:17:15,147.208,,,,,,,
380,2025-01-26 14:49:32,2025-01-26 14:51:59,147.208,,,,,,,
381,2025-01-26 16:24:16,2025-01-26 16:26:44,147.208,,,,,,,
382,2025-01-26 17:59:01,2025-01-26 18:01:28,147.212,,,,,,,
383,2025-01-26 19:33:45,2025-01-26 19:36:12,147.207,,,,,,,
384,2025-01-26 21:08:30,2025-01-26 21:10:57,147.207,,,,,,,
385,2025-01-26 22:43:14,2025-01-26 22:45:41,147.209,,,,,,,
386,2025-01-27 00:17:58,2025-01-27 00:20:26,147.204,,,,,,,
387,2025-01-27 01:52:43,2025-01-27 01:55:10,147.205,,,,,,,
388,2025-01-27 03:27:27,2025-01-27 03:29:54,147.211,,,,,,,
389,2025-01-27 05:02:12,2025-01-27 05:04:39,147.208,,,,,,,
390,2025-01-27 06:36:56,2025-01-27 06:39:23,147.208,,,,,,,
391,2025-01-27 08:11:40,2025-01-27 08:14:08,147.208,,,,,,,
392,2025-01-27 09:46:25,2025-01-27 09:48:52,147.207,,,,,,,
393,2025-01-27 11:21:09,2025-01-27 11:23:36,147.205,,,,,,,
394,2025-01-27 12:55:53,2025-01-27 12:58:21,147.207,,,,,,,
395,2025-01-27 14:30:38,2025-01-27 14:33:05,147.208,,,,,,,
396,2025-01-27 16:05:22,2025-01-27 16:07:49,147.208,,,,,,,
397,2025-01-27 17:40:07,2025-01-27 17:42:34,147.211,,,,,,,
398,2025-01-27 19:14:51,2025-01-27 19:17:18,147.207,,,,,,,
399,2025-01-27 20:49:35,2025-01-27 20:52:03,147.209,,,,,,,
400,2025-01-27 22:24:20,2025-01-27 22:26:47,147.204,,,,,,,
401,2025-01-27 23:59:04,2025-01-28 00:01:31,147.203,,,,,,,
402,2025-01-28 01:33:49,2025-01-28 01:36:16,147.211,,,,,,,
403,2025-01-28 03:08:33,2025-01-28 03:11:00,147.21,,,,,,,
404,2025-01-28 04:43:17,2025-01-28 04:45:45,147.207,,,,,,,
405,2025-01-28 06:18:02,2025-01-28 06:20:29,147.21,,,,,,,
406,2025-01-28 07:52:46,2025-01-28 07:55:13,147.207,,,,,,,
407,2025-01-28 09:27:30,2025-01-28 09:29:58,147.208,,,,,,,
408,2025-01-28 11:02:15,2025-01-28 11:04:42,147.208,,,,,,,
409,2025-01-28 12:36:59,2025-01-28 12:39:26,147.208,,,,,,,
410,2025-01-28 14:11:44,2025-01-28 14:14:11,147.208,,,,,,,
411,2025-01-28 15:46:28,2025-01-28 15:48:55,147.207,,,,,,,
412,2025-01-28 17:21:12,2025-01-28 17:23:40,147.207,,,,,,,
413,2025-01-28 18:55:57,2025-01-28 18:58:24,147.209,,,,,,,
414,2025-01-28 20:30:41,2025-01-28 20:33:08,147.202,,,,,,,
415,2025-01-28 22:05:26,2025-01-28 22:07:53,147.207,,,,,,,
416,2025-01-28 23:40:10,2025-01-28 23:42:37,147.211,,,,,,,
417,2025-01-29 01:14:54,2025-01-29 01:17:22,147.208,,,,,,,
418,2025-01-29 02:49:39,2025-01-29 02:52:06,147.206,,,,,,,
419,2025-01-29 04:24:23,2025-01-29 04:26:50,147.208,,,,,,,
420,2025-01-29 05:59:07,2025-01-29 06:01:35,147.207,,,,,,,
421,2025-01-29 07:33:52,2025-01-29 07:36:19,147.207,,,,,,,
422,2025-01-29 09:08:36,2025-01-29 09:11:03,147.207,,,,,,,
423,2025-01-29 10:43:21,2025-01-29 10:45:48,147.209,,,,,,,
424,2025-01-29 12:18:05,2025-01-29 12:20:32,147.209,,,,,,,
425,2025-01-29 13:52:49,2025-01-29 13:55:17,147.21,,,,,,,
426,2025-01-29 15:27:34,2025-01-29 15:30:01,147.21,,,,,,,
427,2025-01-29 17:02:18,2025-01-29 17:04:45,147.207,,,,,,,
428,2025-01-29 18:37:03,2025-01-29 18:39:30,147.211,,,,,,,
429,2025-01-29 20:11:47,2025-01-29 20:14:14,147.202,,,,,,,
430,2025-01-29 21:46:31,2025-01-29 21:48:59,147.21,,,,,,,
431,2025-01-29 23:21:16,2025-01-29 23:23:43,147.21,,,,,,,
432,2025-01-30 00:56:00,2025-01-30 00:58:27,147.206,,,,,,,
433,2025-01-30 02:30:45,2025-01-30 02:33:12,147.203,,,,,,,
434,2025-01-30 04:05:29,2025-01-30 04:07:56,147.209,,,,,,,
435,2025-01-30 05:40:13,2025-01-30 05:42:40,147.207,,,,,,,
436,2025-01-30 07:14:58,2025-01-30 07:17:25,147.206,,,,,,,
437,2025-01-30 08:49:42,2025-01-30 08:52:09,147.208,,,,,,,
438,2025-01-30 10:24:26,2025-01-30 10:26:54,147.207,,,,,,,
439,2025-01-30 11:59:11,2025-01-30 12:01:38,147.207,,,,,,,
440,2025-01-30 13:33:55,2025-01-30 13:36:22,147.207,,,,,,,
441,2025-01-30 15:08:40,2025-01-30 15:11:07,147.207,,,,,,,
442,2025-01-30 16:43:24,2025-01-30 16:45:51,147.207,,,,,,,
443,2025-01-30 18:18:08,2025-01-30 18:20:36,147.21,,,,,,,
444,2025-01-30 19:52:53,2025-01-30 19:55:20,147.202,,,,,,,
445,2025-01-30 21:27:37,2025-01-30 21:30:04,147.21,,,,,,,
446,2025-01-30 23:02:22,2025-01-30 23:04:49,147.207,,,,,,,
447,2025-01-31 00:37:06,2025-01-31 00:39:33,147.202,,,,,,,
448,2025-01-31 02:11:50,2025-01-31 02:14:18,147.203,,,,,,,
449,2025-01-31 03:46:35,2025-01-31 03:49:02,147.209,,,,,,,
450,2025-01-31 05:21:19,2025-01-31 05:23:46,147.206,,,,,,,
451,2025-01-31 06:56:03,2025-01-31 06:58:31,147.205,,,,,,,
452,2025-01-31 08:30:48,2025-01-31 08:33:15,147.207,,,,,,,
453,2025-01-31 10:05:32,2025-01-31 10:07:59,147.207,,,,,,,
454,2025-01-31 11:40:17,2025-01-31 11:42:44,147.207,,,,,,,
455,2025-01-31 13:15:01,2025-01-31 13:17:28,147.207,,,,,,,
456,2025-01-31 14:49:45,2025-01-31 14:52:13,147.207,,,,,,,
457,2025-01-31 16:24:30,2025-01-31 16:26:57,147.207,,,,,,,
458,2025-01-31 17:59:14,2025-01-31 18:01:41,147.21,,,,,,,
459,2025-01-31 19:33:59,2025-01-31 19:36:26,147.205,,,,,,,
460,2025-01-31 21:08:43,2025-01-31 21:11:10,147.206,,,,,,,
461,2025-01-31 22:43:27,2025-01-31 22:45:55,147.208,,,,,,,
462,2025-02-01 00:18:12,2025-02-01 00:20:39,147.202,,,,,,,
463,2025-02-01 01:52:56,2025-02-01 01:55:23,147.203,,,,,,,
464,2025-02-01 03:27:40,2025-02-01 03:30:08,147.21,,,,,,,
465,2025-02-01 05:02:25,2025-02-01 05:04:52,147.206,,,,,,,
466,2025-02-01 06:37:09,2025-02-01 06:39:36,147.207,,,,,,,
467,2025-02-01 08:11:54,2025-02-01 08:14:21,147.207,,,,,,,
468,2025-02-01 09:46:38,2025-02-01 09:49:05,147.206,,,,,,,
469,2025-02-01 11:21:22,2025-02-01 11:23:50,147.204,,,,,,,
470,2025-02-01 12:56:07,2025-02-01 12:58:34,147.206,,,,,,,
471,2025-02-01 14:30:51,2025-02-01 14:33:18,147.207,,,,,,,
472,2025-02-01 16:05:36,2025-02-01 16:08:03,147.207,,,,,,,
473,2025-02-01 17:40:20,2025-02-01 17:42:47,147.21,,,,,,,
474,2025-02-01 19:15:04,2025-02-01 19:17:32,147.205,,,,,,,
475,2025-02-01 20:49:49,2025-02-01 20:52:16,147.208,,,,,,,
476,2025-02-01 22:24:33,2025-02-01 22:27:00,147.203,,,,,,,
477,2025-02-01 23:59:17,2025-02-02 00:01:45,147.202,,,,,,,
478,2025-02-02 01:34:02,2025-02-02 01:36:29,147.21,,,,,,,
479,2025-02-02 03:08:46,2025-02-02 03:11:13,147.209,,,,,,,
480,2025-02-02 04:43:31,2025-02-02 04:45:58,147.206,,,,,,,
481,2025-02-02 06:18:15,2025-02-02 06:20:42,147.209,,,,,,,
482,2025-02-02 07:52:59,2025-02-02 07:55:27,147.206,,,,,,,
483,2025-02-02 09:27:44,2025-02-02 09:30:11,147.207,,,,,,,
484,2025-02-02 11:02:28,2025-02-02 11:04:55,147.207,,,,,,,
485,2025-02-02 12:37:13,2025-02-02 12:39:40,147.207,,,,,,,
486,2025-02-02 14:11:57,2025-02-02 14:14:24,147.207,,,,,,,
487,2025-02-02 15:46:41,2025-02-02 15:49:09,147.207,,,,,,,
488,2025-02-02 17:21:26,2025-02-02 17:23:53,147.206,,,,,,,
489,2025-02-02 18:56:10,2025-02-02 18:58:37,147.209,,,,,,,
490,2025-02-02 20:30:55,2025-02-02 20:33:22,147.201,,,,,,,
491,2025-02-02 22:05:39,2025-02-02 22:08:06,147.206,,,,,,,
492,2025-02-02 23:40:23,2025-02-02 23:42:50,147.21,,,,,,,
493,2025-02-03 01:15:08,2025-02-03 01:17:35,147.207,,,,,,,
494,2025-02-03 02:49:52,2025-02-03 02:52:19,147.205,,,,,,,
495,2025-02-03 04:24:36,2025-02-03 04:27:04,147.207,,,,,,,
496,2025-02-03 05:59:21,2025-02-03 06:01:48,147.206,,,,,,,
497,2025-02-03 07:34:05,2025-02-03 07:36:32,147.206,,,,,,,
498,2025-02-03 09:08:50,2025-02-03 09:11:17,147.207,,,,,,,
499,2025-02-03 10:43:34,2025-02-03 10:46:01,147.208,,,,,,,
500,2025-02-03 12:18:18,2025-02-03 12:20:46,147.209,,,,,,,
501,2025-02-03 13:53:03,2025-02-03 13:55:30,147.209,,,,,,,
502,2025-02-03 15:27:47,2025-02-03 15:30:14,147.209,,,,,,,
503,2025-02-03 17:02:32,2025-02-03 17:04:59,147.206,,,,,,,
504,2025-02-03 18:37:16,2025-02-03 18:39:43,147.21,,,,,,,
505,2025-02-03 20:12:00,2025-02-03 20:14:27,147.201,,,,,,,
506,2025-02-03 21:46:45,2025-02-03 21:49:12,147.209,,,,,,,
507,2025-02-03 23:21:29,2025-02-03 23:23:56,147.209,,,,,,,
508,2025-02-04 00:56:13,2025-02-04 00:58:41,147.205,,,,,,,
509,2025-02-04 02:30:58,2025-02-04 02:33:25,147.202,,,,,,,
510,2025-02-04 04:05:42,2025-02-04 04:08:09,147.208,,,,,,,
511,2025-02-04 05:40:27,2025-02-04 05:42:54,147.206,,,,,,,
512,2025-02-04 07:15:11,2025-02-04 07:17:38,147.205,,,,,,,
513,2025-02-04 08:49:55,2025-02-04 08:52:23,147.207,,,,,,,
514,2025-02-04 10:24:40,2025-02-04 10:27:07,147.206,,,,,,,
515,2025-02-04 11:59:24,2025-02-04 12:01:51,147.206,,,,,,,
516,2025-02-04 13:34:09,2025-02-04 13:36:36,147.206,,,,,,,
517,2025-02-04 15:08:53,2025-02-04 15:11:20,147.206,,,,,,,
518,2025-02-04 16:43:37,2025-02-04 16:46:05,147.206,,,,,,,
519,2025-02-04 18:18:22,2025-02-04 18:20:49,147.209,,,,,,,
520,2025-02-04 19:53:06,2025-02-04 19:55:33,147.201,,,,,,,
521,2025-02-04 21:27:50,2025-02-04 21:30:18,147.209,,,,,,,
522,2025-02-04 23:02:35,2025-02-04 23:05:02,147.206,,,,,,,
523,2025-02-05 00:37:19,2025-02-05 00:39:46,147.2,,,,,,,
524,2025-02-05 02:12:04,2025-02-05 02:14:31,147.202,,,,,,,
525,2025-02-05 03:46:48,2025-02-05 03:49:15,147.208,,,,,,,
526,2025-02-05 05:21:32,2025-02-05 05:24:00,147.204,,,,,,,
527,2025-02-05 06:56:17,2025-02-05 06:58:44,147.204,,,,,,,
528,2025-02-05 08:31:01,2025-02-05 08:33:28,147.206,,,,,,,
529,2025-02-05 10:05:46,2025-02-05 10:08:13,147.205,,,,,,,
530,2025-02-05 11:40:30,2025-02-05 11:42:57,147.205,,,,,,,
531,2025-02-05 13:15:14,2025-02-05 13:17:42,147.205,,,,,,,
532,2025-02-05 14:49:59,2025-02-05 14:52:26,147.205,,,,,,,
533,2025-02-05 16:24:43,2025-02-05 16:27:10,147.205,,,,,,,
534,2025-02-05 17:59:27,2025-02-05 18:01:55,147.209,,,,,,,
535,2025-02-05 19:34:12,2025-02-05 19:36:39,147.204,,,,,,,
536,2025-02-05 21:08:56,2025-02-05 21:11:23,147.204,,,,,,,
537,2025-02-05 22:43:41,2025-02-05 22:46:08,147.206,,,,,,,
538,2025-02-06 00:18:25,2025-02-06 00:20:52,147.2,,,,,,,
539,2025-02-06 01:53:09,2025-02-06 01:55:37,147.202,,,,,,,
540,2025-02-06 03:27:54,2025-02-06 03:30:21,147.208,,,,,,,
541,2025-02-06 05:02:38,2025-02-06 05:05:05,147.204,,,,,,,
542,2025-02-06 06:37:23,2025-02-06 06:39:50,147.205,,,,,,,
543,2025-02-06 08:12:07,2025-02-06 08:14:34,147.205,,,,,,,
544,2025-02-06 09:46:51,2025-02-06 09:49:19,147.204,,,,,,,
545,2025-02-06 11:21:36,2025-02-06 11:24:03,147.202,,,,,,,
546,2025-02-06 12:56:20,2025-02-06 12:58:47,147.204,,,,,,,
547,2025-02-06 14:31:04,2025-02-06 14:33:32,147.204,,,,,,,
548,2025-02-06 16:05:49,2025-02-06 16:08:16,147.204,,,,,,,
549,2025-02-06 17:40:33,2025-02-06 17:43:00,147.208,,,,,,,
550,2025-02-06 19:15:18,2025-02-06 19:17:45,147.203,,,,,,,
551,2025-02-06 20:50:02,2025-02-06 20:52:29,147.206,,,,,,,
552,2025-02-06 22:24:46,2025-02-06 22:27:14,147.201,,,,,,,
553,2025-02-06 23:59:31,2025-02-07 00:01:58,147.199,,,,,,,
554,2025-02-07 01:34:15,2025-02-07 01:36:42,147.208,,,,,,,
555,2025-02-07 03:09:00,2025-02-07 03:11:27,147.207,,,,,,,
556,2025-02-07 04:43:44,2025-02-07 04:46:11,147.203,,,,,,,
557,2025-02-07 06:18:28,2025-02-07 06:20:56,147.206,,,,,,,
558,2025-02-07 07:53:13,2025-02-07 07:55:40,147.204,,,,,,,
559,2025-02-07 09:27:57,2025-02-07 09:30:24,147.205,,,,,,,
560,2025-02-07 11:02:42,2025-02-07 11:05:09,147.204,,,,,,,
561,2025-02-07 12:37:26,2025-02-07 12:39:53,147.204,,,,,,,
562,2025-02-07 14:12:10,2025-02-07 14:14:37,147.204,,,,,,,
563,2025-02-07 15:46:55,2025-02-07 15:49:22,147.204,,,,,,,
564,2025-02-07 17:21:39,2025-02-07 17:24:06,147.203,,,,,,,
565,2025-02-07 18:56:23,2025-02-07 18:58:51,147.206,,,,,,,
566,2025-02-07 20:31:08,2025-02-07 20:33:35,147.199,,,,,,,
567,2025-02-07 22:05:52,2025-02-07 22:08:19,147.203,,,,,,,
568,2025-02-07 23:40:37,2025-02-07 23:43:04,147.207,,,,,,,
569,2025-02-08 01:15:21,2025-02-08 01:17:48,147.204,,,,,,,
570,2025-02-08 02:50:05,2025-02-08 02:52:33,147.202,,,,,,,
571,2025-02-08 04:24:50,2025-02-08 04:27:17,147.204,,,,,,,
572,2025-02-08 05:59:34,2025-02-08 06:02:01,147.203,,,,,,,
573,2025-02-08 07:34:19,2025-02-08 07:36:46,147.203,,,,,,,
574,2025-02-08 09:09:03,2025-02-08 09:11:30,147.204,,,,,,,
575,2025-02-08 10:43:47,2025-02-08 10:46:14,147.205,,,,,,,
576,2025-02-08 12:18:32,2025-02-08 12:20:59,147.206,,,,,,,
577,2025-02-08 13:53:16,2025-02-08 13:55:43,147.206,,,,,,,
578,2025-02-08 15:28:00,2025-02-08 15:30:28,147.206,,,,,,,
579,2025-02-08 17:02:45,2025-02-08 17:05:12,147.203,,,,,,,
580,2025-02-08 18:37:29,2025-02-08 18:39:56,147.207,,,,,,,
581,2025-02-08 20:12:14,2025-02-08 20:14:41,147.198,,,,,,,
582,2025-02-08 21:46:58,2025-02-08 21:49:25,147.206,,,,,,,
583,2025-02-08 23:21:42,2025-02-08 23:24:10,147.206,,,,,,,
584,2025-02-09 00:56:27,2025-02-09 00:58:54,147.202,,,,,,,
585,2025-02-09 02:31:11,2025-02-09 02:33:38,147.199,,,,,,,
586,2025-02-09 04:05:56,2025-02-09 04:08:23,147.205,,,,,,,
587,2025-02-09 05:40:40,2025-02-09 05:43:07,147.202,,,,,,,
588,2025-02-09 07:15:24,2025-02-09 07:17:52,147.202,,,,,,,
589,2025-02-09 08:50:09,2025-02-09 08:52:36,147.204,,,,,,,
590,2025-02-09 10:24:53,2025-02-09 10:27:20,147.203,,,,,,,
591,2025-02-09 11:59:37,2025-02-09 12:02:05,147.203,,,,,,,
592,2025-02-09 13:34:22,2025-02-09 13:36:49,147.203,,,,,,,
593,2025-02-09 15:09:06,2025-02-09 15:11:33,147.203,,,,,,,
594,2025-02-09 16:43:51,2025-02-09 16:46:18,147.202,,,,,,,
595,2025-02-09 18:18:35,2025-02-09 18:21:02,147.206,,,,,,,
596,2025-02-09 19:53:19,2025-02-09 19:55:47,147.198,,,,,,,
597,2025-02-09 21:28:04,2025-02-09 21:30:31,147.206,,,,,,,
598,2025-02-09 23:02:48,2025-02-09 23:05:15,147.203,,,,,,,
599,2025-02-10 00:37:33,2025-02-10 00:40:00,147.197,,,,,,,
600,2025-02-10 02:12:17,2025-02-10 02:14:44,147.198,,,,,,,
601,2025-02-10 03:47:01,2025-02-10 03:49:29,147.205,,,,,,,
602,2025-02-10 05:21:46,2025-02-10 05:24:13,147.201,,,,,,,
603,2025-02-10 06:56:30,2025-02-10 06:58:57,147.201,,,,,,,
604,2025-02-10 08:31:14,2025-02-10 08:33:42,147.203,,,,,,,
605,2025-02-10 10:05:59,2025-02-10 10:08:26,147.202,,,,,,,
606,2025-02-10 11:40:43,2025-02-10 11:43:10,147.202,,,,,,,
607,2025-02-10 13:15:28,2025-02-10 13:17:55,147.202,,,,,,,
608,2025-02-10 14:50:12,2025-02-10 14:52:39,147.202,,,,,,,
609,2025-02-10 16:24:56,2025-02-10 16:27:24,147.202,,,,,,,
610,2025-02-10 17:59:41,2025-02-10 18:02:08,147.205,,,,,,,
611,2025-02-10 19:34:25,2025-02-10 19:36:52,147.201,,,,,,,
612,2025-02-10 21:09:10,2025-02-10 21:11:37,147.201,,,,,,,
613,2025-02-10 22:43:54,2025-02-10 22:46:21,147.203,,,,,,,
614,2025-02-11 00:18:38,2025-02-11 00:21:06,147.197,,,,,,,
615,2025-02-11 01:53:23,2025-02-11 01:55:50,147.199,,,,,,,
616,2025-02-11 03:28:07,2025-02-11 03:30:34,147.205,,,,,,,
617,2025-02-11 05:02:51,2025-02-11 05:05:19,147.201,,,,,,,
618,2025-02-11 06:37:36,2025-02-11 06:40:03,147.202,,,,,,,
619,2025-02-11 08:12:20,2025-02-11 08:14:47,147.202,,,,,,,
620,2025-02-11 09:47:05,2025-02-11 09:49:32,147.201,,,,,,,
621,2025-02-11 11:21:49,2025-02-11 11:24:16,147.2,,,,,,,
622,2025-02-11 12:56:33,2025-02-11 12:59:01,147.201,,,,,,,
623,2025-02-11 14:31:18,2025-02-11 14:33:45,147.202,,,,,,,
624,2025-02-11 16:06:02,2025-02-11 16:08:29,147.202,,,,,,,
625,2025-02-11 17:40:47,2025-02-11 17:43:14,147.205,,,,,,,
626,2025-02-11 19:15:31,2025-02-11 19:17:58,147.2,,,,,,,
627,2025-02-11 20:50:15,2025-02-11 20:52:43,147.203,,,,,,,
628,2025-02-11 22:25:00,2025-02-11 22:27:27,147.198,,,,,,,
629,2025-02-11 23:59:44,2025-02-12 00:02:11,147.197,,,,,,,
630,2025-02-12 01:34:29,2025-02-12 01:36:56,147.205,,,,,,,
631,2025-02-12 03:09:13,2025-02-12 03:11:40,147.204,,,,,,,
632,2025-02-12 04:43:57,2025-02-12 04:46:24,147.201,,,,,,,
633,2025-02-12 06:18:42,2025-02-12 06:21:09,147.204,,,,,,,
634,2025-02-12 07:53:26,2025-02-12 07:55:53,147.201,,,,,,,
635,2025-02-12 09:28:10,2025-02-12 09:30:38,147.202,,,,,,,
636,2025-02-12 11:02:55,2025-02-12 11:05:22,147.202,,,,,,,
637,2025-02-12 12:37:39,2025-02-12 12:40:06,147.202,,,,,,,
638,2025-02-12 14:12:24,2025-02-12 14:14:51,147.202,,,,,,,
639,2025-02-12 15:47:08,2025-02-12 15:49:35,147.201,,,,,,,
640,2025-02-12 17:21:52,2025-02-12 17:24:20,147.201,,,,,,,
641,2025-02-12 18:56:37,2025-02-12 18:59:04,147.203,,,,,,,
642,2025-02-12 20:31:21,2025-02-12 20:33:48,147.196,,,,,,,
643,2025-02-12 22:06:06,2025-02-12 22:08:33,147.201,,,,,,,
644,2025-02-12 23:40:50,2025-02-12 23:43:17,147.205,,,,,,,
645,2025-02-13 01:15:34,2025-02-13 01:18:01,147.202,,,,,,,
646,2025-02-13 02:50:19,2025-02-13 02:52:46,147.2,,,,,,,
647,2025-02-13 04:25:03,2025-02-13 04:27:30,147.202,,,,,,,
648,2025-02-13 05:59:47,2025-02-13 06:02:15,147.201,,,,,,,
649,2025-02-13 07:34:32,2025-02-13 07:36:59,147.201,,,,,,,
650,2025-02-13 09:09:16,2025-02-13 09:11:43,147.202,,,,,,,
651,2025-02-13 10:44:01,2025-02-13 10:46:28,147.203,,,,,,,
652,2025-02-13 12:18:45,2025-02-13 12:21:12,147.204,,,,,,,
653,2025-02-13 13:53:29,2025-02-13 13:55:57,147.204,,,,,,,
654,2025-02-13 15:28:14,2025-02-13 15:30:41,147.204,,,,,,,
655,2025-02-13 17:02:58,2025-02-13 17:05:25,147.201,,,,,,,
656,2025-02-13 18:37:43,2025-02-13 18:40:10,147.205,,,,,,,
657,2025-02-13 20:12:27,2025-02-13 20:14:54,147.196,,,,,,,
658,2025-02-13 21:47:11,2025-02-13 21:49:39,147.204,,,,,,,
659,2025-02-13 23:21:56,2025-02-13 23:24:23,147.204,,,,,,,
660,2025-02-14 00:56:40,2025-02-14 00:59:07,147.2,,,,,,,
661,2025-02-14 02:31:24,2025-02-14 02:33:52,147.197,,,,,,,
662,2025-02-14 04:06:09,2025-02-14 04:08:36,147.203,,,,,,,
663,2025-02-14 05:40:53,2025-02-14 05:43:20,147.201,,,,,,,
664,2025-02-14 07:15:38,2025-02-14 07:18:05,147.2,,,,,,,
665,2025-02-14 08:50:22,2025-02-14 08:52:49,147.202,,,,,,,
666,2025-02-14 10:25:06,2025-02-14 10:27:34,147.201,,,,,,,
667,2025-02-14 11:59:51,2025-02-14 12:02:18,147.201,,,,,,,
668,2025-02-14 13:34:35,2025-02-14 13:37:02,147.201,,,,,,,
669,2025-02-14 15:09:20,2025-02-14 15:11:47,147.201,,,,,,,
670,2025-02-14 16:44:04,2025-02-14 16:46:31,147.201,,,,,,,
671,2025-02-14 18:18:48,2025-02-14 18:21:16,147.204,,,,,,,
672,2025-02-14 19:53:33,2025-02-14 19:56:00,147.196,,,,,,,
673,2025-02-14 21:28:17,2025-02-14 21:30:44,147.204,,,,,,,
674,2025-02-14 23:03:01,2025-02-14 23:05:29,147.202,,,,,,,
675,2025-02-15 00:37:46,2025-02-15 00:40:13,147.196,,,,,,,
676,2025-02-15 02:12:30,2025-02-15 02:14:57,147.197,,,,,,,
677,2025-02-15 03:47:15,2025-02-15 03:49:42,147.203,,,,,,,
678,2025-02-15 05:21:59,2025-02-15 05:24:26,147.2,,,,,,,
679,2025-02-15 06:56:43,2025-02-15 06:59:11,147.2,,,,,,,
680,2025-02-15 08:31:28,2025-02-15 08:33:55,147.202,,,,,,,
681,2025-02-15 10:06:12,2025-02-15 10:08:39,147.201,,,,,,,
682,2025-02-15 11:40:57,2025-02-15 11:43:24,147.201,,,,,,,
683,2025-02-15 13:15:41,2025-02-15 13:18:08,147.201,,,,,,,
684,2025-02-15 14:50:25,2025-02-15 14:52:53,147.201,,,,,,,
685,2025-02-15 16:25:10,2025-02-15 16:27:37,147.201,,,,,,,
686,2025-02-15 17:59:54,2025-02-15 18:02:21,147.204,,,,,,,
687,2025-02-15 19:34:39,2025-02-15 19:37:06,147.2,,,,,,,
688,2025-02-15 21:09:23,2025-02-15 21:11:50,147.2,,,,,,,
689,2025-02-15 22:44:07,2025-02-15 22:46:34,147.202,,,,,,,
690,2025-02-16 00:18:52,2025-02-16 00:21:19,147.196,,,,,,,
691,2025-02-16 01:53:36,2025-02-16 01:56:03,147.198,,,,,,,
692,2025-02-16 03:28:20,2025-02-16 03:30:48,147.204,,,,,,,
693,2025-02-16 05:03:05,2025-02-16 05:05:32,147.2,,,,,,,
694,2025-02-16 06:37:49,2025-02-16 06:40:16,147.201,,,,,,,
695,2025-02-16 08:12:34,2025-02-16 08:15:01,147.201,,,,,,,
696,2025-02-16 09:47:18,2025-02-16 09:49:45,147.2,,,,,,,
697,2025-02-16 11:22:02,2025-02-16 11:24:30,147.199,,,,,,,
698,2025-02-16 12:56:47,2025-02-16 12:59:14,147.2,,,,,,,
699,2025-02-16 14:31:31,2025-02-16 14:33:58,147.201,,,,,,,
700,2025-02-16 16:06:16,2025-02-16 16:08:43,147.201,,,,,,,
701,2025-02-16 17:41:00,2025-02-16 17:43:27,147.204,,,,,,,
702,2025-02-16 19:15:44,2025-02-16 19:18:11,147.199,,,,,,,
703,2025-02-16 20:50:29,2025-02-16 20:52:56,147.202,,,,,,,
704,2025-02-16 22:25:13,2025-02-16 22:27:40,147.197,,,,,,,
705,2025-02-16 23:59:57,2025-02-17 00:02:25,147.196,,,,,,,
706,2025-02-17 01:34:42,2025-02-17 01:37:09,147.204,,,,,,,
707,2025-02-17 03:09:26,2025-02-17 03:11:53,147.203,,,,,,,
708,2025-02-17 04:44:11,2025-02-17 04:46:38,147.2,,,,,,,
709,2025-02-17 06:18:55,2025-02-17 06:21:22,147.203,,,,,,,
710,2025-02-17 07:53:39,2025-02-17 07:56:07,147.2,,,,,,,
711,2025-02-17 09:28:24,2025-02-17 09:30:51,147.201,,,,,,,
712,2025-02-17 11:03:08,2025-02-17 11:05:35,147.201,,,,,,,
713,2025-02-17 12:37:53,2025-02-17 12:40:20,147.201,,,,,,,
714,2025-02-17 14:12:37,2025-02-17 14:15:04,147.201,,,,,,,
715,2025-02-17 15:47:21,2025-02-17 15:49:48,147.2,,,,,,,
716,2025-02-17 17:22:06,2025-02-17 17:24:33,147.2,,,,,,,
717,2025-02-17 18:56:50,2025-02-17 18:59:17,147.202,,,,,,,
718,2025-02-17 20:31:34,2025-02-17 20:34:02,147.195,,,,,,,
719,2025-02-17 22:06:19,2025-02-17 22:08:46,147.2,,,,,,,
720,2025-02-17 23:41:03,2025-02-17 23:43:30,147.204,,,,,,,
721,2025-02-18 01:15:48,2025-02-18 01:18:15,147.201,,,,,,,
722,2025-02-18 02:50:32,2025-02-18 02:52:59,147.199,,,,,,,
723,2025-02-18 04:25:16,2025-02-18 04:27:44,147.201,,,,,,,
724,2025-02-18 06:00:01,2025-02-18 06:02:28,147.199,,,,,,,
725,2025-02-18 07:34:45,2025-02-18 07:37:12,147.2,,,,,,,
726,2025-02-18 09:09:30,2025-02-18 09:11:57,147.2,,,,,,,
727,2025-02-18 10:44:14,2025-02-18 10:46:41,147.202,,,,,,,
728,2025-02-18 12:18:58,2025-02-18 12:21:26,147.202,,,,,,,
729,2025-02-18 13:53:43,2025-02-18 13:56:10,147.203,,,,,,,
730,2025-02-18 15:28:27,2025-02-18 15:30:54,147.203,,,,,,,
731,2025-02-18 17:03:11,2025-02-18 17:05:39,147.2,,,,,,,
732,2025-02-18 18:37:56,2025-02-18 18:40:23,147.204,,,,,,,
733,2025-02-18 20:12:40,2025-02-18 20:15:07,147.195,,,,,,,
734,2025-02-18 21:47:25,2025-02-18 21:49:52,147.203,,,,,,,
735,2025-02-18 23:22:09,2025-02-18 23:24:36,147.203,,,,,,,
736,2025-02-19 00:56:53,2025-02-19 00:59:21,147.199,,,,,,,
737,2025-02-19 02:31:38,2025-02-19 02:34:05,147.196,,,,,,,
738,2025-02-19 04:06:22,2025-02-19 04:08:49,147.202,,,,,,,
739,2025-02-19 05:41:07,2025-02-19 05:43:34,147.199,,,,,,,
740,2025-02-19 07:15:51,2025-02-19 07:18:18,147.199,,,,,,,
741,2025-02-19 08:50:35,2025-02-19 08:53:03,147.201,,,,,,,
742,2025-02-19 10:25:20,2025-02-19 10:27:47,147.2,,,,,,,
743,2025-02-19 12:00:04,2025-02-19 12:02:31,147.2,,,,,,,
744,2025-02-19 13:34:48,2025-02-19 13:37:16,147.2,,,,,,,
745,2025-02-19 15:09:33,2025-02-19 15:12:00,147.2,,,,,,,
746,2025-02-19 16:44:17,2025-02-19 16:46:44,147.199,,,,,,,
747,2025-02-19 18:19:02,2025-02-19 18:21:29,147.203,,,,,,,
748,2025-02-19 19:53:46,2025-02-19 19:56:13,147.195,,,,,,,
749,2025-02-19 21:28:30,2025-02-19 21:30:58,147.203,,,,,,,
750,2025-02-19 23:03:15,2025-02-19 23:05:42,147.2,,,,,,,
751,2025-02-20 00:37:59,2025-02-20 00:40:26,147.194,,,,,,,
752,2025-02-20 02:12:44,2025-02-20 02:15:11,147.195,,,,,,,
753,2025-02-20 03:47:28,2025-02-20 03:49:55,147.202,,,,,,,
754,2025-02-20 05:22:12,2025-02-20 05:24:40,147.198,,,,,,,
755,2025-02-20 06:56:57,2025-02-20 06:59:24,147.198,,,,,,,
756,2025-02-20 08:31:41,2025-02-20 08:34:08,147.2,,,,,,,
757,2025-02-20 10:06:26,2025-02-20 10:08:53,147.199,,,,,,,
758,2025-02-20 11:41:10,2025-02-20 11:43:37,147.199,,,,,,,
759,2025-02-20 13:15:54,2025-02-20 13:18:21,147.199,,,,,,,
760,2025-02-20 14:50:39,2025-02-20 14:53:06,147.199,,,,,,,
761,2025-02-20 16:25:23,2025-02-20 16:27:50,147.199,,,,,,,
762,2025-02-20 18:00:07,2025-02-20 18:02:35,147.202,,,,,,,
763,2025-02-20 19:34:52,2025-02-20 19:37:19,147.198,,,,,,,
764,2025-02-20 21:09:36,2025-02-20 21:12:03,147.198,,,,,,,
765,2025-02-20 22:44:21,2025-02-20 22:46:48,147.198,,,,,,,
766,2025-02-21 00:19:05,2025-02-21 00:21:32,147.194,,,,,,,
767,2025-02-21 01:53:49,2025-02-21 01:56:17,147.196,,,,,,,
768,2025-02-21 03:28:34,2025-02-21 03:31:01,147.202,,,,,,,
769,2025-02-21 05:03:18,2025-02-21 05:05:45,147.198,,,,,,,
770,2025-02-21 06:38:03,2025-02-21 06:40:30,147.199,,,,,,,
771,2025-02-21 08:12:47,2025-02-21 08:15:14,147.199,,,,,,,
772,2025-02-21 09:47:31,2025-02-21 09:49:58,147.198,,,,,,,
773,2025-02-21 11:22:16,2025-02-21 11:24:43,147.197,,,,,,,
774,2025-02-21 12:57:00,2025-02-21 12:59:27,147.198,,,,,,,
775,2025-02-21 14:31:44,2025-02-21 14:34:12,147.198,,,,,,,
776,2025-02-21 16:06:29,2025-02-21 16:08:56,147.198,,,,,,,
777,2025-02-21 17:41:13,2025-02-21 17:43:40,147.202,,,,,,,
778,2025-02-21 19:15:58,2025-02-21 19:18:25,147.197,,,,,,,
779,2025-02-21 20:50:42,2025-02-21 20:53:09,147.2,,,,,,,
780,2025-02-21 22:25:26,2025-02-21 22:27:54,147.195,,,,,,,
781,2025-02-22 00:00:11,2025-02-22 00:02:38,147.193,,,,,,,
782,2025-02-22 01:34:55,2025-02-22 01:37:22,147.202,,,,,,,
783,2025-02-22 03:09:40,2025-02-22 03:12:07,147.201,,,,,,,
784,2025-02-22 04:44:24,2025-02-22 04:46:51,147.197,,,,,,,
785,2025-02-22 06:19:08,2025-02-22 06:21:36,147.2,,,,,,,
786,2025-02-22 07:53:53,2025-02-22 07:56:20,147.198,,,,,,,
787,2025-02-22 09:28:37,2025-02-22 09:31:04,147.199,,,,,,,
788,2025-02-22 11:03:21,2025-02-22 11:05:49,147.198,,,,,,,
789,2025-02-22 12:38:06,2025-02-22 12:40:33,147.198,,,,,,,
790,2025-02-22 14:12:50,2025-02-22 14:15:17,147.198,,,,,,,
791,2025-02-22 15:47:35,2025-02-22 15:50:02,147.198,,,,,,,
792,2025-02-22 17:22:19,2025-02-22 17:24:46,147.197,,,,,,,
793,2025-02-22 18:57:03,2025-02-22 18:59:31,147.2,,,,,,,
794,2025-02-22 20:31:48,2025-02-22 20:34:15,147.193,,,,,,,
795,2025-02-22 22:06:32,2025-02-22 22:08:59,147.197,,,,,,,
796,2025-02-22 23:41:17,2025-02-22 23:43:44,147.201,,,,,,,
797,2025-02-23 01:16:01,2025-02-23 01:18:28,147.198,,,,,,,
798,2025-02-23 02:50:45,2025-02-23 02:53:13,147.196,,,,,,,
799,2025-02-23 04:25:30,2025-02-23 04:27:57,147.199,,,,,,,
800,2025-02-23 06:00:14,2025-02-23 06:02:41,147.197,,,,,,,
801,2025-02-23 07:34:58,2025-02-23 07:37:26,147.197,,,,,,,
802,2025-02-23 09:09:43,2025-02-23 09:12:10,147.198,,,,,,,
803,2025-02-23 10:44:27,2025-02-23 10:46:54,147.2,,,,,,,
804,2025-02-23 12:19:12,2025-02-23 12:21:39,147.2,,,,,,,
805,2025-02-23 13:53:56,2025-02-23 13:56:23,147.2,,,,,,,
806,2025-02-23 15:28:40,2025-02-23 15:31:08,147.2,,,,,,,
807,2025-02-23 17:03:25,2025-02-23 17:05:52,147.197,,,,,,,
808,2025-02-23 18:38:09,2025-02-23 18:40:36,147.201,,,,,,,
809,2025-02-23 20:12:54,2025-02-23 20:15:21,147.192,,,,,,,
810,2025-02-23 21:47:38,2025-02-23 21:50:05,147.2,,,,,,,
811,2025-02-23 23:22:22,2025-02-23 23:24:50,147.2,,,,,,,
812,2025-02-24 00:57:07,2025-02-24 00:59:34,147.196,,,,,,,
813,2025-02-24 02:31:51,2025-02-24 02:34:18,147.193,,,,,,,
814,2025-02-24 04:06:35,2025-02-24 04:09:03,147.199,,,,,,,
815,2025-02-24 05:41:20,2025-02-24 05:43:47,147.197,,,,,,,
816,2025-02-24 07:16:04,2025-02-24 07:18:31,147.196,,,,,,,
817,2025-02-24 08:50:49,2025-02-24 08:53:16,147.198,,,,,,,
818,2025-02-24 10:25:33,2025-02-24 10:28:00,147.197,,,,,,,
819,2025-02-24 12:00:17,2025-02-24 12:02:45,147.197,,,,,,,
820,2025-02-24 13:35:02,2025-02-24 13:37:29,147.197,,,,,,,
821,2025-02-24 15:09:46,2025-02-24 15:12:13,147.197,,,,,,,
822,2025-02-24 16:44:31,2025-02-24 16:46:58,147.196,,,,,,,
823,2025-02-24 18:19:15,2025-02-24 18:21:42,147.2,,,,,,,
824,2025-02-24 19:53:59,2025-02-24 19:56:27,147.192,,,,,,,
825,2025-02-24 21:28:44,2025-02-24 21:31:11,147.2,,,,,,,
826,2025-02-24 23:03:28,2025-02-24 23:05:55,147.197,,,,,,,
827,2025-02-25 00:38:13,2025-02-25 00:40:40,147.191,,,,,,,
828,2025-02-25 02:12:57,2025-02-25 02:15:24,147.192,,,,,,,
829,2025-02-25 03:47:41,2025-02-25 03:50:08,147.199,,,,,,,
830,2025-02-25 05:22:26,2025-02-25 05:24:53,147.195,,,,,,,
831,2025-02-25 06:57:10,2025-02-25 06:59:37,147.195,,,,,,,
832,2025-02-25 08:31:54,2025-02-25 08:34:22,147.197,,,,,,,
833,2025-02-25 10:06:39,2025-02-25 10:09:06,147.196,,,,,,,
834,2025-02-25 11:41:23,2025-02-25 11:43:50,147.196,,,,,,,
835,2025-02-25 13:16:08,2025-02-25 13:18:35,147.196,,,,,,,
836,2025-02-25 14:50:52,2025-02-25 14:53:19,147.196,,,,,,,
837,2025-02-25 16:25:36,2025-02-25 16:28:04,147.196,,,,,,,
838,2025-02-25 18:00:21,2025-02-25 18:02:48,147.2,,,,,,,
839,2025-02-25 19:35:05,2025-02-25 19:37:32,147.195,,,,,,,
840,2025-02-25 21:09:50,2025-02-25 21:12:17,147.195,,,,,,,
841,2025-02-25 22:44:34,2025-02-25 22:47:01,147.195,,,,,,,
842,2025-02-26 00:19:18,2025-02-26 00:21:45,147.192,,,,,,,
843,2025-02-26 01:54:03,2025-02-26 01:56:30,147.193,,,,,,,
844,2025-02-26 03:28:47,2025-02-26 03:31:14,147.199,,,,,,,
845,2025-02-26 05:03:31,2025-02-26 05:05:59,147.195,,,,,,,
846,2025-02-26 06:38:16,2025-02-26 06:40:43,147.196,,,,,,,
847,2025-02-26 08:13:00,2025-02-26 08:15:27,147.196,,,,,,,
848,2025-02-26 09:47:45,2025-02-26 09:50:12,147.195,,,,,,,
849,2025-02-26 11:22:29,2025-02-26 11:24:56,147.194,,,,,,,
850,2025-02-26 12:57:13,2025-02-26 12:59:41,147.195,,,,,,,
851,2025-02-26 14:31:58,2025-02-26 14:34:25,147.196,,,,,,,
852,2025-02-26 16:06:42,2025-02-26 16:09:09,147.196,,,,,,,
853,2025-02-26 17:41:27,2025-02-26 17:43:54,147.199,,,,,,,
854,2025-02-26 19:16:11,2025-02-26 19:18:38,147.194,,,,,,,
855,2025-02-26 20:50:55,2025-02-26 20:53:23,147.197,,,,,,,
856,2025-02-26 22:25:40,2025-02-26 22:28:07,147.192,,,,,,,
857,2025-02-27 00:00:24,2025-02-27 00:02:51,147.191,,,,,,,
858,2025-02-27 01:35:08,2025-02-27 01:37:36,147.199,,,,,,,
859,2025-02-27 03:09:53,2025-02-27 03:12:20,147.198,,,,,,,
860,2025-02-27 04:44:37,2025-02-27 04:47:04,147.195,,,,,,,
861,2025-02-27 06:19:22,2025-02-27 06:21:49,147.198,,,,,,,
862,2025-02-27 07:54:06,2025-02-27 07:56:33,147.195,,,,,,,
863,2025-02-27 09:28:50,2025-02-27 09:31:18,147.196,,,,,,,
864,2025-02-27 11:03:35,2025-02-27 11:06:02,147.196,,,,,,,
865,2025-02-27 12:38:19,2025-02-27 12:40:46,147.196,,,,,,,
866,2025-02-27 14:13:04,2025-02-27 14:15:31,147.196,,,,,,,
867,2025-02-27 15:47:48,2025-02-27 15:50:15,147.196,,,,,,,
868,2025-02-27 17:22:32,2025-02-27 17:25:00,147.195,,,,,,,
869,2025-02-27 18:57:17,2025-02-27 18:59:44,147.198,,,,,,,
870,2025-02-27 20:32:01,2025-02-27 20:34:28,147.19,,,,,,,
871,2025-02-27 22:06:45,2025-02-27 22:09:13,147.195,,,,,,,
872,2025-02-27 23:41:30,2025-02-27 23:43:57,147.199,,,,,,,
873,2025-02-28 01:16:14,2025-02-28 01:18:41,147.196,,,,,,,
874,2025-02-28 02:50:59,2025-02-28 02:53:26,147.194,,,,,,,
875,2025-02-28 04:25:43,2025-02-28 04:28:10,147.196,,,,,,,
876,2025-02-28 06:00:27,2025-02-28 06:02:55,147.195,,,,,,,
877,2025-02-28 07:35:12,2025-02-28 07:37:39,147.195,,,,,,,
878,2025-02-28 09:09:56,2025-02-28 09:12:23,147.196,,,,,,,
879,2025-02-28 10:44:41,2025-02-28 10:47:08,147.198,,,,,,,
880,2025-02-28 12:19:25,2025-02-28 12:21:52,147.198,,,,,,,
881,2025-02-28 13:54:09,2025-02-28 13:56:37,147.198,,,,,,,
882,2025-02-28 15:28:54,2025-02-28 15:31:21,147.198,,,,,,,
883,2025-02-28 17:03:38,2025-02-28 17:06:05,147.195,,,,,,,
884,2025-02-28 18:38:22,2025-02-28 18:40:50,147.199,,,,,,,
885,2025-02-28 20:13:07,2025-02-28 20:15:34,147.191,,,,,,,
886,2025-02-28 21:47:51,2025-02-28 21:50:18,147.198,,,,,,,
887,2025-02-28 23:22:36,2025-02-28 23:25:03,147.198,,,,,,,
888,2025-03-01 00:57:20,2025-03-01 00:59:47,147.195,,,,,,,
889,2025-03-01 02:32:04,2025-03-01 02:34:32,147.191,,,,,,,
890,2025-03-01 04:06:49,2025-03-01 04:09:16,147.197,,,,,,,
891,2025-03-01 05:41:33,2025-03-01 05:44:00,147.195,,,,,,,
892,2025-03-01 07:16:18,2025-03-01 07:18:45,147.194,,,,,,,
893,2025-03-01 08:51:02,2025-03-01 08:53:29,147.196,,,,,,,
894,2025-03-01 10:25:46,2025-03-01 10:28:14,147.195,,,,,,,
895,2025-03-01 12:00:31,2025-03-01 12:02:58,147.195,,,,,,,
896,2025-03-01 13:35:15,2025-03-01 13:37:42,147.195,,,,,,,
897,2025-03-01 15:10:00,2025-03-01 15:12:27,147.195,,,,,,,
898,2025-03-01 16:44:44,2025-03-01 16:47:11,147.195,,,,,,,
899,2025-03-01 18:19:28,2025-03-01 18:21:55,147.199,,,,,,,
900,2025-03-01 19:54:13,2025-03-01 19:56:40,147.19,,,,,,,
901,2025-03-01 21:28:57,2025-03-01 21:31:24,147.199,,,,,,,
902,2025-03-01 23:03:41,2025-03-01 23:06:09,147.196,,,,,,,
903,2025-03-02 00:38:26,2025-03-02 00:40:53,147.19,,,,,,,
904,2025-03-02 02:13:10,2025-03-02 02:15:37,147.191,,,,,,,
905,2025-03-02 03:47:55,2025-03-02 03:50:22,147.198,,,,,,,
906,2025-03-02 05:22:39,2025-03-02 05:25:06,147.194,,,,,,,
907,2025-03-02 06:57:23,2025-03-02 06:59:51,147.194,,,,,,,
908,2025-03-02 08:32:08,2025-03-02 08:34:35,147.196,,,,,,,
909,2025-03-02 10:06:52,2025-03-02 10:09:19,147.195,,,,,,,
910,2025-03-02 11:41:37,2025-03-02 11:44:04,147.195,,,,,,,
911,2025-03-02 13:16:21,2025-03-02 13:18:48,147.195,,,,,,,
912,2025-03-02 14:51:05,2025-03-02 14:53:32,147.195,,,,,,,
913,2025-03-02 16:25:50,2025-03-02 16:28:17,147.195,,,,,,,
914,2025-03-02 18:00:34,2025-03-02 18:03:01,147.198,,,,,,,
915,2025-03-02 19:35:18,2025-03-02 19:37:46,147.194,,,,,,,
916,2025-03-02 21:10:03,2025-03-02 21:12:30,147.194,,,,,,,
917,2025-03-02 22:44:47,2025-03-02 22:47:14,147.194,,,,,,,
918,2025-03-03 00:19:32,2025-03-03 00:21:59,147.19,,,,,,,
919,2025-03-03 01:54:16,2025-03-03 01:56:43,147.192,,,,,,,
920,2025-03-03 03:29:00,2025-03-03 03:31:28,147.198,,,,,,,
921,2025-03-03 05:03:45,2025-03-03 05:06:12,147.194,,,,,,,
922,2025-03-03 06:38:29,2025-03-03 06:40:56,147.195,,,,,,,
923,2025-03-03 08:13:14,2025-03-03 08:15:41,147.195,,,,,,,
924,2025-03-03 09:47:58,2025-03-03 09:50:25,147.194,,,,,,,
925,2025-03-03 11:22:42,2025-03-03 11:25:10,147.193,,,,,,,
926,2025-03-03 12:57:27,2025-03-03 12:59:54,147.194,,,,,,,
927,2025-03-03 14:32:11,2025-03-03 14:34:38,147.195,,,,,,,
928,2025-03-03 16:06:55,2025-03-03 16:09:23,147.195,,,,,,,
929,2025-03-03 17:41:40,2025-03-03 17:44:07,147.198,,,,,,,
930,2025-03-03 19:16:24,2025-03-03 19:18:51,147.193,,,,,,,
931,2025-03-03 20:51:09,2025-03-03 20:53:36,147.194,,,,,,,
932,2025-03-03 22:25:53,2025-03-03 22:28:20,147.191,,,,,,,
933,2025-03-04 00:00:37,2025-03-04 00:03:05,147.19,,,,,,,
934,2025-03-04 01:35:22,2025-03-04 01:37:49,147.198,,,,,,,
935,2025-03-04 03:10:06,2025-03-04 03:12:33,147.197,,,,,,,
936,2025-03-04 04:44:51,2025-03-04 04:47:18,147.194,,,,,,,
937,2025-03-04 06:19:35,2025-03-04 06:22:02,147.197,,,,,,,
938,2025-03-04 07:54:19,2025-03-04 07:56:47,147.194,,,,,,,
939,2025-03-04 09:29:04,2025-03-04 09:31:31,147.195,,,,,,,
940,2025-03-04 11:03:48,2025-03-04 11:06:15,147.195,,,,,,,
941,2025-03-04 12:38:32,2025-03-04 12:41:00,147.195,,,,,,,
942,2025-03-04 14:13:17,2025-03-04 14:15:44,147.195,,,,,,,
943,2025-03-04 15:48:01,2025-03-04 15:50:28,147.194,,,,,,,
944,2025-03-04 17:22:46,2025-03-04 17:25:13,147.194,,,,,,,
945,2025-03-04 18:57:30,2025-03-04 18:59:57,147.196,,,,,,,
946,2025-03-04 20:32:14,2025-03-04 20:34:42,147.189,,,,,,,
947,2025-03-04 22:06:59,2025-03-04 22:09:26,147.194,,,,,,,
948,2025-03-04 23:41:43,2025-03-04 23:44:10,147.198,,,,,,,
949,2025-03-05 01:16:28,2025-03-05 01:18:55,147.195,,,,,,,
950,2025-03-05 02:51:12,2025-03-05 02:53:39,147.193,,,,,,,
951,2025-03-05 04:25:56,2025-03-05 04:28:24,147.195,,,,,,,
952,2025-03-05 06:00:41,2025-03-05 06:03:08,147.193,,,,,,,
953,2025-03-05 07:35:25,2025-03-05 07:37:52,147.193,,,,,,,
954,2025-03-05 09:10:10,2025-03-05 09:12:37,147.194,,,,,,,
955,2025-03-05 10:44:54,2025-03-05 10:47:21,147.196,,,,,,,
956,2025-03-05 12:19:38,2025-03-05 12:22:05,147.196,,,,,,,
957,2025-03-05 13:54:23,2025-03-05 13:56:50,147.197,,,,,,,
958,2025-03-05 15:29:07,2025-03-05 15:31:34,147.197,,,,,,,
959,2025-03-05 17:03:51,2025-03-05 17:06:19,147.194,,,,,,,
960,2025-03-05 18:38:36,2025-03-05 18:41:03,147.198,,,,,,,
961,2025-03-05 20:13:20,2025-03-05 20:15:47,147.189,,,,,,,
962,2025-03-05 21:48:05,2025-03-05 21:50:32,147.197,,,,,,,
963,2025-03-05 23:22:49,2025-03-05 23:25:16,147.197,,,,,,,
964,2025-03-06 00:57:33,2025-03-06 01:00:01,147.193,,,,,,,
965,2025-03-06 02:32:18,2025-03-06 02:34:45,147.189,,,,,,,
966,2025-03-06 04:07:02,2025-03-06 04:09:29,147.196,,,,,,,
967,2025-03-06 05:41:47,2025-03-06 05:44:14,147.193,,,,,,,
968,2025-03-06 07:16:31,2025-03-06 07:18:58,147.192,,,,,,,
969,2025-03-06 08:51:15,2025-03-06 08:53:42,147.194,,,,,,,
970,2025-03-06 10:26:00,2025-03-06 10:28:27,147.194,,,,,,,
971,2025-03-06 12:00:44,2025-03-06 12:03:11,147.194,,,,,,,
972,2025-03-06 13:35:28,2025-03-06 13:37:56,147.194,,,,,,,
973,2025-03-06 15:10:13,2025-03-06 15:12:40,147.193,,,,,,,
974,2025-03-06 16:44:57,2025-03-06 16:47:24,147.193,,,,,,,
975,2025-03-06 18:19:42,2025-03-06 18:22:09,147.197,,,,,,,
976,2025-03-06 19:54:26,2025-03-06 19:56:53,147.188,,,,,,,
977,2025-03-06 21:29:10,2025-03-06 21:31:38,147.196,,,,,,,
978,2025-03-06 23:03:55,2025-03-06 23:06:22,147.194,,,,,,,
979,2025-03-07 00:38:39,2025-03-07 00:41:06,147.188,,,,,,,
980,2025-03-07 02:13:24,2025-03-07 02:15:51,147.189,,,,,,,
981,2025-03-07 03:48:08,2025-03-07 03:50:35,147.195,,,,,,,
982,2025-03-07 05:22:52,2025-03-07 05:25:20,147.192,,,,,,,
983,2025-03-07 06:57:37,2025-03-07 07:00:04,147.191,,,,,,,
984,2025-03-07 08:32:21,2025-03-07 08:34:48,147.193,,,,,,,
985,2025-03-07 10:07:05,2025-03-07 10:09:33,147.193,,,,,,,
986,2025-03-07 11:41:50,2025-03-07 11:44:17,147.193,,,,,,,
987,2025-03-07 13:16:34,2025-03-07 13:19:01,147.193,,,,,,,
988,2025-03-07 14:51:19,2025-03-07 14:53:46,147.193,,,,,,,
989,2025-03-07 16:26:03,2025-03-07 16:28:30,147.192,,,,,,,
990,2025-03-07 18:00:47,2025-03-07 18:03:15,147.196,,,,,,,
991,2025-03-07 19:35:32,2025-03-07 19:37:59,147.191,,,,,,,
992,2025-03-07 21:10:16,2025-03-07 21:12:43,147.191,,,,,,,
993,2025-03-07 22:45:01,2025-03-07 22:47:28,147.191,,,,,,,
994,2025-03-08 00:19:45,2025-03-08 00:22:12,147.188,,,,,,,
995,2025-03-08 01:54:29,2025-03-08 01:56:57,147.189,,,,,,,
996,2025-03-08 03:29:14,2025-03-08 03:31:41,147.195,,,,,,,
997,2025-03-08 05:03:58,2025-03-08 05:06:25,147.192,,,,,,,
998,2025-03-08 06:38:42,2025-03-08 06:41:10,147.193,,,,,,,
999,2025-03-08 08:13:27,2025-03-08 08:15:54,147.192,,,,,,,
1000,2025-03-08 09:48:11,2025-03-08 09:50:38,147.191,,,,,,,
1001,2025-03-08 11:22:56,2025-03-08 11:25:23,147.19,,,,,,,
1002,2025-03-08 12:57:40,2025-03-08 13:00:07,147.192,,,,,,,
1003,2025-03-08 14:32:24,2025-03-08 14:34:52,147.192,,,,,,,
1004,2025-03-08 16:07:09,2025-03-08 16:09:36,147.192,,,,,,,
1005,2025-03-08 17:41:53,2025-03-08 17:44:20,147.196,,,,,,,
1006,2025-03-08 19:16:38,2025-03-08 19:19:05,147.191,,,,,,,
1007,2025-03-08 20:51:22,2025-03-08 20:53:49,147.191,,,,,,,
1008,2025-03-08 22:26:06,2025-03-08 22:28:34,147.188,,,,,,,
1009,2025-03-09 00:00:51,2025-03-09 00:03:18,147.187,,,,,,,
1010,2025-03-09 01:35:35,2025-03-09 01:38:02,147.195,,,,,,,
1011,2025-03-09 03:10:19,2025-03-09 03:12:47,147.194,,,,,,,
1012,2025-03-09 04:45:04,2025-03-09 04:47:31,147.191,,,,,,,
1013,2025-03-09 06:19:48,2025-03-09 06:22:15,147.194,,,,,,,
1014,2025-03-09 07:54:33,2025-03-09 07:57:00,147.191,,,,,,,
1015,2025-03-09 09:29:17,2025-03-09 09:31:44,147.192,,,,,,,
1016,2025-03-09 11:04:01,2025-03-09 11:06:29,147.192,,,,,,,
