3UCubedIntegratedSim/Reports & Plots/Area Target Access Data/CSV/Sat8.csv

Access,Start Time (UTCG),Stop Time (UTCG),Duration (sec),,,Global Statistics,,,,
1,2025-01-01 16:23:41,2025-01-01 16:27:00,198.728,,,Min Duration,5548,2026-01-01 15:05:09,2026-01-01 15:08:28,198.614
2,2025-01-01 17:58:25,2025-01-01 18:01:44,198.726,,,Max Duration,3743,2025-09-04 20:59:53,2025-09-04 21:03:12,198.835
3,2025-01-01 19:33:10,2025-01-01 19:36:29,198.731,,,Mean Duration,,,,198.744
4,2025-01-01 21:07:54,2025-01-01 21:11:13,198.726,,,Total Duration,,,,1102633.163
5,2025-01-01 22:42:39,2025-01-01 22:45:57,198.728,,,,,,,
6,2025-01-02 00:17:23,2025-01-02 00:20:42,198.729,,,,,,,
7,2025-01-02 01:52:07,2025-01-02 01:55:26,198.726,,,,,,,
8,2025-01-02 03:26:52,2025-01-02 03:30:11,198.725,,,,,,,
9,2025-01-02 05:01:36,2025-01-02 05:04:55,198.729,,,,,,,
10,2025-01-02 06:36:21,2025-01-02 06:39:39,198.728,,,,,,,
11,2025-01-02 08:11:05,2025-01-02 08:14:24,198.732,,,,,,,
12,2025-01-02 09:45:49,2025-01-02 09:49:08,198.725,,,,,,,
13,2025-01-02 11:20:34,2025-01-02 11:23:52,198.725,,,,,,,
14,2025-01-02 12:55:18,2025-01-02 12:58:37,198.729,,,,,,,
15,2025-01-02 14:30:02,2025-01-02 14:33:21,198.729,,,,,,,
16,2025-01-02 16:04:47,2025-01-02 16:08:06,198.728,,,,,,,
17,2025-01-02 17:39:31,2025-01-02 17:42:50,198.726,,,,,,,
18,2025-01-02 19:14:16,2025-01-02 19:17:34,198.731,,,,,,,
19,2025-01-02 20:49:00,2025-01-02 20:52:19,198.731,,,,,,,
20,2025-01-02 22:23:44,2025-01-02 22:27:03,198.728,,,,,,,
21,2025-01-02 23:58:29,2025-01-03 00:01:48,198.729,,,,,,,
22,2025-01-03 01:33:13,2025-01-03 01:36:32,198.725,,,,,,,
23,2025-01-03 03:07:58,2025-01-03 03:11:16,198.726,,,,,,,
24,2025-01-03 04:42:42,2025-01-03 04:46:01,198.73,,,,,,,
25,2025-01-03 06:17:26,2025-01-03 06:20:45,198.729,,,,,,,
26,2025-01-03 07:52:11,2025-01-03 07:55:29,198.732,,,,,,,
27,2025-01-03 09:26:55,2025-01-03 09:30:14,198.725,,,,,,,
28,2025-01-03 11:01:40,2025-01-03 11:04:58,198.732,,,,,,,
29,2025-01-03 12:36:24,2025-01-03 12:39:43,198.731,,,,,,,
30,2025-01-03 14:11:08,2025-01-03 14:14:27,198.727,,,,,,,
31,2025-01-03 15:45:53,2025-01-03 15:49:11,198.728,,,,,,,
32,2025-01-03 17:20:37,2025-01-03 17:23:56,198.727,,,,,,,
33,2025-01-03 18:55:21,2025-01-03 18:58:40,198.732,,,,,,,
34,2025-01-03 20:30:06,2025-01-03 20:33:25,198.732,,,,,,,
35,2025-01-03 22:04:50,2025-01-03 22:08:09,198.73,,,,,,,
36,2025-01-03 23:39:35,2025-01-03 23:42:53,198.725,,,,,,,
37,2025-01-04 01:14:19,2025-01-04 01:17:38,198.731,,,,,,,
38,2025-01-04 02:49:03,2025-01-04 02:52:22,198.73,,,,,,,
39,2025-01-04 04:23:48,2025-01-04 04:27:06,198.733,,,,,,,
40,2025-01-04 05:58:32,2025-01-04 06:01:51,198.728,,,,,,,
41,2025-01-04 07:33:17,2025-01-04 07:36:35,198.733,,,,,,,
42,2025-01-04 09:08:01,2025-01-04 09:11:20,198.728,,,,,,,
43,2025-01-04 10:42:45,2025-01-04 10:46:04,198.725,,,,,,,
44,2025-01-04 12:17:30,2025-01-04 12:20:48,198.725,,,,,,,
45,2025-01-04 13:52:14,2025-01-04 13:55:33,198.726,,,,,,,
46,2025-01-04 15:26:58,2025-01-04 15:30:17,198.729,,,,,,,
47,2025-01-04 17:01:43,2025-01-04 17:05:02,198.727,,,,,,,
48,2025-01-04 18:36:27,2025-01-04 18:39:46,198.726,,,,,,,
49,2025-01-04 20:11:12,2025-01-04 20:14:30,198.73,,,,,,,
50,2025-01-04 21:45:56,2025-01-04 21:49:15,198.725,,,,,,,
51,2025-01-04 23:20:40,2025-01-04 23:23:59,198.732,,,,,,,
52,2025-01-05 00:55:25,2025-01-05 00:58:43,198.732,,,,,,,
53,2025-01-05 02:30:09,2025-01-05 02:33:28,198.729,,,,,,,
54,2025-01-05 04:04:54,2025-01-05 04:08:12,198.725,,,,,,,
55,2025-01-05 05:39:38,2025-01-05 05:42:57,198.729,,,,,,,
56,2025-01-05 07:14:22,2025-01-05 07:17:41,198.729,,,,,,,
57,2025-01-05 08:49:07,2025-01-05 08:52:25,198.733,,,,,,,
58,2025-01-05 10:23:51,2025-01-05 10:27:10,198.733,,,,,,,
59,2025-01-05 11:58:35,2025-01-05 12:01:54,198.733,,,,,,,
60,2025-01-05 13:33:20,2025-01-05 13:36:39,198.732,,,,,,,
61,2025-01-05 15:08:04,2025-01-05 15:11:23,198.728,,,,,,,
62,2025-01-05 16:42:49,2025-01-05 16:46:07,198.726,,,,,,,
63,2025-01-05 18:17:33,2025-01-05 18:20:52,198.732,,,,,,,
64,2025-01-05 19:52:17,2025-01-05 19:55:36,198.732,,,,,,,
65,2025-01-05 21:27:02,2025-01-05 21:30:21,198.73,,,,,,,
66,2025-01-05 23:01:46,2025-01-05 23:05:05,198.731,,,,,,,
67,2025-01-06 00:36:31,2025-01-06 00:39:49,198.733,,,,,,,
68,2025-01-06 02:11:15,2025-01-06 02:14:34,198.732,,,,,,,
69,2025-01-06 03:45:59,2025-01-06 03:49:18,198.727,,,,,,,
70,2025-01-06 05:20:44,2025-01-06 05:24:02,198.727,,,,,,,
71,2025-01-06 06:55:28,2025-01-06 06:58:47,198.732,,,,,,,
72,2025-01-06 08:30:12,2025-01-06 08:33:31,198.725,,,,,,,
73,2025-01-06 10:04:57,2025-01-06 10:08:16,198.729,,,,,,,
74,2025-01-06 11:39:41,2025-01-06 11:43:00,198.728,,,,,,,
75,2025-01-06 13:14:26,2025-01-06 13:17:44,198.728,,,,,,,
76,2025-01-06 14:49:10,2025-01-06 14:52:29,198.725,,,,,,,
77,2025-01-06 16:23:54,2025-01-06 16:27:13,198.727,,,,,,,
78,2025-01-06 17:58:39,2025-01-06 18:01:58,198.726,,,,,,,
79,2025-01-06 19:33:23,2025-01-06 19:36:42,198.73,,,,,,,
80,2025-01-06 21:08:08,2025-01-06 21:11:26,198.725,,,,,,,
81,2025-01-06 22:42:52,2025-01-06 22:46:11,198.733,,,,,,,
82,2025-01-07 00:17:36,2025-01-07 00:20:55,198.729,,,,,,,
83,2025-01-07 01:52:21,2025-01-07 01:55:39,198.726,,,,,,,
84,2025-01-07 03:27:05,2025-01-07 03:30:24,198.725,,,,,,,
85,2025-01-07 05:01:49,2025-01-07 05:05:08,198.729,,,,,,,
86,2025-01-07 06:36:34,2025-01-07 06:39:53,198.728,,,,,,,
87,2025-01-07 08:11:18,2025-01-07 08:14:37,198.732,,,,,,,
88,2025-01-07 09:46:03,2025-01-07 09:49:21,198.724,,,,,,,
89,2025-01-07 11:20:47,2025-01-07 11:24:06,198.724,,,,,,,
90,2025-01-07 12:55:31,2025-01-07 12:58:50,198.728,,,,,,,
91,2025-01-07 14:30:16,2025-01-07 14:33:35,198.728,,,,,,,
92,2025-01-07 16:05:00,2025-01-07 16:08:19,198.727,,,,,,,
93,2025-01-07 17:39:45,2025-01-07 17:43:03,198.726,,,,,,,
94,2025-01-07 19:14:29,2025-01-07 19:17:48,198.731,,,,,,,
95,2025-01-07 20:49:13,2025-01-07 20:52:32,198.73,,,,,,,
96,2025-01-07 22:23:58,2025-01-07 22:27:16,198.727,,,,,,,
97,2025-01-07 23:58:42,2025-01-08 00:02:01,198.729,,,,,,,
98,2025-01-08 01:33:27,2025-01-08 01:36:45,198.724,,,,,,,
99,2025-01-08 03:08:11,2025-01-08 03:11:30,198.725,,,,,,,
100,2025-01-08 04:42:55,2025-01-08 04:46:14,198.729,,,,,,,
101,2025-01-08 06:17:40,2025-01-08 06:20:58,198.728,,,,,,,
102,2025-01-08 07:52:24,2025-01-08 07:55:43,198.731,,,,,,,
103,2025-01-08 09:27:08,2025-01-08 09:30:27,198.724,,,,,,,
104,2025-01-08 11:01:53,2025-01-08 11:05:12,198.731,,,,,,,
105,2025-01-08 12:36:37,2025-01-08 12:39:56,198.73,,,,,,,
106,2025-01-08 14:11:22,2025-01-08 14:14:40,198.726,,,,,,,
107,2025-01-08 15:46:06,2025-01-08 15:49:25,198.726,,,,,,,
108,2025-01-08 17:20:50,2025-01-08 17:24:09,198.725,,,,,,,
109,2025-01-08 18:55:35,2025-01-08 18:58:53,198.73,,,,,,,
110,2025-01-08 20:30:19,2025-01-08 20:33:38,198.73,,,,,,,
111,2025-01-08 22:05:04,2025-01-08 22:08:22,198.728,,,,,,,
112,2025-01-08 23:39:48,2025-01-08 23:43:07,198.728,,,,,,,
113,2025-01-09 01:14:32,2025-01-09 01:17:51,198.723,,,,,,,
114,2025-01-09 02:49:17,2025-01-09 02:52:35,198.725,,,,,,,
115,2025-01-09 04:24:01,2025-01-09 04:27:20,198.728,,,,,,,
116,2025-01-09 05:58:45,2025-01-09 06:02:04,198.728,,,,,,,
117,2025-01-09 07:33:30,2025-01-09 07:36:49,198.73,,,,,,,
118,2025-01-09 09:08:14,2025-01-09 09:11:33,198.723,,,,,,,
119,2025-01-09 10:42:59,2025-01-09 10:46:17,198.728,,,,,,,
120,2025-01-09 12:17:43,2025-01-09 12:21:02,198.727,,,,,,,
121,2025-01-09 13:52:27,2025-01-09 13:55:46,198.728,,,,,,,
122,2025-01-09 15:27:12,2025-01-09 15:30:30,198.725,,,,,,,
123,2025-01-09 17:01:56,2025-01-09 17:05:15,198.725,,,,,,,
124,2025-01-09 18:36:41,2025-01-09 18:39:59,198.73,,,,,,,
125,2025-01-09 20:11:25,2025-01-09 20:14:44,198.73,,,,,,,
126,2025-01-09 21:46:09,2025-01-09 21:49:28,198.728,,,,,,,
127,2025-01-09 23:20:54,2025-01-09 23:24:12,198.728,,,,,,,
128,2025-01-10 00:55:38,2025-01-10 00:58:57,198.73,,,,,,,
129,2025-01-10 02:30:22,2025-01-10 02:33:41,198.728,,,,,,,
130,2025-01-10 04:05:07,2025-01-10 04:08:26,198.726,,,,,,,
131,2025-01-10 05:39:51,2025-01-10 05:43:10,198.725,,,,,,,
132,2025-01-10 07:14:36,2025-01-10 07:17:54,198.73,,,,,,,
133,2025-01-10 08:49:20,2025-01-10 08:52:39,198.722,,,,,,,
134,2025-01-10 10:24:04,2025-01-10 10:27:23,198.728,,,,,,,
135,2025-01-10 11:58:49,2025-01-10 12:02:08,198.726,,,,,,,
136,2025-01-10 13:33:33,2025-01-10 13:36:52,198.727,,,,,,,
137,2025-01-10 15:08:18,2025-01-10 15:11:36,198.724,,,,,,,
138,2025-01-10 16:43:02,2025-01-10 16:46:21,198.724,,,,,,,
139,2025-01-10 18:17:46,2025-01-10 18:21:05,198.724,,,,,,,
140,2025-01-10 19:52:31,2025-01-10 19:55:49,198.727,,,,,,,
141,2025-01-10 21:27:15,2025-01-10 21:30:34,198.722,,,,,,,
142,2025-01-10 23:01:59,2025-01-10 23:05:18,198.729,,,,,,,
143,2025-01-11 00:36:44,2025-01-11 00:40:03,198.725,,,,,,,
144,2025-01-11 02:11:28,2025-01-11 02:14:47,198.724,,,,,,,
145,2025-01-11 03:46:13,2025-01-11 03:49:31,198.722,,,,,,,
146,2025-01-11 05:20:57,2025-01-11 05:24:16,198.726,,,,,,,
147,2025-01-11 06:55:41,2025-01-11 06:59:00,198.725,,,,,,,
148,2025-01-11 08:30:26,2025-01-11 08:33:45,198.729,,,,,,,
149,2025-01-11 10:05:10,2025-01-11 10:08:29,198.729,,,,,,,
150,2025-01-11 11:39:55,2025-01-11 11:43:13,198.723,,,,,,,
151,2025-01-11 13:14:39,2025-01-11 13:17:58,198.722,,,,,,,
152,2025-01-11 14:49:23,2025-01-11 14:52:42,198.722,,,,,,,
153,2025-01-11 16:24:08,2025-01-11 16:27:26,198.726,,,,,,,
154,2025-01-11 17:58:52,2025-01-11 18:02:11,198.723,,,,,,,
155,2025-01-11 19:33:37,2025-01-11 19:36:55,198.728,,,,,,,
156,2025-01-11 21:08:21,2025-01-11 21:11:40,198.727,,,,,,,
157,2025-01-11 22:43:05,2025-01-11 22:46:24,198.724,,,,,,,
158,2025-01-12 00:17:50,2025-01-12 00:21:08,198.725,,,,,,,
159,2025-01-12 01:52:34,2025-01-12 01:55:53,198.722,,,,,,,
160,2025-01-12 03:27:18,2025-01-12 03:30:37,198.721,,,,,,,
161,2025-01-12 05:02:03,2025-01-12 05:05:22,198.725,,,,,,,
162,2025-01-12 06:36:47,2025-01-12 06:40:06,198.724,,,,,,,
163,2025-01-12 08:11:32,2025-01-12 08:14:50,198.728,,,,,,,
164,2025-01-12 09:46:16,2025-01-12 09:49:35,198.721,,,,,,,
165,2025-01-12 11:21:00,2025-01-12 11:24:19,198.72,,,,,,,
166,2025-01-12 12:55:45,2025-01-12 12:59:03,198.725,,,,,,,
167,2025-01-12 14:30:29,2025-01-12 14:33:48,198.725,,,,,,,
168,2025-01-12 16:05:14,2025-01-12 16:08:32,198.724,,,,,,,
169,2025-01-12 17:39:58,2025-01-12 17:43:17,198.722,,,,,,,
170,2025-01-12 19:14:42,2025-01-12 19:18:01,198.727,,,,,,,
171,2025-01-12 20:49:27,2025-01-12 20:52:45,198.727,,,,,,,
172,2025-01-12 22:24:11,2025-01-12 22:27:30,198.724,,,,,,,
173,2025-01-12 23:58:55,2025-01-13 00:02:14,198.725,,,,,,,
174,2025-01-13 01:33:40,2025-01-13 01:36:59,198.72,,,,,,,
175,2025-01-13 03:08:24,2025-01-13 03:11:43,198.721,,,,,,,
176,2025-01-13 04:43:09,2025-01-13 04:46:27,198.725,,,,,,,
177,2025-01-13 06:17:53,2025-01-13 06:21:12,198.724,,,,,,,
178,2025-01-13 07:52:37,2025-01-13 07:55:56,198.727,,,,,,,
179,2025-01-13 09:27:22,2025-01-13 09:30:40,198.72,,,,,,,
180,2025-01-13 11:02:06,2025-01-13 11:05:25,198.727,,,,,,,
181,2025-01-13 12:36:51,2025-01-13 12:40:09,198.726,,,,,,,
182,2025-01-13 14:11:35,2025-01-13 14:14:54,198.722,,,,,,,
183,2025-01-13 15:46:19,2025-01-13 15:49:38,198.723,,,,,,,
184,2025-01-13 17:21:04,2025-01-13 17:24:22,198.722,,,,,,,
185,2025-01-13 18:55:48,2025-01-13 18:59:07,198.727,,,,,,,
186,2025-01-13 20:30:32,2025-01-13 20:33:51,198.727,,,,,,,
187,2025-01-13 22:05:17,2025-01-13 22:08:36,198.725,,,,,,,
188,2025-01-13 23:40:01,2025-01-13 23:43:20,198.724,,,,,,,
189,2025-01-14 01:14:46,2025-01-14 01:18:04,198.719,,,,,,,
190,2025-01-14 02:49:30,2025-01-14 02:52:49,198.721,,,,,,,
191,2025-01-14 04:24:14,2025-01-14 04:27:33,198.725,,,,,,,
192,2025-01-14 05:58:59,2025-01-14 06:02:17,198.725,,,,,,,
193,2025-01-14 07:33:43,2025-01-14 07:37:02,198.726,,,,,,,
194,2025-01-14 09:08:28,2025-01-14 09:11:46,198.719,,,,,,,
195,2025-01-14 10:43:12,2025-01-14 10:46:31,198.725,,,,,,,
196,2025-01-14 12:17:56,2025-01-14 12:21:15,198.724,,,,,,,
197,2025-01-14 13:52:41,2025-01-14 13:55:59,198.724,,,,,,,
198,2025-01-14 15:27:25,2025-01-14 15:30:44,198.722,,,,,,,
199,2025-01-14 17:02:09,2025-01-14 17:05:28,198.721,,,,,,,
200,2025-01-14 18:36:54,2025-01-14 18:40:13,198.726,,,,,,,
201,2025-01-14 20:11:38,2025-01-14 20:14:57,198.727,,,,,,,
202,2025-01-14 21:46:23,2025-01-14 21:49:41,198.724,,,,,,,
203,2025-01-14 23:21:07,2025-01-14 23:24:26,198.725,,,,,,,
204,2025-01-15 00:55:51,2025-01-15 00:59:10,198.727,,,,,,,
205,2025-01-15 02:30:36,2025-01-15 02:33:55,198.725,,,,,,,
206,2025-01-15 04:05:20,2025-01-15 04:08:39,198.723,,,,,,,
207,2025-01-15 05:40:05,2025-01-15 05:43:23,198.722,,,,,,,
208,2025-01-15 07:14:49,2025-01-15 07:18:08,198.727,,,,,,,
209,2025-01-15 08:49:33,2025-01-15 08:52:52,198.719,,,,,,,
210,2025-01-15 10:24:18,2025-01-15 10:27:36,198.725,,,,,,,
211,2025-01-15 11:59:02,2025-01-15 12:02:21,198.723,,,,,,,
212,2025-01-15 13:33:46,2025-01-15 13:37:05,198.724,,,,,,,
213,2025-01-15 15:08:31,2025-01-15 15:11:50,198.721,,,,,,,
214,2025-01-15 16:43:15,2025-01-15 16:46:34,198.721,,,,,,,
215,2025-01-15 18:18:00,2025-01-15 18:21:18,198.721,,,,,,,
216,2025-01-15 19:52:44,2025-01-15 19:56:03,198.725,,,,,,,
217,2025-01-15 21:27:28,2025-01-15 21:30:47,198.719,,,,,,,
218,2025-01-15 23:02:13,2025-01-15 23:05:32,198.727,,,,,,,
219,2025-01-16 00:36:57,2025-01-16 00:40:16,198.722,,,,,,,
220,2025-01-16 02:11:42,2025-01-16 02:15:00,198.722,,,,,,,
221,2025-01-16 03:46:26,2025-01-16 03:49:45,198.719,,,,,,,
222,2025-01-16 05:21:10,2025-01-16 05:24:29,198.723,,,,,,,
223,2025-01-16 06:55:55,2025-01-16 06:59:13,198.723,,,,,,,
224,2025-01-16 08:30:39,2025-01-16 08:33:58,198.727,,,,,,,
225,2025-01-16 10:05:24,2025-01-16 10:08:42,198.726,,,,,,,
226,2025-01-16 11:40:08,2025-01-16 11:43:27,198.72,,,,,,,
227,2025-01-16 13:14:52,2025-01-16 13:18:11,198.719,,,,,,,
228,2025-01-16 14:49:37,2025-01-16 14:52:55,198.719,,,,,,,
229,2025-01-16 16:24:21,2025-01-16 16:27:40,198.723,,,,,,,
230,2025-01-16 17:59:05,2025-01-16 18:02:24,198.721,,,,,,,
231,2025-01-16 19:33:50,2025-01-16 19:37:09,198.726,,,,,,,
232,2025-01-16 21:08:34,2025-01-16 21:11:53,198.725,,,,,,,
233,2025-01-16 22:43:19,2025-01-16 22:46:37,198.722,,,,,,,
234,2025-01-17 00:18:03,2025-01-17 00:21:22,198.723,,,,,,,
235,2025-01-17 01:52:47,2025-01-17 01:56:06,198.72,,,,,,,
236,2025-01-17 03:27:32,2025-01-17 03:30:50,198.719,,,,,,,
237,2025-01-17 05:02:16,2025-01-17 05:05:35,198.724,,,,,,,
238,2025-01-17 06:37:01,2025-01-17 06:40:19,198.722,,,,,,,
239,2025-01-17 08:11:45,2025-01-17 08:15:04,198.726,,,,,,,
240,2025-01-17 09:46:29,2025-01-17 09:49:48,198.719,,,,,,,
241,2025-01-17 11:21:14,2025-01-17 11:24:32,198.719,,,,,,,
242,2025-01-17 12:55:58,2025-01-17 12:59:17,198.723,,,,,,,
243,2025-01-17 14:30:42,2025-01-17 14:34:01,198.723,,,,,,,
244,2025-01-17 16:05:27,2025-01-17 16:08:46,198.722,,,,,,,
245,2025-01-17 17:40:11,2025-01-17 17:43:30,198.72,,,,,,,
246,2025-01-17 19:14:56,2025-01-17 19:18:14,198.725,,,,,,,
247,2025-01-17 20:49:40,2025-01-17 20:52:59,198.725,,,,,,,
248,2025-01-17 22:24:24,2025-01-17 22:27:43,198.722,,,,,,,
249,2025-01-17 23:59:09,2025-01-18 00:02:27,198.723,,,,,,,
250,2025-01-18 01:33:53,2025-01-18 01:37:12,198.719,,,,,,,
251,2025-01-18 03:08:38,2025-01-18 03:11:56,198.72,,,,,,,
252,2025-01-18 04:43:22,2025-01-18 04:46:41,198.723,,,,,,,
253,2025-01-18 06:18:06,2025-01-18 06:21:25,198.723,,,,,,,
254,2025-01-18 07:52:51,2025-01-18 07:56:09,198.726,,,,,,,
255,2025-01-18 09:27:35,2025-01-18 09:30:54,198.719,,,,,,,
256,2025-01-18 11:02:19,2025-01-18 11:05:38,198.726,,,,,,,
257,2025-01-18 12:37:04,2025-01-18 12:40:23,198.725,,,,,,,
258,2025-01-18 14:11:48,2025-01-18 14:15:07,198.721,,,,,,,
259,2025-01-18 15:46:33,2025-01-18 15:49:51,198.721,,,,,,,
260,2025-01-18 17:21:17,2025-01-18 17:24:36,198.72,,,,,,,
261,2025-01-18 18:56:01,2025-01-18 18:59:20,198.725,,,,,,,
262,2025-01-18 20:30:46,2025-01-18 20:34:05,198.725,,,,,,,
263,2025-01-18 22:05:30,2025-01-18 22:08:49,198.724,,,,,,,
264,2025-01-18 23:40:15,2025-01-18 23:43:33,198.723,,,,,,,
265,2025-01-19 01:14:59,2025-01-19 01:18:18,198.718,,,,,,,
266,2025-01-19 02:49:43,2025-01-19 02:53:02,198.72,,,,,,,
267,2025-01-19 04:24:28,2025-01-19 04:27:46,198.724,,,,,,,
268,2025-01-19 05:59:12,2025-01-19 06:02:31,198.724,,,,,,,
269,2025-01-19 07:33:56,2025-01-19 07:37:15,198.725,,,,,,,
270,2025-01-19 09:08:41,2025-01-19 09:12:00,198.718,,,,,,,
271,2025-01-19 10:43:25,2025-01-19 10:46:44,198.724,,,,,,,
272,2025-01-19 12:18:10,2025-01-19 12:21:28,198.723,,,,,,,
273,2025-01-19 13:52:54,2025-01-19 13:56:13,198.723,,,,,,,
274,2025-01-19 15:27:38,2025-01-19 15:30:57,198.721,,,,,,,
275,2025-01-19 17:02:23,2025-01-19 17:05:42,198.72,,,,,,,
276,2025-01-19 18:37:07,2025-01-19 18:40:26,198.725,,,,,,,
277,2025-01-19 20:11:52,2025-01-19 20:15:10,198.726,,,,,,,
278,2025-01-19 21:46:36,2025-01-19 21:49:55,198.723,,,,,,,
279,2025-01-19 23:21:20,2025-01-19 23:24:39,198.724,,,,,,,
280,2025-01-20 00:56:05,2025-01-20 00:59:23,198.726,,,,,,,
281,2025-01-20 02:30:49,2025-01-20 02:34:08,198.724,,,,,,,
282,2025-01-20 04:05:33,2025-01-20 04:08:52,198.722,,,,,,,
283,2025-01-20 05:40:18,2025-01-20 05:43:37,198.721,,,,,,,
284,2025-01-20 07:15:02,2025-01-20 07:18:21,198.726,,,,,,,
285,2025-01-20 08:49:47,2025-01-20 08:53:05,198.718,,,,,,,
286,2025-01-20 10:24:31,2025-01-20 10:27:50,198.724,,,,,,,
287,2025-01-20 11:59:15,2025-01-20 12:02:34,198.722,,,,,,,
288,2025-01-20 13:34:00,2025-01-20 13:37:19,198.723,,,,,,,
289,2025-01-20 15:08:44,2025-01-20 15:12:03,198.72,,,,,,,
290,2025-01-20 16:43:29,2025-01-20 16:46:47,198.72,,,,,,,
291,2025-01-20 18:18:13,2025-01-20 18:21:32,198.72,,,,,,,
292,2025-01-20 19:52:57,2025-01-20 19:56:16,198.724,,,,,,,
293,2025-01-20 21:27:42,2025-01-20 21:31:00,198.718,,,,,,,
294,2025-01-20 23:02:26,2025-01-20 23:05:45,198.725,,,,,,,
295,2025-01-21 00:37:11,2025-01-21 00:40:29,198.721,,,,,,,
296,2025-01-21 02:11:55,2025-01-21 02:15:14,198.721,,,,,,,
297,2025-01-21 03:46:39,2025-01-21 03:49:58,198.718,,,,,,,
298,2025-01-21 05:21:24,2025-01-21 05:24:42,198.722,,,,,,,
299,2025-01-21 06:56:08,2025-01-21 06:59:27,198.721,,,,,,,
300,2025-01-21 08:30:52,2025-01-21 08:34:11,198.726,,,,,,,
301,2025-01-21 10:05:37,2025-01-21 10:08:56,198.725,,,,,,,
302,2025-01-21 11:40:21,2025-01-21 11:43:40,198.719,,,,,,,
303,2025-01-21 13:15:06,2025-01-21 13:18:24,198.718,,,,,,,
304,2025-01-21 14:49:50,2025-01-21 14:53:09,198.718,,,,,,,
305,2025-01-21 16:24:34,2025-01-21 16:27:53,198.722,,,,,,,
306,2025-01-21 17:59:19,2025-01-21 18:02:37,198.719,,,,,,,
307,2025-01-21 19:34:03,2025-01-21 19:37:22,198.724,,,,,,,
308,2025-01-21 21:08:48,2025-01-21 21:12:06,198.723,,,,,,,
309,2025-01-21 22:43:32,2025-01-21 22:46:51,198.721,,,,,,,
310,2025-01-22 00:18:16,2025-01-22 00:21:35,198.722,,,,,,,
311,2025-01-22 01:53:01,2025-01-22 01:56:19,198.719,,,,,,,
312,2025-01-22 03:27:45,2025-01-22 03:31:04,198.718,,,,,,,
313,2025-01-22 05:02:29,2025-01-22 05:05:48,198.722,,,,,,,
314,2025-01-22 06:37:14,2025-01-22 06:40:33,198.721,,,,,,,
315,2025-01-22 08:11:58,2025-01-22 08:15:17,198.725,,,,,,,
316,2025-01-22 09:46:43,2025-01-22 09:50:01,198.717,,,,,,,
317,2025-01-22 11:21:27,2025-01-22 11:24:46,198.717,,,,,,,
318,2025-01-22 12:56:11,2025-01-22 12:59:30,198.721,,,,,,,
319,2025-01-22 14:30:56,2025-01-22 14:34:14,198.721,,,,,,,
320,2025-01-22 16:05:40,2025-01-22 16:08:59,198.72,,,,,,,
321,2025-01-22 17:40:25,2025-01-22 17:43:43,198.719,,,,,,,
322,2025-01-22 19:15:09,2025-01-22 19:18:28,198.724,,,,,,,
323,2025-01-22 20:49:53,2025-01-22 20:53:12,198.723,,,,,,,
324,2025-01-22 22:24:38,2025-01-22 22:27:56,198.72,,,,,,,
325,2025-01-22 23:59:22,2025-01-23 00:02:41,198.721,,,,,,,
326,2025-01-23 01:34:06,2025-01-23 01:37:25,198.717,,,,,,,
327,2025-01-23 03:08:51,2025-01-23 03:12:10,198.718,,,,,,,
328,2025-01-23 04:43:35,2025-01-23 04:46:54,198.721,,,,,,,
329,2025-01-23 06:18:20,2025-01-23 06:21:38,198.721,,,,,,,
330,2025-01-23 07:53:04,2025-01-23 07:56:23,198.724,,,,,,,
331,2025-01-23 09:27:48,2025-01-23 09:31:07,198.717,,,,,,,
332,2025-01-23 11:02:33,2025-01-23 11:05:52,198.724,,,,,,,
333,2025-01-23 12:37:17,2025-01-23 12:40:36,198.723,,,,,,,
334,2025-01-23 14:12:02,2025-01-23 14:15:20,198.719,,,,,,,
335,2025-01-23 15:46:46,2025-01-23 15:50:05,198.719,,,,,,,
336,2025-01-23 17:21:30,2025-01-23 17:24:49,198.718,,,,,,,
337,2025-01-23 18:56:15,2025-01-23 18:59:33,198.723,,,,,,,
338,2025-01-23 20:30:59,2025-01-23 20:34:18,198.723,,,,,,,
339,2025-01-23 22:05:43,2025-01-23 22:09:02,198.721,,,,,,,
340,2025-01-23 23:40:28,2025-01-23 23:43:47,198.721,,,,,,,
341,2025-01-24 01:15:12,2025-01-24 01:18:31,198.716,,,,,,,
342,2025-01-24 02:49:57,2025-01-24 02:53:15,198.718,,,,,,,
343,2025-01-24 04:24:41,2025-01-24 04:28:00,198.721,,,,,,,
344,2025-01-24 05:59:25,2025-01-24 06:02:44,198.721,,,,,,,
345,2025-01-24 07:34:10,2025-01-24 07:37:29,198.722,,,,,,,
346,2025-01-24 09:08:54,2025-01-24 09:12:13,198.716,,,,,,,
347,2025-01-24 10:43:39,2025-01-24 10:46:57,198.721,,,,,,,
348,2025-01-24 12:18:23,2025-01-24 12:21:42,198.72,,,,,,,
349,2025-01-24 13:53:07,2025-01-24 13:56:26,198.721,,,,,,,
350,2025-01-24 15:27:52,2025-01-24 15:31:10,198.718,,,,,,,
351,2025-01-24 17:02:36,2025-01-24 17:05:55,198.718,,,,,,,
352,2025-01-24 18:37:20,2025-01-24 18:40:39,198.723,,,,,,,
353,2025-01-24 20:12:05,2025-01-24 20:15:24,198.723,,,,,,,
354,2025-01-24 21:46:49,2025-01-24 21:50:08,198.72,,,,,,,
355,2025-01-24 23:21:34,2025-01-24 23:24:52,198.721,,,,,,,
356,2025-01-25 00:56:18,2025-01-25 00:59:37,198.723,,,,,,,
357,2025-01-25 02:31:02,2025-01-25 02:34:21,198.721,,,,,,,
358,2025-01-25 04:05:47,2025-01-25 04:09:06,198.719,,,,,,,
359,2025-01-25 05:40:31,2025-01-25 05:43:50,198.718,,,,,,,
360,2025-01-25 07:15:16,2025-01-25 07:18:34,198.723,,,,,,,
361,2025-01-25 08:50:00,2025-01-25 08:53:19,198.715,,,,,,,
362,2025-01-25 10:24:44,2025-01-25 10:28:03,198.721,,,,,,,
363,2025-01-25 11:59:29,2025-01-25 12:02:47,198.719,,,,,,,
364,2025-01-25 13:34:13,2025-01-25 13:37:32,198.72,,,,,,,
365,2025-01-25 15:08:58,2025-01-25 15:12:16,198.717,,,,,,,
366,2025-01-25 16:43:42,2025-01-25 16:47:01,198.717,,,,,,,
367,2025-01-25 18:18:26,2025-01-25 18:21:45,198.717,,,,,,,
368,2025-01-25 19:53:11,2025-01-25 19:56:29,198.72,,,,,,,
369,2025-01-25 21:27:55,2025-01-25 21:31:14,198.715,,,,,,,
370,2025-01-25 23:02:39,2025-01-25 23:05:58,198.722,,,,,,,
371,2025-01-26 00:37:24,2025-01-26 00:40:43,198.718,,,,,,,
372,2025-01-26 02:12:08,2025-01-26 02:15:27,198.718,,,,,,,
373,2025-01-26 03:46:53,2025-01-26 03:50:11,198.715,,,,,,,
374,2025-01-26 05:21:37,2025-01-26 05:24:56,198.718,,,,,,,
375,2025-01-26 06:56:21,2025-01-26 06:59:40,198.718,,,,,,,
376,2025-01-26 08:31:06,2025-01-26 08:34:24,198.722,,,,,,,
377,2025-01-26 10:05:50,2025-01-26 10:09:09,198.722,,,,,,,
378,2025-01-26 11:40:35,2025-01-26 11:43:53,198.715,,,,,,,
379,2025-01-26 13:15:19,2025-01-26 13:18:38,198.714,,,,,,,
380,2025-01-26 14:50:03,2025-01-26 14:53:22,198.714,,,,,,,
381,2025-01-26 16:24:48,2025-01-26 16:28:06,198.718,,,,,,,
382,2025-01-26 17:59:32,2025-01-26 18:02:51,198.716,,,,,,,
383,2025-01-26 19:34:16,2025-01-26 19:37:35,198.721,,,,,,,
384,2025-01-26 21:09:01,2025-01-26 21:12:20,198.72,,,,,,,
385,2025-01-26 22:43:45,2025-01-26 22:47:04,198.717,,,,,,,
386,2025-01-27 00:18:30,2025-01-27 00:21:48,198.718,,,,,,,
387,2025-01-27 01:53:14,2025-01-27 01:56:33,198.715,,,,,,,
388,2025-01-27 03:27:58,2025-01-27 03:31:17,198.714,,,,,,,
389,2025-01-27 05:02:43,2025-01-27 05:06:01,198.718,,,,,,,
390,2025-01-27 06:37:27,2025-01-27 06:40:46,198.717,,,,,,,
391,2025-01-27 08:12:12,2025-01-27 08:15:30,198.721,,,,,,,
392,2025-01-27 09:46:56,2025-01-27 09:50:15,198.714,,,,,,,
393,2025-01-27 11:21:40,2025-01-27 11:24:59,198.713,,,,,,,
394,2025-01-27 12:56:25,2025-01-27 12:59:43,198.718,,,,,,,
395,2025-01-27 14:31:09,2025-01-27 14:34:28,198.717,,,,,,,
396,2025-01-27 16:05:53,2025-01-27 16:09:12,198.716,,,,,,,
397,2025-01-27 17:40:38,2025-01-27 17:43:57,198.715,,,,,,,
398,2025-01-27 19:15:22,2025-01-27 19:18:41,198.72,,,,,,,
399,2025-01-27 20:50:07,2025-01-27 20:53:25,198.719,,,,,,,
400,2025-01-27 22:24:51,2025-01-27 22:28:10,198.716,,,,,,,
401,2025-01-27 23:59:35,2025-01-28 00:02:54,198.718,,,,,,,
402,2025-01-28 01:34:20,2025-01-28 01:37:39,198.713,,,,,,,
403,2025-01-28 03:09:04,2025-01-28 03:12:23,198.714,,,,,,,
404,2025-01-28 04:43:49,2025-01-28 04:47:07,198.718,,,,,,,
405,2025-01-28 06:18:33,2025-01-28 06:21:52,198.717,,,,,,,
406,2025-01-28 07:53:17,2025-01-28 07:56:36,198.72,,,,,,,
407,2025-01-28 09:28:02,2025-01-28 09:31:20,198.713,,,,,,,
408,2025-01-28 11:02:46,2025-01-28 11:06:05,198.72,,,,,,,
409,2025-01-28 12:37:30,2025-01-28 12:40:49,198.719,,,,,,,
410,2025-01-28 14:12:15,2025-01-28 14:15:34,198.715,,,,,,,
411,2025-01-28 15:46:59,2025-01-28 15:50:18,198.715,,,,,,,
412,2025-01-28 17:21:44,2025-01-28 17:25:02,198.714,,,,,,,
413,2025-01-28 18:56:28,2025-01-28 18:59:47,198.719,,,,,,,
414,2025-01-28 20:31:12,2025-01-28 20:34:31,198.719,,,,,,,
415,2025-01-28 22:05:57,2025-01-28 22:09:16,198.717,,,,,,,
416,2025-01-28 23:40:41,2025-01-28 23:44:00,198.717,,,,,,,
417,2025-01-29 01:15:26,2025-01-29 01:18:44,198.712,,,,,,,
418,2025-01-29 02:50:10,2025-01-29 02:53:29,198.714,,,,,,,
419,2025-01-29 04:24:54,2025-01-29 04:28:13,198.717,,,,,,,
420,2025-01-29 05:59:39,2025-01-29 06:02:57,198.717,,,,,,,
421,2025-01-29 07:34:23,2025-01-29 07:37:42,198.719,,,,,,,
422,2025-01-29 09:09:08,2025-01-29 09:12:26,198.712,,,,,,,
423,2025-01-29 10:43:52,2025-01-29 10:47:11,198.717,,,,,,,
424,2025-01-29 12:18:36,2025-01-29 12:21:55,198.716,,,,,,,
425,2025-01-29 13:53:21,2025-01-29 13:56:39,198.717,,,,,,,
426,2025-01-29 15:28:05,2025-01-29 15:31:24,198.715,,,,,,,
427,2025-01-29 17:02:49,2025-01-29 17:06:08,198.714,,,,,,,
428,2025-01-29 18:37:34,2025-01-29 18:40:53,198.719,,,,,,,
429,2025-01-29 20:12:18,2025-01-29 20:15:37,198.72,,,,,,,
430,2025-01-29 21:47:03,2025-01-29 21:50:21,198.717,,,,,,,
431,2025-01-29 23:21:47,2025-01-29 23:25:06,198.717,,,,,,,
432,2025-01-30 00:56:31,2025-01-30 00:59:50,198.719,,,,,,,
433,2025-01-30 02:31:16,2025-01-30 02:34:34,198.718,,,,,,,
434,2025-01-30 04:06:00,2025-01-30 04:09:19,198.716,,,,,,,
435,2025-01-30 05:40:45,2025-01-30 05:44:03,198.714,,,,,,,
436,2025-01-30 07:15:29,2025-01-30 07:18:48,198.72,,,,,,,
437,2025-01-30 08:50:13,2025-01-30 08:53:32,198.712,,,,,,,
438,2025-01-30 10:24:58,2025-01-30 10:28:16,198.718,,,,,,,
439,2025-01-30 11:59:42,2025-01-30 12:03:01,198.716,,,,,,,
440,2025-01-30 13:34:26,2025-01-30 13:37:45,198.717,,,,,,,
441,2025-01-30 15:09:11,2025-01-30 15:12:30,198.714,,,,,,,
442,2025-01-30 16:43:55,2025-01-30 16:47:14,198.714,,,,,,,
443,2025-01-30 18:18:40,2025-01-30 18:21:58,198.713,,,,,,,
444,2025-01-30 19:53:24,2025-01-30 19:56:43,198.717,,,,,,,
445,2025-01-30 21:28:08,2025-01-30 21:31:27,198.712,,,,,,,
446,2025-01-30 23:02:53,2025-01-30 23:06:11,198.719,,,,,,,
447,2025-01-31 00:37:37,2025-01-31 00:40:56,198.715,,,,,,,
448,2025-01-31 02:12:22,2025-01-31 02:15:40,198.715,,,,,,,
449,2025-01-31 03:47:06,2025-01-31 03:50:25,198.712,,,,,,,
450,2025-01-31 05:21:50,2025-01-31 05:25:09,198.716,,,,,,,
451,2025-01-31 06:56:35,2025-01-31 06:59:53,198.715,,,,,,,
452,2025-01-31 08:31:19,2025-01-31 08:34:38,198.719,,,,,,,
453,2025-01-31 10:06:03,2025-01-31 10:09:22,198.719,,,,,,,
454,2025-01-31 11:40:48,2025-01-31 11:44:07,198.713,,,,,,,
455,2025-01-31 13:15:32,2025-01-31 13:18:51,198.712,,,,,,,
456,2025-01-31 14:50:17,2025-01-31 14:53:35,198.712,,,,,,,
457,2025-01-31 16:25:01,2025-01-31 16:28:20,198.716,,,,,,,
458,2025-01-31 17:59:45,2025-01-31 18:03:04,198.713,,,,,,,
459,2025-01-31 19:34:30,2025-01-31 19:37:48,198.718,,,,,,,
460,2025-01-31 21:09:14,2025-01-31 21:12:33,198.717,,,,,,,
461,2025-01-31 22:43:59,2025-01-31 22:47:17,198.715,,,,,,,
462,2025-02-01 00:18:43,2025-02-01 00:22:02,198.716,,,,,,,
463,2025-02-01 01:53:27,2025-02-01 01:56:46,198.711,,,,,,,
464,2025-02-01 03:28:12,2025-02-01 03:31:30,198.712,,,,,,,
465,2025-02-01 05:02:56,2025-02-01 05:06:15,198.716,,,,,,,
466,2025-02-01 06:37:40,2025-02-01 06:40:59,198.715,,,,,,,
467,2025-02-01 08:12:25,2025-02-01 08:15:44,198.719,,,,,,,
468,2025-02-01 09:47:09,2025-02-01 09:50:28,198.711,,,,,,,
469,2025-02-01 11:21:54,2025-02-01 11:25:12,198.711,,,,,,,
470,2025-02-01 12:56:38,2025-02-01 12:59:57,198.716,,,,,,,
471,2025-02-01 14:31:22,2025-02-01 14:34:41,198.715,,,,,,,
472,2025-02-01 16:06:07,2025-02-01 16:09:26,198.714,,,,,,,
473,2025-02-01 17:40:51,2025-02-01 17:44:10,198.713,,,,,,,
474,2025-02-01 19:15:36,2025-02-01 19:18:54,198.718,,,,,,,
475,2025-02-01 20:50:20,2025-02-01 20:53:39,198.717,,,,,,,
476,2025-02-01 22:25:04,2025-02-01 22:28:23,198.714,,,,,,,
477,2025-02-01 23:59:49,2025-02-02 00:03:07,198.716,,,,,,,
478,2025-02-02 01:34:33,2025-02-02 01:37:52,198.711,,,,,,,
479,2025-02-02 03:09:17,2025-02-02 03:12:36,198.712,,,,,,,
480,2025-02-02 04:44:02,2025-02-02 04:47:21,198.716,,,,,,,
481,2025-02-02 06:18:46,2025-02-02 06:22:05,198.715,,,,,,,
482,2025-02-02 07:53:31,2025-02-02 07:56:49,198.718,,,,,,,
483,2025-02-02 09:28:15,2025-02-02 09:31:34,198.711,,,,,,,
484,2025-02-02 11:02:59,2025-02-02 11:06:18,198.719,,,,,,,
485,2025-02-02 12:37:44,2025-02-02 12:41:03,198.717,,,,,,,
486,2025-02-02 14:12:28,2025-02-02 14:15:47,198.714,,,,,,,
487,2025-02-02 15:47:13,2025-02-02 15:50:31,198.714,,,,,,,
488,2025-02-02 17:21:57,2025-02-02 17:25:16,198.713,,,,,,,
489,2025-02-02 18:56:41,2025-02-02 19:00:00,198.718,,,,,,,
490,2025-02-02 20:31:26,2025-02-02 20:34:44,198.718,,,,,,,
491,2025-02-02 22:06:10,2025-02-02 22:09:29,198.716,,,,,,,
492,2025-02-02 23:40:55,2025-02-02 23:44:13,198.715,,,,,,,
493,2025-02-03 01:15:39,2025-02-03 01:18:58,198.71,,,,,,,
494,2025-02-03 02:50:23,2025-02-03 02:53:42,198.712,,,,,,,
495,2025-02-03 04:25:08,2025-02-03 04:28:26,198.716,,,,,,,
496,2025-02-03 05:59:52,2025-02-03 06:03:11,198.716,,,,,,,
497,2025-02-03 07:34:36,2025-02-03 07:37:55,198.717,,,,,,,
498,2025-02-03 09:09:21,2025-02-03 09:12:40,198.711,,,,,,,
499,2025-02-03 10:44:05,2025-02-03 10:47:24,198.716,,,,,,,
500,2025-02-03 12:18:50,2025-02-03 12:22:08,198.715,,,,,,,
501,2025-02-03 13:53:34,2025-02-03 13:56:53,198.716,,,,,,,
502,2025-02-03 15:28:18,2025-02-03 15:31:37,198.713,,,,,,,
503,2025-02-03 17:03:03,2025-02-03 17:06:21,198.713,,,,,,,
504,2025-02-03 18:37:47,2025-02-03 18:41:06,198.718,,,,,,,
505,2025-02-03 20:12:32,2025-02-03 20:15:50,198.718,,,,,,,
506,2025-02-03 21:47:16,2025-02-03 21:50:35,198.715,,,,,,,
507,2025-02-03 23:22:00,2025-02-03 23:25:19,198.716,,,,,,,
508,2025-02-04 00:56:45,2025-02-04 01:00:03,198.718,,,,,,,
509,2025-02-04 02:31:29,2025-02-04 02:34:48,198.716,,,,,,,
510,2025-02-04 04:06:13,2025-02-04 04:09:32,198.714,,,,,,,
511,2025-02-04 05:40:58,2025-02-04 05:44:17,198.713,,,,,,,
512,2025-02-04 07:15:42,2025-02-04 07:19:01,198.718,,,,,,,
513,2025-02-04 08:50:27,2025-02-04 08:53:45,198.71,,,,,,,
514,2025-02-04 10:25:11,2025-02-04 10:28:30,198.716,,,,,,,
515,2025-02-04 11:59:55,2025-02-04 12:03:14,198.714,,,,,,,
516,2025-02-04 13:34:40,2025-02-04 13:37:58,198.715,,,,,,,
517,2025-02-04 15:09:24,2025-02-04 15:12:43,198.712,,,,,,,
518,2025-02-04 16:44:09,2025-02-04 16:47:27,198.712,,,,,,,
519,2025-02-04 18:18:53,2025-02-04 18:22:12,198.712,,,,,,,
520,2025-02-04 19:53:37,2025-02-04 19:56:56,198.715,,,,,,,
521,2025-02-04 21:28:22,2025-02-04 21:31:40,198.71,,,,,,,
522,2025-02-04 23:03:06,2025-02-04 23:06:25,198.717,,,,,,,
523,2025-02-05 00:37:50,2025-02-05 00:41:09,198.713,,,,,,,
524,2025-02-05 02:12:35,2025-02-05 02:15:54,198.713,,,,,,,
525,2025-02-05 03:47:19,2025-02-05 03:50:38,198.71,,,,,,,
526,2025-02-05 05:22:04,2025-02-05 05:25:22,198.714,,,,,,,
527,2025-02-05 06:56:48,2025-02-05 07:00:07,198.713,,,,,,,
528,2025-02-05 08:31:32,2025-02-05 08:34:51,198.718,,,,,,,
529,2025-02-05 10:06:17,2025-02-05 10:09:35,198.717,,,,,,,
530,2025-02-05 11:41:01,2025-02-05 11:44:20,198.711,,,,,,,
531,2025-02-05 13:15:46,2025-02-05 13:19:04,198.71,,,,,,,
532,2025-02-05 14:50:30,2025-02-05 14:53:49,198.71,,,,,,,
533,2025-02-05 16:25:14,2025-02-05 16:28:33,198.714,,,,,,,
534,2025-02-05 17:59:59,2025-02-05 18:03:17,198.711,,,,,,,
535,2025-02-05 19:34:43,2025-02-05 19:38:02,198.716,,,,,,,
536,2025-02-05 21:09:27,2025-02-05 21:12:46,198.715,,,,,,,
537,2025-02-05 22:44:12,2025-02-05 22:47:31,198.713,,,,,,,
538,2025-02-06 00:18:56,2025-02-06 00:22:15,198.714,,,,,,,
539,2025-02-06 01:53:41,2025-02-06 01:56:59,198.709,,,,,,,
540,2025-02-06 03:28:25,2025-02-06 03:31:44,198.71,,,,,,,
541,2025-02-06 05:03:09,2025-02-06 05:06:28,198.714,,,,,,,
542,2025-02-06 06:37:54,2025-02-06 06:41:13,198.713,,,,,,,
543,2025-02-06 08:12:38,2025-02-06 08:15:57,198.717,,,,,,,
544,2025-02-06 09:47:23,2025-02-06 09:50:41,198.709,,,,,,,
545,2025-02-06 11:22:07,2025-02-06 11:25:26,198.709,,,,,,,
546,2025-02-06 12:56:51,2025-02-06 13:00:10,198.713,,,,,,,
547,2025-02-06 14:31:36,2025-02-06 14:34:54,198.713,,,,,,,
548,2025-02-06 16:06:20,2025-02-06 16:09:39,198.712,,,,,,,
549,2025-02-06 17:41:04,2025-02-06 17:44:23,198.71,,,,,,,
550,2025-02-06 19:15:49,2025-02-06 19:19:08,198.715,,,,,,,
551,2025-02-06 20:50:33,2025-02-06 20:53:52,198.715,,,,,,,
552,2025-02-06 22:25:18,2025-02-06 22:28:36,198.712,,,,,,,
553,2025-02-07 00:00:02,2025-02-07 00:03:21,198.713,,,,,,,
554,2025-02-07 01:34:46,2025-02-07 01:38:05,198.708,,,,,,,
555,2025-02-07 03:09:31,2025-02-07 03:12:50,198.709,,,,,,,
556,2025-02-07 04:44:15,2025-02-07 04:47:34,198.713,,,,,,,
557,2025-02-07 06:19:00,2025-02-07 06:22:18,198.712,,,,,,,
558,2025-02-07 07:53:44,2025-02-07 07:57:03,198.715,,,,,,,
559,2025-02-07 09:28:28,2025-02-07 09:31:47,198.708,,,,,,,
560,2025-02-07 11:03:13,2025-02-07 11:06:31,198.715,,,,,,,
561,2025-02-07 12:37:57,2025-02-07 12:41:16,198.714,,,,,,,
562,2025-02-07 14:12:42,2025-02-07 14:16:00,198.71,,,,,,,
563,2025-02-07 15:47:26,2025-02-07 15:50:45,198.71,,,,,,,
564,2025-02-07 17:22:10,2025-02-07 17:25:29,198.709,,,,,,,
565,2025-02-07 18:56:55,2025-02-07 19:00:13,198.714,,,,,,,
566,2025-02-07 20:31:39,2025-02-07 20:34:58,198.714,,,,,,,
567,2025-02-07 22:06:23,2025-02-07 22:09:42,198.712,,,,,,,
568,2025-02-07 23:41:08,2025-02-07 23:44:27,198.712,,,,,,,
569,2025-02-08 01:15:52,2025-02-08 01:19:11,198.707,,,,,,,
570,2025-02-08 02:50:37,2025-02-08 02:53:55,198.709,,,,,,,
571,2025-02-08 04:25:21,2025-02-08 04:28:40,198.712,,,,,,,
572,2025-02-08 06:00:05,2025-02-08 06:03:24,198.712,,,,,,,
573,2025-02-08 07:34:50,2025-02-08 07:38:08,198.714,,,,,,,
574,2025-02-08 09:09:34,2025-02-08 09:12:53,198.707,,,,,,,
575,2025-02-08 10:44:19,2025-02-08 10:47:37,198.712,,,,,,,
576,2025-02-08 12:19:03,2025-02-08 12:22:22,198.711,,,,,,,
577,2025-02-08 13:53:47,2025-02-08 13:57:06,198.712,,,,,,,
578,2025-02-08 15:28:32,2025-02-08 15:31:50,198.709,,,,,,,
579,2025-02-08 17:03:16,2025-02-08 17:06:35,198.709,,,,,,,
580,2025-02-08 18:38:00,2025-02-08 18:41:19,198.714,,,,,,,
581,2025-02-08 20:12:45,2025-02-08 20:16:04,198.714,,,,,,,
582,2025-02-08 21:47:29,2025-02-08 21:50:48,198.711,,,,,,,
583,2025-02-08 23:22:14,2025-02-08 23:25:32,198.712,,,,,,,
584,2025-02-09 00:56:58,2025-02-09 01:00:17,198.714,,,,,,,
585,2025-02-09 02:31:42,2025-02-09 02:35:01,198.712,,,,,,,
586,2025-02-09 04:06:27,2025-02-09 04:09:45,198.71,,,,,,,
587,2025-02-09 05:41:11,2025-02-09 05:44:30,198.709,,,,,,,
588,2025-02-09 07:15:56,2025-02-09 07:19:14,198.714,,,,,,,
589,2025-02-09 08:50:40,2025-02-09 08:53:59,198.706,,,,,,,
590,2025-02-09 10:25:24,2025-02-09 10:28:43,198.712,,,,,,,
591,2025-02-09 12:00:09,2025-02-09 12:03:27,198.71,,,,,,,
592,2025-02-09 13:34:53,2025-02-09 13:38:12,198.711,,,,,,,
593,2025-02-09 15:09:37,2025-02-09 15:12:56,198.708,,,,,,,
594,2025-02-09 16:44:22,2025-02-09 16:47:41,198.708,,,,,,,
595,2025-02-09 18:19:06,2025-02-09 18:22:25,198.708,,,,,,,
596,2025-02-09 19:53:51,2025-02-09 19:57:09,198.711,,,,,,,
597,2025-02-09 21:28:35,2025-02-09 21:31:54,198.706,,,,,,,
598,2025-02-09 23:03:19,2025-02-09 23:06:38,198.713,,,,,,,
599,2025-02-10 00:38:04,2025-02-10 00:41:22,198.709,,,,,,,
600,2025-02-10 02:12:48,2025-02-10 02:16:07,198.71,,,,,,,
601,2025-02-10 03:47:33,2025-02-10 03:50:51,198.706,,,,,,,
602,2025-02-10 05:22:17,2025-02-10 05:25:36,198.709,,,,,,,
603,2025-02-10 06:57:01,2025-02-10 07:00:20,198.709,,,,,,,
604,2025-02-10 08:31:46,2025-02-10 08:35:04,198.713,,,,,,,
605,2025-02-10 10:06:30,2025-02-10 10:09:49,198.713,,,,,,,
606,2025-02-10 11:41:14,2025-02-10 11:44:33,198.707,,,,,,,
607,2025-02-10 13:15:59,2025-02-10 13:19:18,198.706,,,,,,,
608,2025-02-10 14:50:43,2025-02-10 14:54:02,198.705,,,,,,,
609,2025-02-10 16:25:28,2025-02-10 16:28:46,198.709,,,,,,,
610,2025-02-10 18:00:12,2025-02-10 18:03:31,198.707,,,,,,,
611,2025-02-10 19:34:56,2025-02-10 19:38:15,198.712,,,,,,,
612,2025-02-10 21:09:41,2025-02-10 21:13:00,198.711,,,,,,,
613,2025-02-10 22:44:25,2025-02-10 22:47:44,198.708,,,,,,,
614,2025-02-11 00:19:10,2025-02-11 00:22:28,198.709,,,,,,,
615,2025-02-11 01:53:54,2025-02-11 01:57:13,198.705,,,,,,,
616,2025-02-11 03:28:38,2025-02-11 03:31:57,198.706,,,,,,,
617,2025-02-11 05:03:23,2025-02-11 05:06:41,198.71,,,,,,,
618,2025-02-11 06:38:07,2025-02-11 06:41:26,198.709,,,,,,,
619,2025-02-11 08:12:52,2025-02-11 08:16:10,198.712,,,,,,,
620,2025-02-11 09:47:36,2025-02-11 09:50:55,198.705,,,,,,,
621,2025-02-11 11:22:20,2025-02-11 11:25:39,198.705,,,,,,,
622,2025-02-11 12:57:05,2025-02-11 13:00:23,198.709,,,,,,,
623,2025-02-11 14:31:49,2025-02-11 14:35:08,198.709,,,,,,,
624,2025-02-11 16:06:33,2025-02-11 16:09:52,198.708,,,,,,,
625,2025-02-11 17:41:18,2025-02-11 17:44:37,198.706,,,,,,,
626,2025-02-11 19:16:02,2025-02-11 19:19:21,198.711,,,,,,,
627,2025-02-11 20:50:47,2025-02-11 20:54:05,198.711,,,,,,,
628,2025-02-11 22:25:31,2025-02-11 22:28:50,198.708,,,,,,,
629,2025-02-12 00:00:15,2025-02-12 00:03:34,198.709,,,,,,,
630,2025-02-12 01:35:00,2025-02-12 01:38:18,198.705,,,,,,,
631,2025-02-12 03:09:44,2025-02-12 03:13:03,198.705,,,,,,,
632,2025-02-12 04:44:29,2025-02-12 04:47:47,198.709,,,,,,,
633,2025-02-12 06:19:13,2025-02-12 06:22:32,198.708,,,,,,,
634,2025-02-12 07:53:57,2025-02-12 07:57:16,198.712,,,,,,,
635,2025-02-12 09:28:42,2025-02-12 09:32:00,198.704,,,,,,,
636,2025-02-12 11:03:26,2025-02-12 11:06:45,198.712,,,,,,,
637,2025-02-12 12:38:10,2025-02-12 12:41:29,198.711,,,,,,,
638,2025-02-12 14:12:55,2025-02-12 14:16:14,198.707,,,,,,,
639,2025-02-12 15:47:39,2025-02-12 15:50:58,198.707,,,,,,,
640,2025-02-12 17:22:24,2025-02-12 17:25:42,198.706,,,,,,,
641,2025-02-12 18:57:08,2025-02-12 19:00:27,198.711,,,,,,,
642,2025-02-12 20:31:52,2025-02-12 20:35:11,198.711,,,,,,,
643,2025-02-12 22:06:37,2025-02-12 22:09:55,198.709,,,,,,,
644,2025-02-12 23:41:21,2025-02-12 23:44:40,198.708,,,,,,,
645,2025-02-13 01:16:06,2025-02-13 01:19:24,198.704,,,,,,,
646,2025-02-13 02:50:50,2025-02-13 02:54:09,198.706,,,,,,,
647,2025-02-13 04:25:34,2025-02-13 04:28:53,198.709,,,,,,,
648,2025-02-13 06:00:19,2025-02-13 06:03:37,198.709,,,,,,,
649,2025-02-13 07:35:03,2025-02-13 07:38:22,198.71,,,,,,,
650,2025-02-13 09:09:47,2025-02-13 09:13:06,198.704,,,,,,,
651,2025-02-13 10:44:32,2025-02-13 10:47:51,198.709,,,,,,,
652,2025-02-13 12:19:16,2025-02-13 12:22:35,198.708,,,,,,,
653,2025-02-13 13:54:01,2025-02-13 13:57:19,198.709,,,,,,,
654,2025-02-13 15:28:45,2025-02-13 15:32:04,198.706,,,,,,,
655,2025-02-13 17:03:29,2025-02-13 17:06:48,198.706,,,,,,,
656,2025-02-13 18:38:14,2025-02-13 18:41:32,198.711,,,,,,,
657,2025-02-13 20:12:58,2025-02-13 20:16:17,198.711,,,,,,,
658,2025-02-13 21:47:43,2025-02-13 21:51:01,198.709,,,,,,,
659,2025-02-13 23:22:27,2025-02-13 23:25:46,198.709,,,,,,,
660,2025-02-14 00:57:11,2025-02-14 01:00:30,198.711,,,,,,,
661,2025-02-14 02:31:56,2025-02-14 02:35:14,198.71,,,,,,,
662,2025-02-14 04:06:40,2025-02-14 04:09:59,198.708,,,,,,,
663,2025-02-14 05:41:24,2025-02-14 05:44:43,198.706,,,,,,,
664,2025-02-14 07:16:09,2025-02-14 07:19:28,198.712,,,,,,,
665,2025-02-14 08:50:53,2025-02-14 08:54:12,198.704,,,,,,,
666,2025-02-14 10:25:38,2025-02-14 10:28:56,198.71,,,,,,,
667,2025-02-14 12:00:22,2025-02-14 12:03:41,198.708,,,,,,,
668,2025-02-14 13:35:06,2025-02-14 13:38:25,198.709,,,,,,,
669,2025-02-14 15:09:51,2025-02-14 15:13:09,198.706,,,,,,,
670,2025-02-14 16:44:35,2025-02-14 16:47:54,198.706,,,,,,,
671,2025-02-14 18:19:20,2025-02-14 18:22:38,198.705,,,,,,,
672,2025-02-14 19:54:04,2025-02-14 19:57:23,198.709,,,,,,,
673,2025-02-14 21:28:48,2025-02-14 21:32:07,198.704,,,,,,,
674,2025-02-14 23:03:33,2025-02-14 23:06:51,198.711,,,,,,,
675,2025-02-15 00:38:17,2025-02-15 00:41:36,198.707,,,,,,,
676,2025-02-15 02:13:01,2025-02-15 02:16:20,198.708,,,,,,,
677,2025-02-15 03:47:46,2025-02-15 03:51:05,198.704,,,,,,,
678,2025-02-15 05:22:30,2025-02-15 05:25:49,198.708,,,,,,,
679,2025-02-15 06:57:15,2025-02-15 07:00:33,198.707,,,,,,,
680,2025-02-15 08:31:59,2025-02-15 08:35:18,198.711,,,,,,,
681,2025-02-15 10:06:43,2025-02-15 10:10:02,198.711,,,,,,,
682,2025-02-15 11:41:28,2025-02-15 11:44:47,198.705,,,,,,,
683,2025-02-15 13:16:12,2025-02-15 13:19:31,198.704,,,,,,,
684,2025-02-15 14:50:57,2025-02-15 14:54:15,198.704,,,,,,,
685,2025-02-15 16:25:41,2025-02-15 16:29:00,198.708,,,,,,,
686,2025-02-15 18:00:25,2025-02-15 18:03:44,198.705,,,,,,,
687,2025-02-15 19:35:10,2025-02-15 19:38:28,198.71,,,,,,,
688,2025-02-15 21:09:54,2025-02-15 21:13:13,198.709,,,,,,,
689,2025-02-15 22:44:39,2025-02-15 22:47:57,198.707,,,,,,,
690,2025-02-16 00:19:23,2025-02-16 00:22:42,198.708,,,,,,,
691,2025-02-16 01:54:07,2025-02-16 01:57:26,198.703,,,,,,,
692,2025-02-16 03:28:52,2025-02-16 03:32:10,198.704,,,,,,,
693,2025-02-16 05:03:36,2025-02-16 05:06:55,198.708,,,,,,,
694,2025-02-16 06:38:20,2025-02-16 06:41:39,198.707,,,,,,,
695,2025-02-16 08:13:05,2025-02-16 08:16:24,198.711,,,,,,,
696,2025-02-16 09:47:49,2025-02-16 09:51:08,198.703,,,,,,,
697,2025-02-16 11:22:34,2025-02-16 11:25:52,198.703,,,,,,,
698,2025-02-16 12:57:18,2025-02-16 13:00:37,198.708,,,,,,,
699,2025-02-16 14:32:02,2025-02-16 14:35:21,198.707,,,,,,,
700,2025-02-16 16:06:47,2025-02-16 16:10:05,198.706,,,,,,,
701,2025-02-16 17:41:31,2025-02-16 17:44:50,198.705,,,,,,,
702,2025-02-16 19:16:16,2025-02-16 19:19:34,198.71,,,,,,,
703,2025-02-16 20:51:00,2025-02-16 20:54:19,198.709,,,,,,,
704,2025-02-16 22:25:44,2025-02-16 22:29:03,198.706,,,,,,,
705,2025-02-17 00:00:29,2025-02-17 00:03:47,198.708,,,,,,,
706,2025-02-17 01:35:13,2025-02-17 01:38:32,198.703,,,,,,,
707,2025-02-17 03:09:57,2025-02-17 03:13:16,198.704,,,,,,,
708,2025-02-17 04:44:42,2025-02-17 04:48:01,198.708,,,,,,,
709,2025-02-17 06:19:26,2025-02-17 06:22:45,198.707,,,,,,,
710,2025-02-17 07:54:11,2025-02-17 07:57:29,198.71,,,,,,,
711,2025-02-17 09:28:55,2025-02-17 09:32:14,198.703,,,,,,,
712,2025-02-17 11:03:39,2025-02-17 11:06:58,198.711,,,,,,,
713,2025-02-17 12:38:24,2025-02-17 12:41:42,198.709,,,,,,,
714,2025-02-17 14:13:08,2025-02-17 14:16:27,198.706,,,,,,,
715,2025-02-17 15:47:53,2025-02-17 15:51:11,198.706,,,,,,,
716,2025-02-17 17:22:37,2025-02-17 17:25:56,198.705,,,,,,,
717,2025-02-17 18:57:21,2025-02-17 19:00:40,198.71,,,,,,,
718,2025-02-17 20:32:06,2025-02-17 20:35:24,198.71,,,,,,,
719,2025-02-17 22:06:50,2025-02-17 22:10:09,198.708,,,,,,,
720,2025-02-17 23:41:34,2025-02-17 23:44:53,198.707,,,,,,,
721,2025-02-18 01:16:19,2025-02-18 01:19:38,198.702,,,,,,,
722,2025-02-18 02:51:03,2025-02-18 02:54:22,198.704,,,,,,,
723,2025-02-18 04:25:48,2025-02-18 04:29:06,198.708,,,,,,,
724,2025-02-18 06:00:32,2025-02-18 06:03:51,198.708,,,,,,,
725,2025-02-18 07:35:16,2025-02-18 07:38:35,198.709,,,,,,,
726,2025-02-18 09:10:01,2025-02-18 09:13:19,198.703,,,,,,,
727,2025-02-18 10:44:45,2025-02-18 10:48:04,198.708,,,,,,,
728,2025-02-18 12:19:30,2025-02-18 12:22:48,198.707,,,,,,,
729,2025-02-18 13:54:14,2025-02-18 13:57:33,198.708,,,,,,,
730,2025-02-18 15:28:58,2025-02-18 15:32:17,198.705,,,,,,,
731,2025-02-18 17:03:43,2025-02-18 17:07:01,198.704,,,,,,,
732,2025-02-18 18:38:27,2025-02-18 18:41:46,198.709,,,,,,,
733,2025-02-18 20:13:11,2025-02-18 20:16:30,198.71,,,,,,,
734,2025-02-18 21:47:56,2025-02-18 21:51:15,198.707,,,,,,,
735,2025-02-18 23:22:40,2025-02-18 23:25:59,198.708,,,,,,,
736,2025-02-19 00:57:25,2025-02-19 01:00:43,198.71,,,,,,,
737,2025-02-19 02:32:09,2025-02-19 02:35:28,198.708,,,,,,,
738,2025-02-19 04:06:53,2025-02-19 04:10:12,198.706,,,,,,,
739,2025-02-19 05:41:38,2025-02-19 05:44:57,198.705,,,,,,,
740,2025-02-19 07:16:22,2025-02-19 07:19:41,198.71,,,,,,,
741,2025-02-19 08:51:07,2025-02-19 08:54:25,198.702,,,,,,,
742,2025-02-19 10:25:51,2025-02-19 10:29:10,198.708,,,,,,,
743,2025-02-19 12:00:35,2025-02-19 12:03:54,198.706,,,,,,,
744,2025-02-19 13:35:20,2025-02-19 13:38:38,198.707,,,,,,,
745,2025-02-19 15:10:04,2025-02-19 15:13:23,198.704,,,,,,,
746,2025-02-19 16:44:48,2025-02-19 16:48:07,198.704,,,,,,,
747,2025-02-19 18:19:33,2025-02-19 18:22:52,198.704,,,,,,,
748,2025-02-19 19:54:17,2025-02-19 19:57:36,198.707,,,,,,,
749,2025-02-19 21:29:02,2025-02-19 21:32:20,198.702,,,,,,,
750,2025-02-19 23:03:46,2025-02-19 23:07:05,198.709,,,,,,,
751,2025-02-20 00:38:30,2025-02-20 00:41:49,198.705,,,,,,,
752,2025-02-20 02:13:15,2025-02-20 02:16:34,198.706,,,,,,,
753,2025-02-20 03:47:59,2025-02-20 03:51:18,198.702,,,,,,,
754,2025-02-20 05:22:44,2025-02-20 05:26:02,198.706,,,,,,,
755,2025-02-20 06:57:28,2025-02-20 07:00:47,198.705,,,,,,,
756,2025-02-20 08:32:12,2025-02-20 08:35:31,198.71,,,,,,,
757,2025-02-20 10:06:57,2025-02-20 10:10:15,198.709,,,,,,,
758,2025-02-20 11:41:41,2025-02-20 11:45:00,198.703,,,,,,,
759,2025-02-20 13:16:26,2025-02-20 13:19:44,198.702,,,,,,,
760,2025-02-20 14:51:10,2025-02-20 14:54:29,198.702,,,,,,,
761,2025-02-20 16:25:54,2025-02-20 16:29:13,198.706,,,,,,,
762,2025-02-20 18:00:39,2025-02-20 18:03:57,198.703,,,,,,,
763,2025-02-20 19:35:23,2025-02-20 19:38:42,198.708,,,,,,,
764,2025-02-20 21:10:07,2025-02-20 21:13:26,198.707,,,,,,,
765,2025-02-20 22:44:52,2025-02-20 22:48:11,198.705,,,,,,,
766,2025-02-21 00:19:36,2025-02-21 00:22:55,198.706,,,,,,,
767,2025-02-21 01:54:21,2025-02-21 01:57:39,198.701,,,,,,,
768,2025-02-21 03:29:05,2025-02-21 03:32:24,198.702,,,,,,,
769,2025-02-21 05:03:49,2025-02-21 05:07:08,198.706,,,,,,,
770,2025-02-21 06:38:34,2025-02-21 06:41:52,198.705,,,,,,,
771,2025-02-21 08:13:18,2025-02-21 08:16:37,198.709,,,,,,,
772,2025-02-21 09:48:03,2025-02-21 09:51:21,198.701,,,,,,,
773,2025-02-21 11:22:47,2025-02-21 11:26:06,198.701,,,,,,,
774,2025-02-21 12:57:31,2025-02-21 13:00:50,198.705,,,,,,,
775,2025-02-21 14:32:16,2025-02-21 14:35:34,198.705,,,,,,,
776,2025-02-21 16:07:00,2025-02-21 16:10:19,198.704,,,,,,,
777,2025-02-21 17:41:44,2025-02-21 17:45:03,198.702,,,,,,,
778,2025-02-21 19:16:29,2025-02-21 19:19:48,198.707,,,,,,,
779,2025-02-21 20:51:13,2025-02-21 20:54:32,198.707,,,,,,,
780,2025-02-21 22:25:58,2025-02-21 22:29:16,198.704,,,,,,,
781,2025-02-22 00:00:42,2025-02-22 00:04:01,198.705,,,,,,,
782,2025-02-22 01:35:26,2025-02-22 01:38:45,198.701,,,,,,,
783,2025-02-22 03:10:11,2025-02-22 03:13:29,198.701,,,,,,,
784,2025-02-22 04:44:55,2025-02-22 04:48:14,198.705,,,,,,,
785,2025-02-22 06:19:40,2025-02-22 06:22:58,198.704,,,,,,,
786,2025-02-22 07:54:24,2025-02-22 07:57:43,198.708,,,,,,,
787,2025-02-22 09:29:08,2025-02-22 09:32:27,198.7,,,,,,,
788,2025-02-22 11:03:53,2025-02-22 11:07:11,198.707,,,,,,,
789,2025-02-22 12:38:37,2025-02-22 12:41:56,198.707,,,,,,,
790,2025-02-22 14:13:21,2025-02-22 14:16:40,198.703,,,,,,,
791,2025-02-22 15:48:06,2025-02-22 15:51:25,198.703,,,,,,,
792,2025-02-22 17:22:50,2025-02-22 17:26:09,198.702,,,,,,,
793,2025-02-22 18:57:35,2025-02-22 19:00:53,198.707,,,,,,,
794,2025-02-22 20:32:19,2025-02-22 20:35:38,198.707,,,,,,,
795,2025-02-22 22:07:03,2025-02-22 22:10:22,198.705,,,,,,,
796,2025-02-22 23:41:48,2025-02-22 23:45:06,198.704,,,,,,,
797,2025-02-23 01:16:32,2025-02-23 01:19:51,198.699,,,,,,,
798,2025-02-23 02:51:17,2025-02-23 02:54:35,198.701,,,,,,,
799,2025-02-23 04:26:01,2025-02-23 04:29:20,198.705,,,,,,,
800,2025-02-23 06:00:45,2025-02-23 06:04:04,198.705,,,,,,,
801,2025-02-23 07:35:30,2025-02-23 07:38:48,198.706,,,,,,,
802,2025-02-23 09:10:14,2025-02-23 09:13:33,198.699,,,,,,,
803,2025-02-23 10:44:58,2025-02-23 10:48:17,198.705,,,,,,,
804,2025-02-23 12:19:43,2025-02-23 12:23:02,198.704,,,,,,,
805,2025-02-23 13:54:27,2025-02-23 13:57:46,198.705,,,,,,,
806,2025-02-23 15:29:12,2025-02-23 15:32:30,198.702,,,,,,,
807,2025-02-23 17:03:56,2025-02-23 17:07:15,198.701,,,,,,,
808,2025-02-23 18:38:40,2025-02-23 18:41:59,198.706,,,,,,,
809,2025-02-23 20:13:25,2025-02-23 20:16:44,198.707,,,,,,,
810,2025-02-23 21:48:09,2025-02-23 21:51:28,198.704,,,,,,,
811,2025-02-23 23:22:54,2025-02-23 23:26:12,198.704,,,,,,,
812,2025-02-24 00:57:38,2025-02-24 01:00:57,198.706,,,,,,,
813,2025-02-24 02:32:22,2025-02-24 02:35:41,198.705,,,,,,,
814,2025-02-24 04:07:07,2025-02-24 04:10:25,198.703,,,,,,,
815,2025-02-24 05:41:51,2025-02-24 05:45:10,198.701,,,,,,,
816,2025-02-24 07:16:36,2025-02-24 07:19:54,198.707,,,,,,,
817,2025-02-24 08:51:20,2025-02-24 08:54:39,198.699,,,,,,,
818,2025-02-24 10:26:04,2025-02-24 10:29:23,198.705,,,,,,,
819,2025-02-24 12:00:49,2025-02-24 12:04:07,198.703,,,,,,,
820,2025-02-24 13:35:33,2025-02-24 13:38:52,198.704,,,,,,,
821,2025-02-24 15:10:17,2025-02-24 15:13:36,198.7,,,,,,,
822,2025-02-24 16:45:02,2025-02-24 16:48:21,198.701,,,,,,,
823,2025-02-24 18:19:46,2025-02-24 18:23:05,198.7,,,,,,,
824,2025-02-24 19:54:31,2025-02-24 19:57:49,198.704,,,,,,,
825,2025-02-24 21:29:15,2025-02-24 21:32:34,198.698,,,,,,,
826,2025-02-24 23:03:59,2025-02-24 23:07:18,198.706,,,,,,,
827,2025-02-25 00:38:44,2025-02-25 00:42:02,198.702,,,,,,,
828,2025-02-25 02:13:28,2025-02-25 02:16:47,198.703,,,,,,,
829,2025-02-25 03:48:13,2025-02-25 03:51:31,198.698,,,,,,,
830,2025-02-25 05:22:57,2025-02-25 05:26:16,198.702,,,,,,,
831,2025-02-25 06:57:41,2025-02-25 07:01:00,198.702,,,,,,,
832,2025-02-25 08:32:26,2025-02-25 08:35:44,198.706,,,,,,,
833,2025-02-25 10:07:10,2025-02-25 10:10:29,198.706,,,,,,,
834,2025-02-25 11:41:54,2025-02-25 11:45:13,198.699,,,,,,,
835,2025-02-25 13:16:39,2025-02-25 13:19:58,198.698,,,,,,,
836,2025-02-25 14:51:23,2025-02-25 14:54:42,198.698,,,,,,,
837,2025-02-25 16:26:08,2025-02-25 16:29:26,198.702,,,,,,,
838,2025-02-25 18:00:52,2025-02-25 18:04:11,198.7,,,,,,,
839,2025-02-25 19:35:36,2025-02-25 19:38:55,198.704,,,,,,,
840,2025-02-25 21:10:21,2025-02-25 21:13:39,198.704,,,,,,,
841,2025-02-25 22:45:05,2025-02-25 22:48:24,198.701,,,,,,,
842,2025-02-26 00:19:50,2025-02-26 00:23:08,198.702,,,,,,,
843,2025-02-26 01:54:34,2025-02-26 01:57:53,198.698,,,,,,,
844,2025-02-26 03:29:18,2025-02-26 03:32:37,198.698,,,,,,,
845,2025-02-26 05:04:03,2025-02-26 05:07:21,198.702,,,,,,,
846,2025-02-26 06:38:47,2025-02-26 06:42:06,198.701,,,,,,,
847,2025-02-26 08:13:31,2025-02-26 08:16:50,198.705,,,,,,,
848,2025-02-26 09:48:16,2025-02-26 09:51:35,198.697,,,,,,,
849,2025-02-26 11:23:00,2025-02-26 11:26:19,198.697,,,,,,,
850,2025-02-26 12:57:45,2025-02-26 13:01:03,198.702,,,,,,,
851,2025-02-26 14:32:29,2025-02-26 14:35:48,198.702,,,,,,,
852,2025-02-26 16:07:13,2025-02-26 16:10:32,198.7,,,,,,,
853,2025-02-26 17:41:58,2025-02-26 17:45:16,198.699,,,,,,,
854,2025-02-26 19:16:42,2025-02-26 19:20:01,198.704,,,,,,,
855,2025-02-26 20:51:27,2025-02-26 20:54:45,198.703,,,,,,,
856,2025-02-26 22:26:11,2025-02-26 22:29:30,198.701,,,,,,,
857,2025-02-27 00:00:55,2025-02-27 00:04:14,198.702,,,,,,,
858,2025-02-27 01:35:40,2025-02-27 01:38:58,198.698,,,,,,,
859,2025-02-27 03:10:24,2025-02-27 03:13:43,198.698,,,,,,,
860,2025-02-27 04:45:08,2025-02-27 04:48:27,198.702,,,,,,,
861,2025-02-27 06:19:53,2025-02-27 06:23:12,198.701,,,,,,,
862,2025-02-27 07:54:37,2025-02-27 07:57:56,198.704,,,,,,,
863,2025-02-27 09:29:22,2025-02-27 09:32:40,198.697,,,,,,,
864,2025-02-27 11:04:06,2025-02-27 11:07:25,198.703,,,,,,,
865,2025-02-27 12:38:50,2025-02-27 12:42:09,198.704,,,,,,,
866,2025-02-27 14:13:35,2025-02-27 14:16:53,198.7,,,,,,,
867,2025-02-27 15:48:19,2025-02-27 15:51:38,198.7,,,,,,,
868,2025-02-27 17:23:04,2025-02-27 17:26:22,198.699,,,,,,,
869,2025-02-27 18:57:48,2025-02-27 19:01:07,198.704,,,,,,,
870,2025-02-27 20:32:32,2025-02-27 20:35:51,198.704,,,,,,,
871,2025-02-27 22:07:17,2025-02-27 22:10:35,198.702,,,,,,,
872,2025-02-27 23:42:01,2025-02-27 23:45:20,198.701,,,,,,,
873,2025-02-28 01:16:45,2025-02-28 01:20:04,198.696,,,,,,,
874,2025-02-28 02:51:30,2025-02-28 02:54:49,198.698,,,,,,,
875,2025-02-28 04:26:14,2025-02-28 04:29:33,198.702,,,,,,,
876,2025-02-28 06:00:59,2025-02-28 06:04:17,198.702,,,,,,,
877,2025-02-28 07:35:43,2025-02-28 07:39:02,198.703,,,,,,,
878,2025-02-28 09:10:27,2025-02-28 09:13:46,198.697,,,,,,,
879,2025-02-28 10:45:12,2025-02-28 10:48:31,198.702,,,,,,,
880,2025-02-28 12:19:56,2025-02-28 12:23:15,198.701,,,,,,,
881,2025-02-28 13:54:41,2025-02-28 13:57:59,198.702,,,,,,,
882,2025-02-28 15:29:25,2025-02-28 15:32:44,198.699,,,,,,,
883,2025-02-28 17:04:09,2025-02-28 17:07:28,198.699,,,,,,,
884,2025-02-28 18:38:54,2025-02-28 18:42:12,198.704,,,,,,,
885,2025-02-28 20:13:38,2025-02-28 20:16:57,198.704,,,,,,,
886,2025-02-28 21:48:23,2025-02-28 21:51:41,198.702,,,,,,,
887,2025-02-28 23:23:07,2025-02-28 23:26:26,198.702,,,,,,,
888,2025-03-01 00:57:51,2025-03-01 01:01:10,198.704,,,,,,,
889,2025-03-01 02:32:36,2025-03-01 02:35:54,198.702,,,,,,,
890,2025-03-01 04:07:20,2025-03-01 04:10:39,198.701,,,,,,,
891,2025-03-01 05:42:04,2025-03-01 05:45:23,198.699,,,,,,,
892,2025-03-01 07:16:49,2025-03-01 07:20:08,198.704,,,,,,,
893,2025-03-01 08:51:33,2025-03-01 08:54:52,198.697,,,,,,,
894,2025-03-01 10:26:18,2025-03-01 10:29:36,198.697,,,,,,,
895,2025-03-01 12:01:02,2025-03-01 12:04:21,198.697,,,,,,,
896,2025-03-01 13:35:46,2025-03-01 13:39:05,198.701,,,,,,,
897,2025-03-01 15:10:31,2025-03-01 15:13:49,198.701,,,,,,,
898,2025-03-01 16:45:15,2025-03-01 16:48:34,198.699,,,,,,,
899,2025-03-01 18:20:00,2025-03-01 18:23:18,198.698,,,,,,,
900,2025-03-01 19:54:44,2025-03-01 19:58:03,198.702,,,,,,,
901,2025-03-01 21:29:28,2025-03-01 21:32:47,198.697,,,,,,,
902,2025-03-01 23:04:13,2025-03-01 23:07:31,198.704,,,,,,,
903,2025-03-02 00:38:57,2025-03-02 00:42:16,198.7,,,,,,,
904,2025-03-02 02:13:41,2025-03-02 02:17:00,198.698,,,,,,,
905,2025-03-02 03:48:26,2025-03-02 03:51:45,198.697,,,,,,,
906,2025-03-02 05:23:10,2025-03-02 05:26:29,198.701,,,,,,,
907,2025-03-02 06:57:55,2025-03-02 07:01:13,198.7,,,,,,,
908,2025-03-02 08:32:39,2025-03-02 08:35:58,198.705,,,,,,,
909,2025-03-02 10:07:23,2025-03-02 10:10:42,198.704,,,,,,,
910,2025-03-02 11:42:08,2025-03-02 11:45:26,198.698,,,,,,,
911,2025-03-02 13:16:52,2025-03-02 13:20:11,198.697,,,,,,,
912,2025-03-02 14:51:37,2025-03-02 14:54:55,198.697,,,,,,,
913,2025-03-02 16:26:21,2025-03-02 16:29:40,198.701,,,,,,,
914,2025-03-02 18:01:05,2025-03-02 18:04:24,198.698,,,,,,,
915,2025-03-02 19:35:50,2025-03-02 19:39:08,198.703,,,,,,,
916,2025-03-02 21:10:34,2025-03-02 21:13:53,198.702,,,,,,,
917,2025-03-02 22:45:18,2025-03-02 22:48:37,198.7,,,,,,,
918,2025-03-03 00:20:03,2025-03-03 00:23:22,198.701,,,,,,,
919,2025-03-03 01:54:47,2025-03-03 01:58:06,198.696,,,,,,,
920,2025-03-03 03:29:32,2025-03-03 03:32:50,198.697,,,,,,,
921,2025-03-03 05:04:16,2025-03-03 05:07:35,198.701,,,,,,,
922,2025-03-03 06:39:00,2025-03-03 06:42:19,198.7,,,,,,,
923,2025-03-03 08:13:45,2025-03-03 08:17:03,198.704,,,,,,,
924,2025-03-03 09:48:29,2025-03-03 09:51:48,198.696,,,,,,,
925,2025-03-03 11:23:14,2025-03-03 11:26:32,198.696,,,,,,,
926,2025-03-03 12:57:58,2025-03-03 13:01:17,198.701,,,,,,,
927,2025-03-03 14:32:42,2025-03-03 14:36:01,198.701,,,,,,,
928,2025-03-03 16:07:27,2025-03-03 16:10:45,198.699,,,,,,,
929,2025-03-03 17:42:11,2025-03-03 17:45:30,198.698,,,,,,,
930,2025-03-03 19:16:55,2025-03-03 19:20:14,198.703,,,,,,,
931,2025-03-03 20:51:40,2025-03-03 20:54:59,198.702,,,,,,,
932,2025-03-03 22:26:24,2025-03-03 22:29:43,198.7,,,,,,,
933,2025-03-04 00:01:09,2025-03-04 00:04:27,198.701,,,,,,,
934,2025-03-04 01:35:53,2025-03-04 01:39:12,198.697,,,,,,,
935,2025-03-04 03:10:37,2025-03-04 03:13:56,198.697,,,,,,,
936,2025-03-04 04:45:22,2025-03-04 04:48:40,198.701,,,,,,,
937,2025-03-04 06:20:06,2025-03-04 06:23:25,198.7,,,,,,,
938,2025-03-04 07:54:51,2025-03-04 07:58:09,198.703,,,,,,,
939,2025-03-04 09:29:35,2025-03-04 09:32:54,198.696,,,,,,,
940,2025-03-04 11:04:19,2025-03-04 11:07:38,198.701,,,,,,,
941,2025-03-04 12:39:04,2025-03-04 12:42:22,198.703,,,,,,,
942,2025-03-04 14:13:48,2025-03-04 14:17:07,198.699,,,,,,,
943,2025-03-04 15:48:33,2025-03-04 15:51:51,198.699,,,,,,,
944,2025-03-04 17:23:17,2025-03-04 17:26:36,198.698,,,,,,,
945,2025-03-04 18:58:01,2025-03-04 19:01:20,198.703,,,,,,,
946,2025-03-04 20:32:46,2025-03-04 20:36:04,198.703,,,,,,,
947,2025-03-04 22:07:30,2025-03-04 22:10:49,198.701,,,,,,,
948,2025-03-04 23:42:14,2025-03-04 23:45:33,198.7,,,,,,,
949,2025-03-05 01:16:59,2025-03-05 01:20:18,198.695,,,,,,,
950,2025-03-05 02:51:43,2025-03-05 02:55:02,198.697,,,,,,,
951,2025-03-05 04:26:28,2025-03-05 04:29:46,198.701,,,,,,,
952,2025-03-05 06:01:12,2025-03-05 06:04:31,198.701,,,,,,,
953,2025-03-05 07:35:56,2025-03-05 07:39:15,198.702,,,,,,,
954,2025-03-05 09:10:41,2025-03-05 09:13:59,198.696,,,,,,,
955,2025-03-05 10:45:25,2025-03-05 10:48:44,198.701,,,,,,,
956,2025-03-05 12:20:10,2025-03-05 12:23:28,198.7,,,,,,,
957,2025-03-05 13:54:54,2025-03-05 13:58:13,198.701,,,,,,,
958,2025-03-05 15:29:38,2025-03-05 15:32:57,198.698,,,,,,,
959,2025-03-05 17:04:23,2025-03-05 17:07:41,198.697,,,,,,,
960,2025-03-05 18:39:07,2025-03-05 18:42:26,198.702,,,,,,,
961,2025-03-05 20:13:51,2025-03-05 20:17:10,198.703,,,,,,,
962,2025-03-05 21:48:36,2025-03-05 21:51:55,198.7,,,,,,,
963,2025-03-05 23:23:20,2025-03-05 23:26:39,198.701,,,,,,,
964,2025-03-06 00:58:05,2025-03-06 01:01:23,198.703,,,,,,,
965,2025-03-06 02:32:49,2025-03-06 02:36:08,198.701,,,,,,,
966,2025-03-06 04:07:33,2025-03-06 04:10:52,198.699,,,,,,,
967,2025-03-06 05:42:18,2025-03-06 05:45:36,198.698,,,,,,,
968,2025-03-06 07:17:02,2025-03-06 07:20:21,198.703,,,,,,,
969,2025-03-06 08:51:47,2025-03-06 08:55:05,198.695,,,,,,,
970,2025-03-06 10:26:31,2025-03-06 10:29:50,198.695,,,,,,,
971,2025-03-06 12:01:15,2025-03-06 12:04:34,198.695,,,,,,,
972,2025-03-06 13:36:00,2025-03-06 13:39:18,198.7,,,,,,,
973,2025-03-06 15:10:44,2025-03-06 15:14:03,198.699,,,,,,,
974,2025-03-06 16:45:28,2025-03-06 16:48:47,198.697,,,,,,,
975,2025-03-06 18:20:13,2025-03-06 18:23:32,198.696,,,,,,,
976,2025-03-06 19:54:57,2025-03-06 19:58:16,198.7,,,,,,,
977,2025-03-06 21:29:42,2025-03-06 21:33:00,198.695,,,,,,,
978,2025-03-06 23:04:26,2025-03-06 23:07:45,198.702,,,,,,,
979,2025-03-07 00:39:10,2025-03-07 00:42:29,198.698,,,,,,,
980,2025-03-07 02:13:55,2025-03-07 02:17:13,198.697,,,,,,,
981,2025-03-07 03:48:39,2025-03-07 03:51:58,198.695,,,,,,,
982,2025-03-07 05:23:24,2025-03-07 05:26:42,198.699,,,,,,,
983,2025-03-07 06:58:08,2025-03-07 07:01:27,198.698,,,,,,,
984,2025-03-07 08:32:52,2025-03-07 08:36:11,198.702,,,,,,,
985,2025-03-07 10:07:37,2025-03-07 10:10:55,198.702,,,,,,,
986,2025-03-07 11:42:21,2025-03-07 11:45:40,198.696,,,,,,,
987,2025-03-07 13:17:05,2025-03-07 13:20:24,198.695,,,,,,,
988,2025-03-07 14:51:50,2025-03-07 14:55:09,198.695,,,,,,,
989,2025-03-07 16:26:34,2025-03-07 16:29:53,198.699,,,,,,,
990,2025-03-07 18:01:19,2025-03-07 18:04:37,198.696,,,,,,,
991,2025-03-07 19:36:03,2025-03-07 19:39:22,198.701,,,,,,,
992,2025-03-07 21:10:47,2025-03-07 21:14:06,198.7,,,,,,,
993,2025-03-07 22:45:32,2025-03-07 22:48:50,198.697,,,,,,,
994,2025-03-08 00:20:16,2025-03-08 00:23:35,198.698,,,,,,,
995,2025-03-08 01:55:01,2025-03-08 01:58:19,198.694,,,,,,,
996,2025-03-08 03:29:45,2025-03-08 03:33:04,198.695,,,,,,,
997,2025-03-08 05:04:29,2025-03-08 05:07:48,198.699,,,,,,,
998,2025-03-08 06:39:14,2025-03-08 06:42:32,198.698,,,,,,,
999,2025-03-08 08:13:58,2025-03-08 08:17:17,198.701,,,,,,,
1000,2025-03-08 09:48:42,2025-03-08 09:52:01,198.694,,,,,,,
1001,2025-03-08 11:23:27,2025-03-08 11:26:46,198.694,,,,,,,
1002,2025-03-08 12:58:11,2025-03-08 13:01:30,198.698,,,,,,,
1003,2025-03-08 14:32:56,2025-03-08 14:36:14,198.698,,,,,,,
1004,2025-03-08 16:07:40,2025-03-08 16:10:59,198.697,,,,,,,
1005,2025-03-08 17:42:24,2025-03-08 17:45:43,198.695,,,,,,,
1006,2025-03-08 19:17:09,2025-03-08 19:20:28,198.7,,,,,,,
1007,2025-03-08 20:51:53,2025-03-08 20:55:12,198.7,,,,,,,
1008,2025-03-08 22:26:38,2025-03-08 22:29:56,198.697,,,,,,,
1009,2025-03-09 00:01:22,2025-03-09 00:04:41,198.698,,,,,,,
1010,2025-03-09 01:36:06,2025-03-09 01:39:25,198.694,,,,,,,
1011,2025-03-09 03:10:51,2025-03-09 03:14:09,198.694,,,,,,,
1012,2025-03-09 04:45:35,2025-03-09 04:48:54,198.698,,,,,,,
1013,2025-03-09 06:20:20,2025-03-09 06:23:38,198.697,,,,,,,
1014,2025-03-09 07:55:04,2025-03-09 07:58:23,198.7,,,,,,,
1015,2025-03-09 09:29:48,2025-03-09 09:33:07,198.693,,,,,,,
1016,2025-03-09 11:04:33,2025-03-09 11:07:51,198.698,,,,,,,
