3UCubedIntegratedSim/Reports & Plots/Area Target Access Data/CSV/Sat9.csv

Access,Start Time (UTCG),Stop Time (UTCG),Duration (sec),,,Global Statistics,,,,
1,2025-01-01 16:24:12,2025-01-01 16:30:27,374.425,,,Min Duration,5543,2026-01-01 07:11:58,2026-01-01 07:18:12,374.177
2,2025-01-01 17:58:57,2025-01-01 18:05:11,374.421,,,Max Duration,3546,2025-08-22 21:56:40,2025-08-22 22:02:55,374.582
3,2025-01-01 19:33:41,2025-01-01 19:39:56,374.419,,,Mean Duration,,,,374.433
4,2025-01-01 21:08:25,2025-01-01 21:14:40,374.42,,,Total Duration,,,,2077355.269
5,2025-01-01 22:43:10,2025-01-01 22:49:24,374.421,,,,,,,
6,2025-01-02 00:17:54,2025-01-02 00:24:09,374.425,,,,,,,
7,2025-01-02 01:52:39,2025-01-02 01:58:53,374.419,,,,,,,
8,2025-01-02 03:27:23,2025-01-02 03:33:37,374.42,,,,,,,
9,2025-01-02 05:02:07,2025-01-02 05:08:22,374.423,,,,,,,
10,2025-01-02 06:36:52,2025-01-02 06:43:06,374.422,,,,,,,
11,2025-01-02 08:11:36,2025-01-02 08:17:51,374.418,,,,,,,
12,2025-01-02 09:46:21,2025-01-02 09:52:35,374.423,,,,,,,
13,2025-01-02 11:21:05,2025-01-02 11:27:19,374.423,,,,,,,
14,2025-01-02 12:55:49,2025-01-02 13:02:04,374.422,,,,,,,
15,2025-01-02 14:30:34,2025-01-02 14:36:48,374.422,,,,,,,
16,2025-01-02 16:05:18,2025-01-02 16:11:33,374.427,,,,,,,
17,2025-01-02 17:40:03,2025-01-02 17:46:17,374.426,,,,,,,
18,2025-01-02 19:14:47,2025-01-02 19:21:01,374.422,,,,,,,
19,2025-01-02 20:49:31,2025-01-02 20:55:46,374.421,,,,,,,
20,2025-01-02 22:24:16,2025-01-02 22:30:30,374.424,,,,,,,
21,2025-01-02 23:59:00,2025-01-03 00:05:14,374.427,,,,,,,
22,2025-01-03 01:33:44,2025-01-03 01:39:59,374.419,,,,,,,
23,2025-01-03 03:08:29,2025-01-03 03:14:43,374.422,,,,,,,
24,2025-01-03 04:43:13,2025-01-03 04:49:28,374.424,,,,,,,
25,2025-01-03 06:17:58,2025-01-03 06:24:12,374.422,,,,,,,
26,2025-01-03 07:52:42,2025-01-03 07:58:56,374.42,,,,,,,
27,2025-01-03 09:27:26,2025-01-03 09:33:41,374.422,,,,,,,
28,2025-01-03 11:02:11,2025-01-03 11:08:25,374.422,,,,,,,
29,2025-01-03 12:36:55,2025-01-03 12:43:10,374.423,,,,,,,
30,2025-01-03 14:11:40,2025-01-03 14:17:54,374.42,,,,,,,
31,2025-01-03 15:46:24,2025-01-03 15:52:38,374.425,,,,,,,
32,2025-01-03 17:21:08,2025-01-03 17:27:23,374.425,,,,,,,
33,2025-01-03 18:55:53,2025-01-03 19:02:07,374.422,,,,,,,
34,2025-01-03 20:30:37,2025-01-03 20:36:51,374.422,,,,,,,
35,2025-01-03 22:05:21,2025-01-03 22:11:36,374.423,,,,,,,
36,2025-01-03 23:40:06,2025-01-03 23:46:20,374.422,,,,,,,
37,2025-01-04 01:14:50,2025-01-04 01:21:05,374.42,,,,,,,
38,2025-01-04 02:49:35,2025-01-04 02:55:49,374.417,,,,,,,
39,2025-01-04 04:24:19,2025-01-04 04:30:33,374.417,,,,,,,
40,2025-01-04 05:59:03,2025-01-04 06:05:18,374.422,,,,,,,
41,2025-01-04 07:33:48,2025-01-04 07:40:02,374.418,,,,,,,
42,2025-01-04 09:08:32,2025-01-04 09:14:47,374.422,,,,,,,
43,2025-01-04 10:43:17,2025-01-04 10:49:31,374.422,,,,,,,
44,2025-01-04 12:18:01,2025-01-04 12:24:15,374.422,,,,,,,
45,2025-01-04 13:52:45,2025-01-04 13:59:00,374.422,,,,,,,
46,2025-01-04 15:27:30,2025-01-04 15:33:44,374.423,,,,,,,
47,2025-01-04 17:02:14,2025-01-04 17:08:28,374.419,,,,,,,
48,2025-01-04 18:36:58,2025-01-04 18:43:13,374.419,,,,,,,
49,2025-01-04 20:11:43,2025-01-04 20:17:57,374.421,,,,,,,
50,2025-01-04 21:46:27,2025-01-04 21:52:42,374.423,,,,,,,
51,2025-01-04 23:21:12,2025-01-04 23:27:26,374.422,,,,,,,
52,2025-01-05 00:55:56,2025-01-05 01:02:10,374.422,,,,,,,
53,2025-01-05 02:30:40,2025-01-05 02:36:55,374.417,,,,,,,
54,2025-01-05 04:05:25,2025-01-05 04:11:39,374.418,,,,,,,
55,2025-01-05 05:40:09,2025-01-05 05:46:24,374.422,,,,,,,
56,2025-01-05 07:14:54,2025-01-05 07:21:08,374.417,,,,,,,
57,2025-01-05 08:49:38,2025-01-05 08:55:52,374.422,,,,,,,
58,2025-01-05 10:24:22,2025-01-05 10:30:37,374.423,,,,,,,
59,2025-01-05 11:59:07,2025-01-05 12:05:21,374.421,,,,,,,
60,2025-01-05 13:33:51,2025-01-05 13:40:06,374.421,,,,,,,
61,2025-01-05 15:08:35,2025-01-05 15:14:50,374.421,,,,,,,
62,2025-01-05 16:43:20,2025-01-05 16:49:34,374.422,,,,,,,
63,2025-01-05 18:18:04,2025-01-05 18:24:19,374.418,,,,,,,
64,2025-01-05 19:52:49,2025-01-05 19:59:03,374.417,,,,,,,
65,2025-01-05 21:27:33,2025-01-05 21:33:47,374.422,,,,,,,
66,2025-01-05 23:02:17,2025-01-05 23:08:32,374.421,,,,,,,
67,2025-01-06 00:37:02,2025-01-06 00:43:16,374.421,,,,,,,
68,2025-01-06 02:11:46,2025-01-06 02:18:01,374.423,,,,,,,
69,2025-01-06 03:46:31,2025-01-06 03:52:45,374.417,,,,,,,
70,2025-01-06 05:21:15,2025-01-06 05:27:29,374.417,,,,,,,
71,2025-01-06 06:55:59,2025-01-06 07:02:14,374.422,,,,,,,
72,2025-01-06 08:30:44,2025-01-06 08:36:58,374.421,,,,,,,
73,2025-01-06 10:05:28,2025-01-06 10:11:43,374.421,,,,,,,
74,2025-01-06 11:40:12,2025-01-06 11:46:27,374.417,,,,,,,
75,2025-01-06 13:14:57,2025-01-06 13:21:11,374.425,,,,,,,
76,2025-01-06 14:49:41,2025-01-06 14:55:56,374.421,,,,,,,
77,2025-01-06 16:24:26,2025-01-06 16:30:40,374.42,,,,,,,
78,2025-01-06 17:59:10,2025-01-06 18:05:24,374.418,,,,,,,
79,2025-01-06 19:33:54,2025-01-06 19:40:09,374.417,,,,,,,
80,2025-01-06 21:08:39,2025-01-06 21:14:53,374.417,,,,,,,
81,2025-01-06 22:43:23,2025-01-06 22:49:38,374.419,,,,,,,
82,2025-01-07 00:18:08,2025-01-07 00:24:22,374.424,,,,,,,
83,2025-01-07 01:52:52,2025-01-07 01:59:06,374.417,,,,,,,
84,2025-01-07 03:27:36,2025-01-07 03:33:51,374.416,,,,,,,
85,2025-01-07 05:02:21,2025-01-07 05:08:35,374.421,,,,,,,
86,2025-01-07 06:37:05,2025-01-07 06:43:20,374.421,,,,,,,
87,2025-01-07 08:11:50,2025-01-07 08:18:04,374.416,,,,,,,
88,2025-01-07 09:46:34,2025-01-07 09:52:48,374.421,,,,,,,
89,2025-01-07 11:21:18,2025-01-07 11:27:33,374.421,,,,,,,
90,2025-01-07 12:56:03,2025-01-07 13:02:17,374.421,,,,,,,
91,2025-01-07 14:30:47,2025-01-07 14:37:01,374.42,,,,,,,
92,2025-01-07 16:05:31,2025-01-07 16:11:46,374.425,,,,,,,
93,2025-01-07 17:40:16,2025-01-07 17:46:30,374.424,,,,,,,
94,2025-01-07 19:15:00,2025-01-07 19:21:15,374.42,,,,,,,
95,2025-01-07 20:49:45,2025-01-07 20:55:59,374.418,,,,,,,
96,2025-01-07 22:24:29,2025-01-07 22:30:43,374.422,,,,,,,
97,2025-01-07 23:59:13,2025-01-08 00:05:28,374.425,,,,,,,
98,2025-01-08 01:33:58,2025-01-08 01:40:12,374.417,,,,,,,
99,2025-01-08 03:08:42,2025-01-08 03:14:57,374.42,,,,,,,
100,2025-01-08 04:43:27,2025-01-08 04:49:41,374.421,,,,,,,
101,2025-01-08 06:18:11,2025-01-08 06:24:25,374.42,,,,,,,
102,2025-01-08 07:52:55,2025-01-08 07:59:10,374.417,,,,,,,
103,2025-01-08 09:27:40,2025-01-08 09:33:54,374.42,,,,,,,
104,2025-01-08 11:02:24,2025-01-08 11:08:38,374.42,,,,,,,
105,2025-01-08 12:37:08,2025-01-08 12:43:23,374.42,,,,,,,
106,2025-01-08 14:11:53,2025-01-08 14:18:07,374.417,,,,,,,
107,2025-01-08 15:46:37,2025-01-08 15:52:52,374.422,,,,,,,
108,2025-01-08 17:21:22,2025-01-08 17:27:36,374.422,,,,,,,
109,2025-01-08 18:56:06,2025-01-08 19:02:20,374.419,,,,,,,
110,2025-01-08 20:30:50,2025-01-08 20:37:05,374.419,,,,,,,
111,2025-01-08 22:05:35,2025-01-08 22:11:49,374.42,,,,,,,
112,2025-01-08 23:40:19,2025-01-08 23:46:34,374.419,,,,,,,
113,2025-01-09 01:15:04,2025-01-09 01:21:18,374.417,,,,,,,
114,2025-01-09 02:49:48,2025-01-09 02:56:02,374.414,,,,,,,
115,2025-01-09 04:24:32,2025-01-09 04:30:47,374.414,,,,,,,
116,2025-01-09 05:59:17,2025-01-09 06:05:31,374.418,,,,,,,
117,2025-01-09 07:34:01,2025-01-09 07:40:15,374.415,,,,,,,
118,2025-01-09 09:08:45,2025-01-09 09:15:00,374.419,,,,,,,
119,2025-01-09 10:43:30,2025-01-09 10:49:44,374.419,,,,,,,
120,2025-01-09 12:18:14,2025-01-09 12:24:29,374.419,,,,,,,
121,2025-01-09 13:52:59,2025-01-09 13:59:13,374.418,,,,,,,
122,2025-01-09 15:27:43,2025-01-09 15:33:57,374.419,,,,,,,
123,2025-01-09 17:02:27,2025-01-09 17:08:42,374.415,,,,,,,
124,2025-01-09 18:37:12,2025-01-09 18:43:26,374.415,,,,,,,
125,2025-01-09 20:11:56,2025-01-09 20:18:11,374.417,,,,,,,
126,2025-01-09 21:46:41,2025-01-09 21:52:55,374.419,,,,,,,
127,2025-01-09 23:21:25,2025-01-09 23:27:39,374.417,,,,,,,
128,2025-01-10 00:56:09,2025-01-10 01:02:24,374.417,,,,,,,
129,2025-01-10 02:30:54,2025-01-10 02:37:08,374.413,,,,,,,
130,2025-01-10 04:05:38,2025-01-10 04:11:53,374.414,,,,,,,
131,2025-01-10 05:40:22,2025-01-10 05:46:37,374.417,,,,,,,
132,2025-01-10 07:15:07,2025-01-10 07:21:21,374.413,,,,,,,
133,2025-01-10 08:49:51,2025-01-10 08:56:06,374.417,,,,,,,
134,2025-01-10 10:24:36,2025-01-10 10:30:50,374.418,,,,,,,
135,2025-01-10 11:59:20,2025-01-10 12:05:34,374.416,,,,,,,
136,2025-01-10 13:34:04,2025-01-10 13:40:19,374.413,,,,,,,
137,2025-01-10 15:08:49,2025-01-10 15:15:03,374.416,,,,,,,
138,2025-01-10 16:43:33,2025-01-10 16:49:48,374.417,,,,,,,
139,2025-01-10 18:18:18,2025-01-10 18:24:32,374.413,,,,,,,
140,2025-01-10 19:53:02,2025-01-10 19:59:16,374.412,,,,,,,
141,2025-01-10 21:27:46,2025-01-10 21:34:01,374.417,,,,,,,
142,2025-01-10 23:02:31,2025-01-10 23:08:45,374.416,,,,,,,
143,2025-01-11 00:37:15,2025-01-11 00:43:30,374.415,,,,,,,
144,2025-01-11 02:11:59,2025-01-11 02:18:14,374.417,,,,,,,
145,2025-01-11 03:46:44,2025-01-11 03:52:58,374.411,,,,,,,
146,2025-01-11 05:21:28,2025-01-11 05:27:43,374.411,,,,,,,
147,2025-01-11 06:56:13,2025-01-11 07:02:27,374.416,,,,,,,
148,2025-01-11 08:30:57,2025-01-11 08:37:11,374.415,,,,,,,
149,2025-01-11 10:05:41,2025-01-11 10:11:56,374.415,,,,,,,
150,2025-01-11 11:40:26,2025-01-11 11:46:40,374.411,,,,,,,
151,2025-01-11 13:15:10,2025-01-11 13:21:25,374.419,,,,,,,
152,2025-01-11 14:49:55,2025-01-11 14:56:09,374.415,,,,,,,
153,2025-01-11 16:24:39,2025-01-11 16:30:53,374.414,,,,,,,
154,2025-01-11 17:59:23,2025-01-11 18:05:38,374.412,,,,,,,
155,2025-01-11 19:34:08,2025-01-11 19:40:22,374.411,,,,,,,
156,2025-01-11 21:08:52,2025-01-11 21:15:07,374.41,,,,,,,
157,2025-01-11 22:43:37,2025-01-11 22:49:51,374.413,,,,,,,
158,2025-01-12 00:18:21,2025-01-12 00:24:35,374.417,,,,,,,
159,2025-01-12 01:53:05,2025-01-12 01:59:20,374.411,,,,,,,
160,2025-01-12 03:27:50,2025-01-12 03:34:04,374.412,,,,,,,
161,2025-01-12 05:02:34,2025-01-12 05:08:48,374.415,,,,,,,
162,2025-01-12 06:37:18,2025-01-12 06:43:33,374.414,,,,,,,
163,2025-01-12 08:12:03,2025-01-12 08:18:17,374.41,,,,,,,
164,2025-01-12 09:46:47,2025-01-12 09:53:02,374.414,,,,,,,
165,2025-01-12 11:21:32,2025-01-12 11:27:46,374.414,,,,,,,
166,2025-01-12 12:56:16,2025-01-12 13:02:30,374.414,,,,,,,
167,2025-01-12 14:31:00,2025-01-12 14:37:15,374.413,,,,,,,
168,2025-01-12 16:05:45,2025-01-12 16:11:59,374.418,,,,,,,
169,2025-01-12 17:40:29,2025-01-12 17:46:44,374.417,,,,,,,
170,2025-01-12 19:15:14,2025-01-12 19:21:28,374.413,,,,,,,
171,2025-01-12 20:49:58,2025-01-12 20:56:12,374.411,,,,,,,
172,2025-01-12 22:24:42,2025-01-12 22:30:57,374.415,,,,,,,
173,2025-01-12 23:59:27,2025-01-13 00:05:41,374.418,,,,,,,
174,2025-01-13 01:34:11,2025-01-13 01:40:25,374.41,,,,,,,
175,2025-01-13 03:08:55,2025-01-13 03:15:10,374.412,,,,,,,
176,2025-01-13 04:43:40,2025-01-13 04:49:54,374.414,,,,,,,
177,2025-01-13 06:18:24,2025-01-13 06:24:39,374.413,,,,,,,
178,2025-01-13 07:53:09,2025-01-13 07:59:23,374.41,,,,,,,
179,2025-01-13 09:27:53,2025-01-13 09:34:07,374.413,,,,,,,
180,2025-01-13 11:02:37,2025-01-13 11:08:52,374.413,,,,,,,
181,2025-01-13 12:37:22,2025-01-13 12:43:36,374.413,,,,,,,
182,2025-01-13 14:12:06,2025-01-13 14:18:21,374.41,,,,,,,
183,2025-01-13 15:46:51,2025-01-13 15:53:05,374.415,,,,,,,
184,2025-01-13 17:21:35,2025-01-13 17:27:49,374.415,,,,,,,
185,2025-01-13 18:56:19,2025-01-13 19:02:34,374.412,,,,,,,
186,2025-01-13 20:31:04,2025-01-13 20:37:18,374.412,,,,,,,
187,2025-01-13 22:05:48,2025-01-13 22:12:02,374.413,,,,,,,
188,2025-01-13 23:40:32,2025-01-13 23:46:47,374.412,,,,,,,
189,2025-01-14 01:15:17,2025-01-14 01:21:31,374.41,,,,,,,
190,2025-01-14 02:50:01,2025-01-14 02:56:16,374.407,,,,,,,
191,2025-01-14 04:24:46,2025-01-14 04:31:00,374.407,,,,,,,
192,2025-01-14 05:59:30,2025-01-14 06:05:44,374.411,,,,,,,
193,2025-01-14 07:34:14,2025-01-14 07:40:29,374.408,,,,,,,
194,2025-01-14 09:08:59,2025-01-14 09:15:13,374.412,,,,,,,
195,2025-01-14 10:43:43,2025-01-14 10:49:58,374.412,,,,,,,
196,2025-01-14 12:18:28,2025-01-14 12:24:42,374.412,,,,,,,
197,2025-01-14 13:53:12,2025-01-14 13:59:26,374.411,,,,,,,
198,2025-01-14 15:27:56,2025-01-14 15:34:11,374.412,,,,,,,
199,2025-01-14 17:02:41,2025-01-14 17:08:55,374.408,,,,,,,
200,2025-01-14 18:37:25,2025-01-14 18:43:40,374.408,,,,,,,
201,2025-01-14 20:12:09,2025-01-14 20:18:24,374.41,,,,,,,
202,2025-01-14 21:46:54,2025-01-14 21:53:08,374.412,,,,,,,
203,2025-01-14 23:21:38,2025-01-14 23:27:53,374.411,,,,,,,
204,2025-01-15 00:56:23,2025-01-15 01:02:37,374.411,,,,,,,
205,2025-01-15 02:31:07,2025-01-15 02:37:21,374.407,,,,,,,
206,2025-01-15 04:05:51,2025-01-15 04:12:06,374.407,,,,,,,
207,2025-01-15 05:40:36,2025-01-15 05:46:50,374.411,,,,,,,
208,2025-01-15 07:15:20,2025-01-15 07:21:35,374.406,,,,,,,
209,2025-01-15 08:50:05,2025-01-15 08:56:19,374.411,,,,,,,
210,2025-01-15 10:24:49,2025-01-15 10:31:03,374.412,,,,,,,
211,2025-01-15 11:59:33,2025-01-15 12:05:48,374.41,,,,,,,
212,2025-01-15 13:34:18,2025-01-15 13:40:32,374.407,,,,,,,
213,2025-01-15 15:09:02,2025-01-15 15:15:17,374.41,,,,,,,
214,2025-01-15 16:43:46,2025-01-15 16:50:01,374.411,,,,,,,
215,2025-01-15 18:18:31,2025-01-15 18:24:45,374.407,,,,,,,
216,2025-01-15 19:53:15,2025-01-15 19:59:30,374.406,,,,,,,
217,2025-01-15 21:28:00,2025-01-15 21:34:14,374.411,,,,,,,
218,2025-01-15 23:02:44,2025-01-15 23:08:58,374.41,,,,,,,
219,2025-01-16 00:37:28,2025-01-16 00:43:43,374.409,,,,,,,
220,2025-01-16 02:12:13,2025-01-16 02:18:27,374.411,,,,,,,
221,2025-01-16 03:46:57,2025-01-16 03:53:12,374.405,,,,,,,
222,2025-01-16 05:21:42,2025-01-16 05:27:56,374.406,,,,,,,
223,2025-01-16 06:56:26,2025-01-16 07:02:40,374.411,,,,,,,
224,2025-01-16 08:31:10,2025-01-16 08:37:25,374.41,,,,,,,
225,2025-01-16 10:05:55,2025-01-16 10:12:09,374.41,,,,,,,
226,2025-01-16 11:40:39,2025-01-16 11:46:54,374.406,,,,,,,
227,2025-01-16 13:15:24,2025-01-16 13:21:38,374.414,,,,,,,
228,2025-01-16 14:50:08,2025-01-16 14:56:22,374.41,,,,,,,
229,2025-01-16 16:24:52,2025-01-16 16:31:07,374.409,,,,,,,
230,2025-01-16 17:59:37,2025-01-16 18:05:51,374.407,,,,,,,
231,2025-01-16 19:34:21,2025-01-16 19:40:35,374.406,,,,,,,
232,2025-01-16 21:09:05,2025-01-16 21:15:20,374.406,,,,,,,
233,2025-01-16 22:43:50,2025-01-16 22:50:04,374.408,,,,,,,
234,2025-01-17 00:18:34,2025-01-17 00:24:49,374.412,,,,,,,
235,2025-01-17 01:53:19,2025-01-17 01:59:33,374.406,,,,,,,
236,2025-01-17 03:28:03,2025-01-17 03:34:17,374.407,,,,,,,
237,2025-01-17 05:02:47,2025-01-17 05:09:02,374.41,,,,,,,
238,2025-01-17 06:37:32,2025-01-17 06:43:46,374.409,,,,,,,
239,2025-01-17 08:12:16,2025-01-17 08:18:31,374.405,,,,,,,
240,2025-01-17 09:47:01,2025-01-17 09:53:15,374.41,,,,,,,
241,2025-01-17 11:21:45,2025-01-17 11:27:59,374.41,,,,,,,
242,2025-01-17 12:56:29,2025-01-17 13:02:44,374.41,,,,,,,
243,2025-01-17 14:31:14,2025-01-17 14:37:28,374.409,,,,,,,
244,2025-01-17 16:05:58,2025-01-17 16:12:12,374.414,,,,,,,
245,2025-01-17 17:40:42,2025-01-17 17:46:57,374.414,,,,,,,
246,2025-01-17 19:15:27,2025-01-17 19:21:41,374.409,,,,,,,
247,2025-01-17 20:50:11,2025-01-17 20:56:26,374.408,,,,,,,
248,2025-01-17 22:24:56,2025-01-17 22:31:10,374.411,,,,,,,
249,2025-01-17 23:59:40,2025-01-18 00:05:54,374.414,,,,,,,
250,2025-01-18 01:34:24,2025-01-18 01:40:39,374.406,,,,,,,
251,2025-01-18 03:09:09,2025-01-18 03:15:23,374.409,,,,,,,
252,2025-01-18 04:43:53,2025-01-18 04:50:08,374.411,,,,,,,
253,2025-01-18 06:18:38,2025-01-18 06:24:52,374.409,,,,,,,
254,2025-01-18 07:53:22,2025-01-18 07:59:36,374.407,,,,,,,
255,2025-01-18 09:28:06,2025-01-18 09:34:21,374.409,,,,,,,
256,2025-01-18 11:02:51,2025-01-18 11:09:05,374.409,,,,,,,
257,2025-01-18 12:37:35,2025-01-18 12:43:49,374.41,,,,,,,
258,2025-01-18 14:12:19,2025-01-18 14:18:34,374.409,,,,,,,
259,2025-01-18 15:47:04,2025-01-18 15:53:18,374.412,,,,,,,
260,2025-01-18 17:21:48,2025-01-18 17:28:03,374.412,,,,,,,
261,2025-01-18 18:56:33,2025-01-18 19:02:47,374.409,,,,,,,
262,2025-01-18 20:31:17,2025-01-18 20:37:31,374.409,,,,,,,
263,2025-01-18 22:06:01,2025-01-18 22:12:16,374.41,,,,,,,
264,2025-01-18 23:40:46,2025-01-18 23:47:00,374.409,,,,,,,
265,2025-01-19 01:15:30,2025-01-19 01:21:45,374.407,,,,,,,
266,2025-01-19 02:50:15,2025-01-19 02:56:29,374.404,,,,,,,
267,2025-01-19 04:24:59,2025-01-19 04:31:13,374.406,,,,,,,
268,2025-01-19 05:59:43,2025-01-19 06:05:58,374.409,,,,,,,
269,2025-01-19 07:34:28,2025-01-19 07:40:42,374.405,,,,,,,
270,2025-01-19 09:09:12,2025-01-19 09:15:27,374.409,,,,,,,
271,2025-01-19 10:43:56,2025-01-19 10:50:11,374.407,,,,,,,
272,2025-01-19 12:18:41,2025-01-19 12:24:55,374.409,,,,,,,
273,2025-01-19 13:53:25,2025-01-19 13:59:40,374.409,,,,,,,
274,2025-01-19 15:28:10,2025-01-19 15:34:24,374.409,,,,,,,
275,2025-01-19 17:02:54,2025-01-19 17:09:08,374.405,,,,,,,
276,2025-01-19 18:37:38,2025-01-19 18:43:53,374.405,,,,,,,
277,2025-01-19 20:12:23,2025-01-19 20:18:37,374.408,,,,,,,
278,2025-01-19 21:47:07,2025-01-19 21:53:22,374.41,,,,,,,
279,2025-01-19 23:21:52,2025-01-19 23:28:06,374.408,,,,,,,
280,2025-01-20 00:56:36,2025-01-20 01:02:50,374.408,,,,,,,
281,2025-01-20 02:31:20,2025-01-20 02:37:35,374.404,,,,,,,
282,2025-01-20 04:06:05,2025-01-20 04:12:19,374.405,,,,,,,
283,2025-01-20 05:40:49,2025-01-20 05:47:04,374.408,,,,,,,
284,2025-01-20 07:15:34,2025-01-20 07:21:48,374.404,,,,,,,
285,2025-01-20 08:50:18,2025-01-20 08:56:32,374.408,,,,,,,
286,2025-01-20 10:25:02,2025-01-20 10:31:17,374.409,,,,,,,
287,2025-01-20 11:59:47,2025-01-20 12:06:01,374.408,,,,,,,
288,2025-01-20 13:34:31,2025-01-20 13:40:45,374.405,,,,,,,
289,2025-01-20 15:09:15,2025-01-20 15:15:30,374.407,,,,,,,
290,2025-01-20 16:44:00,2025-01-20 16:50:14,374.408,,,,,,,
291,2025-01-20 18:18:44,2025-01-20 18:24:59,374.405,,,,,,,
292,2025-01-20 19:53:29,2025-01-20 19:59:43,374.404,,,,,,,
293,2025-01-20 21:28:13,2025-01-20 21:34:27,374.409,,,,,,,
294,2025-01-20 23:02:57,2025-01-20 23:09:12,374.407,,,,,,,
295,2025-01-21 00:37:42,2025-01-21 00:43:56,374.407,,,,,,,
296,2025-01-21 02:12:26,2025-01-21 02:18:41,374.409,,,,,,,
297,2025-01-21 03:47:11,2025-01-21 03:53:25,374.403,,,,,,,
298,2025-01-21 05:21:55,2025-01-21 05:28:09,374.403,,,,,,,
299,2025-01-21 06:56:39,2025-01-21 07:02:54,374.408,,,,,,,
300,2025-01-21 08:31:24,2025-01-21 08:37:38,374.408,,,,,,,
301,2025-01-21 10:06:08,2025-01-21 10:12:22,374.408,,,,,,,
302,2025-01-21 11:40:52,2025-01-21 11:47:07,374.403,,,,,,,
303,2025-01-21 13:15:37,2025-01-21 13:21:51,374.412,,,,,,,
304,2025-01-21 14:50:21,2025-01-21 14:56:36,374.407,,,,,,,
305,2025-01-21 16:25:06,2025-01-21 16:31:20,374.406,,,,,,,
306,2025-01-21 17:59:50,2025-01-21 18:06:04,374.404,,,,,,,
307,2025-01-21 19:34:34,2025-01-21 19:40:49,374.403,,,,,,,
308,2025-01-21 21:09:19,2025-01-21 21:15:33,374.403,,,,,,,
309,2025-01-21 22:44:03,2025-01-21 22:50:18,374.406,,,,,,,
310,2025-01-22 00:18:48,2025-01-22 00:25:02,374.41,,,,,,,
311,2025-01-22 01:53:32,2025-01-22 01:59:46,374.403,,,,,,,
312,2025-01-22 03:28:16,2025-01-22 03:34:31,374.405,,,,,,,
313,2025-01-22 05:03:01,2025-01-22 05:09:15,374.407,,,,,,,
314,2025-01-22 06:37:45,2025-01-22 06:43:59,374.407,,,,,,,
315,2025-01-22 08:12:29,2025-01-22 08:18:44,374.403,,,,,,,
316,2025-01-22 09:47:14,2025-01-22 09:53:28,374.407,,,,,,,
317,2025-01-22 11:21:58,2025-01-22 11:28:13,374.407,,,,,,,
318,2025-01-22 12:56:43,2025-01-22 13:02:57,374.407,,,,,,,
319,2025-01-22 14:31:27,2025-01-22 14:37:41,374.406,,,,,,,
320,2025-01-22 16:06:11,2025-01-22 16:12:26,374.411,,,,,,,
321,2025-01-22 17:40:56,2025-01-22 17:47:10,374.41,,,,,,,
322,2025-01-22 19:15:40,2025-01-22 19:21:55,374.406,,,,,,,
323,2025-01-22 20:50:25,2025-01-22 20:56:39,374.404,,,,,,,
324,2025-01-22 22:25:09,2025-01-22 22:31:23,374.408,,,,,,,
325,2025-01-22 23:59:53,2025-01-23 00:06:08,374.411,,,,,,,
326,2025-01-23 01:34:38,2025-01-23 01:40:52,374.403,,,,,,,
327,2025-01-23 03:09:22,2025-01-23 03:15:36,374.405,,,,,,,
328,2025-01-23 04:44:06,2025-01-23 04:50:21,374.407,,,,,,,
329,2025-01-23 06:18:51,2025-01-23 06:25:05,374.406,,,,,,,
330,2025-01-23 07:53:35,2025-01-23 07:59:50,374.403,,,,,,,
331,2025-01-23 09:28:20,2025-01-23 09:34:34,374.406,,,,,,,
332,2025-01-23 11:03:04,2025-01-23 11:09:18,374.406,,,,,,,
333,2025-01-23 12:37:48,2025-01-23 12:44:03,374.406,,,,,,,
334,2025-01-23 14:12:33,2025-01-23 14:18:47,374.405,,,,,,,
335,2025-01-23 15:47:17,2025-01-23 15:53:32,374.408,,,,,,,
336,2025-01-23 17:22:02,2025-01-23 17:28:16,374.408,,,,,,,
337,2025-01-23 18:56:46,2025-01-23 19:03:00,374.405,,,,,,,
338,2025-01-23 20:31:30,2025-01-23 20:37:45,374.405,,,,,,,
339,2025-01-23 22:06:15,2025-01-23 22:12:29,374.406,,,,,,,
340,2025-01-23 23:40:59,2025-01-23 23:47:14,374.405,,,,,,,
341,2025-01-24 01:15:43,2025-01-24 01:21:58,374.403,,,,,,,
342,2025-01-24 02:50:28,2025-01-24 02:56:42,374.4,,,,,,,
343,2025-01-24 04:25:12,2025-01-24 04:31:27,374.402,,,,,,,
344,2025-01-24 05:59:57,2025-01-24 06:06:11,374.404,,,,,,,
345,2025-01-24 07:34:41,2025-01-24 07:40:55,374.401,,,,,,,
346,2025-01-24 09:09:25,2025-01-24 09:15:40,374.404,,,,,,,
347,2025-01-24 10:44:10,2025-01-24 10:50:24,374.404,,,,,,,
348,2025-01-24 12:18:54,2025-01-24 12:25:09,374.405,,,,,,,
349,2025-01-24 13:53:39,2025-01-24 13:59:53,374.405,,,,,,,
350,2025-01-24 15:28:23,2025-01-24 15:34:37,374.405,,,,,,,
351,2025-01-24 17:03:07,2025-01-24 17:09:22,374.401,,,,,,,
352,2025-01-24 18:37:52,2025-01-24 18:44:06,374.401,,,,,,,
353,2025-01-24 20:12:36,2025-01-24 20:18:51,374.403,,,,,,,
354,2025-01-24 21:47:21,2025-01-24 21:53:35,374.405,,,,,,,
355,2025-01-24 23:22:05,2025-01-24 23:28:19,374.404,,,,,,,
356,2025-01-25 00:56:49,2025-01-25 01:03:04,374.403,,,,,,,
357,2025-01-25 02:31:34,2025-01-25 02:37:48,374.399,,,,,,,
358,2025-01-25 04:06:18,2025-01-25 04:12:32,374.4,,,,,,,
359,2025-01-25 05:41:02,2025-01-25 05:47:17,374.403,,,,,,,
360,2025-01-25 07:15:47,2025-01-25 07:22:01,374.399,,,,,,,
361,2025-01-25 08:50:31,2025-01-25 08:56:46,374.403,,,,,,,
362,2025-01-25 10:25:16,2025-01-25 10:31:30,374.404,,,,,,,
363,2025-01-25 12:00:00,2025-01-25 12:06:14,374.402,,,,,,,
364,2025-01-25 13:34:44,2025-01-25 13:40:59,374.4,,,,,,,
365,2025-01-25 15:09:29,2025-01-25 15:15:43,374.402,,,,,,,
366,2025-01-25 16:44:13,2025-01-25 16:50:28,374.403,,,,,,,
367,2025-01-25 18:18:58,2025-01-25 18:25:12,374.399,,,,,,,
368,2025-01-25 19:53:42,2025-01-25 19:59:56,374.398,,,,,,,
369,2025-01-25 21:28:26,2025-01-25 21:34:41,374.403,,,,,,,
370,2025-01-25 23:03:11,2025-01-25 23:09:25,374.402,,,,,,,
371,2025-01-26 00:37:55,2025-01-26 00:44:09,374.401,,,,,,,
372,2025-01-26 02:12:39,2025-01-26 02:18:54,374.403,,,,,,,
373,2025-01-26 03:47:24,2025-01-26 03:53:38,374.397,,,,,,,
374,2025-01-26 05:22:08,2025-01-26 05:28:23,374.398,,,,,,,
375,2025-01-26 06:56:53,2025-01-26 07:03:07,374.402,,,,,,,
376,2025-01-26 08:31:37,2025-01-26 08:37:51,374.402,,,,,,,
377,2025-01-26 10:06:21,2025-01-26 10:12:36,374.402,,,,,,,
378,2025-01-26 11:41:06,2025-01-26 11:47:20,374.397,,,,,,,
379,2025-01-26 13:15:50,2025-01-26 13:22:05,374.406,,,,,,,
380,2025-01-26 14:50:35,2025-01-26 14:56:49,374.401,,,,,,,
381,2025-01-26 16:25:19,2025-01-26 16:31:33,374.4,,,,,,,
382,2025-01-26 18:00:03,2025-01-26 18:06:18,374.398,,,,,,,
383,2025-01-26 19:34:48,2025-01-26 19:41:02,374.397,,,,,,,
384,2025-01-26 21:09:32,2025-01-26 21:15:46,374.397,,,,,,,
385,2025-01-26 22:44:16,2025-01-26 22:50:31,374.399,,,,,,,
386,2025-01-27 00:19:01,2025-01-27 00:25:15,374.403,,,,,,,
387,2025-01-27 01:53:45,2025-01-27 02:00:00,374.397,,,,,,,
388,2025-01-27 03:28:30,2025-01-27 03:34:44,374.398,,,,,,,
389,2025-01-27 05:03:14,2025-01-27 05:09:28,374.401,,,,,,,
390,2025-01-27 06:37:58,2025-01-27 06:44:13,374.4,,,,,,,
391,2025-01-27 08:12:43,2025-01-27 08:18:57,374.396,,,,,,,
392,2025-01-27 09:47:27,2025-01-27 09:53:42,374.4,,,,,,,
393,2025-01-27 11:22:12,2025-01-27 11:28:26,374.4,,,,,,,
394,2025-01-27 12:56:56,2025-01-27 13:03:10,374.4,,,,,,,
395,2025-01-27 14:31:40,2025-01-27 14:37:55,374.399,,,,,,,
396,2025-01-27 16:06:25,2025-01-27 16:12:39,374.405,,,,,,,
397,2025-01-27 17:41:09,2025-01-27 17:47:23,374.404,,,,,,,
398,2025-01-27 19:15:53,2025-01-27 19:22:08,374.399,,,,,,,
399,2025-01-27 20:50:38,2025-01-27 20:56:52,374.397,,,,,,,
400,2025-01-27 22:25:22,2025-01-27 22:31:37,374.401,,,,,,,
401,2025-01-28 00:00:07,2025-01-28 00:06:21,374.404,,,,,,,
402,2025-01-28 01:34:51,2025-01-28 01:41:05,374.396,,,,,,,
403,2025-01-28 03:09:35,2025-01-28 03:15:50,374.398,,,,,,,
404,2025-01-28 04:44:20,2025-01-28 04:50:34,374.4,,,,,,,
405,2025-01-28 06:19:04,2025-01-28 06:25:19,374.399,,,,,,,
406,2025-01-28 07:53:49,2025-01-28 08:00:03,374.396,,,,,,,
407,2025-01-28 09:28:33,2025-01-28 09:34:47,374.399,,,,,,,
408,2025-01-28 11:03:17,2025-01-28 11:09:32,374.399,,,,,,,
409,2025-01-28 12:38:02,2025-01-28 12:44:16,374.399,,,,,,,
410,2025-01-28 14:12:46,2025-01-28 14:19:01,374.398,,,,,,,
411,2025-01-28 15:47:30,2025-01-28 15:53:45,374.402,,,,,,,
412,2025-01-28 17:22:15,2025-01-28 17:28:29,374.401,,,,,,,
413,2025-01-28 18:56:59,2025-01-28 19:03:14,374.398,,,,,,,
414,2025-01-28 20:31:44,2025-01-28 20:37:58,374.398,,,,,,,
415,2025-01-28 22:06:28,2025-01-28 22:12:42,374.399,,,,,,,
416,2025-01-28 23:41:12,2025-01-28 23:47:27,374.398,,,,,,,
417,2025-01-29 01:15:57,2025-01-29 01:22:11,374.396,,,,,,,
418,2025-01-29 02:50:41,2025-01-29 02:56:56,374.393,,,,,,,
419,2025-01-29 04:25:26,2025-01-29 04:31:40,374.395,,,,,,,
420,2025-01-29 06:00:10,2025-01-29 06:06:24,374.398,,,,,,,
421,2025-01-29 07:34:54,2025-01-29 07:41:09,374.394,,,,,,,
422,2025-01-29 09:09:39,2025-01-29 09:15:53,374.398,,,,,,,
423,2025-01-29 10:44:23,2025-01-29 10:50:38,374.396,,,,,,,
424,2025-01-29 12:19:08,2025-01-29 12:25:22,374.398,,,,,,,
425,2025-01-29 13:53:52,2025-01-29 14:00:06,374.398,,,,,,,
426,2025-01-29 15:28:36,2025-01-29 15:34:51,374.398,,,,,,,
427,2025-01-29 17:03:21,2025-01-29 17:09:35,374.394,,,,,,,
428,2025-01-29 18:38:05,2025-01-29 18:44:19,374.394,,,,,,,
429,2025-01-29 20:12:49,2025-01-29 20:19:04,374.396,,,,,,,
430,2025-01-29 21:47:34,2025-01-29 21:53:48,374.398,,,,,,,
431,2025-01-29 23:22:18,2025-01-29 23:28:33,374.397,,,,,,,
432,2025-01-30 00:57:03,2025-01-30 01:03:17,374.397,,,,,,,
433,2025-01-30 02:31:47,2025-01-30 02:38:01,374.393,,,,,,,
434,2025-01-30 04:06:31,2025-01-30 04:12:46,374.393,,,,,,,
435,2025-01-30 05:41:16,2025-01-30 05:47:30,374.397,,,,,,,
436,2025-01-30 07:16:00,2025-01-30 07:22:15,374.392,,,,,,,
437,2025-01-30 08:50:45,2025-01-30 08:56:59,374.397,,,,,,,
438,2025-01-30 10:25:29,2025-01-30 10:31:43,374.397,,,,,,,
439,2025-01-30 12:00:13,2025-01-30 12:06:28,374.396,,,,,,,
440,2025-01-30 13:34:58,2025-01-30 13:41:12,374.393,,,,,,,
441,2025-01-30 15:09:42,2025-01-30 15:15:56,374.396,,,,,,,
442,2025-01-30 16:44:26,2025-01-30 16:50:41,374.397,,,,,,,
443,2025-01-30 18:19:11,2025-01-30 18:25:25,374.393,,,,,,,
444,2025-01-30 19:53:55,2025-01-30 20:00:10,374.397,,,,,,,
445,2025-01-30 21:28:40,2025-01-30 21:34:54,374.397,,,,,,,
446,2025-01-30 23:03:24,2025-01-30 23:09:38,374.396,,,,,,,
447,2025-01-31 00:38:08,2025-01-31 00:44:23,374.395,,,,,,,
448,2025-01-31 02:12:53,2025-01-31 02:19:07,374.397,,,,,,,
449,2025-01-31 03:47:37,2025-01-31 03:53:52,374.391,,,,,,,
450,2025-01-31 05:22:22,2025-01-31 05:28:36,374.392,,,,,,,
451,2025-01-31 06:57:06,2025-01-31 07:03:20,374.397,,,,,,,
452,2025-01-31 08:31:50,2025-01-31 08:38:05,374.396,,,,,,,
453,2025-01-31 10:06:35,2025-01-31 10:12:49,374.396,,,,,,,
454,2025-01-31 11:41:19,2025-01-31 11:47:33,374.392,,,,,,,
455,2025-01-31 13:16:03,2025-01-31 13:22:18,374.4,,,,,,,
456,2025-01-31 14:50:48,2025-01-31 14:57:02,374.396,,,,,,,
457,2025-01-31 16:25:32,2025-01-31 16:31:47,374.395,,,,,,,
458,2025-01-31 18:00:17,2025-01-31 18:06:31,374.393,,,,,,,
459,2025-01-31 19:35:01,2025-01-31 19:41:15,374.392,,,,,,,
460,2025-01-31 21:09:45,2025-01-31 21:16:00,374.392,,,,,,,
461,2025-01-31 22:44:30,2025-01-31 22:50:44,374.394,,,,,,,
462,2025-02-01 00:19:14,2025-02-01 00:25:29,374.398,,,,,,,
463,2025-02-01 01:53:59,2025-02-01 02:00:13,374.392,,,,,,,
464,2025-02-01 03:28:43,2025-02-01 03:34:57,374.393,,,,,,,
465,2025-02-01 05:03:27,2025-02-01 05:09:42,374.396,,,,,,,
466,2025-02-01 06:38:12,2025-02-01 06:44:26,374.395,,,,,,,
467,2025-02-01 08:12:56,2025-02-01 08:19:10,374.391,,,,,,,
468,2025-02-01 09:47:40,2025-02-01 09:53:55,374.396,,,,,,,
469,2025-02-01 11:22:25,2025-02-01 11:28:39,374.396,,,,,,,
470,2025-02-01 12:57:09,2025-02-01 13:03:24,374.396,,,,,,,
471,2025-02-01 14:31:54,2025-02-01 14:38:08,374.395,,,,,,,
472,2025-02-01 16:06:38,2025-02-01 16:12:52,374.4,,,,,,,
473,2025-02-01 17:41:22,2025-02-01 17:47:37,374.399,,,,,,,
474,2025-02-01 19:16:07,2025-02-01 19:22:21,374.395,,,,,,,
475,2025-02-01 20:50:51,2025-02-01 20:57:06,374.393,,,,,,,
476,2025-02-01 22:25:36,2025-02-01 22:31:50,374.397,,,,,,,
477,2025-02-02 00:00:20,2025-02-02 00:06:34,374.4,,,,,,,
478,2025-02-02 01:35:04,2025-02-02 01:41:19,374.392,,,,,,,
479,2025-02-02 03:09:49,2025-02-02 03:16:03,374.395,,,,,,,
480,2025-02-02 04:44:33,2025-02-02 04:50:48,374.396,,,,,,,
481,2025-02-02 06:19:17,2025-02-02 06:25:32,374.395,,,,,,,
482,2025-02-02 07:54:02,2025-02-02 08:00:16,374.392,,,,,,,
483,2025-02-02 09:28:46,2025-02-02 09:35:01,374.395,,,,,,,
484,2025-02-02 11:03:31,2025-02-02 11:09:45,374.395,,,,,,,
485,2025-02-02 12:38:15,2025-02-02 12:44:29,374.396,,,,,,,
486,2025-02-02 14:12:59,2025-02-02 14:19:14,374.394,,,,,,,
487,2025-02-02 15:47:44,2025-02-02 15:53:58,374.398,,,,,,,
488,2025-02-02 17:22:28,2025-02-02 17:28:43,374.398,,,,,,,
489,2025-02-02 18:57:13,2025-02-02 19:03:27,374.395,,,,,,,
490,2025-02-02 20:31:57,2025-02-02 20:38:11,374.395,,,,,,,
491,2025-02-02 22:06:41,2025-02-02 22:12:56,374.396,,,,,,,
492,2025-02-02 23:41:26,2025-02-02 23:47:40,374.395,,,,,,,
493,2025-02-03 01:16:10,2025-02-03 01:22:25,374.392,,,,,,,
494,2025-02-03 02:50:55,2025-02-03 02:57:09,374.39,,,,,,,
495,2025-02-03 04:25:39,2025-02-03 04:31:53,374.392,,,,,,,
496,2025-02-03 06:00:23,2025-02-03 06:06:38,374.395,,,,,,,
497,2025-02-03 07:35:08,2025-02-03 07:41:22,374.391,,,,,,,
498,2025-02-03 09:09:52,2025-02-03 09:16:06,374.395,,,,,,,
499,2025-02-03 10:44:36,2025-02-03 10:50:51,374.392,,,,,,,
500,2025-02-03 12:19:21,2025-02-03 12:25:35,374.395,,,,,,,
501,2025-02-03 13:54:05,2025-02-03 14:00:20,374.395,,,,,,,
502,2025-02-03 15:28:50,2025-02-03 15:35:04,374.395,,,,,,,
503,2025-02-03 17:03:34,2025-02-03 17:09:48,374.391,,,,,,,
504,2025-02-03 18:38:18,2025-02-03 18:44:33,374.391,,,,,,,
505,2025-02-03 20:13:03,2025-02-03 20:19:17,374.393,,,,,,,
506,2025-02-03 21:47:47,2025-02-03 21:54:02,374.396,,,,,,,
507,2025-02-03 23:22:32,2025-02-03 23:28:46,374.394,,,,,,,
508,2025-02-04 00:57:16,2025-02-04 01:03:30,374.394,,,,,,,
509,2025-02-04 02:32:00,2025-02-04 02:38:15,374.39,,,,,,,
510,2025-02-04 04:06:45,2025-02-04 04:12:59,374.39,,,,,,,
511,2025-02-04 05:41:29,2025-02-04 05:47:43,374.394,,,,,,,
512,2025-02-04 07:16:13,2025-02-04 07:22:28,374.39,,,,,,,
513,2025-02-04 08:50:58,2025-02-04 08:57:12,374.394,,,,,,,
514,2025-02-04 10:25:42,2025-02-04 10:31:57,374.395,,,,,,,
515,2025-02-04 12:00:27,2025-02-04 12:06:41,374.393,,,,,,,
516,2025-02-04 13:35:11,2025-02-04 13:41:25,374.391,,,,,,,
517,2025-02-04 15:09:55,2025-02-04 15:16:10,374.393,,,,,,,
518,2025-02-04 16:44:40,2025-02-04 16:50:54,374.394,,,,,,,
519,2025-02-04 18:19:24,2025-02-04 18:25:39,374.39,,,,,,,
520,2025-02-04 19:54:09,2025-02-04 20:00:23,374.394,,,,,,,
521,2025-02-04 21:28:53,2025-02-04 21:35:07,374.394,,,,,,,
522,2025-02-04 23:03:37,2025-02-04 23:09:52,374.393,,,,,,,
523,2025-02-05 00:38:22,2025-02-05 00:44:36,374.392,,,,,,,
524,2025-02-05 02:13:06,2025-02-05 02:19:20,374.394,,,,,,,
525,2025-02-05 03:47:50,2025-02-05 03:54:05,374.388,,,,,,,
526,2025-02-05 05:22:35,2025-02-05 05:28:49,374.389,,,,,,,
527,2025-02-05 06:57:19,2025-02-05 07:03:34,374.394,,,,,,,
528,2025-02-05 08:32:04,2025-02-05 08:38:18,374.393,,,,,,,
529,2025-02-05 10:06:48,2025-02-05 10:13:02,374.393,,,,,,,
530,2025-02-05 11:41:32,2025-02-05 11:47:47,374.389,,,,,,,
531,2025-02-05 13:16:17,2025-02-05 13:22:31,374.397,,,,,,,
532,2025-02-05 14:51:01,2025-02-05 14:57:16,374.393,,,,,,,
533,2025-02-05 16:25:46,2025-02-05 16:32:00,374.391,,,,,,,
534,2025-02-05 18:00:30,2025-02-05 18:06:44,374.39,,,,,,,
535,2025-02-05 19:35:14,2025-02-05 19:41:29,374.389,,,,,,,
536,2025-02-05 21:09:59,2025-02-05 21:16:13,374.389,,,,,,,
537,2025-02-05 22:44:43,2025-02-05 22:50:57,374.391,,,,,,,
538,2025-02-06 00:19:27,2025-02-06 00:25:42,374.395,,,,,,,
539,2025-02-06 01:54:12,2025-02-06 02:00:26,374.388,,,,,,,
540,2025-02-06 03:28:56,2025-02-06 03:35:11,374.39,,,,,,,
541,2025-02-06 05:03:41,2025-02-06 05:09:55,374.392,,,,,,,
542,2025-02-06 06:38:25,2025-02-06 06:44:39,374.392,,,,,,,
543,2025-02-06 08:13:09,2025-02-06 08:19:24,374.388,,,,,,,
544,2025-02-06 09:47:54,2025-02-06 09:54:08,374.392,,,,,,,
545,2025-02-06 11:22:38,2025-02-06 11:28:53,374.392,,,,,,,
546,2025-02-06 12:57:23,2025-02-06 13:03:37,374.392,,,,,,,
547,2025-02-06 14:32:07,2025-02-06 14:38:21,374.387,,,,,,,
548,2025-02-06 16:06:51,2025-02-06 16:13:06,374.388,,,,,,,
549,2025-02-06 17:41:36,2025-02-06 17:47:50,374.388,,,,,,,
550,2025-02-06 19:16:20,2025-02-06 19:22:35,374.391,,,,,,,
551,2025-02-06 20:51:05,2025-02-06 20:57:19,374.394,,,,,,,
552,2025-02-06 22:25:49,2025-02-06 22:32:03,374.387,,,,,,,
553,2025-02-07 00:00:33,2025-02-07 00:06:48,374.392,,,,,,,
554,2025-02-07 01:35:18,2025-02-07 01:41:32,374.395,,,,,,,
555,2025-02-07 03:10:02,2025-02-07 03:16:16,374.386,,,,,,,
556,2025-02-07 04:44:46,2025-02-07 04:51:01,374.388,,,,,,,
557,2025-02-07 06:19:31,2025-02-07 06:25:45,374.392,,,,,,,
558,2025-02-07 07:54:15,2025-02-07 08:00:30,374.39,,,,,,,
559,2025-02-07 09:29:00,2025-02-07 09:35:14,374.392,,,,,,,
560,2025-02-07 11:03:44,2025-02-07 11:09:58,374.386,,,,,,,
561,2025-02-07 12:38:28,2025-02-07 12:44:43,374.386,,,,,,,
562,2025-02-07 14:13:13,2025-02-07 14:19:27,374.386,,,,,,,
563,2025-02-07 15:47:57,2025-02-07 15:54:12,374.388,,,,,,,
564,2025-02-07 17:22:42,2025-02-07 17:28:56,374.391,,,,,,,
565,2025-02-07 18:57:26,2025-02-07 19:03:40,374.389,,,,,,,
566,2025-02-07 20:32:10,2025-02-07 20:38:25,374.386,,,,,,,
567,2025-02-07 22:06:55,2025-02-07 22:13:09,374.391,,,,,,,
568,2025-02-07 23:41:39,2025-02-07 23:47:53,374.394,,,,,,,
569,2025-02-08 01:16:23,2025-02-08 01:22:38,374.385,,,,,,,
570,2025-02-08 02:51:08,2025-02-08 02:57:22,374.389,,,,,,,
571,2025-02-08 04:25:52,2025-02-08 04:32:07,374.386,,,,,,,
572,2025-02-08 06:00:37,2025-02-08 06:06:51,374.389,,,,,,,
573,2025-02-08 07:35:21,2025-02-08 07:41:35,374.385,,,,,,,
574,2025-02-08 09:10:05,2025-02-08 09:16:20,374.389,,,,,,,
575,2025-02-08 10:44:50,2025-02-08 10:51:04,374.389,,,,,,,
576,2025-02-08 12:19:34,2025-02-08 12:25:49,374.389,,,,,,,
577,2025-02-08 13:54:19,2025-02-08 14:00:33,374.389,,,,,,,
578,2025-02-08 15:29:03,2025-02-08 15:35:17,374.389,,,,,,,
579,2025-02-08 17:03:47,2025-02-08 17:10:02,374.385,,,,,,,
580,2025-02-08 18:38:32,2025-02-08 18:44:46,374.385,,,,,,,
581,2025-02-08 20:13:16,2025-02-08 20:19:30,374.387,,,,,,,
582,2025-02-08 21:48:00,2025-02-08 21:54:15,374.389,,,,,,,
583,2025-02-08 23:22:45,2025-02-08 23:28:59,374.388,,,,,,,
584,2025-02-09 00:57:29,2025-02-09 01:03:44,374.388,,,,,,,
585,2025-02-09 02:32:14,2025-02-09 02:38:28,374.383,,,,,,,
586,2025-02-09 04:06:58,2025-02-09 04:13:12,374.384,,,,,,,
587,2025-02-09 05:41:42,2025-02-09 05:47:57,374.387,,,,,,,
588,2025-02-09 07:16:27,2025-02-09 07:22:41,374.383,,,,,,,
589,2025-02-09 08:51:11,2025-02-09 08:57:26,374.387,,,,,,,
590,2025-02-09 10:25:56,2025-02-09 10:32:10,374.388,,,,,,,
591,2025-02-09 12:00:40,2025-02-09 12:06:54,374.387,,,,,,,
592,2025-02-09 13:35:24,2025-02-09 13:41:39,374.384,,,,,,,
593,2025-02-09 15:10:09,2025-02-09 15:16:23,374.386,,,,,,,
594,2025-02-09 16:44:53,2025-02-09 16:51:07,374.387,,,,,,,
595,2025-02-09 18:19:37,2025-02-09 18:25:52,374.383,,,,,,,
596,2025-02-09 19:54:22,2025-02-09 20:00:36,374.387,,,,,,,
597,2025-02-09 21:29:06,2025-02-09 21:35:21,374.387,,,,,,,
598,2025-02-09 23:03:51,2025-02-09 23:10:05,374.386,,,,,,,
599,2025-02-10 00:38:35,2025-02-10 00:44:49,374.385,,,,,,,
600,2025-02-10 02:13:19,2025-02-10 02:19:34,374.387,,,,,,,
601,2025-02-10 03:48:04,2025-02-10 03:54:18,374.381,,,,,,,
602,2025-02-10 05:22:48,2025-02-10 05:29:03,374.382,,,,,,,
603,2025-02-10 06:57:33,2025-02-10 07:03:47,374.387,,,,,,,
604,2025-02-10 08:32:17,2025-02-10 08:38:31,374.386,,,,,,,
605,2025-02-10 10:07:01,2025-02-10 10:13:16,374.386,,,,,,,
606,2025-02-10 11:41:46,2025-02-10 11:48:00,374.382,,,,,,,
607,2025-02-10 13:16:30,2025-02-10 13:22:44,374.39,,,,,,,
608,2025-02-10 14:51:14,2025-02-10 14:57:29,374.385,,,,,,,
609,2025-02-10 16:25:59,2025-02-10 16:32:13,374.384,,,,,,,
610,2025-02-10 18:00:43,2025-02-10 18:06:58,374.383,,,,,,,
611,2025-02-10 19:35:28,2025-02-10 19:41:42,374.382,,,,,,,
612,2025-02-10 21:10:12,2025-02-10 21:16:26,374.382,,,,,,,
613,2025-02-10 22:44:56,2025-02-10 22:51:11,374.384,,,,,,,
614,2025-02-11 00:19:41,2025-02-11 00:25:55,374.388,,,,,,,
615,2025-02-11 01:54:25,2025-02-11 02:00:40,374.381,,,,,,,
616,2025-02-11 03:29:10,2025-02-11 03:35:24,374.383,,,,,,,
617,2025-02-11 05:03:54,2025-02-11 05:10:08,374.385,,,,,,,
618,2025-02-11 06:38:38,2025-02-11 06:44:53,374.385,,,,,,,
619,2025-02-11 08:13:23,2025-02-11 08:19:37,374.381,,,,,,,
620,2025-02-11 09:48:07,2025-02-11 09:54:22,374.385,,,,,,,
621,2025-02-11 11:22:52,2025-02-11 11:29:06,374.385,,,,,,,
622,2025-02-11 12:57:36,2025-02-11 13:03:50,374.385,,,,,,,
623,2025-02-11 14:32:20,2025-02-11 14:38:35,374.381,,,,,,,
624,2025-02-11 16:07:05,2025-02-11 16:13:19,374.381,,,,,,,
625,2025-02-11 17:41:49,2025-02-11 17:48:03,374.381,,,,,,,
626,2025-02-11 19:16:33,2025-02-11 19:22:48,374.385,,,,,,,
627,2025-02-11 20:51:18,2025-02-11 20:57:32,374.387,,,,,,,
628,2025-02-11 22:26:02,2025-02-11 22:32:17,374.38,,,,,,,
629,2025-02-12 00:00:47,2025-02-12 00:07:01,374.385,,,,,,,
630,2025-02-12 01:35:31,2025-02-12 01:41:45,374.389,,,,,,,
631,2025-02-12 03:10:15,2025-02-12 03:16:30,374.379,,,,,,,
632,2025-02-12 04:45:00,2025-02-12 04:51:14,374.382,,,,,,,
633,2025-02-12 06:19:44,2025-02-12 06:25:59,374.385,,,,,,,
634,2025-02-12 07:54:29,2025-02-12 08:00:43,374.384,,,,,,,
635,2025-02-12 09:29:13,2025-02-12 09:35:27,374.385,,,,,,,
636,2025-02-12 11:03:57,2025-02-12 11:10:12,374.38,,,,,,,
637,2025-02-12 12:38:42,2025-02-12 12:44:56,374.38,,,,,,,
638,2025-02-12 14:13:26,2025-02-12 14:19:40,374.38,,,,,,,
639,2025-02-12 15:48:10,2025-02-12 15:54:25,374.382,,,,,,,
640,2025-02-12 17:22:55,2025-02-12 17:29:09,374.385,,,,,,,
641,2025-02-12 18:57:39,2025-02-12 19:03:54,374.382,,,,,,,
642,2025-02-12 20:32:24,2025-02-12 20:38:38,374.38,,,,,,,
643,2025-02-12 22:07:08,2025-02-12 22:13:22,374.385,,,,,,,
644,2025-02-12 23:41:52,2025-02-12 23:48:07,374.388,,,,,,,
645,2025-02-13 01:16:37,2025-02-13 01:22:51,374.379,,,,,,,
646,2025-02-13 02:51:21,2025-02-13 02:57:36,374.384,,,,,,,
647,2025-02-13 04:26:06,2025-02-13 04:32:20,374.38,,,,,,,
648,2025-02-13 06:00:50,2025-02-13 06:07:04,374.383,,,,,,,
649,2025-02-13 07:35:34,2025-02-13 07:41:49,374.379,,,,,,,
650,2025-02-13 09:10:19,2025-02-13 09:16:33,374.383,,,,,,,
651,2025-02-13 10:45:03,2025-02-13 10:51:17,374.383,,,,,,,
652,2025-02-13 12:19:47,2025-02-13 12:26:02,374.384,,,,,,,
653,2025-02-13 13:54:32,2025-02-13 14:00:46,374.383,,,,,,,
654,2025-02-13 15:29:16,2025-02-13 15:35:31,374.384,,,,,,,
655,2025-02-13 17:04:01,2025-02-13 17:10:15,374.38,,,,,,,
656,2025-02-13 18:38:45,2025-02-13 18:44:59,374.38,,,,,,,
657,2025-02-13 20:13:29,2025-02-13 20:19:44,374.382,,,,,,,
658,2025-02-13 21:48:14,2025-02-13 21:54:28,374.384,,,,,,,
659,2025-02-13 23:22:58,2025-02-13 23:29:13,374.383,,,,,,,
660,2025-02-14 00:57:43,2025-02-14 01:03:57,374.383,,,,,,,
661,2025-02-14 02:32:27,2025-02-14 02:38:41,374.379,,,,,,,
662,2025-02-14 04:07:11,2025-02-14 04:13:26,374.379,,,,,,,
663,2025-02-14 05:41:56,2025-02-14 05:48:10,374.383,,,,,,,
664,2025-02-14 07:16:40,2025-02-14 07:22:54,374.378,,,,,,,
665,2025-02-14 08:51:24,2025-02-14 08:57:39,374.383,,,,,,,
666,2025-02-14 10:26:09,2025-02-14 10:32:23,374.383,,,,,,,
667,2025-02-14 12:00:53,2025-02-14 12:07:08,374.382,,,,,,,
668,2025-02-14 13:35:38,2025-02-14 13:41:52,374.38,,,,,,,
669,2025-02-14 15:10:22,2025-02-14 15:16:36,374.38,,,,,,,
670,2025-02-14 16:45:06,2025-02-14 16:51:21,374.383,,,,,,,
671,2025-02-14 18:19:51,2025-02-14 18:26:05,374.379,,,,,,,
672,2025-02-14 19:54:35,2025-02-14 20:00:50,374.383,,,,,,,
673,2025-02-14 21:29:20,2025-02-14 21:35:34,374.383,,,,,,,
674,2025-02-14 23:04:04,2025-02-14 23:10:18,374.382,,,,,,,
675,2025-02-15 00:38:48,2025-02-15 00:45:03,374.381,,,,,,,
676,2025-02-15 02:13:33,2025-02-15 02:19:47,374.383,,,,,,,
677,2025-02-15 03:48:17,2025-02-15 03:54:31,374.378,,,,,,,
678,2025-02-15 05:23:02,2025-02-15 05:29:16,374.378,,,,,,,
679,2025-02-15 06:57:46,2025-02-15 07:04:00,374.383,,,,,,,
680,2025-02-15 08:32:30,2025-02-15 08:38:45,374.383,,,,,,,
681,2025-02-15 10:07:15,2025-02-15 10:13:29,374.383,,,,,,,
682,2025-02-15 11:41:59,2025-02-15 11:48:13,374.378,,,,,,,
683,2025-02-15 13:16:43,2025-02-15 13:22:58,374.387,,,,,,,
684,2025-02-15 14:51:28,2025-02-15 14:57:42,374.382,,,,,,,
685,2025-02-15 16:26:12,2025-02-15 16:32:27,374.381,,,,,,,
686,2025-02-15 18:00:57,2025-02-15 18:07:11,374.379,,,,,,,
687,2025-02-15 19:35:41,2025-02-15 19:41:55,374.379,,,,,,,
688,2025-02-15 21:10:25,2025-02-15 21:16:40,374.379,,,,,,,
689,2025-02-15 22:45:10,2025-02-15 22:51:24,374.381,,,,,,,
690,2025-02-16 00:19:54,2025-02-16 00:26:09,374.385,,,,,,,
691,2025-02-16 01:54:39,2025-02-16 02:00:53,374.378,,,,,,,
692,2025-02-16 03:29:23,2025-02-16 03:35:37,374.38,,,,,,,
693,2025-02-16 05:04:07,2025-02-16 05:10:22,374.383,,,,,,,
694,2025-02-16 06:38:52,2025-02-16 06:45:06,374.382,,,,,,,
695,2025-02-16 08:13:36,2025-02-16 08:19:50,374.378,,,,,,,
696,2025-02-16 09:48:20,2025-02-16 09:54:35,374.382,,,,,,,
697,2025-02-16 11:23:05,2025-02-16 11:29:19,374.382,,,,,,,
698,2025-02-16 12:57:49,2025-02-16 13:04:04,374.382,,,,,,,
699,2025-02-16 14:32:34,2025-02-16 14:38:48,374.378,,,,,,,
700,2025-02-16 16:07:18,2025-02-16 16:13:32,374.378,,,,,,,
701,2025-02-16 17:42:02,2025-02-16 17:48:17,374.379,,,,,,,
702,2025-02-16 19:16:47,2025-02-16 19:23:01,374.382,,,,,,,
703,2025-02-16 20:51:31,2025-02-16 20:57:46,374.385,,,,,,,
704,2025-02-16 22:26:16,2025-02-16 22:32:30,374.378,,,,,,,
705,2025-02-17 00:01:00,2025-02-17 00:07:14,374.383,,,,,,,
706,2025-02-17 01:35:44,2025-02-17 01:41:59,374.386,,,,,,,
707,2025-02-17 03:10:29,2025-02-17 03:16:43,374.377,,,,,,,
708,2025-02-17 04:45:13,2025-02-17 04:51:27,374.379,,,,,,,
709,2025-02-17 06:19:57,2025-02-17 06:26:12,374.383,,,,,,,
710,2025-02-17 07:54:42,2025-02-17 08:00:56,374.382,,,,,,,
711,2025-02-17 09:29:26,2025-02-17 09:35:41,374.383,,,,,,,
712,2025-02-17 11:04:11,2025-02-17 11:10:25,374.378,,,,,,,
713,2025-02-17 12:38:55,2025-02-17 12:45:09,374.378,,,,,,,
714,2025-02-17 14:13:39,2025-02-17 14:19:54,374.378,,,,,,,
715,2025-02-17 15:48:24,2025-02-17 15:54:38,374.38,,,,,,,
716,2025-02-17 17:23:08,2025-02-17 17:29:23,374.383,,,,,,,
717,2025-02-17 18:57:53,2025-02-17 19:04:07,374.38,,,,,,,
718,2025-02-17 20:32:37,2025-02-17 20:38:51,374.378,,,,,,,
719,2025-02-17 22:07:21,2025-02-17 22:13:36,374.383,,,,,,,
720,2025-02-17 23:42:06,2025-02-17 23:48:20,374.386,,,,,,,
721,2025-02-18 01:16:50,2025-02-18 01:23:04,374.377,,,,,,,
722,2025-02-18 02:51:34,2025-02-18 02:57:49,374.382,,,,,,,
723,2025-02-18 04:26:19,2025-02-18 04:32:33,374.378,,,,,,,
724,2025-02-18 06:01:03,2025-02-18 06:07:18,374.381,,,,,,,
725,2025-02-18 07:35:48,2025-02-18 07:42:02,374.378,,,,,,,
726,2025-02-18 09:10:32,2025-02-18 09:16:46,374.382,,,,,,,
727,2025-02-18 10:45:16,2025-02-18 10:51:31,374.382,,,,,,,
728,2025-02-18 12:20:01,2025-02-18 12:26:15,374.382,,,,,,,
729,2025-02-18 13:54:45,2025-02-18 14:01:00,374.382,,,,,,,
730,2025-02-18 15:29:30,2025-02-18 15:35:44,374.382,,,,,,,
731,2025-02-18 17:04:14,2025-02-18 17:10:28,374.378,,,,,,,
732,2025-02-18 18:38:58,2025-02-18 18:45:13,374.378,,,,,,,
733,2025-02-18 20:13:43,2025-02-18 20:19:57,374.38,,,,,,,
734,2025-02-18 21:48:27,2025-02-18 21:54:41,374.382,,,,,,,
735,2025-02-18 23:23:11,2025-02-18 23:29:26,374.381,,,,,,,
736,2025-02-19 00:57:56,2025-02-19 01:04:10,374.381,,,,,,,
737,2025-02-19 02:32:40,2025-02-19 02:38:55,374.377,,,,,,,
738,2025-02-19 04:07:25,2025-02-19 04:13:39,374.377,,,,,,,
739,2025-02-19 05:42:09,2025-02-19 05:48:23,374.381,,,,,,,
740,2025-02-19 07:16:53,2025-02-19 07:23:08,374.377,,,,,,,
741,2025-02-19 08:51:38,2025-02-19 08:57:52,374.381,,,,,,,
742,2025-02-19 10:26:22,2025-02-19 10:32:37,374.381,,,,,,,
743,2025-02-19 12:01:07,2025-02-19 12:07:21,374.381,,,,,,,
744,2025-02-19 13:35:51,2025-02-19 13:42:05,374.378,,,,,,,
745,2025-02-19 15:10:35,2025-02-19 15:16:50,374.378,,,,,,,
746,2025-02-19 16:45:20,2025-02-19 16:51:34,374.381,,,,,,,
747,2025-02-19 18:20:04,2025-02-19 18:26:19,374.377,,,,,,,
748,2025-02-19 19:54:49,2025-02-19 20:01:03,374.381,,,,,,,
749,2025-02-19 21:29:33,2025-02-19 21:35:47,374.381,,,,,,,
750,2025-02-19 23:04:17,2025-02-19 23:10:32,374.38,,,,,,,
751,2025-02-20 00:39:02,2025-02-20 00:45:16,374.379,,,,,,,
752,2025-02-20 02:13:46,2025-02-20 02:20:00,374.381,,,,,,,
753,2025-02-20 03:48:30,2025-02-20 03:54:45,374.376,,,,,,,
754,2025-02-20 05:23:15,2025-02-20 05:29:29,374.376,,,,,,,
755,2025-02-20 06:57:59,2025-02-20 07:04:14,374.381,,,,,,,
756,2025-02-20 08:32:44,2025-02-20 08:38:58,374.38,,,,,,,
757,2025-02-20 10:07:28,2025-02-20 10:13:42,374.38,,,,,,,
758,2025-02-20 11:42:12,2025-02-20 11:48:27,374.376,,,,,,,
759,2025-02-20 13:16:57,2025-02-20 13:23:11,374.384,,,,,,,
760,2025-02-20 14:51:41,2025-02-20 14:57:56,374.38,,,,,,,
761,2025-02-20 16:26:26,2025-02-20 16:32:40,374.379,,,,,,,
762,2025-02-20 18:01:10,2025-02-20 18:07:24,374.377,,,,,,,
763,2025-02-20 19:35:54,2025-02-20 19:42:09,374.376,,,,,,,
764,2025-02-20 21:10:39,2025-02-20 21:16:53,374.377,,,,,,,
765,2025-02-20 22:45:23,2025-02-20 22:51:37,374.378,,,,,,,
766,2025-02-21 00:20:07,2025-02-21 00:26:22,374.382,,,,,,,
767,2025-02-21 01:54:52,2025-02-21 02:01:06,374.376,,,,,,,
768,2025-02-21 03:29:36,2025-02-21 03:35:51,374.377,,,,,,,
769,2025-02-21 05:04:21,2025-02-21 05:10:35,374.38,,,,,,,
770,2025-02-21 06:39:05,2025-02-21 06:45:19,374.379,,,,,,,
771,2025-02-21 08:13:49,2025-02-21 08:20:04,374.375,,,,,,,
772,2025-02-21 09:48:34,2025-02-21 09:54:48,374.379,,,,,,,
773,2025-02-21 11:23:18,2025-02-21 11:29:33,374.379,,,,,,,
774,2025-02-21 12:58:03,2025-02-21 13:04:17,374.379,,,,,,,
775,2025-02-21 14:32:47,2025-02-21 14:39:01,374.375,,,,,,,
776,2025-02-21 16:07:31,2025-02-21 16:13:46,374.375,,,,,,,
777,2025-02-21 17:42:16,2025-02-21 17:48:30,374.376,,,,,,,
778,2025-02-21 19:17:00,2025-02-21 19:23:14,374.379,,,,,,,
779,2025-02-21 20:51:44,2025-02-21 20:57:59,374.382,,,,,,,
780,2025-02-21 22:26:29,2025-02-21 22:32:43,374.375,,,,,,,
781,2025-02-22 00:01:13,2025-02-22 00:07:28,374.38,,,,,,,
782,2025-02-22 01:35:58,2025-02-22 01:42:12,374.383,,,,,,,
783,2025-02-22 03:10:42,2025-02-22 03:16:56,374.374,,,,,,,
784,2025-02-22 04:45:26,2025-02-22 04:51:41,374.376,,,,,,,
785,2025-02-22 06:20:11,2025-02-22 06:26:25,374.38,,,,,,,
786,2025-02-22 07:54:55,2025-02-22 08:01:10,374.378,,,,,,,
787,2025-02-22 09:29:40,2025-02-22 09:35:54,374.38,,,,,,,
788,2025-02-22 11:04:24,2025-02-22 11:10:38,374.374,,,,,,,
789,2025-02-22 12:39:08,2025-02-22 12:45:23,374.374,,,,,,,
790,2025-02-22 14:13:53,2025-02-22 14:20:07,374.374,,,,,,,
791,2025-02-22 15:48:37,2025-02-22 15:54:51,374.376,,,,,,,
792,2025-02-22 17:23:21,2025-02-22 17:29:36,374.379,,,,,,,
793,2025-02-22 18:58:06,2025-02-22 19:04:20,374.376,,,,,,,
794,2025-02-22 20:32:50,2025-02-22 20:39:05,374.374,,,,,,,
795,2025-02-22 22:07:35,2025-02-22 22:13:49,374.379,,,,,,,
796,2025-02-22 23:42:19,2025-02-22 23:48:33,374.382,,,,,,,
797,2025-02-23 01:17:03,2025-02-23 01:23:18,374.373,,,,,,,
798,2025-02-23 02:51:48,2025-02-23 02:58:02,374.377,,,,,,,
799,2025-02-23 04:26:32,2025-02-23 04:32:47,374.374,,,,,,,
800,2025-02-23 06:01:17,2025-02-23 06:07:31,374.377,,,,,,,
801,2025-02-23 07:36:01,2025-02-23 07:42:15,374.373,,,,,,,
802,2025-02-23 09:10:45,2025-02-23 09:17:00,374.377,,,,,,,
803,2025-02-23 10:45:30,2025-02-23 10:51:44,374.377,,,,,,,
804,2025-02-23 12:20:14,2025-02-23 12:26:28,374.377,,,,,,,
805,2025-02-23 13:54:58,2025-02-23 14:01:13,374.377,,,,,,,
806,2025-02-23 15:29:43,2025-02-23 15:35:57,374.378,,,,,,,
807,2025-02-23 17:04:27,2025-02-23 17:10:42,374.373,,,,,,,
808,2025-02-23 18:39:12,2025-02-23 18:45:26,374.373,,,,,,,
809,2025-02-23 20:13:56,2025-02-23 20:20:10,374.375,,,,,,,
810,2025-02-23 21:48:40,2025-02-23 21:54:55,374.377,,,,,,,
811,2025-02-23 23:23:25,2025-02-23 23:29:39,374.372,,,,,,,
812,2025-02-24 00:58:09,2025-02-24 01:04:24,374.376,,,,,,,
813,2025-02-24 02:32:54,2025-02-24 02:39:08,374.372,,,,,,,
814,2025-02-24 04:07:38,2025-02-24 04:13:52,374.372,,,,,,,
815,2025-02-24 05:42:22,2025-02-24 05:48:37,374.376,,,,,,,
816,2025-02-24 07:17:07,2025-02-24 07:23:21,374.372,,,,,,,
817,2025-02-24 08:51:51,2025-02-24 08:58:06,374.376,,,,,,,
818,2025-02-24 10:26:36,2025-02-24 10:32:50,374.376,,,,,,,
819,2025-02-24 12:01:20,2025-02-24 12:07:34,374.375,,,,,,,
820,2025-02-24 13:36:04,2025-02-24 13:42:19,374.373,,,,,,,
821,2025-02-24 15:10:49,2025-02-24 15:17:03,374.373,,,,,,,
822,2025-02-24 16:45:33,2025-02-24 16:51:47,374.376,,,,,,,
823,2025-02-24 18:20:17,2025-02-24 18:26:32,374.372,,,,,,,
824,2025-02-24 19:55:02,2025-02-24 20:01:16,374.376,,,,,,,
825,2025-02-24 21:29:46,2025-02-24 21:36:01,374.376,,,,,,,
826,2025-02-24 23:04:31,2025-02-24 23:10:45,374.374,,,,,,,
827,2025-02-25 00:39:15,2025-02-25 00:45:29,374.374,,,,,,,
828,2025-02-25 02:13:59,2025-02-25 02:20:14,374.376,,,,,,,
829,2025-02-25 03:48:44,2025-02-25 03:54:58,374.37,,,,,,,
830,2025-02-25 05:23:28,2025-02-25 05:29:43,374.37,,,,,,,
831,2025-02-25 06:58:13,2025-02-25 07:04:27,374.375,,,,,,,
832,2025-02-25 08:32:57,2025-02-25 08:39:11,374.375,,,,,,,
833,2025-02-25 10:07:41,2025-02-25 10:13:56,374.375,,,,,,,
834,2025-02-25 11:42:26,2025-02-25 11:48:40,374.37,,,,,,,
835,2025-02-25 13:17:10,2025-02-25 13:23:24,374.379,,,,,,,
836,2025-02-25 14:51:54,2025-02-25 14:58:09,374.374,,,,,,,
837,2025-02-25 16:26:39,2025-02-25 16:32:53,374.373,,,,,,,
838,2025-02-25 18:01:23,2025-02-25 18:07:38,374.371,,,,,,,
839,2025-02-25 19:36:08,2025-02-25 19:42:22,374.37,,,,,,,
840,2025-02-25 21:10:52,2025-02-25 21:17:06,374.371,,,,,,,
841,2025-02-25 22:45:36,2025-02-25 22:51:51,374.372,,,,,,,
842,2025-02-26 00:20:21,2025-02-26 00:26:35,374.376,,,,,,,
843,2025-02-26 01:55:05,2025-02-26 02:01:20,374.37,,,,,,,
844,2025-02-26 03:29:50,2025-02-26 03:36:04,374.371,,,,,,,
845,2025-02-26 05:04:34,2025-02-26 05:10:48,374.374,,,,,,,
846,2025-02-26 06:39:18,2025-02-26 06:45:33,374.373,,,,,,,
847,2025-02-26 08:14:03,2025-02-26 08:20:17,374.369,,,,,,,
848,2025-02-26 09:48:47,2025-02-26 09:55:01,374.374,,,,,,,
849,2025-02-26 11:23:31,2025-02-26 11:29:46,374.374,,,,,,,
850,2025-02-26 12:58:16,2025-02-26 13:04:30,374.374,,,,,,,
851,2025-02-26 14:33:00,2025-02-26 14:39:15,374.369,,,,,,,
852,2025-02-26 16:07:45,2025-02-26 16:13:59,374.37,,,,,,,
853,2025-02-26 17:42:29,2025-02-26 17:48:43,374.37,,,,,,,
854,2025-02-26 19:17:13,2025-02-26 19:23:28,374.373,,,,,,,
855,2025-02-26 20:51:58,2025-02-26 20:58:12,374.376,,,,,,,
856,2025-02-26 22:26:42,2025-02-26 22:32:57,374.369,,,,,,,
857,2025-02-27 00:01:27,2025-02-27 00:07:41,374.374,,,,,,,
858,2025-02-27 01:36:11,2025-02-27 01:42:25,374.377,,,,,,,
859,2025-02-27 03:10:55,2025-02-27 03:17:10,374.368,,,,,,,
860,2025-02-27 04:45:40,2025-02-27 04:51:54,374.37,,,,,,,
861,2025-02-27 06:20:24,2025-02-27 06:26:38,374.374,,,,,,,
862,2025-02-27 07:55:08,2025-02-27 08:01:23,374.373,,,,,,,
863,2025-02-27 09:29:53,2025-02-27 09:36:07,374.374,,,,,,,
864,2025-02-27 11:04:37,2025-02-27 11:10:52,374.369,,,,,,,
865,2025-02-27 12:39:22,2025-02-27 12:45:36,374.369,,,,,,,
866,2025-02-27 14:14:06,2025-02-27 14:20:20,374.369,,,,,,,
867,2025-02-27 15:48:50,2025-02-27 15:55:05,374.371,,,,,,,
868,2025-02-27 17:23:35,2025-02-27 17:29:49,374.374,,,,,,,
869,2025-02-27 18:58:19,2025-02-27 19:04:34,374.371,,,,,,,
870,2025-02-27 20:33:04,2025-02-27 20:39:18,374.369,,,,,,,
871,2025-02-27 22:07:48,2025-02-27 22:14:02,374.374,,,,,,,
872,2025-02-27 23:42:32,2025-02-27 23:48:47,374.377,,,,,,,
873,2025-02-28 01:17:17,2025-02-28 01:23:31,374.368,,,,,,,
874,2025-02-28 02:52:01,2025-02-28 02:58:15,374.373,,,,,,,
875,2025-02-28 04:26:46,2025-02-28 04:33:00,374.369,,,,,,,
876,2025-02-28 06:01:30,2025-02-28 06:07:44,374.372,,,,,,,
877,2025-02-28 07:36:14,2025-02-28 07:42:29,374.369,,,,,,,
878,2025-02-28 09:10:59,2025-02-28 09:17:13,374.372,,,,,,,
879,2025-02-28 10:45:43,2025-02-28 10:51:57,374.373,,,,,,,
880,2025-02-28 12:20:27,2025-02-28 12:26:42,374.373,,,,,,,
881,2025-02-28 13:55:12,2025-02-28 14:01:26,374.373,,,,,,,
882,2025-02-28 15:29:56,2025-02-28 15:36:11,374.373,,,,,,,
883,2025-02-28 17:04:41,2025-02-28 17:10:55,374.369,,,,,,,
884,2025-02-28 18:39:25,2025-02-28 18:45:39,374.369,,,,,,,
885,2025-02-28 20:14:09,2025-02-28 20:20:24,374.371,,,,,,,
886,2025-02-28 21:48:54,2025-02-28 21:55:08,374.373,,,,,,,
887,2025-02-28 23:23:38,2025-02-28 23:29:53,374.368,,,,,,,
888,2025-03-01 00:58:23,2025-03-01 01:04:37,374.372,,,,,,,
889,2025-03-01 02:33:07,2025-03-01 02:39:21,374.368,,,,,,,
890,2025-03-01 04:07:51,2025-03-01 04:14:06,374.368,,,,,,,
891,2025-03-01 05:42:36,2025-03-01 05:48:50,374.372,,,,,,,
892,2025-03-01 07:17:20,2025-03-01 07:23:34,374.368,,,,,,,
893,2025-03-01 08:52:04,2025-03-01 08:58:19,374.372,,,,,,,
894,2025-03-01 10:26:49,2025-03-01 10:33:03,374.372,,,,,,,
895,2025-03-01 12:01:33,2025-03-01 12:07:48,374.372,,,,,,,
896,2025-03-01 13:36:18,2025-03-01 13:42:32,374.369,,,,,,,
897,2025-03-01 15:11:02,2025-03-01 15:17:16,374.369,,,,,,,
898,2025-03-01 16:45:46,2025-03-01 16:52:01,374.373,,,,,,,
899,2025-03-01 18:20:31,2025-03-01 18:26:45,374.369,,,,,,,
900,2025-03-01 19:55:15,2025-03-01 20:01:30,374.373,,,,,,,
901,2025-03-01 21:30:00,2025-03-01 21:36:14,374.372,,,,,,,
902,2025-03-01 23:04:44,2025-03-01 23:10:58,374.371,,,,,,,
903,2025-03-02 00:39:28,2025-03-02 00:45:43,374.371,,,,,,,
904,2025-03-02 02:14:13,2025-03-02 02:20:27,374.373,,,,,,,
905,2025-03-02 03:48:57,2025-03-02 03:55:11,374.367,,,,,,,
906,2025-03-02 05:23:41,2025-03-02 05:29:56,374.368,,,,,,,
907,2025-03-02 06:58:26,2025-03-02 07:04:40,374.373,,,,,,,
908,2025-03-02 08:33:10,2025-03-02 08:39:25,374.372,,,,,,,
909,2025-03-02 10:07:55,2025-03-02 10:14:09,374.372,,,,,,,
910,2025-03-02 11:42:39,2025-03-02 11:48:53,374.368,,,,,,,
911,2025-03-02 13:17:23,2025-03-02 13:23:38,374.377,,,,,,,
912,2025-03-02 14:52:08,2025-03-02 14:58:22,374.372,,,,,,,
913,2025-03-02 16:26:52,2025-03-02 16:33:07,374.371,,,,,,,
914,2025-03-02 18:01:37,2025-03-02 18:07:51,374.369,,,,,,,
915,2025-03-02 19:36:21,2025-03-02 19:42:35,374.368,,,,,,,
916,2025-03-02 21:11:05,2025-03-02 21:17:20,374.369,,,,,,,
917,2025-03-02 22:45:50,2025-03-02 22:52:04,374.37,,,,,,,
918,2025-03-03 00:20:34,2025-03-03 00:26:48,374.374,,,,,,,
919,2025-03-03 01:55:18,2025-03-03 02:01:33,374.368,,,,,,,
920,2025-03-03 03:30:03,2025-03-03 03:36:17,374.37,,,,,,,
921,2025-03-03 05:04:47,2025-03-03 05:11:02,374.372,,,,,,,
922,2025-03-03 06:39:32,2025-03-03 06:45:46,374.372,,,,,,,
923,2025-03-03 08:14:16,2025-03-03 08:20:30,374.368,,,,,,,
924,2025-03-03 09:49:00,2025-03-03 09:55:15,374.372,,,,,,,
925,2025-03-03 11:23:45,2025-03-03 11:29:59,374.372,,,,,,,
926,2025-03-03 12:58:29,2025-03-03 13:04:44,374.372,,,,,,,
927,2025-03-03 14:33:14,2025-03-03 14:39:28,374.368,,,,,,,
928,2025-03-03 16:07:58,2025-03-03 16:14:12,374.369,,,,,,,
929,2025-03-03 17:42:42,2025-03-03 17:48:57,374.369,,,,,,,
930,2025-03-03 19:17:27,2025-03-03 19:23:41,374.372,,,,,,,
931,2025-03-03 20:52:11,2025-03-03 20:58:25,374.375,,,,,,,
932,2025-03-03 22:26:55,2025-03-03 22:33:10,374.368,,,,,,,
933,2025-03-04 00:01:40,2025-03-04 00:07:54,374.373,,,,,,,
934,2025-03-04 01:36:24,2025-03-04 01:42:39,374.377,,,,,,,
935,2025-03-04 03:11:09,2025-03-04 03:17:23,374.367,,,,,,,
936,2025-03-04 04:45:53,2025-03-04 04:52:07,374.37,,,,,,,
937,2025-03-04 06:20:37,2025-03-04 06:26:52,374.373,,,,,,,
938,2025-03-04 07:55:22,2025-03-04 08:01:36,374.372,,,,,,,
939,2025-03-04 09:30:06,2025-03-04 09:36:21,374.374,,,,,,,
940,2025-03-04 11:04:51,2025-03-04 11:11:05,374.368,,,,,,,
941,2025-03-04 12:39:35,2025-03-04 12:45:49,374.368,,,,,,,
942,2025-03-04 14:14:19,2025-03-04 14:20:34,374.368,,,,,,,
943,2025-03-04 15:49:04,2025-03-04 15:55:18,374.37,,,,,,,
944,2025-03-04 17:23:48,2025-03-04 17:30:02,374.373,,,,,,,
945,2025-03-04 18:58:33,2025-03-04 19:04:47,374.37,,,,,,,
946,2025-03-04 20:33:17,2025-03-04 20:39:31,374.368,,,,,,,
947,2025-03-04 22:08:01,2025-03-04 22:14:16,374.373,,,,,,,
948,2025-03-04 23:42:46,2025-03-04 23:49:00,374.377,,,,,,,
949,2025-03-05 01:17:30,2025-03-05 01:23:44,374.367,,,,,,,
950,2025-03-05 02:52:14,2025-03-05 02:58:29,374.372,,,,,,,
951,2025-03-05 04:26:59,2025-03-05 04:33:13,374.368,,,,,,,
952,2025-03-05 06:01:43,2025-03-05 06:07:58,374.372,,,,,,,
953,2025-03-05 07:36:28,2025-03-05 07:42:42,374.368,,,,,,,
954,2025-03-05 09:11:12,2025-03-05 09:17:26,374.372,,,,,,,
955,2025-03-05 10:45:56,2025-03-05 10:52:11,374.372,,,,,,,
956,2025-03-05 12:20:41,2025-03-05 12:26:55,374.372,,,,,,,
957,2025-03-05 13:55:25,2025-03-05 14:01:40,374.372,,,,,,,
958,2025-03-05 15:30:10,2025-03-05 15:36:24,374.372,,,,,,,
959,2025-03-05 17:04:54,2025-03-05 17:11:08,374.368,,,,,,,
960,2025-03-05 18:39:38,2025-03-05 18:45:53,374.368,,,,,,,
961,2025-03-05 20:14:23,2025-03-05 20:20:37,374.37,,,,,,,
962,2025-03-05 21:49:07,2025-03-05 21:55:21,374.372,,,,,,,
963,2025-03-05 23:23:51,2025-03-05 23:30:06,374.367,,,,,,,
964,2025-03-06 00:58:36,2025-03-06 01:04:50,374.371,,,,,,,
965,2025-03-06 02:33:20,2025-03-06 02:39:35,374.367,,,,,,,
966,2025-03-06 04:08:05,2025-03-06 04:14:19,374.367,,,,,,,
967,2025-03-06 05:42:49,2025-03-06 05:49:03,374.371,,,,,,,
968,2025-03-06 07:17:33,2025-03-06 07:23:48,374.367,,,,,,,
969,2025-03-06 08:52:18,2025-03-06 08:58:32,374.371,,,,,,,
970,2025-03-06 10:27:02,2025-03-06 10:33:17,374.371,,,,,,,
971,2025-03-06 12:01:47,2025-03-06 12:08:01,374.371,,,,,,,
972,2025-03-06 13:36:31,2025-03-06 13:42:45,374.368,,,,,,,
973,2025-03-06 15:11:15,2025-03-06 15:17:30,374.368,,,,,,,
974,2025-03-06 16:46:00,2025-03-06 16:52:14,374.371,,,,,,,
975,2025-03-06 18:20:44,2025-03-06 18:26:58,374.367,,,,,,,
976,2025-03-06 19:55:28,2025-03-06 20:01:43,374.371,,,,,,,
977,2025-03-06 21:30:13,2025-03-06 21:36:27,374.371,,,,,,,
978,2025-03-06 23:04:57,2025-03-06 23:11:12,374.37,,,,,,,
979,2025-03-07 00:39:42,2025-03-07 00:45:56,374.369,,,,,,,
980,2025-03-07 02:14:26,2025-03-07 02:20:40,374.371,,,,,,,
981,2025-03-07 03:49:10,2025-03-07 03:55:25,374.365,,,,,,,
982,2025-03-07 05:23:55,2025-03-07 05:30:09,374.366,,,,,,,
983,2025-03-07 06:58:39,2025-03-07 07:04:54,374.371,,,,,,,
984,2025-03-07 08:33:24,2025-03-07 08:39:38,374.37,,,,,,,
985,2025-03-07 10:08:08,2025-03-07 10:14:22,374.37,,,,,,,
986,2025-03-07 11:42:52,2025-03-07 11:49:07,374.366,,,,,,,
987,2025-03-07 13:17:37,2025-03-07 13:23:51,374.374,,,,,,,
988,2025-03-07 14:52:21,2025-03-07 14:58:35,374.37,,,,,,,
989,2025-03-07 16:27:05,2025-03-07 16:33:20,374.369,,,,,,,
990,2025-03-07 18:01:50,2025-03-07 18:08:04,374.367,,,,,,,
991,2025-03-07 19:36:34,2025-03-07 19:42:49,374.366,,,,,,,
992,2025-03-07 21:11:19,2025-03-07 21:17:33,374.367,,,,,,,
993,2025-03-07 22:46:03,2025-03-07 22:52:17,374.368,,,,,,,
994,2025-03-08 00:20:47,2025-03-08 00:27:02,374.372,,,,,,,
995,2025-03-08 01:55:32,2025-03-08 02:01:46,374.365,,,,,,,
996,2025-03-08 03:30:16,2025-03-08 03:36:31,374.367,,,,,,,
997,2025-03-08 05:05:01,2025-03-08 05:11:15,374.369,,,,,,,
998,2025-03-08 06:39:45,2025-03-08 06:45:59,374.369,,,,,,,
999,2025-03-08 08:14:29,2025-03-08 08:20:44,374.365,,,,,,,
1000,2025-03-08 09:49:14,2025-03-08 09:55:28,374.369,,,,,,,
1001,2025-03-08 11:23:58,2025-03-08 11:30:12,374.369,,,,,,,
1002,2025-03-08 12:58:42,2025-03-08 13:04:57,374.369,,,,,,,
1003,2025-03-08 14:33:27,2025-03-08 14:39:41,374.365,,,,,,,
1004,2025-03-08 16:08:11,2025-03-08 16:14:26,374.365,,,,,,,
1005,2025-03-08 17:42:56,2025-03-08 17:49:10,374.366,,,,,,,
1006,2025-03-08 19:17:40,2025-03-08 19:23:54,374.369,,,,,,,
1007,2025-03-08 20:52:24,2025-03-08 20:58:39,374.371,,,,,,,
1008,2025-03-08 22:27:09,2025-03-08 22:33:23,374.364,,,,,,,
1009,2025-03-09 00:01:53,2025-03-09 00:08:08,374.369,,,,,,,
1010,2025-03-09 01:36:38,2025-03-09 01:42:52,374.373,,,,,,,
1011,2025-03-09 03:11:22,2025-03-09 03:17:36,374.363,,,,,,,
1012,2025-03-09 04:46:06,2025-03-09 04:52:21,374.366,,,,,,,
1013,2025-03-09 06:20:51,2025-03-09 06:27:05,374.37,,,,,,,
1014,2025-03-09 07:55:35,2025-03-09 08:01:49,374.368,,,,,,,
1015,2025-03-09 09:30:20,2025-03-09 09:36:34,374.37,,,,,,,
1016,2025-03-09 11:05:04,2025-03-09 11:11:18,374.364,,,,,,,
