3UCubedIntegratedSim/Reports & Plots/North Cusp/NorthCusp CSV/NorthCusp_Sat13.csv

Number,Coverage Start (UTCG),Coverage End (UTCG),Duration (sec),Percent,
1,2025-01-01 16:29:01,2025-01-01 16:31:21,139.912,0.044%,
2,2025-01-01 18:03:39,2025-01-01 18:03:48,8.623,0.003%,
3,2025-01-01 18:05:40,2025-01-01 18:06:11,30.683,0.010%,
4,2025-01-01 19:39:55,2025-01-01 19:40:10,15.433,0.005%,
5,2025-01-01 19:40:17,2025-01-01 19:40:59,42.353,0.013%,
6,2025-01-01 21:14:28,2025-01-01 21:15:45,76.85,0.024%,
7,2025-01-01 22:48:44,2025-01-01 22:49:02,18.413,0.006%,
8,2025-01-01 22:49:06,2025-01-01 22:50:29,82.518,0.026%,
9,2025-01-02 00:23:18,2025-01-02 00:25:11,112.771,0.036%,
10,2025-01-02 01:57:38,2025-01-02 01:57:49,10.859,0.003%,
11,2025-01-02 01:57:57,2025-01-02 01:59:52,114.993,0.037%,
12,2025-01-02 03:32:11,2025-01-02 03:34:31,140.036,0.044%,
13,2025-01-02 05:06:49,2025-01-02 05:06:52,2.784,0.001%,
14,2025-01-02 05:08:50,2025-01-02 05:09:22,32.211,0.010%,
15,2025-01-02 06:43:04,2025-01-02 06:43:22,18.511,0.006%,
16,2025-01-02 06:43:27,2025-01-02 06:44:10,43.135,0.014%,
17,2025-01-02 08:17:38,2025-01-02 08:18:56,77.593,0.025%,
18,2025-01-02 09:51:53,2025-01-02 09:52:14,20.77,0.007%,
19,2025-01-02 09:52:17,2025-01-02 09:53:39,82.865,0.026%,
20,2025-01-02 11:26:29,2025-01-02 11:28:22,113.159,0.036%,
21,2025-01-02 13:00:47,2025-01-02 13:01:01,14.306,0.005%,
22,2025-01-02 13:01:07,2025-01-02 13:03:02,115.012,0.037%,
23,2025-01-02 14:35:21,2025-01-02 14:37:41,140.096,0.044%,
24,2025-01-02 16:12:00,2025-01-02 16:12:33,33.619,0.011%,
25,2025-01-02 17:46:13,2025-01-02 17:46:34,21.088,0.007%,
26,2025-01-02 17:46:37,2025-01-02 17:47:21,43.869,0.014%,
27,2025-01-02 19:20:48,2025-01-02 19:22:06,78.29,0.025%,
28,2025-01-02 20:55:03,2025-01-02 20:55:25,22.84,0.007%,
29,2025-01-02 20:55:27,2025-01-02 20:56:50,83.177,0.026%,
30,2025-01-02 22:29:39,2025-01-02 22:31:32,113.505,0.036%,
31,2025-01-03 00:03:56,2025-01-03 00:04:13,17.021,0.005%,
32,2025-01-03 00:04:18,2025-01-03 00:06:13,115.002,0.037%,
33,2025-01-03 01:38:31,2025-01-03 01:40:51,140.1,0.044%,
34,2025-01-03 03:15:09,2025-01-03 03:15:44,34.935,0.011%,
35,2025-01-03 04:49:23,2025-01-03 04:49:46,23.336,0.007%,
36,2025-01-03 04:49:47,2025-01-03 04:50:32,44.564,0.014%,
37,2025-01-03 06:23:58,2025-01-03 06:25:17,78.942,0.025%,
38,2025-01-03 07:58:12,2025-01-03 07:58:37,24.696,0.008%,
39,2025-01-03 07:58:37,2025-01-03 08:00:01,83.464,0.027%,
40,2025-01-03 09:32:49,2025-01-03 09:34:42,113.813,0.036%,
41,2025-01-03 11:07:06,2025-01-03 11:07:25,19.315,0.006%,
42,2025-01-03 11:07:28,2025-01-03 11:09:23,114.968,0.037%,
43,2025-01-03 12:41:41,2025-01-03 12:44:03,141.745,0.045%,
44,2025-01-03 14:18:19,2025-01-03 14:18:56,36.162,0.012%,
45,2025-01-03 15:52:32,2025-01-03 15:52:57,25.333,0.008%,
46,2025-01-03 15:52:58,2025-01-03 15:53:43,45.219,0.014%,
47,2025-01-03 17:27:08,2025-01-03 17:28:28,79.553,0.025%,
48,2025-01-03 19:01:22,2025-01-03 19:03:11,109.132,0.035%,
49,2025-01-03 20:35:59,2025-01-03 20:37:53,114.086,0.036%,
50,2025-01-03 22:10:15,2025-01-03 22:10:36,21.329,0.007%,
51,2025-01-03 22:10:38,2025-01-03 22:12:33,114.893,0.036%,
52,2025-01-03 23:44:51,2025-01-03 23:47:15,143.797,0.046%,
53,2025-01-04 01:21:29,2025-01-04 01:22:07,37.311,0.012%,
54,2025-01-04 02:55:42,2025-01-04 02:56:54,71.858,0.023%,
55,2025-01-04 04:30:18,2025-01-04 04:31:38,80.118,0.025%,
56,2025-01-04 06:04:32,2025-01-04 06:06:22,109.872,0.035%,
57,2025-01-04 07:39:09,2025-01-04 07:41:03,114.322,0.036%,
58,2025-01-04 09:13:25,2025-01-04 09:13:48,23.128,0.007%,
59,2025-01-04 09:13:48,2025-01-04 09:15:43,114.789,0.036%,
60,2025-01-04 10:48:01,2025-01-04 10:50:27,145.564,0.046%,
61,2025-01-04 12:24:39,2025-01-04 12:25:18,38.395,0.012%,
62,2025-01-04 13:58:52,2025-01-04 14:00:04,72.958,0.023%,
63,2025-01-04 15:33:28,2025-01-04 15:34:49,80.644,0.026%,
64,2025-01-04 17:07:42,2025-01-04 17:09:32,110.547,0.035%,
65,2025-01-04 18:42:19,2025-01-04 18:44:14,114.516,0.036%,
66,2025-01-04 20:16:34,2025-01-04 20:18:53,139.023,0.044%,
67,2025-01-04 21:51:11,2025-01-04 21:53:39,147.143,0.047%,
68,2025-01-04 23:27:49,2025-01-04 23:28:29,39.408,0.013%,
69,2025-01-05 01:02:01,2025-01-05 01:03:15,73.972,0.024%,
70,2025-01-05 02:36:22,2025-01-05 02:36:26,4.422,0.001%,
71,2025-01-05 02:36:39,2025-01-05 02:38:00,81.137,0.026%,
72,2025-01-05 04:10:51,2025-01-05 04:12:43,111.149,0.035%,
73,2025-01-05 05:45:29,2025-01-05 05:47:24,114.682,0.036%,
74,2025-01-05 07:19:44,2025-01-05 07:22:04,139.378,0.044%,
75,2025-01-05 08:54:22,2025-01-05 08:56:50,148.573,0.047%,
76,2025-01-05 10:30:59,2025-01-05 10:31:40,40.362,0.013%,
77,2025-01-05 12:05:11,2025-01-05 12:06:26,74.915,0.024%,
78,2025-01-05 13:39:29,2025-01-05 13:39:40,10.884,0.004%,
79,2025-01-05 13:39:49,2025-01-05 13:41:10,81.594,0.026%,
80,2025-01-05 15:14:01,2025-01-05 15:15:53,111.696,0.035%,
81,2025-01-05 16:48:39,2025-01-05 16:50:34,114.815,0.036%,
82,2025-01-05 18:22:54,2025-01-05 18:25:14,139.655,0.044%,
83,2025-01-05 19:57:32,2025-01-05 20:00:02,149.889,0.048%,
84,2025-01-05 21:33:50,2025-01-05 21:34:00,9.9,0.003%,
85,2025-01-05 21:34:10,2025-01-05 21:34:51,41.261,0.013%,
86,2025-01-05 23:08:21,2025-01-05 23:09:37,75.788,0.024%,
87,2025-01-06 00:42:38,2025-01-06 00:42:52,14.674,0.005%,
88,2025-01-06 00:42:59,2025-01-06 00:44:21,82.013,0.026%,
89,2025-01-06 02:17:11,2025-01-06 02:19:04,112.193,0.036%,
90,2025-01-06 03:51:35,2025-01-06 03:51:36,1.488,0.001%,
91,2025-01-06 03:51:50,2025-01-06 03:53:45,114.916,0.036%,
92,2025-01-06 05:26:04,2025-01-06 05:28:24,139.861,0.044%,
93,2025-01-06 07:00:42,2025-01-06 07:03:13,151.098,0.048%,
94,2025-01-06 08:36:58,2025-01-06 08:37:12,14.343,0.005%,
95,2025-01-06 08:37:20,2025-01-06 08:38:02,42.107,0.013%,
96,2025-01-06 10:11:31,2025-01-06 10:12:48,76.607,0.024%,
97,2025-01-06 11:45:47,2025-01-06 11:46:04,17.619,0.006%,
98,2025-01-06 11:46:09,2025-01-06 11:47:32,82.4,0.026%,
99,2025-01-06 13:20:21,2025-01-06 13:22:14,112.638,0.036%,
100,2025-01-06 14:54:41,2025-01-06 14:54:51,9.543,0.003%,
101,2025-01-06 14:55:00,2025-01-06 14:56:55,114.979,0.037%,
102,2025-01-06 16:29:14,2025-01-06 16:31:34,140.001,0.044%,
103,2025-01-06 18:03:52,2025-01-06 18:06:24,152.231,0.048%,
104,2025-01-06 19:40:07,2025-01-06 19:40:25,17.634,0.006%,
105,2025-01-06 19:40:30,2025-01-06 19:41:13,42.9,0.014%,
106,2025-01-06 21:14:41,2025-01-06 21:15:58,77.373,0.025%,
107,2025-01-06 22:48:56,2025-01-06 22:49:16,20.082,0.006%,
108,2025-01-06 22:49:19,2025-01-06 22:50:42,82.757,0.026%,
109,2025-01-07 00:23:31,2025-01-07 00:25:24,113.046,0.036%,
110,2025-01-07 01:57:50,2025-01-07 01:58:03,13.35,0.004%,
111,2025-01-07 01:58:10,2025-01-07 02:00:05,115.012,0.037%,
112,2025-01-07 03:32:24,2025-01-07 03:34:44,140.086,0.044%,
113,2025-01-07 05:07:02,2025-01-07 05:09:36,153.286,0.049%,
114,2025-01-07 06:43:16,2025-01-07 06:43:37,20.341,0.007%,
115,2025-01-07 06:43:40,2025-01-07 06:44:24,43.651,0.014%,
116,2025-01-07 08:17:51,2025-01-07 08:19:09,78.082,0.025%,
117,2025-01-07 09:52:06,2025-01-07 09:52:28,22.233,0.007%,
118,2025-01-07 09:52:30,2025-01-07 09:53:53,83.085,0.026%,
119,2025-01-07 11:26:41,2025-01-07 11:28:35,113.405,0.036%,
120,2025-01-07 13:00:59,2025-01-07 13:01:15,16.24,0.005%,
121,2025-01-07 13:01:20,2025-01-07 13:03:15,115.009,0.037%,
122,2025-01-07 14:35:34,2025-01-07 14:37:54,140.106,0.044%,
123,2025-01-07 16:10:13,2025-01-07 16:12:10,117.523,0.037%,
124,2025-01-07 16:12:12,2025-01-07 16:12:47,34.543,0.011%,
125,2025-01-07 17:46:26,2025-01-07 17:46:48,22.673,0.007%,
126,2025-01-07 17:46:50,2025-01-07 17:47:35,44.356,0.014%,
127,2025-01-07 19:21:01,2025-01-07 19:22:20,78.746,0.025%,
128,2025-01-07 20:55:15,2025-01-07 20:55:39,24.145,0.008%,
129,2025-01-07 20:55:40,2025-01-07 20:57:03,83.377,0.026%,
130,2025-01-07 22:29:51,2025-01-07 22:31:45,113.728,0.036%,
131,2025-01-08 00:04:08,2025-01-08 00:04:27,18.646,0.006%,
132,2025-01-08 00:04:31,2025-01-08 00:06:26,114.984,0.037%,
133,2025-01-08 01:38:44,2025-01-08 01:41:05,141.041,0.045%,
134,2025-01-08 03:13:23,2025-01-08 03:15:13,110.391,0.035%,
135,2025-01-08 03:15:22,2025-01-08 03:15:58,35.792,0.011%,
136,2025-01-08 04:49:35,2025-01-08 04:50:00,24.74,0.008%,
137,2025-01-08 04:50:00,2025-01-08 04:50:45,45.024,0.014%,
138,2025-01-08 06:24:11,2025-01-08 06:25:30,79.366,0.025%,
139,2025-01-08 07:58:25,2025-01-08 08:00:14,108.891,0.035%,
140,2025-01-08 09:33:02,2025-01-08 09:34:56,114.005,0.036%,
141,2025-01-08 11:07:18,2025-01-08 11:07:39,20.736,0.007%,
142,2025-01-08 11:07:41,2025-01-08 11:09:36,114.92,0.036%,
143,2025-01-08 12:41:54,2025-01-08 12:44:17,143.2,0.045%,
144,2025-01-08 14:16:33,2025-01-08 14:18:16,103.142,0.033%,
145,2025-01-08 14:18:32,2025-01-08 14:19:09,36.968,0.012%,
146,2025-01-08 15:52:45,2025-01-08 15:53:56,71.509,0.023%,
147,2025-01-08 17:27:21,2025-01-08 17:28:41,79.949,0.025%,
148,2025-01-08 19:01:35,2025-01-08 19:03:24,109.654,0.035%,
149,2025-01-08 20:36:12,2025-01-08 20:38:06,114.251,0.036%,
150,2025-01-08 22:10:28,2025-01-08 22:10:50,22.596,0.007%,
151,2025-01-08 22:10:51,2025-01-08 22:12:46,114.823,0.036%,
152,2025-01-08 23:45:04,2025-01-08 23:47:29,145.044,0.046%,
153,2025-01-09 01:19:43,2025-01-09 01:21:19,95.761,0.030%,
154,2025-01-09 01:21:42,2025-01-09 01:22:20,38.072,0.012%,
155,2025-01-09 02:55:54,2025-01-09 02:57:07,72.628,0.023%,
156,2025-01-09 04:30:31,2025-01-09 04:31:52,80.488,0.026%,
157,2025-01-09 06:04:44,2025-01-09 06:06:35,110.341,0.035%,
158,2025-01-09 07:39:22,2025-01-09 07:41:16,114.463,0.036%,
159,2025-01-09 09:13:37,2025-01-09 09:15:56,138.9,0.044%,
160,2025-01-09 10:48:14,2025-01-09 10:50:41,146.672,0.047%,
161,2025-01-09 12:22:39,2025-01-09 12:22:41,2.193,0.001%,
162,2025-01-09 12:22:54,2025-01-09 12:24:22,88.253,0.028%,
163,2025-01-09 12:24:52,2025-01-09 12:25:31,39.102,0.012%,
164,2025-01-09 13:59:04,2025-01-09 14:00:18,73.668,0.023%,
165,2025-01-09 15:33:41,2025-01-09 15:35:02,80.992,0.026%,
166,2025-01-09 17:07:54,2025-01-09 17:09:45,110.97,0.035%,
167,2025-01-09 18:42:32,2025-01-09 18:44:27,114.638,0.036%,
168,2025-01-09 20:16:47,2025-01-09 20:19:06,139.275,0.044%,
169,2025-01-09 21:51:24,2025-01-09 21:53:53,148.147,0.047%,
170,2025-01-09 23:25:46,2025-01-09 23:25:56,9.117,0.003%,
171,2025-01-09 23:26:04,2025-01-09 23:27:25,80.606,0.026%,
172,2025-01-09 23:28:02,2025-01-09 23:28:42,40.074,0.013%,
173,2025-01-10 01:02:14,2025-01-10 01:03:29,74.636,0.024%,
174,2025-01-10 02:36:32,2025-01-10 02:36:42,9.398,0.003%,
175,2025-01-10 02:36:52,2025-01-10 02:38:13,81.458,0.026%,
176,2025-01-10 04:11:04,2025-01-10 04:12:56,111.531,0.035%,
177,2025-01-10 05:45:42,2025-01-10 05:47:37,114.775,0.036%,
178,2025-01-10 07:19:57,2025-01-10 07:22:17,139.58,0.044%,
179,2025-01-10 08:54:35,2025-01-10 08:57:04,149.497,0.047%,
180,2025-01-10 10:28:55,2025-01-10 10:29:08,12.655,0.004%,
181,2025-01-10 10:29:14,2025-01-10 10:30:27,72.829,0.023%,
182,2025-01-10 10:30:53,2025-01-10 10:31:01,8.031,0.003%,
183,2025-01-10 10:31:12,2025-01-10 10:31:53,40.99,0.013%,
184,2025-01-10 12:05:24,2025-01-10 12:06:39,75.531,0.024%,
185,2025-01-10 13:39:41,2025-01-10 13:39:55,13.637,0.004%,
186,2025-01-10 13:40:02,2025-01-10 13:41:24,81.892,0.026%,
187,2025-01-10 15:14:14,2025-01-10 15:16:06,112.046,0.036%,
188,2025-01-10 16:48:52,2025-01-10 16:50:47,114.887,0.036%,
189,2025-01-10 18:23:07,2025-01-10 18:25:27,139.804,0.044%,
190,2025-01-10 19:57:45,2025-01-10 20:00:15,150.74,0.048%,
191,2025-01-10 21:32:04,2025-01-10 21:32:20,15.357,0.005%,
192,2025-01-10 21:32:25,2025-01-10 21:33:29,64.91,0.021%,
193,2025-01-10 21:34:01,2025-01-10 21:34:14,13.148,0.004%,
194,2025-01-10 21:34:22,2025-01-10 21:35:04,41.851,0.013%,
195,2025-01-10 23:08:34,2025-01-10 23:09:50,76.361,0.024%,
196,2025-01-11 00:42:50,2025-01-11 00:43:07,16.777,0.005%,
197,2025-01-11 00:43:12,2025-01-11 00:44:34,82.287,0.026%,
198,2025-01-11 02:17:24,2025-01-11 02:19:17,112.508,0.036%,
199,2025-01-11 03:51:45,2025-01-11 03:51:53,7.996,0.003%,
200,2025-01-11 03:52:03,2025-01-11 03:53:58,114.962,0.037%,
201,2025-01-11 05:26:17,2025-01-11 05:28:37,139.965,0.044%,
202,2025-01-11 07:00:55,2025-01-11 07:03:27,151.89,0.048%,
203,2025-01-11 08:35:14,2025-01-11 08:35:31,17.615,0.006%,
204,2025-01-11 08:35:35,2025-01-11 08:36:32,56.855,0.018%,
205,2025-01-11 08:37:10,2025-01-11 08:37:27,16.701,0.005%,
206,2025-01-11 08:37:33,2025-01-11 08:38:15,42.66,0.014%,
207,2025-01-11 10:11:44,2025-01-11 10:13:01,77.145,0.025%,
208,2025-01-11 11:45:59,2025-01-11 11:46:18,19.363,0.006%,
209,2025-01-11 11:46:22,2025-01-11 11:47:45,82.65,0.026%,
210,2025-01-11 13:20:34,2025-01-11 13:22:27,112.923,0.036%,
211,2025-01-11 14:54:53,2025-01-11 14:55:06,12.316,0.004%,
212,2025-01-11 14:55:13,2025-01-11 14:57:08,115.005,0.037%,
213,2025-01-11 16:29:27,2025-01-11 16:31:47,140.068,0.044%,
214,2025-01-11 18:04:05,2025-01-11 18:06:38,152.969,0.049%,
215,2025-01-11 19:38:23,2025-01-11 19:38:43,19.583,0.006%,
216,2025-01-11 19:38:45,2025-01-11 19:39:34,48.664,0.015%,
217,2025-01-11 19:40:19,2025-01-11 19:40:39,19.558,0.006%,
218,2025-01-11 19:40:43,2025-01-11 19:41:26,43.424,0.014%,
219,2025-01-11 21:14:54,2025-01-11 21:16:12,77.873,0.025%,
220,2025-01-11 22:49:09,2025-01-11 22:49:30,21.595,0.007%,
221,2025-01-11 22:49:32,2025-01-11 22:50:55,82.987,0.026%,
222,2025-01-12 00:23:44,2025-01-12 00:25:38,113.3,0.036%,
223,2025-01-12 01:58:02,2025-01-12 01:58:18,15.418,0.005%,
224,2025-01-12 01:58:23,2025-01-12 02:00:18,115.016,0.037%,
225,2025-01-12 03:32:37,2025-01-12 03:34:57,140.11,0.044%,
226,2025-01-12 05:07:15,2025-01-12 05:09:49,153.979,0.049%,
227,2025-01-12 06:41:33,2025-01-12 06:41:54,21.335,0.007%,
228,2025-01-12 06:41:56,2025-01-12 06:42:36,40.322,0.013%,
229,2025-01-12 06:43:29,2025-01-12 06:43:51,21.989,0.007%,
230,2025-01-12 06:43:53,2025-01-12 06:44:37,44.141,0.014%,
231,2025-01-12 08:18:04,2025-01-12 08:19:22,78.55,0.025%,
232,2025-01-12 09:52:18,2025-01-12 09:52:42,23.582,0.008%,
233,2025-01-12 09:52:43,2025-01-12 09:54:06,83.292,0.026%,
234,2025-01-12 11:26:54,2025-01-12 11:28:48,113.634,0.036%,
235,2025-01-12 13:01:12,2025-01-12 13:01:29,17.948,0.006%,
236,2025-01-12 13:01:33,2025-01-12 13:03:28,114.994,0.037%,
237,2025-01-12 14:35:47,2025-01-12 14:38:07,140.286,0.045%,
238,2025-01-12 16:10:26,2025-01-12 16:13:01,154.929,0.049%,
239,2025-01-12 17:44:43,2025-01-12 17:45:06,22.932,0.007%,
240,2025-01-12 17:45:06,2025-01-12 17:45:38,31.845,0.010%,
241,2025-01-12 17:46:38,2025-01-12 17:47:02,24.129,0.008%,
242,2025-01-12 17:47:03,2025-01-12 17:47:48,44.82,0.014%,
243,2025-01-12 19:21:14,2025-01-12 19:22:33,79.185,0.025%,
244,2025-01-12 20:55:28,2025-01-12 20:57:16,108.644,0.035%,
245,2025-01-12 22:30:04,2025-01-12 22:31:58,113.925,0.036%,
246,2025-01-13 00:04:21,2025-01-13 00:04:41,20.123,0.006%,
247,2025-01-13 00:04:44,2025-01-13 00:06:39,114.939,0.036%,
248,2025-01-13 01:38:57,2025-01-13 01:41:19,142.58,0.045%,
249,2025-01-13 03:13:36,2025-01-13 03:15:29,113.015,0.036%,
250,2025-01-13 03:15:30,2025-01-13 03:16:12,42.035,0.013%,
251,2025-01-13 04:47:53,2025-01-13 04:48:39,46.801,0.015%,
252,2025-01-13 04:49:48,2025-01-13 04:50:59,71.142,0.023%,
253,2025-01-13 06:24:24,2025-01-13 06:25:44,79.775,0.025%,
254,2025-01-13 07:58:38,2025-01-13 08:00:27,109.436,0.035%,
255,2025-01-13 09:33:15,2025-01-13 09:35:09,114.179,0.036%,
256,2025-01-13 11:07:31,2025-01-13 11:07:53,22.045,0.007%,
257,2025-01-13 11:07:54,2025-01-13 11:09:49,114.859,0.036%,
258,2025-01-13 12:42:07,2025-01-13 12:44:31,144.508,0.046%,
259,2025-01-13 14:16:46,2025-01-13 14:18:39,112.999,0.036%,
260,2025-01-13 14:18:41,2025-01-13 14:19:23,41.301,0.013%,
261,2025-01-13 15:51:03,2025-01-13 15:51:41,38.533,0.012%,
262,2025-01-13 15:52:57,2025-01-13 15:54:10,72.301,0.023%,
263,2025-01-13 17:27:34,2025-01-13 17:28:54,80.33,0.026%,
264,2025-01-13 19:01:47,2025-01-13 19:03:37,110.139,0.035%,
265,2025-01-13 20:36:25,2025-01-13 20:38:19,114.401,0.036%,
266,2025-01-13 22:10:40,2025-01-13 22:11:04,23.785,0.008%,
267,2025-01-13 22:11:04,2025-01-13 22:12:59,114.744,0.036%,
268,2025-01-13 23:45:17,2025-01-13 23:47:43,146.196,0.046%,
269,2025-01-14 01:19:56,2025-01-14 01:21:49,112.957,0.036%,
270,2025-01-14 01:21:54,2025-01-14 01:22:34,40.268,0.013%,
271,2025-01-14 02:54:12,2025-01-14 02:54:43,30.075,0.010%,
272,2025-01-14 02:56:07,2025-01-14 02:57:20,73.362,0.023%,
273,2025-01-14 04:30:44,2025-01-14 04:32:05,80.842,0.026%,
274,2025-01-14 06:04:57,2025-01-14 06:06:48,110.781,0.035%,
275,2025-01-14 07:39:35,2025-01-14 07:41:29,114.588,0.036%,
276,2025-01-14 09:13:50,2025-01-14 09:16:09,139.171,0.044%,
277,2025-01-14 10:48:27,2025-01-14 10:50:55,147.709,0.047%,
278,2025-01-14 12:22:50,2025-01-14 12:22:57,7.708,0.002%,
279,2025-01-14 12:23:07,2025-01-14 12:25:00,112.886,0.036%,
280,2025-01-14 12:25:05,2025-01-14 12:25:45,39.782,0.013%,
281,2025-01-14 13:57:22,2025-01-14 13:57:44,21.442,0.007%,
282,2025-01-14 13:59:17,2025-01-14 14:00:31,74.351,0.024%,
283,2025-01-14 15:33:36,2025-01-14 15:33:44,7.629,0.002%,
284,2025-01-14 15:33:54,2025-01-14 15:35:16,81.318,0.026%,
285,2025-01-14 17:08:07,2025-01-14 17:09:58,111.368,0.035%,
286,2025-01-14 18:42:45,2025-01-14 18:44:40,114.742,0.036%,
287,2025-01-14 20:17:00,2025-01-14 20:19:19,139.493,0.044%,
288,2025-01-14 21:51:37,2025-01-14 21:54:06,149.094,0.047%,
289,2025-01-14 23:25:58,2025-01-14 23:26:10,11.705,0.004%,
290,2025-01-14 23:26:17,2025-01-14 23:28:10,112.794,0.036%,
291,2025-01-14 23:28:15,2025-01-14 23:28:56,40.714,0.013%,
292,2025-01-15 01:00:32,2025-01-15 01:00:45,12.631,0.004%,
293,2025-01-15 01:02:27,2025-01-15 01:03:42,75.265,0.024%,
294,2025-01-15 02:36:44,2025-01-15 02:36:57,12.509,0.004%,
295,2025-01-15 02:37:04,2025-01-15 02:38:26,81.758,0.026%,
296,2025-01-15 04:11:17,2025-01-15 04:13:09,111.893,0.036%,
297,2025-01-15 05:45:55,2025-01-15 05:47:50,114.858,0.036%,
298,2025-01-15 07:20:10,2025-01-15 07:22:29,139.747,0.044%,
299,2025-01-15 08:54:48,2025-01-15 08:57:18,150.371,0.048%,
300,2025-01-15 10:29:07,2025-01-15 10:29:22,14.594,0.005%,
301,2025-01-15 10:29:27,2025-01-15 10:31:20,112.662,0.036%,
302,2025-01-15 10:31:25,2025-01-15 10:32:07,41.593,0.013%,
303,2025-01-15 12:03:42,2025-01-15 12:03:46,3.653,0.001%,
304,2025-01-15 12:05:37,2025-01-15 12:06:53,76.113,0.024%,
305,2025-01-15 13:39:53,2025-01-15 13:40:09,15.893,0.005%,
306,2025-01-15 13:40:15,2025-01-15 13:41:37,82.171,0.026%,
307,2025-01-15 15:14:27,2025-01-15 15:16:19,112.372,0.036%,
308,2025-01-15 16:48:48,2025-01-15 16:48:55,6.081,0.002%,
309,2025-01-15 16:49:05,2025-01-15 16:51:00,114.939,0.036%,
310,2025-01-15 18:23:20,2025-01-15 18:25:40,139.927,0.044%,
311,2025-01-15 19:57:58,2025-01-15 20:00:29,151.551,0.048%,
312,2025-01-15 21:32:17,2025-01-15 21:32:34,16.963,0.005%,
313,2025-01-15 21:32:38,2025-01-15 21:34:30,112.503,0.036%,
314,2025-01-15 21:34:35,2025-01-15 21:35:18,42.416,0.013%,
315,2025-01-15 23:08:47,2025-01-15 23:10:04,76.909,0.024%,
316,2025-01-16 00:43:02,2025-01-16 00:43:21,18.617,0.006%,
317,2025-01-16 00:43:25,2025-01-16 00:44:47,82.547,0.026%,
318,2025-01-16 02:17:37,2025-01-16 02:19:30,112.802,0.036%,
319,2025-01-16 03:51:56,2025-01-16 03:52:08,11.189,0.004%,
320,2025-01-16 03:52:16,2025-01-16 03:54:11,114.996,0.037%,
321,2025-01-16 05:26:30,2025-01-16 05:28:50,140.042,0.044%,
322,2025-01-16 07:01:08,2025-01-16 07:03:41,152.645,0.048%,
323,2025-01-16 08:35:26,2025-01-16 08:35:45,19.006,0.006%,
324,2025-01-16 08:35:48,2025-01-16 08:37:41,113.128,0.036%,
325,2025-01-16 08:37:46,2025-01-16 08:38:29,43.198,0.014%,
326,2025-01-16 10:11:57,2025-01-16 10:13:14,77.654,0.025%,
327,2025-01-16 11:46:12,2025-01-16 11:46:32,20.949,0.007%,
328,2025-01-16 11:46:35,2025-01-16 11:47:58,82.884,0.026%,
329,2025-01-16 13:20:47,2025-01-16 13:22:40,113.186,0.036%,
330,2025-01-16 14:55:05,2025-01-16 14:55:20,14.55,0.005%,
331,2025-01-16 14:55:26,2025-01-16 14:57:21,115.02,0.037%,
332,2025-01-16 16:29:40,2025-01-16 16:32:00,140.101,0.044%,
333,2025-01-16 18:04:18,2025-01-16 18:06:52,153.677,0.049%,
334,2025-01-16 19:38:36,2025-01-16 19:38:57,20.822,0.007%,
335,2025-01-16 19:38:58,2025-01-16 19:40:53,114.617,0.036%,
336,2025-01-16 19:40:56,2025-01-16 19:41:40,43.929,0.014%,
337,2025-01-16 21:15:07,2025-01-16 21:16:25,78.35,0.025%,
338,2025-01-16 22:49:21,2025-01-16 22:49:44,22.997,0.007%,
339,2025-01-16 22:49:45,2025-01-16 22:51:09,83.201,0.026%,
340,2025-01-17 00:23:57,2025-01-17 00:25:51,113.536,0.036%,
341,2025-01-17 01:58:15,2025-01-17 01:58:32,17.225,0.006%,
342,2025-01-17 01:58:36,2025-01-17 02:00:31,115.004,0.037%,
343,2025-01-17 03:32:50,2025-01-17 03:35:10,140.103,0.044%,
344,2025-01-17 05:07:28,2025-01-17 05:10:03,154.642,0.049%,
345,2025-01-17 06:41:46,2025-01-17 06:42:08,22.459,0.007%,
346,2025-01-17 06:42:09,2025-01-17 06:44:05,115.921,0.037%,
347,2025-01-17 06:44:06,2025-01-17 06:44:51,44.616,0.014%,
348,2025-01-17 08:18:17,2025-01-17 08:19:36,78.997,0.025%,
349,2025-01-17 09:52:31,2025-01-17 09:52:56,24.844,0.008%,
350,2025-01-17 09:52:56,2025-01-17 09:54:19,83.487,0.027%,
351,2025-01-17 11:27:07,2025-01-17 11:29:01,113.843,0.036%,
352,2025-01-17 13:01:24,2025-01-17 13:01:43,19.488,0.006%,
353,2025-01-17 13:01:46,2025-01-17 13:03:41,114.963,0.037%,
354,2025-01-17 14:36:00,2025-01-17 14:38:22,141.927,0.045%,
355,2025-01-17 16:10:39,2025-01-17 16:12:32,113.011,0.036%,
356,2025-01-17 16:12:32,2025-01-17 16:13:14,42.219,0.013%,
357,2025-01-17 17:44:56,2025-01-17 17:47:16,140.522,0.045%,
358,2025-01-17 17:47:16,2025-01-17 17:48:01,45.265,0.014%,
359,2025-01-17 19:21:27,2025-01-17 19:22:46,79.597,0.025%,
360,2025-01-17 20:55:40,2025-01-17 20:57:30,109.199,0.035%,
361,2025-01-17 22:30:17,2025-01-17 22:32:11,114.106,0.036%,
362,2025-01-18 00:04:34,2025-01-18 00:04:55,21.484,0.007%,
363,2025-01-18 00:04:57,2025-01-18 00:06:52,114.884,0.036%,
364,2025-01-18 01:39:10,2025-01-18 01:41:34,143.947,0.046%,
365,2025-01-18 03:13:49,2025-01-18 03:15:42,113.009,0.036%,
366,2025-01-18 03:15:44,2025-01-18 03:16:25,41.555,0.013%,
367,2025-01-18 04:48:05,2025-01-18 04:51:12,186.778,0.059%,
368,2025-01-18 06:24:37,2025-01-18 06:25:57,80.163,0.025%,
369,2025-01-18 07:58:50,2025-01-18 08:00:40,109.937,0.035%,
370,2025-01-18 09:33:27,2025-01-18 09:35:22,114.335,0.036%,
371,2025-01-18 11:07:43,2025-01-18 11:08:06,23.273,0.007%,
372,2025-01-18 11:08:07,2025-01-18 11:10:02,114.785,0.036%,
373,2025-01-18 12:42:20,2025-01-18 12:44:46,145.7,0.046%,
374,2025-01-18 14:16:59,2025-01-18 14:18:52,112.975,0.036%,
375,2025-01-18 14:18:56,2025-01-18 14:19:36,40.623,0.013%,
376,2025-01-18 15:51:15,2025-01-18 15:54:23,187.684,0.060%,
377,2025-01-18 17:27:47,2025-01-18 17:29:08,80.689,0.026%,
378,2025-01-18 19:02:00,2025-01-18 19:03:51,110.592,0.035%,
379,2025-01-18 20:36:38,2025-01-18 20:38:32,114.533,0.036%,
380,2025-01-18 22:10:53,2025-01-18 22:13:12,139.059,0.044%,
381,2025-01-18 23:45:30,2025-01-18 23:47:57,147.262,0.047%,
382,2025-01-19 01:19:53,2025-01-19 01:19:59,5.962,0.002%,
383,2025-01-19 01:20:09,2025-01-19 01:22:02,112.913,0.036%,
384,2025-01-19 01:22:08,2025-01-19 01:22:47,39.485,0.013%,
385,2025-01-19 02:54:25,2025-01-19 02:57:34,188.526,0.060%,
386,2025-01-19 04:30:40,2025-01-19 04:30:45,5.261,0.002%,
387,2025-01-19 04:30:57,2025-01-19 04:32:18,81.176,0.026%,
388,2025-01-19 06:05:10,2025-01-19 06:07:01,111.195,0.035%,
389,2025-01-19 07:39:48,2025-01-19 07:41:42,114.697,0.036%,
390,2025-01-19 09:14:03,2025-01-19 09:16:22,139.407,0.044%,
391,2025-01-19 10:48:40,2025-01-19 10:51:09,148.68,0.047%,
392,2025-01-19 12:23:02,2025-01-19 12:23:12,10.649,0.003%,
393,2025-01-19 12:23:20,2025-01-19 12:25:13,112.822,0.036%,
394,2025-01-19 12:25:18,2025-01-19 12:25:58,40.438,0.013%,
395,2025-01-19 13:57:35,2025-01-19 13:59:22,106.912,0.034%,
396,2025-01-19 13:59:30,2025-01-19 14:00:45,74.993,0.024%,
397,2025-01-19 15:33:47,2025-01-19 15:33:59,11.246,0.004%,
398,2025-01-19 15:34:07,2025-01-19 15:35:29,81.628,0.026%,
399,2025-01-19 17:08:20,2025-01-19 17:10:12,111.739,0.035%,
400,2025-01-19 18:42:58,2025-01-19 18:44:53,114.826,0.036%,
401,2025-01-19 20:17:13,2025-01-19 20:19:32,139.676,0.044%,
402,2025-01-19 21:51:50,2025-01-19 21:54:20,149.988,0.048%,
403,2025-01-19 23:26:11,2025-01-19 23:26:24,13.775,0.004%,
404,2025-01-19 23:26:30,2025-01-19 23:28:23,112.705,0.036%,
405,2025-01-19 23:28:28,2025-01-19 23:29:09,41.328,0.013%,
406,2025-01-20 01:00:45,2025-01-20 01:02:22,96.471,0.031%,
407,2025-01-20 01:02:40,2025-01-20 01:03:55,75.863,0.024%,
408,2025-01-20 02:36:56,2025-01-20 02:37:11,14.944,0.005%,
409,2025-01-20 02:37:17,2025-01-20 02:38:39,82.046,0.026%,
410,2025-01-20 04:11:30,2025-01-20 04:13:22,112.231,0.036%,
411,2025-01-20 05:45:53,2025-01-20 05:45:56,3.096,0.001%,
412,2025-01-20 05:46:08,2025-01-20 05:48:03,114.92,0.036%,
413,2025-01-20 07:20:23,2025-01-20 07:22:42,139.88,0.044%,
414,2025-01-20 08:55:00,2025-01-20 08:57:32,151.198,0.048%,
415,2025-01-20 10:29:20,2025-01-20 10:29:36,16.276,0.005%,
416,2025-01-20 10:29:40,2025-01-20 10:31:33,112.557,0.036%,
417,2025-01-20 10:31:38,2025-01-20 10:32:20,42.17,0.013%,
418,2025-01-20 12:03:55,2025-01-20 12:05:21,85.859,0.027%,
419,2025-01-20 12:05:49,2025-01-20 12:07:06,76.671,0.024%,
420,2025-01-20 13:40:05,2025-01-20 13:40:23,17.833,0.006%,
421,2025-01-20 13:40:28,2025-01-20 13:41:50,82.435,0.026%,
422,2025-01-20 15:14:40,2025-01-20 15:16:32,112.675,0.036%,
423,2025-01-20 16:49:00,2025-01-20 16:49:10,9.916,0.003%,
424,2025-01-20 16:49:18,2025-01-20 16:51:13,114.978,0.037%,
425,2025-01-20 18:23:32,2025-01-20 18:25:52,140.016,0.044%,
426,2025-01-20 19:58:11,2025-01-20 20:00:43,152.321,0.048%,
427,2025-01-20 21:32:29,2025-01-20 21:32:48,18.409,0.006%,
428,2025-01-20 21:32:51,2025-01-20 21:34:43,112.63,0.036%,
429,2025-01-20 21:34:48,2025-01-20 21:35:31,42.966,0.014%,
430,2025-01-20 23:07:05,2025-01-20 23:08:21,75.07,0.024%,
431,2025-01-20 23:08:59,2025-01-20 23:10:17,77.428,0.025%,
432,2025-01-21 00:43:15,2025-01-21 00:43:35,20.269,0.006%,
433,2025-01-21 00:43:38,2025-01-21 00:45:01,82.788,0.026%,
434,2025-01-21 02:17:50,2025-01-21 02:19:43,113.074,0.036%,
435,2025-01-21 03:52:08,2025-01-21 03:52:22,13.613,0.004%,
436,2025-01-21 03:52:29,2025-01-21 03:54:24,115.01,0.037%,
437,2025-01-21 05:26:42,2025-01-21 05:29:03,140.087,0.044%,
438,2025-01-21 07:01:21,2025-01-21 07:03:54,153.367,0.049%,
439,2025-01-21 08:35:39,2025-01-21 08:35:59,20.287,0.006%,
440,2025-01-21 08:36:01,2025-01-21 08:37:55,114.178,0.036%,
441,2025-01-21 08:37:58,2025-01-21 08:38:42,43.709,0.014%,
442,2025-01-21 10:10:16,2025-01-21 10:11:20,64.088,0.020%,
443,2025-01-21 10:12:09,2025-01-21 10:13:28,78.139,0.025%,
444,2025-01-21 11:46:24,2025-01-21 11:46:46,22.393,0.007%,
445,2025-01-21 11:46:48,2025-01-21 11:48:11,83.106,0.026%,
446,2025-01-21 13:21:00,2025-01-21 13:22:53,113.428,0.036%,
447,2025-01-21 14:55:18,2025-01-21 14:55:34,16.452,0.005%,
448,2025-01-21 14:55:39,2025-01-21 14:57:34,115.016,0.037%,
449,2025-01-21 16:29:52,2025-01-21 16:32:13,140.103,0.044%,
450,2025-01-21 18:04:31,2025-01-21 18:07:05,154.351,0.049%,
451,2025-01-21 19:38:49,2025-01-21 19:39:11,21.969,0.007%,
452,2025-01-21 19:39:11,2025-01-21 19:41:07,115.534,0.037%,
453,2025-01-21 19:41:09,2025-01-21 19:41:53,44.411,0.014%,
454,2025-01-21 21:13:26,2025-01-21 21:14:19,52.927,0.017%,
455,2025-01-21 21:15:19,2025-01-21 21:16:38,78.803,0.025%,
456,2025-01-21 22:49:34,2025-01-21 22:49:58,24.29,0.008%,
457,2025-01-21 22:49:58,2025-01-21 22:51:22,83.399,0.026%,
458,2025-01-22 00:24:10,2025-01-22 00:26:04,113.751,0.036%,
459,2025-01-22 01:58:27,2025-01-22 01:58:46,18.824,0.006%,
460,2025-01-22 01:58:49,2025-01-22 02:00:44,114.978,0.037%,
461,2025-01-22 03:33:03,2025-01-22 03:35:24,141.229,0.045%,
462,2025-01-22 05:07:41,2025-01-22 05:10:17,155.273,0.049%,
463,2025-01-22 06:41:58,2025-01-22 06:44:18,140.006,0.044%,
464,2025-01-22 06:44:19,2025-01-22 06:45:04,45.073,0.014%,
465,2025-01-22 08:16:36,2025-01-22 08:17:17,41.595,0.013%,
466,2025-01-22 08:18:30,2025-01-22 08:19:49,79.417,0.025%,
467,2025-01-22 09:52:43,2025-01-22 09:54:32,108.96,0.035%,
468,2025-01-22 11:27:20,2025-01-22 11:29:14,114.032,0.036%,
469,2025-01-22 13:01:36,2025-01-22 13:01:57,20.895,0.007%,
470,2025-01-22 13:01:59,2025-01-22 13:03:54,114.916,0.036%,
471,2025-01-22 14:36:13,2025-01-22 14:38:36,143.356,0.046%,
472,2025-01-22 16:10:52,2025-01-22 16:12:45,113.011,0.036%,
473,2025-01-22 16:12:46,2025-01-22 16:13:28,41.783,0.013%,
474,2025-01-22 17:45:08,2025-01-22 17:48:15,186.487,0.059%,
475,2025-01-22 19:19:46,2025-01-22 19:20:16,30.086,0.010%,
476,2025-01-22 19:21:40,2025-01-22 19:23:00,79.992,0.025%,
477,2025-01-22 20:55:53,2025-01-22 20:57:43,109.716,0.035%,
478,2025-01-22 22:30:30,2025-01-22 22:32:25,114.269,0.036%,
479,2025-01-23 00:04:46,2025-01-23 00:05:09,22.736,0.007%,
480,2025-01-23 00:05:10,2025-01-23 00:07:05,114.818,0.036%,
481,2025-01-23 01:39:23,2025-01-23 01:41:48,145.18,0.046%,
482,2025-01-23 03:14:02,2025-01-23 03:15:55,112.987,0.036%,
483,2025-01-23 03:15:58,2025-01-23 03:16:39,40.943,0.013%,
484,2025-01-23 04:48:18,2025-01-23 04:51:26,187.412,0.059%,
485,2025-01-23 06:22:56,2025-01-23 06:23:15,18.397,0.006%,
486,2025-01-23 06:24:50,2025-01-23 06:26:10,80.532,0.026%,
487,2025-01-23 07:59:03,2025-01-23 08:00:53,110.398,0.035%,
488,2025-01-23 09:33:40,2025-01-23 09:35:35,114.478,0.036%,
489,2025-01-23 11:07:56,2025-01-23 11:10:15,138.937,0.044%,
490,2025-01-23 12:42:33,2025-01-23 12:45:00,146.797,0.047%,
491,2025-01-23 14:16:57,2025-01-23 14:17:01,3.362,0.001%,
492,2025-01-23 14:17:12,2025-01-23 14:19:05,112.933,0.036%,
493,2025-01-23 14:19:10,2025-01-23 14:19:50,39.746,0.013%,
494,2025-01-23 15:51:28,2025-01-23 15:54:36,188.276,0.060%,
495,2025-01-23 17:26:06,2025-01-23 17:26:13,6.523,0.002%,
496,2025-01-23 17:28:00,2025-01-23 17:29:21,81.032,0.026%,
497,2025-01-23 19:02:13,2025-01-23 19:04:04,111.017,0.035%,
498,2025-01-23 20:36:51,2025-01-23 20:38:45,114.65,0.036%,
499,2025-01-23 22:11:06,2025-01-23 22:13:25,139.305,0.044%,
500,2025-01-23 23:45:43,2025-01-23 23:48:11,148.259,0.047%,
501,2025-01-24 01:20:05,2025-01-24 01:20:14,9.459,0.003%,
502,2025-01-24 01:20:22,2025-01-24 01:22:15,112.854,0.036%,
503,2025-01-24 01:22:21,2025-01-24 01:23:01,40.148,0.013%,
504,2025-01-24 02:54:38,2025-01-24 02:57:47,189.08,0.060%,
505,2025-01-24 04:30:51,2025-01-24 04:31:01,9.811,0.003%,
506,2025-01-24 04:31:10,2025-01-24 04:32:32,81.492,0.026%,
507,2025-01-24 06:05:23,2025-01-24 06:07:14,111.577,0.035%,
508,2025-01-24 07:40:01,2025-01-24 07:41:56,114.789,0.036%,
509,2025-01-24 09:14:15,2025-01-24 09:16:35,139.599,0.044%,
510,2025-01-24 10:48:53,2025-01-24 10:51:23,149.598,0.047%,
511,2025-01-24 12:23:14,2025-01-24 12:23:27,12.902,0.004%,
512,2025-01-24 12:23:33,2025-01-24 12:25:26,112.744,0.036%,
513,2025-01-24 12:25:31,2025-01-24 12:26:12,41.057,0.013%,
514,2025-01-24 13:57:48,2025-01-24 14:00:58,189.839,0.060%,
515,2025-01-24 15:33:59,2025-01-24 15:34:13,13.917,0.004%,
516,2025-01-24 15:34:20,2025-01-24 15:35:42,81.924,0.026%,
517,2025-01-24 17:08:33,2025-01-24 17:10:25,112.087,0.036%,
518,2025-01-24 18:43:11,2025-01-24 18:45:06,114.894,0.036%,
519,2025-01-24 20:17:25,2025-01-24 20:19:45,139.824,0.044%,
520,2025-01-24 21:52:03,2025-01-24 21:54:34,150.833,0.048%,
521,2025-01-24 23:26:23,2025-01-24 23:26:38,15.556,0.005%,
522,2025-01-24 23:26:43,2025-01-24 23:28:36,112.606,0.036%,
523,2025-01-24 23:28:41,2025-01-24 23:29:23,41.914,0.013%,
524,2025-01-25 01:00:58,2025-01-25 01:04:09,190.548,0.060%,
525,2025-01-25 02:37:08,2025-01-25 02:37:25,17.004,0.005%,
526,2025-01-25 02:37:30,2025-01-25 02:38:53,82.316,0.026%,
527,2025-01-25 04:11:43,2025-01-25 04:13:35,112.547,0.036%,
528,2025-01-25 05:46:03,2025-01-25 05:46:12,8.431,0.003%,
529,2025-01-25 05:46:21,2025-01-25 05:48:16,114.967,0.037%,
530,2025-01-25 07:20:35,2025-01-25 07:22:55,139.982,0.044%,
531,2025-01-25 08:55:13,2025-01-25 08:57:45,151.983,0.048%,
532,2025-01-25 10:29:32,2025-01-25 10:29:50,17.784,0.006%,
533,2025-01-25 10:29:53,2025-01-25 10:31:46,112.439,0.036%,
534,2025-01-25 10:31:51,2025-01-25 10:32:34,42.725,0.014%,
535,2025-01-25 12:04:08,2025-01-25 12:07:19,191.217,0.061%,
536,2025-01-25 13:40:18,2025-01-25 13:40:37,19.555,0.006%,
537,2025-01-25 13:40:41,2025-01-25 13:42:03,82.684,0.026%,
538,2025-01-25 15:14:53,2025-01-25 15:16:46,112.954,0.036%,
539,2025-01-25 16:49:12,2025-01-25 16:49:24,12.598,0.004%,
540,2025-01-25 16:49:31,2025-01-25 16:51:26,115.004,0.037%,
541,2025-01-25 18:23:45,2025-01-25 18:26:05,140.076,0.044%,
542,2025-01-25 19:58:24,2025-01-25 20:00:57,153.055,0.049%,
543,2025-01-25 21:32:42,2025-01-25 21:33:02,19.732,0.006%,
544,2025-01-25 21:33:04,2025-01-25 21:34:57,113.722,0.036%,
545,2025-01-25 21:35:01,2025-01-25 21:35:45,43.486,0.014%,
546,2025-01-25 23:07:18,2025-01-25 23:10:30,191.845,0.061%,
547,2025-01-26 00:43:27,2025-01-26 00:43:49,21.765,0.007%,
548,2025-01-26 00:43:51,2025-01-26 00:45:14,83.014,0.026%,
549,2025-01-26 02:18:03,2025-01-26 02:19:56,113.33,0.036%,
550,2025-01-26 03:52:21,2025-01-26 03:52:36,15.638,0.005%,
551,2025-01-26 03:52:42,2025-01-26 03:54:37,115.016,0.037%,
552,2025-01-26 05:26:55,2025-01-26 05:29:15,140.109,0.044%,
553,2025-01-26 07:01:34,2025-01-26 07:04:08,154.054,0.049%,
554,2025-01-26 08:35:52,2025-01-26 08:36:13,21.472,0.007%,
555,2025-01-26 08:36:14,2025-01-26 08:38:09,115.136,0.037%,
556,2025-01-26 08:38:11,2025-01-26 08:38:56,44.2,0.014%,
557,2025-01-26 10:10:28,2025-01-26 10:13:41,192.437,0.061%,
558,2025-01-26 11:46:37,2025-01-26 11:47:00,23.734,0.008%,
559,2025-01-26 11:47:01,2025-01-26 11:48:24,83.311,0.026%,
560,2025-01-26 13:21:13,2025-01-26 13:23:06,113.653,0.036%,
561,2025-01-26 14:55:30,2025-01-26 14:55:48,18.14,0.006%,
562,2025-01-26 14:55:52,2025-01-26 14:57:47,114.994,0.037%,
563,2025-01-26 16:30:05,2025-01-26 16:32:26,140.48,0.045%,
564,2025-01-26 18:04:44,2025-01-26 18:07:19,154.997,0.049%,
565,2025-01-26 19:39:01,2025-01-26 19:39:24,23.054,0.007%,
566,2025-01-26 19:39:24,2025-01-26 19:41:21,116.39,0.037%,
567,2025-01-26 19:41:22,2025-01-26 19:42:07,44.875,0.014%,
568,2025-01-26 21:13:39,2025-01-26 21:15:30,111.405,0.035%,
569,2025-01-26 21:15:32,2025-01-26 21:16:52,79.235,0.025%,
570,2025-01-26 22:49:46,2025-01-26 22:51:35,108.712,0.035%,
571,2025-01-27 00:24:23,2025-01-27 00:26:17,113.948,0.036%,
572,2025-01-27 01:58:39,2025-01-27 01:59:00,20.29,0.006%,
573,2025-01-27 01:59:02,2025-01-27 02:00:57,114.936,0.036%,
574,2025-01-27 03:33:15,2025-01-27 03:35:38,142.744,0.045%,
575,2025-01-27 05:07:54,2025-01-27 05:09:47,113.009,0.036%,
576,2025-01-27 05:09:48,2025-01-27 05:10:30,41.988,0.013%,
577,2025-01-27 06:42:11,2025-01-27 06:45:17,186.188,0.059%,
578,2025-01-27 08:16:49,2025-01-27 08:18:27,98.276,0.031%,
579,2025-01-27 08:18:42,2025-01-27 08:20:02,79.82,0.025%,
580,2025-01-27 09:52:56,2025-01-27 09:54:45,109.491,0.035%,
581,2025-01-27 11:27:33,2025-01-27 11:29:27,114.204,0.036%,
582,2025-01-27 13:01:49,2025-01-27 13:02:11,22.195,0.007%,
583,2025-01-27 13:02:13,2025-01-27 13:04:07,114.853,0.036%,
584,2025-01-27 14:36:25,2025-01-27 14:38:50,144.642,0.046%,
585,2025-01-27 16:11:05,2025-01-27 16:12:58,112.997,0.036%,
586,2025-01-27 16:13:00,2025-01-27 16:13:41,41.235,0.013%,
587,2025-01-27 17:45:21,2025-01-27 17:48:28,187.135,0.059%,
588,2025-01-27 19:19:59,2025-01-27 19:21:24,84.949,0.027%,
589,2025-01-27 19:21:53,2025-01-27 19:23:13,80.371,0.026%,
590,2025-01-27 20:56:06,2025-01-27 20:57:56,110.195,0.035%,
591,2025-01-27 22:30:43,2025-01-27 22:32:38,114.415,0.036%,
592,2025-01-28 00:04:59,2025-01-28 00:05:23,23.914,0.008%,
593,2025-01-28 00:05:23,2025-01-28 00:07:18,114.731,0.036%,
594,2025-01-28 01:39:36,2025-01-28 01:42:02,146.319,0.046%,
595,2025-01-28 03:14:15,2025-01-28 03:16:08,112.954,0.036%,
596,2025-01-28 03:16:12,2025-01-28 03:16:52,40.165,0.013%,
597,2025-01-28 04:48:31,2025-01-28 04:51:39,188.018,0.060%,
598,2025-01-28 06:23:09,2025-01-28 06:24:21,71.448,0.023%,
599,2025-01-28 06:25:03,2025-01-28 06:26:24,80.883,0.026%,
600,2025-01-28 07:59:16,2025-01-28 08:01:06,110.833,0.035%,
601,2025-01-28 09:33:53,2025-01-28 09:35:48,114.601,0.036%,
602,2025-01-28 11:08:09,2025-01-28 11:10:28,139.204,0.044%,
603,2025-01-28 12:42:46,2025-01-28 12:45:14,147.825,0.047%,
604,2025-01-28 14:17:08,2025-01-28 14:17:16,8.109,0.003%,
605,2025-01-28 14:17:25,2025-01-28 14:19:18,112.88,0.036%,
606,2025-01-28 14:19:24,2025-01-28 14:20:03,39.861,0.013%,
607,2025-01-28 15:51:41,2025-01-28 15:54:50,188.842,0.060%,
608,2025-01-28 17:26:19,2025-01-28 17:27:17,57.748,0.018%,
609,2025-01-28 17:27:54,2025-01-28 17:28:02,8.125,0.003%,
610,2025-01-28 17:28:13,2025-01-28 17:29:34,81.357,0.026%,
611,2025-01-28 19:02:26,2025-01-28 19:04:17,111.411,0.035%,
612,2025-01-28 20:37:04,2025-01-28 20:38:58,114.746,0.036%,
613,2025-01-28 22:11:18,2025-01-28 22:13:38,139.521,0.044%,
614,2025-01-28 23:45:56,2025-01-28 23:48:25,149.202,0.047%,
615,2025-01-29 01:20:17,2025-01-29 01:20:29,11.962,0.004%,
616,2025-01-29 01:20:36,2025-01-29 01:22:28,112.782,0.036%,
617,2025-01-29 01:22:34,2025-01-29 01:23:14,40.785,0.013%,
618,2025-01-29 02:54:51,2025-01-29 02:58:01,189.611,0.060%,
619,2025-01-29 04:29:30,2025-01-29 04:30:13,43.87,0.014%,
620,2025-01-29 04:31:02,2025-01-29 04:31:15,12.807,0.004%,
621,2025-01-29 04:31:23,2025-01-29 04:32:45,81.795,0.026%,
622,2025-01-29 06:05:36,2025-01-29 06:07:27,111.934,0.036%,
623,2025-01-29 07:40:14,2025-01-29 07:42:09,114.866,0.036%,
624,2025-01-29 09:14:28,2025-01-29 09:16:48,139.761,0.044%,
625,2025-01-29 10:49:06,2025-01-29 10:51:37,150.465,0.048%,
626,2025-01-29 12:23:26,2025-01-29 12:23:41,14.799,0.005%,
627,2025-01-29 12:23:46,2025-01-29 12:25:38,112.651,0.036%,
628,2025-01-29 12:25:44,2025-01-29 12:26:25,41.655,0.013%,
629,2025-01-29 13:58:01,2025-01-29 14:01:11,190.338,0.060%,
630,2025-01-29 15:32:40,2025-01-29 15:33:10,29.799,0.009%,
631,2025-01-29 15:34:11,2025-01-29 15:34:28,16.126,0.005%,
632,2025-01-29 15:34:33,2025-01-29 15:35:55,82.197,0.026%,
633,2025-01-29 17:08:45,2025-01-29 17:10:38,112.408,0.036%,
634,2025-01-29 18:43:07,2025-01-29 18:43:13,6.635,0.002%,
635,2025-01-29 18:43:24,2025-01-29 18:45:19,114.948,0.036%,
636,2025-01-29 20:17:38,2025-01-29 20:19:58,139.934,0.044%,
637,2025-01-29 21:52:16,2025-01-29 21:54:48,151.638,0.048%,
638,2025-01-29 23:26:35,2025-01-29 23:26:52,17.139,0.005%,
639,2025-01-29 23:26:56,2025-01-29 23:28:49,112.494,0.036%,
640,2025-01-29 23:28:54,2025-01-29 23:29:36,42.481,0.014%,
641,2025-01-30 01:01:11,2025-01-30 01:04:22,191.019,0.061%,
642,2025-01-30 02:35:50,2025-01-30 02:36:06,15.549,0.005%,
643,2025-01-30 02:37:21,2025-01-30 02:37:39,18.819,0.006%,
644,2025-01-30 02:37:43,2025-01-30 02:39:06,82.572,0.026%,
645,2025-01-30 04:11:56,2025-01-30 04:13:48,112.835,0.036%,
646,2025-01-30 05:46:15,2025-01-30 05:46:26,11.496,0.004%,
647,2025-01-30 05:46:34,2025-01-30 05:48:29,114.995,0.037%,
648,2025-01-30 07:20:48,2025-01-30 07:23:08,140.052,0.044%,
649,2025-01-30 08:55:26,2025-01-30 08:57:59,152.735,0.048%,
650,2025-01-30 10:29:45,2025-01-30 10:30:04,19.162,0.006%,
651,2025-01-30 10:30:06,2025-01-30 10:32:00,113.253,0.036%,
652,2025-01-30 10:32:04,2025-01-30 10:32:47,43.255,0.014%,
653,2025-01-30 12:04:21,2025-01-30 12:07:33,191.657,0.061%,
654,2025-01-30 13:39:00,2025-01-30 13:39:01,1.108,0.000%,
655,2025-01-30 13:40:30,2025-01-30 13:40:51,21.122,0.007%,
656,2025-01-30 13:40:54,2025-01-30 13:42:17,82.919,0.026%,
657,2025-01-30 15:15:06,2025-01-30 15:16:59,113.215,0.036%,
658,2025-01-30 16:49:24,2025-01-30 16:49:39,14.788,0.005%,
659,2025-01-30 16:49:44,2025-01-30 16:51:39,115.013,0.037%,
660,2025-01-30 18:23:58,2025-01-30 18:26:18,140.105,0.044%,
661,2025-01-30 19:58:37,2025-01-30 20:01:10,153.758,0.049%,
662,2025-01-30 21:32:54,2025-01-30 21:33:15,20.959,0.007%,
663,2025-01-30 21:33:17,2025-01-30 21:35:12,114.72,0.036%,
664,2025-01-30 21:35:14,2025-01-30 21:35:58,43.983,0.014%,
665,2025-01-30 23:07:31,2025-01-30 23:10:44,192.259,0.061%,
666,2025-01-31 00:43:40,2025-01-31 00:44:03,23.151,0.007%,
667,2025-01-31 00:44:04,2025-01-31 00:45:27,83.226,0.026%,
668,2025-01-31 02:18:16,2025-01-31 02:20:09,113.559,0.036%,
669,2025-01-31 03:52:33,2025-01-31 03:52:50,17.419,0.006%,
670,2025-01-31 03:52:55,2025-01-31 03:54:50,115,0.037%,
671,2025-01-31 05:27:08,2025-01-31 05:29:28,140.101,0.044%,
672,2025-01-31 07:01:47,2025-01-31 07:04:22,154.713,0.049%,
673,2025-01-31 08:36:04,2025-01-31 08:36:27,22.582,0.007%,
674,2025-01-31 08:36:27,2025-01-31 08:38:23,116.022,0.037%,
675,2025-01-31 08:38:24,2025-01-31 08:39:09,44.673,0.014%,
676,2025-01-31 10:10:41,2025-01-31 10:13:54,192.825,0.061%,
677,2025-01-31 11:46:49,2025-01-31 11:48:38,108.449,0.034%,
678,2025-01-31 13:21:26,2025-01-31 13:23:20,113.858,0.036%,
679,2025-01-31 14:55:42,2025-01-31 14:56:02,19.66,0.006%,
680,2025-01-31 14:56:05,2025-01-31 14:58:00,114.96,0.037%,
681,2025-01-31 16:30:18,2025-01-31 16:32:40,142.097,0.045%,
682,2025-01-31 18:04:57,2025-01-31 18:06:50,113.01,0.036%,
683,2025-01-31 18:06:51,2025-01-31 18:07:33,42.171,0.013%,
684,2025-01-31 19:39:14,2025-01-31 19:42:20,185.883,0.059%,
685,2025-01-31 21:13:52,2025-01-31 21:17:05,193.351,0.061%,
686,2025-01-31 22:49:59,2025-01-31 22:51:48,109.263,0.035%,
687,2025-02-01 00:24:36,2025-02-01 00:26:30,114.128,0.036%,
688,2025-02-01 01:58:52,2025-02-01 01:59:14,21.632,0.007%,
689,2025-02-01 01:59:15,2025-02-01 02:01:10,114.882,0.036%,
690,2025-02-01 03:33:28,2025-02-01 03:35:52,144.095,0.046%,
691,2025-02-01 05:08:07,2025-02-01 05:10:00,113.001,0.036%,
692,2025-02-01 05:10:02,2025-02-01 05:10:44,41.494,0.013%,
693,2025-02-01 06:42:24,2025-02-01 06:45:31,186.85,0.059%,
694,2025-02-01 08:17:02,2025-02-01 08:20:16,193.847,0.062%,
695,2025-02-01 09:53:09,2025-02-01 09:54:59,109.987,0.035%,
696,2025-02-01 11:27:46,2025-02-01 11:29:40,114.358,0.036%,
697,2025-02-01 13:02:02,2025-02-01 13:02:25,23.406,0.007%,
698,2025-02-01 13:02:26,2025-02-01 13:04:20,114.773,0.036%,
699,2025-02-01 14:36:38,2025-02-01 14:39:04,145.826,0.046%,
700,2025-02-01 16:11:18,2025-02-01 16:13:11,112.974,0.036%,
701,2025-02-01 16:13:14,2025-02-01 16:13:55,40.534,0.013%,
702,2025-02-01 17:45:34,2025-02-01 17:48:42,187.756,0.060%,
703,2025-02-01 19:20:12,2025-02-01 19:23:26,194.31,0.062%,
704,2025-02-01 20:56:19,2025-02-01 20:58:09,110.646,0.035%,
705,2025-02-01 22:30:56,2025-02-01 22:32:51,114.547,0.036%,
706,2025-02-02 00:05:11,2025-02-02 00:07:31,139.091,0.044%,
707,2025-02-02 01:39:49,2025-02-02 01:42:16,147.38,0.047%,
708,2025-02-02 03:14:12,2025-02-02 03:14:18,6.467,0.002%,
709,2025-02-02 03:14:28,2025-02-02 03:16:21,112.906,0.036%,
710,2025-02-02 03:16:26,2025-02-02 03:17:06,39.561,0.013%,
711,2025-02-02 04:48:44,2025-02-02 04:51:52,188.596,0.060%,
712,2025-02-02 06:23:22,2025-02-02 06:25:06,104.336,0.033%,
713,2025-02-02 06:25:16,2025-02-02 06:26:37,81.214,0.026%,
714,2025-02-02 07:59:28,2025-02-02 08:01:20,111.243,0.035%,
715,2025-02-02 09:34:06,2025-02-02 09:36:01,114.702,0.036%,
716,2025-02-02 11:08:21,2025-02-02 11:10:41,139.43,0.044%,
717,2025-02-02 12:42:59,2025-02-02 12:45:27,148.789,0.047%,
718,2025-02-02 14:17:20,2025-02-02 14:17:31,10.933,0.004%,
719,2025-02-02 14:17:38,2025-02-02 14:19:31,112.814,0.036%,
720,2025-02-02 14:19:36,2025-02-02 14:20:17,40.508,0.013%,
721,2025-02-02 15:51:54,2025-02-02 15:55:03,189.383,0.060%,
722,2025-02-02 17:26:32,2025-02-02 17:28:01,88.734,0.028%,
723,2025-02-02 17:28:06,2025-02-02 17:28:17,11.584,0.004%,
724,2025-02-02 17:28:26,2025-02-02 17:29:47,81.664,0.026%,
725,2025-02-02 19:02:38,2025-02-02 19:04:30,111.784,0.035%,
726,2025-02-02 20:37:16,2025-02-02 20:39:11,114.829,0.036%,
727,2025-02-02 22:11:31,2025-02-02 22:13:51,139.696,0.044%,
728,2025-02-02 23:46:09,2025-02-02 23:48:39,150.088,0.048%,
729,2025-02-03 01:20:29,2025-02-03 01:20:43,13.997,0.004%,
730,2025-02-03 01:20:49,2025-02-03 01:22:41,112.693,0.036%,
731,2025-02-03 01:22:47,2025-02-03 01:23:28,41.395,0.013%,
732,2025-02-03 02:55:04,2025-02-03 02:58:14,190.121,0.060%,
733,2025-02-03 04:29:43,2025-02-03 04:30:55,72.94,0.023%,
734,2025-02-03 04:31:15,2025-02-03 04:31:30,15.189,0.005%,
735,2025-02-03 04:31:36,2025-02-03 04:32:58,82.078,0.026%,
736,2025-02-03 06:05:48,2025-02-03 06:07:41,112.269,0.036%,
737,2025-02-03 07:40:11,2025-02-03 07:40:15,4.083,0.001%,
738,2025-02-03 07:40:27,2025-02-03 07:42:22,114.927,0.036%,
739,2025-02-03 09:14:41,2025-02-03 09:17:01,139.893,0.044%,
740,2025-02-03 10:49:19,2025-02-03 10:51:50,151.286,0.048%,
741,2025-02-03 12:23:38,2025-02-03 12:23:55,16.463,0.005%,
742,2025-02-03 12:23:59,2025-02-03 12:25:51,112.545,0.036%,
743,2025-02-03 12:25:57,2025-02-03 12:26:39,42.231,0.013%,
744,2025-02-03 13:58:14,2025-02-03 14:01:25,190.811,0.061%,
745,2025-02-03 15:32:53,2025-02-03 15:33:50,56.954,0.018%,
746,2025-02-03 15:34:24,2025-02-03 15:34:42,18.038,0.006%,
747,2025-02-03 15:34:46,2025-02-03 15:36:09,82.461,0.026%,
748,2025-02-03 17:08:58,2025-02-03 17:10:51,112.709,0.036%,
749,2025-02-03 18:43:18,2025-02-03 18:43:28,10.26,0.003%,
750,2025-02-03 18:43:37,2025-02-03 18:45:32,114.985,0.037%,
751,2025-02-03 20:17:51,2025-02-03 20:20:11,140.025,0.044%,
752,2025-02-03 21:52:29,2025-02-03 21:55:02,152.403,0.048%,
753,2025-02-03 23:26:48,2025-02-03 23:27:06,18.569,0.006%,
754,2025-02-03 23:27:09,2025-02-03 23:29:02,112.762,0.036%,
755,2025-02-03 23:29:07,2025-02-03 23:29:50,43.022,0.014%,
756,2025-02-04 01:01:24,2025-02-04 01:04:35,191.466,0.061%,
757,2025-02-04 02:36:03,2025-02-04 02:36:44,40.788,0.013%,
758,2025-02-04 02:37:33,2025-02-04 02:37:53,20.446,0.007%,
759,2025-02-04 02:37:56,2025-02-04 02:39:19,82.814,0.026%,
760,2025-02-04 04:12:08,2025-02-04 04:14:01,113.105,0.036%,
761,2025-02-04 05:46:27,2025-02-04 05:46:41,13.863,0.004%,
762,2025-02-04 05:46:47,2025-02-04 05:48:42,115.016,0.037%,
763,2025-02-04 07:21:01,2025-02-04 07:23:21,140.094,0.044%,
764,2025-02-04 08:55:39,2025-02-04 08:58:13,153.45,0.049%,
765,2025-02-04 10:29:57,2025-02-04 10:30:18,20.426,0.007%,
766,2025-02-04 10:30:20,2025-02-04 10:32:14,114.287,0.036%,
767,2025-02-04 10:32:17,2025-02-04 10:33:01,43.761,0.014%,
768,2025-02-04 12:04:34,2025-02-04 12:07:46,192.076,0.061%,
769,2025-02-04 13:39:13,2025-02-04 13:39:38,24.432,0.008%,
770,2025-02-04 13:40:43,2025-02-04 13:41:05,22.551,0.007%,
771,2025-02-04 13:41:07,2025-02-04 13:42:30,83.138,0.026%,
772,2025-02-04 15:15:18,2025-02-04 15:17:12,113.458,0.036%,
773,2025-02-04 16:49:36,2025-02-04 16:49:53,16.656,0.005%,
774,2025-02-04 16:49:57,2025-02-04 16:51:52,115.012,0.037%,
775,2025-02-04 18:24:11,2025-02-04 18:26:31,140.106,0.044%,
776,2025-02-04 19:58:50,2025-02-04 20:01:24,154.428,0.049%,
777,2025-02-04 21:33:07,2025-02-04 21:33:29,22.096,0.007%,
778,2025-02-04 21:33:30,2025-02-04 21:35:26,115.636,0.037%,
779,2025-02-04 21:35:27,2025-02-04 21:36:12,44.462,0.014%,
780,2025-02-04 23:07:44,2025-02-04 23:10:57,192.653,0.061%,
781,2025-02-05 00:42:24,2025-02-05 00:42:31,7.877,0.003%,
782,2025-02-05 00:43:52,2025-02-05 00:44:17,24.433,0.008%,
783,2025-02-05 00:44:17,2025-02-05 00:45:40,83.422,0.027%,
784,2025-02-05 02:18:29,2025-02-05 02:20:22,113.775,0.036%,
785,2025-02-05 03:52:45,2025-02-05 03:53:04,19.001,0.006%,
786,2025-02-05 03:53:08,2025-02-05 03:55:03,114.974,0.037%,
787,2025-02-05 05:27:21,2025-02-05 05:29:42,141.411,0.045%,
788,2025-02-05 07:02:00,2025-02-05 07:04:35,155.344,0.049%,
789,2025-02-05 08:36:17,2025-02-05 08:38:37,140.141,0.044%,
790,2025-02-05 08:38:37,2025-02-05 08:39:23,45.122,0.014%,
791,2025-02-05 10:10:54,2025-02-05 10:14:08,193.195,0.061%,
792,2025-02-05 11:47:02,2025-02-05 11:48:51,109.017,0.035%,
793,2025-02-05 13:21:39,2025-02-05 13:23:33,114.046,0.036%,
794,2025-02-05 14:55:55,2025-02-05 14:56:16,21.048,0.007%,
795,2025-02-05 14:56:18,2025-02-05 14:58:13,114.909,0.036%,
796,2025-02-05 16:30:31,2025-02-05 16:32:55,143.508,0.046%,
797,2025-02-05 18:05:10,2025-02-05 18:07:03,113.009,0.036%,
798,2025-02-05 18:07:05,2025-02-05 18:07:46,41.728,0.013%,
799,2025-02-05 19:39:27,2025-02-05 19:42:33,186.56,0.059%,
800,2025-02-05 21:14:04,2025-02-05 21:17:18,193.697,0.061%,
801,2025-02-05 22:50:12,2025-02-05 22:52:01,109.769,0.035%,
802,2025-02-06 00:24:49,2025-02-06 00:26:43,114.289,0.036%,
803,2025-02-06 01:59:05,2025-02-06 01:59:27,22.875,0.007%,
804,2025-02-06 01:59:28,2025-02-06 02:01:23,114.807,0.036%,
805,2025-02-06 03:33:41,2025-02-06 03:36:06,145.311,0.046%,
806,2025-02-06 05:08:20,2025-02-06 05:10:13,112.981,0.036%,
807,2025-02-06 05:10:17,2025-02-06 05:10:57,40.869,0.013%,
808,2025-02-06 06:42:37,2025-02-06 06:45:44,187.48,0.059%,
809,2025-02-06 08:17:15,2025-02-06 08:20:29,194.171,0.062%,
810,2025-02-06 09:53:21,2025-02-06 09:55:12,110.447,0.035%,
811,2025-02-06 11:27:59,2025-02-06 11:29:53,114.495,0.036%,
812,2025-02-06 13:02:14,2025-02-06 13:04:33,138.965,0.044%,
813,2025-02-06 14:36:51,2025-02-06 14:39:18,146.914,0.047%,
814,2025-02-06 16:11:15,2025-02-06 16:11:20,4.187,0.001%,
815,2025-02-06 16:11:31,2025-02-06 16:13:24,112.934,0.036%,
816,2025-02-06 16:13:29,2025-02-06 16:14:08,39.634,0.013%,
817,2025-02-06 17:45:47,2025-02-06 17:48:55,188.339,0.060%,
818,2025-02-06 19:20:25,2025-02-06 19:22:15,110.238,0.035%,
819,2025-02-06 19:22:15,2025-02-06 19:23:39,84.069,0.027%,
820,2025-02-06 20:56:31,2025-02-06 20:58:22,111.064,0.035%,
821,2025-02-06 22:31:09,2025-02-06 22:33:04,114.662,0.036%,
822,2025-02-07 00:05:24,2025-02-07 00:07:43,139.333,0.044%,
823,2025-02-07 01:40:01,2025-02-07 01:42:30,148.367,0.047%,
824,2025-02-07 03:14:23,2025-02-07 03:14:33,9.78,0.003%,
825,2025-02-07 03:14:41,2025-02-07 03:16:34,112.846,0.036%,
826,2025-02-07 03:16:39,2025-02-07 03:17:20,40.221,0.013%,
827,2025-02-07 04:48:57,2025-02-07 04:52:06,189.146,0.060%,
828,2025-02-07 06:23:35,2025-02-07 06:25:25,110.337,0.035%,
829,2025-02-07 06:25:27,2025-02-07 06:26:50,82.98,0.026%,
830,2025-02-07 07:59:41,2025-02-07 08:01:33,111.619,0.035%,
831,2025-02-07 09:34:19,2025-02-07 09:36:14,114.799,0.036%,
832,2025-02-07 11:08:34,2025-02-07 11:10:54,139.62,0.044%,
833,2025-02-07 12:43:12,2025-02-07 12:45:41,149.699,0.048%,
834,2025-02-07 14:17:32,2025-02-07 14:17:45,13.129,0.004%,
835,2025-02-07 14:17:51,2025-02-07 14:19:44,112.734,0.036%,
836,2025-02-07 14:19:49,2025-02-07 14:20:31,41.126,0.013%,
837,2025-02-07 15:52:07,2025-02-07 15:55:17,189.898,0.060%,
838,2025-02-07 17:26:45,2025-02-07 17:28:32,106.604,0.034%,
839,2025-02-07 17:28:39,2025-02-07 17:30:01,81.959,0.026%,
840,2025-02-07 19:02:51,2025-02-07 19:04:43,112.122,0.036%,
841,2025-02-07 20:37:29,2025-02-07 20:39:24,114.899,0.036%,
842,2025-02-07 22:11:44,2025-02-07 22:14:04,139.837,0.044%,
843,2025-02-07 23:46:22,2025-02-07 23:48:53,150.926,0.048%,
844,2025-02-08 01:20:41,2025-02-08 01:20:57,15.744,0.005%,
845,2025-02-08 01:21:02,2025-02-08 01:22:54,112.592,0.036%,
846,2025-02-08 01:22:59,2025-02-08 01:23:41,41.983,0.013%,
847,2025-02-08 02:55:17,2025-02-08 02:58:27,190.605,0.060%,
848,2025-02-08 04:29:56,2025-02-08 04:31:17,81.284,0.026%,
849,2025-02-08 04:31:27,2025-02-08 04:31:44,17.214,0.006%,
850,2025-02-08 04:31:49,2025-02-08 04:33:11,82.346,0.026%,
851,2025-02-08 06:06:01,2025-02-08 06:07:54,112.578,0.036%,
852,2025-02-08 07:40:21,2025-02-08 07:40:30,8.831,0.003%,
853,2025-02-08 07:40:40,2025-02-08 07:42:35,114.975,0.037%,
854,2025-02-08 09:14:54,2025-02-08 09:17:14,139.987,0.044%,
855,2025-02-08 10:49:32,2025-02-08 10:52:04,152.064,0.048%,
856,2025-02-08 12:23:51,2025-02-08 12:24:09,17.944,0.006%,
857,2025-02-08 12:24:12,2025-02-08 12:26:04,112.425,0.036%,
858,2025-02-08 12:26:10,2025-02-08 12:26:52,42.785,0.014%,
859,2025-02-08 13:58:27,2025-02-08 14:01:38,191.266,0.061%,
860,2025-02-08 15:33:06,2025-02-08 15:34:09,63.409,0.020%,
861,2025-02-08 15:34:36,2025-02-08 15:34:56,19.739,0.006%,
862,2025-02-08 15:34:59,2025-02-08 15:36:22,82.706,0.026%,
863,2025-02-08 17:09:11,2025-02-08 17:11:04,112.985,0.036%,
864,2025-02-08 18:43:30,2025-02-08 18:43:43,12.863,0.004%,
865,2025-02-08 18:43:50,2025-02-08 18:45:45,115.008,0.037%,
866,2025-02-08 20:18:04,2025-02-08 20:20:24,140.079,0.044%,
867,2025-02-08 21:52:42,2025-02-08 21:55:15,153.132,0.049%,
868,2025-02-08 23:27:00,2025-02-08 23:27:20,19.873,0.006%,
869,2025-02-08 23:27:22,2025-02-08 23:29:16,113.842,0.036%,
870,2025-02-08 23:29:20,2025-02-08 23:30:03,43.543,0.014%,
871,2025-02-09 01:01:37,2025-02-09 01:04:49,191.894,0.061%,
872,2025-02-09 02:36:16,2025-02-09 02:37:01,45.345,0.014%,
873,2025-02-09 02:37:45,2025-02-09 02:38:07,21.923,0.007%,
874,2025-02-09 02:38:09,2025-02-09 02:39:32,83.039,0.026%,
875,2025-02-09 04:12:21,2025-02-09 04:14:15,113.357,0.036%,
876,2025-02-09 05:46:39,2025-02-09 05:46:55,15.85,0.005%,
877,2025-02-09 05:47:00,2025-02-09 05:48:55,115.018,0.037%,
878,2025-02-09 07:21:14,2025-02-09 07:23:34,140.11,0.044%,
879,2025-02-09 08:55:52,2025-02-09 08:58:27,154.134,0.049%,
880,2025-02-09 10:30:10,2025-02-09 10:30:32,21.598,0.007%,
881,2025-02-09 10:30:33,2025-02-09 10:32:28,115.235,0.037%,
882,2025-02-09 10:32:30,2025-02-09 10:33:14,44.255,0.014%,
883,2025-02-09 12:04:47,2025-02-09 12:07:59,192.478,0.061%,
884,2025-02-09 13:39:26,2025-02-09 13:39:53,27.113,0.009%,
885,2025-02-09 13:40:55,2025-02-09 13:41:19,23.875,0.008%,
886,2025-02-09 13:41:20,2025-02-09 13:42:43,83.339,0.026%,
887,2025-02-09 15:15:31,2025-02-09 15:17:25,113.681,0.036%,
888,2025-02-09 16:49:48,2025-02-09 16:50:07,18.316,0.006%,
889,2025-02-09 16:50:10,2025-02-09 16:52:05,114.988,0.037%,
890,2025-02-09 18:24:24,2025-02-09 18:26:45,140.678,0.045%,
891,2025-02-09 19:59:03,2025-02-09 20:01:38,155.069,0.049%,
892,2025-02-09 21:33:20,2025-02-09 21:35:39,139.613,0.044%,
893,2025-02-09 21:35:40,2025-02-09 21:36:25,44.922,0.014%,
894,2025-02-09 23:07:57,2025-02-09 23:11:10,193.03,0.061%,
895,2025-02-10 00:42:37,2025-02-10 00:42:45,8.687,0.003%,
896,2025-02-10 00:44:05,2025-02-10 00:45:54,108.771,0.035%,
897,2025-02-10 02:18:41,2025-02-10 02:20:35,113.966,0.036%,
898,2025-02-10 03:52:58,2025-02-10 03:53:18,20.446,0.007%,
899,2025-02-10 03:53:21,2025-02-10 03:55:16,114.931,0.036%,
900,2025-02-10 05:27:34,2025-02-10 05:29:57,142.903,0.045%,
901,2025-02-10 07:02:13,2025-02-10 07:04:06,113.011,0.036%,
902,2025-02-10 07:04:07,2025-02-10 07:04:49,41.939,0.013%,
903,2025-02-10 08:36:30,2025-02-10 08:39:36,186.265,0.059%,
904,2025-02-10 10:11:07,2025-02-10 10:14:21,193.549,0.061%,
905,2025-02-10 11:47:14,2025-02-10 11:49:04,109.549,0.035%,
906,2025-02-10 13:21:52,2025-02-10 13:23:46,114.217,0.036%,
907,2025-02-10 14:56:08,2025-02-10 14:56:30,22.336,0.007%,
908,2025-02-10 14:56:31,2025-02-10 14:58:26,114.844,0.036%,
909,2025-02-10 16:30:44,2025-02-10 16:33:09,144.782,0.046%,
910,2025-02-10 18:05:23,2025-02-10 18:07:16,112.995,0.036%,
911,2025-02-10 18:07:19,2025-02-10 18:08:00,41.163,0.013%,
912,2025-02-10 19:39:40,2025-02-10 19:42:47,187.203,0.059%,
913,2025-02-10 21:14:17,2025-02-10 21:17:31,194.026,0.062%,
914,2025-02-10 22:50:24,2025-02-10 22:52:15,110.245,0.035%,
915,2025-02-11 00:25:02,2025-02-11 00:26:56,114.434,0.036%,
916,2025-02-11 01:59:17,2025-02-11 01:59:41,24.042,0.008%,
917,2025-02-11 01:59:41,2025-02-11 02:01:36,114.72,0.036%,
918,2025-02-11 03:33:54,2025-02-11 03:36:21,146.442,0.046%,
919,2025-02-11 05:08:33,2025-02-11 05:10:26,112.949,0.036%,
920,2025-02-11 05:10:31,2025-02-11 05:11:11,40.067,0.013%,
921,2025-02-11 06:42:50,2025-02-11 06:45:58,188.08,0.060%,
922,2025-02-11 08:17:28,2025-02-11 08:20:42,194.482,0.062%,
923,2025-02-11 09:53:34,2025-02-11 09:55:25,110.879,0.035%,
924,2025-02-11 11:28:12,2025-02-11 11:30:06,114.616,0.036%,
925,2025-02-11 13:02:27,2025-02-11 13:04:46,139.227,0.044%,
926,2025-02-11 14:37:04,2025-02-11 14:39:32,147.933,0.047%,
927,2025-02-11 16:11:26,2025-02-11 16:11:35,8.474,0.003%,
928,2025-02-11 16:11:44,2025-02-11 16:13:37,112.876,0.036%,
929,2025-02-11 16:13:42,2025-02-11 16:14:22,39.93,0.013%,
930,2025-02-11 17:45:59,2025-02-11 17:49:08,188.899,0.060%,
931,2025-02-11 19:20:38,2025-02-11 19:22:28,110.309,0.035%,
932,2025-02-11 19:22:29,2025-02-11 19:23:53,83.333,0.026%,
933,2025-02-11 20:56:44,2025-02-11 20:58:36,111.458,0.035%,
934,2025-02-11 22:31:22,2025-02-11 22:33:17,114.758,0.036%,
935,2025-02-12 00:05:37,2025-02-12 00:07:56,139.54,0.044%,
936,2025-02-12 01:40:14,2025-02-12 01:42:44,149.303,0.047%,
937,2025-02-12 03:14:35,2025-02-12 03:14:47,12.21,0.004%,
938,2025-02-12 03:14:54,2025-02-12 03:16:47,112.774,0.036%,
939,2025-02-12 03:16:52,2025-02-12 03:17:33,40.854,0.013%,
940,2025-02-12 04:49:09,2025-02-12 04:52:19,189.674,0.060%,
941,2025-02-12 06:23:48,2025-02-12 06:25:36,108.434,0.034%,
942,2025-02-12 06:25:42,2025-02-12 06:27:03,81.829,0.026%,
943,2025-02-12 07:59:54,2025-02-12 08:01:46,111.97,0.036%,
944,2025-02-12 09:34:32,2025-02-12 09:36:27,114.868,0.036%,
945,2025-02-12 11:08:47,2025-02-12 11:11:07,139.78,0.044%,
946,2025-02-12 12:43:25,2025-02-12 12:45:55,150.56,0.048%,
947,2025-02-12 14:17:44,2025-02-12 14:17:59,14.998,0.005%,
948,2025-02-12 14:18:04,2025-02-12 14:19:57,112.638,0.036%,
949,2025-02-12 14:20:02,2025-02-12 14:20:44,41.726,0.013%,
950,2025-02-12 15:52:20,2025-02-12 15:55:30,190.394,0.060%,
951,2025-02-12 17:26:58,2025-02-12 17:28:27,89.114,0.028%,
952,2025-02-12 17:28:30,2025-02-12 17:28:46,16.352,0.005%,
953,2025-02-12 17:28:52,2025-02-12 17:30:14,82.231,0.026%,
954,2025-02-12 19:03:04,2025-02-12 19:04:56,112.442,0.036%,
955,2025-02-12 20:37:25,2025-02-12 20:37:32,7.136,0.002%,
956,2025-02-12 20:37:42,2025-02-12 20:39:37,114.951,0.037%,
957,2025-02-12 22:11:57,2025-02-12 22:14:17,139.946,0.044%,
958,2025-02-12 23:46:35,2025-02-12 23:49:06,151.724,0.048%,
959,2025-02-13 01:20:54,2025-02-13 01:21:11,17.305,0.006%,
960,2025-02-13 01:21:15,2025-02-13 01:23:07,112.478,0.036%,
961,2025-02-13 01:23:12,2025-02-13 01:23:55,42.542,0.014%,
962,2025-02-13 02:55:30,2025-02-13 02:58:41,191.07,0.061%,
963,2025-02-13 04:30:09,2025-02-13 04:31:18,69.62,0.022%,
964,2025-02-13 04:31:39,2025-02-13 04:31:58,19.007,0.006%,
965,2025-02-13 04:32:02,2025-02-13 04:33:25,82.601,0.026%,
966,2025-02-13 06:06:14,2025-02-13 06:08:07,112.864,0.036%,
967,2025-02-13 07:40:33,2025-02-13 07:40:45,11.783,0.004%,
968,2025-02-13 07:40:53,2025-02-13 07:42:48,115.005,0.037%,
969,2025-02-13 09:15:07,2025-02-13 09:17:27,140.057,0.044%,
970,2025-02-13 10:49:45,2025-02-13 10:52:18,152.809,0.049%,
971,2025-02-13 12:24:03,2025-02-13 12:24:23,19.31,0.006%,
972,2025-02-13 12:24:25,2025-02-13 12:26:18,113.373,0.036%,
973,2025-02-13 12:26:23,2025-02-13 12:27:06,43.315,0.014%,
974,2025-02-13 13:58:40,2025-02-13 14:01:51,191.704,0.061%,
975,2025-02-13 15:33:19,2025-02-13 15:34:09,49.959,0.016%,
976,2025-02-13 15:34:48,2025-02-13 15:35:10,21.287,0.007%,
977,2025-02-13 15:35:12,2025-02-13 15:36:35,82.937,0.026%,
978,2025-02-13 17:09:24,2025-02-13 17:11:17,113.245,0.036%,
979,2025-02-13 18:43:42,2025-02-13 18:43:57,15.005,0.005%,
980,2025-02-13 18:44:03,2025-02-13 18:45:58,115.015,0.037%,
981,2025-02-13 20:18:17,2025-02-13 20:20:37,140.109,0.044%,
982,2025-02-13 21:52:55,2025-02-13 21:55:29,153.831,0.049%,
983,2025-02-13 23:27:13,2025-02-13 23:27:34,21.087,0.007%,
984,2025-02-13 23:27:35,2025-02-13 23:29:30,114.828,0.036%,
985,2025-02-13 23:29:33,2025-02-13 23:30:17,44.04,0.014%,
986,2025-02-14 01:01:50,2025-02-14 01:05:02,192.302,0.061%,
987,2025-02-14 02:36:29,2025-02-14 02:36:59,30.131,0.010%,
988,2025-02-14 02:37:58,2025-02-14 02:38:21,23.295,0.007%,
989,2025-02-14 02:38:22,2025-02-14 02:39:46,83.245,0.026%,
990,2025-02-14 04:12:34,2025-02-14 04:14:28,113.587,0.036%,
991,2025-02-14 05:46:51,2025-02-14 05:47:09,17.6,0.006%,
992,2025-02-14 05:47:13,2025-02-14 05:49:08,115.003,0.037%,
993,2025-02-14 07:21:27,2025-02-14 07:23:47,140.095,0.044%,
994,2025-02-14 08:56:05,2025-02-14 08:58:40,154.788,0.049%,
995,2025-02-14 10:30:23,2025-02-14 10:30:45,22.702,0.007%,
996,2025-02-14 10:30:46,2025-02-14 10:32:42,116.115,0.037%,
997,2025-02-14 10:32:43,2025-02-14 10:33:28,44.719,0.014%,
998,2025-02-14 12:05:00,2025-02-14 12:08:13,192.863,0.061%,
999,2025-02-14 13:39:39,2025-02-14 13:39:49,10.14,0.003%,
1000,2025-02-14 13:41:08,2025-02-14 13:42:56,108.523,0.034%,
1001,2025-02-14 15:15:44,2025-02-14 15:17:38,113.884,0.036%,
1002,2025-02-14 16:50:01,2025-02-14 16:50:21,19.818,0.006%,
1003,2025-02-14 16:50:23,2025-02-14 16:52:18,114.951,0.037%,
1004,2025-02-14 18:24:37,2025-02-14 18:26:59,142.261,0.045%,
1005,2025-02-14 19:59:16,2025-02-14 20:01:09,113.013,0.036%,
1006,2025-02-14 20:01:09,2025-02-14 20:01:51,42.129,0.013%,
1007,2025-02-14 21:33:33,2025-02-14 21:36:39,185.962,0.059%,
1008,2025-02-14 23:08:10,2025-02-14 23:11:23,193.392,0.061%,
1009,2025-02-15 00:44:17,2025-02-15 00:46:07,109.319,0.035%,
1010,2025-02-15 02:18:54,2025-02-15 02:20:48,114.147,0.036%,
