3UCubedIntegratedSim/Reports & Plots/North Cusp/NorthCusp CSV/NorthCusp_Sat8.csv

Number,Coverage Start (UTCG),Coverage End (UTCG),Duration (sec),Percent,
1,2025-01-01 16:23:20,2025-01-01 16:27:21,241.103,0.077%,
2,2025-01-01 17:58:15,2025-01-01 18:02:02,226.573,0.072%,
3,2025-01-01 19:33:03,2025-01-01 19:36:42,219.081,0.070%,
4,2025-01-01 21:07:35,2025-01-01 21:11:21,226.32,0.072%,
5,2025-01-01 22:42:30,2025-01-01 22:45:59,208.946,0.066%,
6,2025-01-02 00:17:25,2025-01-02 00:20:26,181.488,0.058%,
7,2025-01-02 00:21:04,2025-01-02 00:21:08,4.413,0.001%,
8,2025-01-02 01:51:50,2025-01-02 01:55:50,239.804,0.076%,
9,2025-01-02 03:26:45,2025-01-02 03:30:31,225.881,0.072%,
10,2025-01-02 05:01:40,2025-01-02 05:05:12,211.888,0.067%,
11,2025-01-02 06:36:05,2025-01-02 06:39:52,226.796,0.072%,
12,2025-01-02 08:10:58,2025-01-02 08:14:31,213.552,0.068%,
13,2025-01-02 09:45:55,2025-01-02 09:49:09,193.944,0.062%,
14,2025-01-02 11:20:20,2025-01-02 11:23:37,196.53,0.062%,
15,2025-01-02 11:24:08,2025-01-02 11:24:19,10.557,0.003%,
16,2025-01-02 12:55:15,2025-01-02 12:59:00,224.855,0.071%,
17,2025-01-02 14:29:40,2025-01-02 14:33:41,241.301,0.077%,
18,2025-01-02 16:04:36,2025-01-02 16:08:22,226.635,0.072%,
19,2025-01-02 17:39:30,2025-01-02 17:43:02,211.788,0.067%,
20,2025-01-02 19:13:55,2025-01-02 19:17:41,226.06,0.072%,
21,2025-01-02 20:48:51,2025-01-02 20:52:19,208.145,0.066%,
22,2025-01-02 22:23:46,2025-01-02 22:26:47,181.894,0.058%,
23,2025-01-02 22:27:12,2025-01-02 22:27:29,16.777,0.005%,
24,2025-01-02 23:58:11,2025-01-03 00:02:11,240.071,0.076%,
25,2025-01-03 01:33:06,2025-01-03 01:36:52,226.027,0.072%,
26,2025-01-03 03:07:50,2025-01-03 03:11:32,222.125,0.070%,
27,2025-01-03 04:42:26,2025-01-03 04:46:13,226.717,0.072%,
28,2025-01-03 06:17:21,2025-01-03 06:20:52,210.656,0.067%,
29,2025-01-03 07:52:13,2025-01-03 07:55:29,196.037,0.062%,
30,2025-01-03 09:26:41,2025-01-03 09:29:58,196.976,0.063%,
31,2025-01-03 09:30:16,2025-01-03 09:30:40,23.077,0.007%,
32,2025-01-03 11:01:36,2025-01-03 11:05:21,225.066,0.071%,
33,2025-01-03 12:36:01,2025-01-03 12:40:02,241.489,0.077%,
34,2025-01-03 14:10:56,2025-01-03 14:14:43,226.672,0.072%,
35,2025-01-03 15:45:45,2025-01-03 15:49:23,217.297,0.069%,
36,2025-01-03 17:20:16,2025-01-03 17:24:02,225.742,0.072%,
37,2025-01-03 18:55:11,2025-01-03 18:58:38,207.119,0.066%,
38,2025-01-03 20:30:06,2025-01-03 20:33:08,182.289,0.058%,
39,2025-01-03 20:33:21,2025-01-03 20:33:50,29.451,0.009%,
40,2025-01-03 22:04:31,2025-01-03 22:08:31,240.325,0.076%,
41,2025-01-03 23:39:26,2025-01-03 23:43:13,226.155,0.072%,
42,2025-01-04 01:14:21,2025-01-04 01:17:53,211.889,0.067%,
43,2025-01-04 02:48:46,2025-01-04 02:52:33,226.614,0.072%,
44,2025-01-04 04:23:41,2025-01-04 04:27:12,211.252,0.067%,
45,2025-01-04 05:58:36,2025-01-04 06:01:48,191.776,0.061%,
46,2025-01-04 07:33:02,2025-01-04 07:36:19,197.408,0.063%,
47,2025-01-04 07:36:24,2025-01-04 07:37:00,35.928,0.011%,
48,2025-01-04 09:07:57,2025-01-04 09:11:42,225.266,0.071%,
49,2025-01-04 10:42:21,2025-01-04 10:46:23,241.656,0.077%,
50,2025-01-04 12:17:17,2025-01-04 12:21:03,226.691,0.072%,
51,2025-01-04 13:52:12,2025-01-04 13:55:43,211.484,0.067%,
52,2025-01-04 15:26:36,2025-01-04 15:30:22,225.358,0.072%,
53,2025-01-04 17:01:32,2025-01-04 17:04:58,205.686,0.065%,
54,2025-01-04 18:36:27,2025-01-04 18:40:11,224.064,0.071%,
55,2025-01-04 20:10:52,2025-01-04 20:14:52,240.565,0.076%,
56,2025-01-04 21:45:47,2025-01-04 21:49:33,226.262,0.072%,
57,2025-01-04 23:20:33,2025-01-04 23:24:14,220.554,0.070%,
58,2025-01-05 00:55:07,2025-01-05 00:58:53,226.472,0.072%,
59,2025-01-05 02:30:02,2025-01-05 02:33:32,209.786,0.067%,
60,2025-01-05 04:04:55,2025-01-05 04:07:58,182.17,0.058%,
61,2025-01-05 04:07:58,2025-01-05 04:08:07,8.596,0.003%,
62,2025-01-05 05:39:22,2025-01-05 05:43:21,239.164,0.076%,
63,2025-01-05 07:14:17,2025-01-05 07:18:03,225.446,0.072%,
64,2025-01-05 08:49:12,2025-01-05 08:52:44,211.67,0.067%,
65,2025-01-05 10:23:37,2025-01-05 10:27:24,226.687,0.072%,
66,2025-01-05 11:58:28,2025-01-05 12:02:04,215.37,0.068%,
67,2025-01-05 13:32:57,2025-01-05 13:36:42,224.887,0.071%,
68,2025-01-05 15:07:52,2025-01-05 15:11:08,195.623,0.062%,
69,2025-01-05 15:11:11,2025-01-05 15:11:16,4.978,0.002%,
70,2025-01-05 16:42:47,2025-01-05 16:46:32,224.312,0.071%,
71,2025-01-05 18:17:12,2025-01-05 18:21:13,240.79,0.076%,
72,2025-01-05 19:52:08,2025-01-05 19:55:54,226.357,0.072%,
73,2025-01-05 21:27:02,2025-01-05 21:30:34,211.789,0.067%,
74,2025-01-05 23:01:27,2025-01-05 23:05:14,226.289,0.072%,
75,2025-01-06 00:36:23,2025-01-06 00:39:52,209.218,0.066%,
76,2025-01-06 02:11:18,2025-01-06 02:14:19,181.068,0.057%,
77,2025-01-06 03:45:43,2025-01-06 03:49:42,239.45,0.076%,
78,2025-01-06 05:20:38,2025-01-06 05:24:23,225.618,0.072%,
79,2025-01-06 06:55:21,2025-01-06 06:59:04,223.442,0.071%,
80,2025-01-06 08:29:58,2025-01-06 08:33:45,226.659,0.072%,
81,2025-01-06 10:04:53,2025-01-06 10:08:24,211.021,0.067%,
82,2025-01-06 11:39:18,2025-01-06 11:43:02,224.312,0.071%,
83,2025-01-06 13:14:13,2025-01-06 13:17:29,196.075,0.062%,
84,2025-01-06 14:49:08,2025-01-06 14:52:53,224.547,0.071%,
85,2025-01-06 16:23:33,2025-01-06 16:27:34,241.001,0.076%,
86,2025-01-06 17:58:28,2025-01-06 18:02:15,226.43,0.072%,
87,2025-01-06 19:33:16,2025-01-06 19:36:55,218.871,0.069%,
88,2025-01-06 21:07:48,2025-01-06 21:11:34,226.065,0.072%,
89,2025-01-06 22:42:43,2025-01-06 22:46:12,208.521,0.066%,
90,2025-01-07 00:17:38,2025-01-07 00:20:40,181.474,0.058%,
91,2025-01-07 01:52:03,2025-01-07 01:56:03,239.727,0.076%,
92,2025-01-07 03:26:58,2025-01-07 03:30:44,225.769,0.072%,
93,2025-01-07 05:01:53,2025-01-07 05:05:25,211.736,0.067%,
94,2025-01-07 06:36:18,2025-01-07 06:40:05,226.603,0.072%,
95,2025-01-07 08:11:11,2025-01-07 08:14:44,213.265,0.068%,
96,2025-01-07 09:45:38,2025-01-07 09:49:22,223.588,0.071%,
97,2025-01-07 11:20:34,2025-01-07 11:23:50,196.516,0.062%,
98,2025-01-07 12:55:29,2025-01-07 12:59:13,224.769,0.071%,
99,2025-01-07 14:29:53,2025-01-07 14:33:55,241.193,0.077%,
100,2025-01-07 16:04:49,2025-01-07 16:08:35,226.485,0.072%,
101,2025-01-07 17:39:44,2025-01-07 17:43:15,211.584,0.067%,
102,2025-01-07 19:14:09,2025-01-07 19:17:54,225.783,0.072%,
103,2025-01-07 20:49:04,2025-01-07 20:52:32,207.655,0.066%,
104,2025-01-07 22:23:59,2025-01-07 22:27:01,181.872,0.058%,
105,2025-01-07 23:58:24,2025-01-08 00:02:24,239.986,0.076%,
106,2025-01-08 01:33:19,2025-01-08 01:37:05,225.909,0.072%,
107,2025-01-08 03:08:04,2025-01-08 03:11:46,221.953,0.070%,
108,2025-01-08 04:42:39,2025-01-08 04:46:26,226.515,0.072%,
109,2025-01-08 06:17:34,2025-01-08 06:21:04,210.363,0.067%,
110,2025-01-08 07:51:59,2025-01-08 07:52:20,21.139,0.007%,
111,2025-01-08 07:52:26,2025-01-08 07:55:41,195.501,0.062%,
112,2025-01-08 09:26:54,2025-01-08 09:30:11,196.959,0.063%,
113,2025-01-08 11:01:49,2025-01-08 11:05:34,224.974,0.071%,
114,2025-01-08 12:36:14,2025-01-08 12:40:15,241.375,0.077%,
115,2025-01-08 14:11:09,2025-01-08 14:14:56,226.515,0.072%,
116,2025-01-08 15:45:59,2025-01-08 15:49:36,217.069,0.069%,
117,2025-01-08 17:20:29,2025-01-08 17:24:15,225.443,0.072%,
118,2025-01-08 18:55:24,2025-01-08 18:58:51,206.515,0.066%,
119,2025-01-08 20:30:19,2025-01-08 20:33:22,182.264,0.058%,
120,2025-01-08 22:04:44,2025-01-08 22:08:45,240.237,0.076%,
121,2025-01-08 23:39:40,2025-01-08 23:43:26,226.029,0.072%,
122,2025-01-09 01:14:34,2025-01-09 01:18:06,211.717,0.067%,
123,2025-01-09 02:49:00,2025-01-09 02:52:46,226.396,0.072%,
124,2025-01-09 04:23:54,2025-01-09 04:27:25,210.917,0.067%,
125,2025-01-09 05:58:49,2025-01-09 06:02:01,191.075,0.061%,
126,2025-01-09 07:33:15,2025-01-09 07:36:32,197.388,0.063%,
127,2025-01-09 09:08:10,2025-01-09 09:11:55,225.168,0.071%,
128,2025-01-09 10:42:34,2025-01-09 10:46:36,241.536,0.077%,
129,2025-01-09 12:17:30,2025-01-09 12:21:16,226.523,0.072%,
130,2025-01-09 13:52:25,2025-01-09 13:55:56,211.254,0.067%,
131,2025-01-09 15:26:50,2025-01-09 15:30:35,225.03,0.071%,
132,2025-01-09 17:01:45,2025-01-09 17:05:00,195.158,0.062%,
133,2025-01-09 17:05:00,2025-01-09 17:05:10,9.425,0.003%,
134,2025-01-09 18:36:40,2025-01-09 18:39:43,182.647,0.058%,
135,2025-01-09 20:11:05,2025-01-09 20:15:05,240.471,0.076%,
136,2025-01-09 21:46:00,2025-01-09 21:49:46,226.129,0.072%,
137,2025-01-09 23:20:46,2025-01-09 23:24:27,220.364,0.070%,
138,2025-01-10 00:55:20,2025-01-10 00:59:06,226.238,0.072%,
139,2025-01-10 02:30:15,2025-01-10 02:33:45,209.434,0.066%,
140,2025-01-10 04:05:09,2025-01-10 04:08:11,182.164,0.058%,
141,2025-01-10 04:08:13,2025-01-10 04:08:19,6.302,0.002%,
142,2025-01-10 05:39:35,2025-01-10 05:42:53,197.818,0.063%,
143,2025-01-10 07:14:30,2025-01-10 07:18:16,225.342,0.072%,
144,2025-01-10 08:48:55,2025-01-10 08:52:57,241.68,0.077%,
145,2025-01-10 10:23:50,2025-01-10 10:27:37,226.51,0.072%,
146,2025-01-10 11:58:41,2025-01-10 12:02:17,215.111,0.068%,
147,2025-01-10 13:33:10,2025-01-10 13:36:55,224.524,0.071%,
148,2025-01-10 15:08:06,2025-01-10 15:11:21,195.612,0.062%,
149,2025-01-10 16:43:01,2025-01-10 16:46:04,183.025,0.058%,
150,2025-01-10 18:17:25,2025-01-10 18:21:26,240.69,0.076%,
151,2025-01-10 19:52:21,2025-01-10 19:56:07,226.218,0.072%,
152,2025-01-10 21:27:16,2025-01-10 21:30:47,211.603,0.067%,
153,2025-01-10 23:01:41,2025-01-10 23:05:27,226.044,0.072%,
154,2025-01-11 00:36:36,2025-01-11 00:40:05,208.825,0.066%,
155,2025-01-11 02:11:31,2025-01-11 02:14:32,181.05,0.057%,
156,2025-01-11 03:45:56,2025-01-11 03:49:14,198.236,0.063%,
157,2025-01-11 05:20:51,2025-01-11 05:24:37,225.509,0.072%,
158,2025-01-11 06:55:16,2025-01-11 06:59:17,241.803,0.077%,
159,2025-01-11 08:30:11,2025-01-11 08:33:58,226.472,0.072%,
160,2025-01-11 10:05:06,2025-01-11 10:08:37,210.76,0.067%,
161,2025-01-11 11:39:31,2025-01-11 11:43:15,223.903,0.071%,
162,2025-01-11 13:14:26,2025-01-11 13:17:42,196.061,0.062%,
163,2025-01-11 14:49:21,2025-01-11 14:52:25,183.396,0.058%,
164,2025-01-11 16:23:46,2025-01-11 16:27:47,240.895,0.076%,
165,2025-01-11 17:58:41,2025-01-11 18:02:28,226.282,0.072%,
166,2025-01-11 19:33:29,2025-01-11 19:37:08,218.662,0.069%,
167,2025-01-11 21:08:01,2025-01-11 21:11:47,225.799,0.072%,
168,2025-01-11 22:42:56,2025-01-11 22:46:25,208.076,0.066%,
169,2025-01-12 00:17:51,2025-01-12 00:20:53,181.464,0.058%,
170,2025-01-12 01:52:16,2025-01-12 01:55:35,198.653,0.063%,
171,2025-01-12 03:27:12,2025-01-12 03:30:57,225.653,0.072%,
172,2025-01-12 05:02:06,2025-01-12 05:05:38,211.583,0.067%,
173,2025-01-12 06:36:32,2025-01-12 06:40:18,226.403,0.072%,
174,2025-01-12 08:11:24,2025-01-12 08:14:57,212.972,0.068%,
175,2025-01-12 09:45:51,2025-01-12 09:49:34,223.112,0.071%,
176,2025-01-12 11:20:47,2025-01-12 11:24:03,196.499,0.062%,
177,2025-01-12 12:55:42,2025-01-12 12:58:46,183.759,0.058%,
178,2025-01-12 14:30:07,2025-01-12 14:34:08,241.084,0.076%,
179,2025-01-12 16:05:02,2025-01-12 16:08:48,226.329,0.072%,
180,2025-01-12 17:39:57,2025-01-12 17:43:28,211.374,0.067%,
181,2025-01-12 19:14:22,2025-01-12 19:18:07,225.497,0.072%,
182,2025-01-12 20:49:17,2025-01-12 20:52:44,207.126,0.066%,
183,2025-01-12 22:24:12,2025-01-12 22:27:14,181.848,0.058%,
184,2025-01-12 23:58:37,2025-01-13 00:01:56,199.06,0.063%,
185,2025-01-13 01:33:32,2025-01-13 01:37:18,225.786,0.072%,
186,2025-01-13 03:08:17,2025-01-13 03:11:59,221.78,0.070%,
187,2025-01-13 04:42:52,2025-01-13 04:46:38,226.304,0.072%,
188,2025-01-13 06:17:47,2025-01-13 06:21:17,210.059,0.067%,
189,2025-01-13 07:52:12,2025-01-13 07:55:54,222.074,0.070%,
190,2025-01-13 09:27:07,2025-01-13 09:30:24,196.939,0.062%,
191,2025-01-13 11:02:02,2025-01-13 11:05:07,184.116,0.058%,
192,2025-01-13 12:36:27,2025-01-13 12:40:28,241.256,0.077%,
193,2025-01-13 14:11:23,2025-01-13 14:15:09,226.349,0.072%,
194,2025-01-13 15:46:12,2025-01-13 15:49:49,216.834,0.069%,
195,2025-01-13 17:20:42,2025-01-13 17:24:27,225.13,0.071%,
196,2025-01-13 18:55:38,2025-01-13 18:59:04,205.851,0.065%,
197,2025-01-13 20:30:33,2025-01-13 20:33:35,182.237,0.058%,
198,2025-01-13 22:04:58,2025-01-13 22:08:17,199.459,0.063%,
199,2025-01-13 22:08:55,2025-01-13 22:08:58,2.289,0.001%,
200,2025-01-13 23:39:53,2025-01-13 23:43:39,225.901,0.072%,
201,2025-01-14 01:14:48,2025-01-14 01:18:19,211.543,0.067%,
202,2025-01-14 02:49:13,2025-01-14 02:52:59,226.173,0.072%,
203,2025-01-14 04:24:07,2025-01-14 04:27:38,210.574,0.067%,
204,2025-01-14 05:58:32,2025-01-14 06:02:13,220.567,0.070%,
205,2025-01-14 07:33:28,2025-01-14 07:36:45,197.366,0.063%,
206,2025-01-14 09:08:23,2025-01-14 09:11:27,184.466,0.059%,
207,2025-01-14 09:11:57,2025-01-14 09:12:08,11.294,0.004%,
208,2025-01-14 10:42:48,2025-01-14 10:46:49,241.411,0.077%,
209,2025-01-14 12:17:43,2025-01-14 12:21:29,226.356,0.072%,
210,2025-01-14 13:52:38,2025-01-14 13:56:09,211.017,0.067%,
211,2025-01-14 15:27:03,2025-01-14 15:30:48,224.691,0.071%,
212,2025-01-14 17:01:58,2025-01-14 17:05:13,195.148,0.062%,
213,2025-01-14 17:05:15,2025-01-14 17:05:22,7.385,0.002%,
214,2025-01-14 18:36:53,2025-01-14 18:39:56,182.617,0.058%,
215,2025-01-14 20:11:18,2025-01-14 20:14:38,199.857,0.063%,
216,2025-01-14 20:14:58,2025-01-14 20:15:18,20.43,0.007%,
217,2025-01-14 21:46:13,2025-01-14 21:49:59,225.994,0.072%,
218,2025-01-14 23:21:00,2025-01-14 23:24:40,220.172,0.070%,
219,2025-01-15 00:55:33,2025-01-15 00:59:19,226.004,0.072%,
220,2025-01-15 02:30:29,2025-01-15 02:33:58,209.07,0.066%,
221,2025-01-15 04:05:22,2025-01-15 04:08:24,182.158,0.058%,
222,2025-01-15 04:08:28,2025-01-15 04:08:30,2.292,0.001%,
223,2025-01-15 05:39:49,2025-01-15 05:43:06,197.793,0.063%,
224,2025-01-15 07:14:44,2025-01-15 07:17:48,184.806,0.059%,
225,2025-01-15 07:17:59,2025-01-15 07:18:29,29.698,0.009%,
226,2025-01-15 08:49:08,2025-01-15 08:53:10,241.548,0.077%,
227,2025-01-15 10:24:04,2025-01-15 10:27:50,226.329,0.072%,
228,2025-01-15 11:58:55,2025-01-15 12:02:29,214.849,0.068%,
229,2025-01-15 13:33:23,2025-01-15 13:37:08,224.147,0.071%,
230,2025-01-15 15:08:19,2025-01-15 15:11:34,195.6,0.062%,
231,2025-01-15 16:43:14,2025-01-15 16:46:17,182.993,0.058%,
232,2025-01-15 18:17:39,2025-01-15 18:20:59,200.243,0.064%,
233,2025-01-15 18:21:00,2025-01-15 18:21:39,39.111,0.012%,
234,2025-01-15 19:52:34,2025-01-15 19:56:20,226.075,0.072%,
235,2025-01-15 21:27:29,2025-01-15 21:31:00,211.412,0.067%,
236,2025-01-15 23:01:54,2025-01-15 23:05:40,225.788,0.072%,
237,2025-01-16 00:36:49,2025-01-16 00:40:18,208.418,0.066%,
238,2025-01-16 02:11:44,2025-01-16 02:14:45,181.031,0.057%,
239,2025-01-16 03:46:09,2025-01-16 03:49:27,198.209,0.063%,
240,2025-01-16 05:21:04,2025-01-16 05:24:50,225.397,0.072%,
241,2025-01-16 06:55:29,2025-01-16 06:59:30,241.665,0.077%,
242,2025-01-16 08:30:24,2025-01-16 08:34:11,226.28,0.072%,
243,2025-01-16 10:05:19,2025-01-16 10:08:50,210.489,0.067%,
244,2025-01-16 11:39:44,2025-01-16 11:43:27,223.474,0.071%,
245,2025-01-16 13:14:39,2025-01-16 13:17:55,196.046,0.062%,
246,2025-01-16 14:49:34,2025-01-16 14:52:38,183.358,0.058%,
247,2025-01-16 16:23:59,2025-01-16 16:28:00,240.788,0.076%,
248,2025-01-16 17:58:55,2025-01-16 18:02:41,226.133,0.072%,
249,2025-01-16 19:33:42,2025-01-16 19:37:21,218.452,0.069%,
250,2025-01-16 21:08:14,2025-01-16 21:12:00,225.528,0.072%,
251,2025-01-16 22:43:10,2025-01-16 22:46:37,207.606,0.066%,
252,2025-01-17 00:18:05,2025-01-17 00:21:06,181.452,0.058%,
253,2025-01-17 01:52:30,2025-01-17 01:55:48,198.623,0.063%,
254,2025-01-17 03:27:25,2025-01-17 03:31:10,225.538,0.072%,
255,2025-01-17 05:01:49,2025-01-17 05:05:51,241.761,0.077%,
256,2025-01-17 06:36:45,2025-01-17 06:40:31,226.201,0.072%,
257,2025-01-17 08:11:37,2025-01-17 08:15:10,212.671,0.067%,
258,2025-01-17 09:46:05,2025-01-17 09:49:47,222.611,0.071%,
259,2025-01-17 11:21:00,2025-01-17 11:24:16,196.482,0.062%,
260,2025-01-17 12:55:55,2025-01-17 12:58:59,183.722,0.058%,
261,2025-01-17 14:30:20,2025-01-17 14:34:21,240.967,0.076%,
262,2025-01-17 16:05:15,2025-01-17 16:09:01,226.172,0.072%,
263,2025-01-17 17:40:10,2025-01-17 17:43:41,211.162,0.067%,
264,2025-01-17 19:14:35,2025-01-17 19:18:20,225.203,0.071%,
265,2025-01-17 20:49:30,2025-01-17 20:52:57,206.568,0.066%,
266,2025-01-17 22:24:25,2025-01-17 22:27:27,181.824,0.058%,
267,2025-01-17 23:58:50,2025-01-18 00:02:09,199.028,0.063%,
268,2025-01-18 01:33:45,2025-01-18 01:37:31,225.662,0.072%,
269,2025-01-18 03:08:30,2025-01-18 03:12:12,221.602,0.070%,
270,2025-01-18 04:43:05,2025-01-18 04:46:51,226.092,0.072%,
271,2025-01-18 06:18:01,2025-01-18 06:21:30,209.747,0.067%,
272,2025-01-18 07:52:25,2025-01-18 07:56:06,221.45,0.070%,
273,2025-01-18 09:27:21,2025-01-18 09:30:37,196.92,0.062%,
274,2025-01-18 11:02:16,2025-01-18 11:05:20,184.071,0.058%,
275,2025-01-18 12:36:40,2025-01-18 12:40:41,241.137,0.077%,
276,2025-01-18 14:11:36,2025-01-18 14:15:22,226.188,0.072%,
277,2025-01-18 15:46:25,2025-01-18 15:50:02,216.597,0.069%,
278,2025-01-18 17:20:56,2025-01-18 17:24:40,224.815,0.071%,
279,2025-01-18 18:55:51,2025-01-18 18:59:16,205.109,0.065%,
280,2025-01-18 20:30:46,2025-01-18 20:33:48,182.21,0.058%,
281,2025-01-18 22:05:11,2025-01-18 22:08:30,199.424,0.063%,
282,2025-01-18 23:40:06,2025-01-18 23:43:52,225.771,0.072%,
283,2025-01-19 01:15:01,2025-01-19 01:18:32,211.371,0.067%,
284,2025-01-19 02:49:26,2025-01-19 02:53:12,225.947,0.072%,
285,2025-01-19 04:24:20,2025-01-19 04:27:50,210.22,0.067%,
286,2025-01-19 05:58:46,2025-01-19 06:02:16,210.499,0.067%,
287,2025-01-19 06:02:17,2025-01-19 06:02:25,8.343,0.003%,
288,2025-01-19 07:33:41,2025-01-19 07:36:58,197.343,0.063%,
289,2025-01-19 09:08:36,2025-01-19 09:11:41,184.423,0.059%,
290,2025-01-19 10:43:01,2025-01-19 10:47:02,241.284,0.077%,
291,2025-01-19 12:17:56,2025-01-19 12:21:42,226.178,0.072%,
292,2025-01-19 13:52:51,2025-01-19 13:56:22,210.778,0.067%,
293,2025-01-19 15:27:16,2025-01-19 15:31:00,224.339,0.071%,
294,2025-01-19 17:02:11,2025-01-19 17:05:27,195.139,0.062%,
295,2025-01-19 17:05:29,2025-01-19 17:05:34,4.52,0.001%,
296,2025-01-19 18:37:06,2025-01-19 18:40:09,182.587,0.058%,
297,2025-01-19 20:11:31,2025-01-19 20:14:51,199.82,0.063%,
298,2025-01-19 21:46:27,2025-01-19 21:50:12,225.857,0.072%,
299,2025-01-19 23:21:13,2025-01-19 23:24:53,219.974,0.070%,
300,2025-01-20 00:55:47,2025-01-20 00:59:32,225.764,0.072%,
301,2025-01-20 02:30:42,2025-01-20 02:34:10,208.69,0.066%,
302,2025-01-20 04:05:06,2025-01-20 04:08:37,210.998,0.067%,
303,2025-01-20 05:40:02,2025-01-20 05:43:19,197.769,0.063%,
304,2025-01-20 07:14:57,2025-01-20 07:18:02,184.761,0.059%,
305,2025-01-20 08:49:21,2025-01-20 08:53:23,241.415,0.077%,
306,2025-01-20 10:24:17,2025-01-20 10:28:03,226.146,0.072%,
307,2025-01-20 11:59:08,2025-01-20 12:02:42,214.58,0.068%,
308,2025-01-20 13:33:37,2025-01-20 13:37:20,223.755,0.071%,
309,2025-01-20 15:08:32,2025-01-20 15:11:48,195.588,0.062%,
310,2025-01-20 16:43:27,2025-01-20 16:46:30,182.96,0.058%,
311,2025-01-20 18:17:52,2025-01-20 18:21:12,200.203,0.064%,
312,2025-01-20 19:52:47,2025-01-20 19:56:33,225.932,0.072%,
313,2025-01-20 21:27:42,2025-01-20 21:31:13,211.214,0.067%,
314,2025-01-20 23:02:07,2025-01-20 23:05:53,225.53,0.072%,
315,2025-01-21 00:37:02,2025-01-21 00:40:30,207.993,0.066%,
316,2025-01-21 02:11:57,2025-01-21 02:14:58,181.011,0.057%,
317,2025-01-21 03:46:22,2025-01-21 03:49:40,198.184,0.063%,
318,2025-01-21 05:21:17,2025-01-21 05:24:23,185.097,0.059%,
319,2025-01-21 06:55:42,2025-01-21 06:59:43,241.523,0.077%,
320,2025-01-21 08:30:37,2025-01-21 08:34:24,226.088,0.072%,
321,2025-01-21 10:05:33,2025-01-21 10:09:03,210.218,0.067%,
322,2025-01-21 11:39:57,2025-01-21 11:43:40,223.026,0.071%,
323,2025-01-21 13:14:53,2025-01-21 13:18:09,196.031,0.062%,
324,2025-01-21 14:49:48,2025-01-21 14:52:51,183.322,0.058%,
325,2025-01-21 16:24:12,2025-01-21 16:27:33,200.586,0.064%,
326,2025-01-21 17:59:08,2025-01-21 18:02:54,225.981,0.072%,
327,2025-01-21 19:33:56,2025-01-21 19:37:34,218.233,0.069%,
328,2025-01-21 21:08:28,2025-01-21 21:12:13,225.247,0.071%,
329,2025-01-21 22:43:23,2025-01-21 22:46:50,207.112,0.066%,
330,2025-01-22 00:18:18,2025-01-22 00:21:19,181.433,0.058%,
331,2025-01-22 01:52:43,2025-01-22 01:56:01,198.593,0.063%,
332,2025-01-22 03:27:38,2025-01-22 03:30:43,185.423,0.059%,
333,2025-01-22 05:02:02,2025-01-22 05:06:04,241.612,0.077%,
334,2025-01-22 06:36:58,2025-01-22 06:40:44,225.997,0.072%,
335,2025-01-22 08:11:51,2025-01-22 08:15:23,212.358,0.067%,
336,2025-01-22 09:46:18,2025-01-22 09:50:00,222.077,0.070%,
337,2025-01-22 11:21:13,2025-01-22 11:24:30,196.464,0.062%,
338,2025-01-22 12:56:08,2025-01-22 12:59:12,183.683,0.058%,
339,2025-01-22 14:30:33,2025-01-22 14:33:54,200.957,0.064%,
340,2025-01-22 14:34:30,2025-01-22 14:34:34,3.706,0.001%,
341,2025-01-22 16:05:28,2025-01-22 16:09:14,226.011,0.072%,
342,2025-01-22 17:40:23,2025-01-22 17:43:54,210.945,0.067%,
343,2025-01-22 19:14:48,2025-01-22 19:18:33,224.904,0.071%,
344,2025-01-22 20:49:43,2025-01-22 20:53:09,205.955,0.065%,
345,2025-01-22 22:24:38,2025-01-22 22:27:40,181.798,0.058%,
346,2025-01-22 23:59:03,2025-01-23 00:02:22,198.995,0.063%,
347,2025-01-23 01:33:59,2025-01-23 01:37:04,185.741,0.059%,
348,2025-01-23 01:37:29,2025-01-23 01:37:44,15.504,0.005%,
349,2025-01-23 03:08:23,2025-01-23 03:12:25,241.685,0.077%,
350,2025-01-23 04:43:19,2025-01-23 04:47:04,225.875,0.072%,
351,2025-01-23 06:18:14,2025-01-23 06:21:43,209.424,0.066%,
352,2025-01-23 07:52:38,2025-01-23 07:56:19,220.749,0.070%,
353,2025-01-23 09:27:34,2025-01-23 09:30:51,196.899,0.062%,
354,2025-01-23 11:02:18,2025-01-23 11:02:23,5.794,0.002%,
355,2025-01-23 11:02:29,2025-01-23 11:05:33,184.03,0.058%,
356,2025-01-23 12:36:53,2025-01-23 12:40:15,201.325,0.064%,
357,2025-01-23 12:40:27,2025-01-23 12:40:55,27.467,0.009%,
358,2025-01-23 14:11:49,2025-01-23 14:15:35,226.018,0.072%,
359,2025-01-23 15:46:38,2025-01-23 15:50:15,216.353,0.069%,
360,2025-01-23 17:21:09,2025-01-23 17:24:53,224.485,0.071%,
361,2025-01-23 18:56:04,2025-01-23 18:59:19,194.675,0.062%,
362,2025-01-23 18:59:19,2025-01-23 18:59:28,9.186,0.003%,
363,2025-01-23 20:30:59,2025-01-23 20:34:01,182.181,0.058%,
364,2025-01-23 22:05:24,2025-01-23 22:08:43,199.388,0.063%,
365,2025-01-23 23:40:13,2025-01-23 23:43:25,192.681,0.061%,
366,2025-01-23 23:43:25,2025-01-23 23:44:05,39.578,0.013%,
367,2025-01-24 01:15:14,2025-01-24 01:18:45,211.189,0.067%,
368,2025-01-24 02:49:39,2025-01-24 02:53:25,225.714,0.072%,
369,2025-01-24 04:24:33,2025-01-24 04:28:03,209.855,0.067%,
370,2025-01-24 05:58:59,2025-01-24 06:02:29,210.497,0.067%,
371,2025-01-24 06:02:31,2025-01-24 06:02:37,5.949,0.002%,
372,2025-01-24 07:33:54,2025-01-24 07:37:12,197.32,0.063%,
373,2025-01-24 09:08:49,2025-01-24 09:11:54,184.378,0.059%,
374,2025-01-24 10:43:14,2025-01-24 10:47:15,241.155,0.077%,
375,2025-01-24 12:18:08,2025-01-24 12:21:56,227.843,0.072%,
376,2025-01-24 13:53:05,2025-01-24 13:56:35,210.531,0.067%,
377,2025-01-24 15:27:29,2025-01-24 15:31:13,223.977,0.071%,
378,2025-01-24 17:02:25,2025-01-24 17:05:40,195.128,0.062%,
379,2025-01-24 18:37:05,2025-01-24 18:40:22,196.95,0.063%,
380,2025-01-24 20:11:45,2025-01-24 20:15:04,199.781,0.063%,
381,2025-01-24 21:46:40,2025-01-24 21:50:26,225.717,0.072%,
382,2025-01-24 23:21:26,2025-01-24 23:25:06,219.773,0.070%,
383,2025-01-25 00:56:00,2025-01-25 00:59:45,225.516,0.072%,
384,2025-01-25 02:30:55,2025-01-25 02:34:23,208.3,0.066%,
385,2025-01-25 04:05:19,2025-01-25 04:08:50,210.996,0.067%,
386,2025-01-25 05:40:15,2025-01-25 05:43:33,197.742,0.063%,
387,2025-01-25 07:15:00,2025-01-25 07:18:15,194.469,0.062%,
388,2025-01-25 08:49:35,2025-01-25 08:53:36,241.277,0.077%,
389,2025-01-25 10:24:30,2025-01-25 10:28:16,225.958,0.072%,
390,2025-01-25 11:59:21,2025-01-25 12:02:55,214.307,0.068%,
391,2025-01-25 13:33:50,2025-01-25 13:37:33,223.342,0.071%,
392,2025-01-25 15:08:45,2025-01-25 15:12:01,195.574,0.062%,
393,2025-01-25 16:43:40,2025-01-25 16:46:43,182.926,0.058%,
394,2025-01-25 18:18:05,2025-01-25 18:21:25,200.16,0.064%,
395,2025-01-25 19:52:55,2025-01-25 19:56:46,230.816,0.073%,
396,2025-01-25 21:27:55,2025-01-25 21:31:26,211.015,0.067%,
397,2025-01-25 23:02:20,2025-01-25 23:06:06,225.264,0.071%,
398,2025-01-26 00:37:16,2025-01-26 00:40:43,207.544,0.066%,
399,2025-01-26 02:11:40,2025-01-26 02:15:11,211.488,0.067%,
400,2025-01-26 03:46:35,2025-01-26 03:49:54,198.152,0.063%,
401,2025-01-26 05:21:31,2025-01-26 05:24:36,185.046,0.059%,
402,2025-01-26 06:55:55,2025-01-26 06:59:56,241.378,0.077%,
403,2025-01-26 08:30:50,2025-01-26 08:34:37,226.108,0.072%,
404,2025-01-26 10:05:46,2025-01-26 10:09:16,209.934,0.067%,
405,2025-01-26 11:40:10,2025-01-26 11:43:53,222.544,0.071%,
406,2025-01-26 13:15:06,2025-01-26 13:18:22,196.015,0.062%,
407,2025-01-26 14:49:48,2025-01-26 14:53:04,196.132,0.062%,
408,2025-01-26 16:24:26,2025-01-26 16:27:46,200.541,0.064%,
409,2025-01-26 17:59:21,2025-01-26 18:03:07,225.825,0.072%,
410,2025-01-26 19:34:09,2025-01-26 19:37:47,218.011,0.069%,
411,2025-01-26 21:08:41,2025-01-26 21:12:26,224.96,0.071%,
412,2025-01-26 22:43:36,2025-01-26 22:47:03,206.579,0.066%,
413,2025-01-27 00:18:31,2025-01-27 00:21:32,181.418,0.058%,
414,2025-01-27 01:52:56,2025-01-27 01:56:15,198.56,0.063%,
415,2025-01-27 03:27:43,2025-01-27 03:30:57,193.55,0.061%,
416,2025-01-27 05:02:16,2025-01-27 05:06:17,241.464,0.077%,
417,2025-01-27 06:37:11,2025-01-27 06:40:57,225.786,0.072%,
418,2025-01-27 08:12:04,2025-01-27 08:15:36,212.04,0.067%,
419,2025-01-27 09:46:31,2025-01-27 09:50:12,221.489,0.070%,
420,2025-01-27 11:21:26,2025-01-27 11:24:43,196.444,0.062%,
421,2025-01-27 12:56:21,2025-01-27 12:59:25,183.643,0.058%,
422,2025-01-27 14:30:46,2025-01-27 14:34:07,200.908,0.064%,
423,2025-01-27 16:05:38,2025-01-27 16:09:27,229.274,0.073%,
424,2025-01-27 17:40:37,2025-01-27 17:44:07,210.722,0.067%,
425,2025-01-27 19:15:01,2025-01-27 19:18:46,224.589,0.071%,
426,2025-01-27 20:49:57,2025-01-27 20:53:22,205.278,0.065%,
427,2025-01-27 22:24:36,2025-01-27 22:27:53,197.681,0.063%,
428,2025-01-27 23:59:17,2025-01-28 00:02:36,198.96,0.063%,
429,2025-01-28 01:34:12,2025-01-28 01:37:18,185.687,0.059%,
430,2025-01-28 03:08:36,2025-01-28 03:12:38,241.523,0.077%,
431,2025-01-28 04:43:32,2025-01-28 04:47:17,225.648,0.072%,
432,2025-01-28 06:18:27,2025-01-28 06:21:56,209.092,0.066%,
433,2025-01-28 07:52:51,2025-01-28 07:56:21,209.986,0.067%,
434,2025-01-28 07:56:21,2025-01-28 07:56:31,9.955,0.003%,
435,2025-01-28 09:27:47,2025-01-28 09:31:04,196.877,0.062%,
436,2025-01-28 11:02:31,2025-01-28 11:05:46,195.278,0.062%,
437,2025-01-28 12:37:07,2025-01-28 12:40:28,201.274,0.064%,
438,2025-01-28 14:12:02,2025-01-28 14:15:48,225.847,0.072%,
439,2025-01-28 15:46:52,2025-01-28 15:50:28,216.103,0.069%,
440,2025-01-28 17:21:22,2025-01-28 17:25:06,224.143,0.071%,
441,2025-01-28 18:56:17,2025-01-28 18:59:32,194.665,0.062%,
442,2025-01-28 18:59:33,2025-01-28 18:59:40,7.081,0.002%,
443,2025-01-28 20:31:12,2025-01-28 20:34:14,182.151,0.058%,
444,2025-01-28 22:05:37,2025-01-28 22:08:56,199.35,0.063%,
445,2025-01-28 23:40:26,2025-01-28 23:43:38,192.593,0.061%,
446,2025-01-29 01:14:57,2025-01-29 01:18:58,241.556,0.077%,
447,2025-01-29 02:49:52,2025-01-29 02:53:38,225.476,0.072%,
448,2025-01-29 04:24:47,2025-01-29 04:28:16,209.472,0.066%,
449,2025-01-29 05:59:12,2025-01-29 06:02:42,210.493,0.067%,
450,2025-01-29 06:02:47,2025-01-29 06:02:48,0.914,0.000%,
451,2025-01-29 07:34:08,2025-01-29 07:37:25,197.295,0.063%,
452,2025-01-29 09:09:03,2025-01-29 09:12:07,184.332,0.059%,
453,2025-01-29 10:43:27,2025-01-29 10:46:49,201.628,0.064%,
454,2025-01-29 10:47:25,2025-01-29 10:47:28,3.581,0.001%,
455,2025-01-29 12:18:21,2025-01-29 12:22:09,227.634,0.072%,
456,2025-01-29 13:53:18,2025-01-29 13:56:48,210.278,0.067%,
457,2025-01-29 15:27:42,2025-01-29 15:31:26,223.593,0.071%,
458,2025-01-29 17:02:38,2025-01-29 17:05:53,195.115,0.062%,
459,2025-01-29 18:37:18,2025-01-29 18:40:35,196.892,0.062%,
460,2025-01-29 20:11:58,2025-01-29 20:15:17,199.74,0.063%,
461,2025-01-29 21:46:53,2025-01-29 21:49:59,186.295,0.059%,
462,2025-01-29 21:50:21,2025-01-29 21:50:39,17.839,0.006%,
463,2025-01-29 23:21:39,2025-01-29 23:25:19,219.569,0.070%,
464,2025-01-30 00:56:13,2025-01-30 00:59:58,225.261,0.071%,
465,2025-01-30 02:31:08,2025-01-30 02:34:36,207.886,0.066%,
466,2025-01-30 04:05:33,2025-01-30 04:09:03,210.989,0.067%,
467,2025-01-30 05:40:28,2025-01-30 05:43:46,197.714,0.063%,
468,2025-01-30 07:15:14,2025-01-30 07:18:28,194.393,0.062%,
469,2025-01-30 08:49:48,2025-01-30 08:53:10,201.976,0.064%,
470,2025-01-30 08:53:17,2025-01-30 08:53:49,32.275,0.010%,
471,2025-01-30 10:24:43,2025-01-30 10:28:29,225.766,0.072%,
472,2025-01-30 11:59:34,2025-01-30 12:03:08,214.023,0.068%,
473,2025-01-30 13:34:03,2025-01-30 13:37:46,222.909,0.071%,
474,2025-01-30 15:08:58,2025-01-30 15:12:14,195.559,0.062%,
475,2025-01-30 16:43:53,2025-01-30 16:46:56,182.89,0.058%,
476,2025-01-30 18:18:18,2025-01-30 18:21:38,200.117,0.064%,
477,2025-01-30 19:53:09,2025-01-30 19:56:59,230.635,0.073%,
478,2025-01-30 21:28:08,2025-01-30 21:31:39,210.811,0.067%,
479,2025-01-30 23:02:33,2025-01-30 23:06:18,224.991,0.071%,
480,2025-01-31 00:37:29,2025-01-31 00:40:56,207.068,0.066%,
481,2025-01-31 02:11:53,2025-01-31 02:15:25,211.478,0.067%,
482,2025-01-31 03:46:49,2025-01-31 03:50:07,198.121,0.063%,
483,2025-01-31 05:21:44,2025-01-31 05:24:49,184.994,0.059%,
484,2025-01-31 06:56:08,2025-01-31 07:00:10,241.231,0.077%,
485,2025-01-31 08:31:04,2025-01-31 08:34:50,225.871,0.072%,
486,2025-01-31 10:05:59,2025-01-31 10:09:29,209.645,0.067%,
487,2025-01-31 11:40:24,2025-01-31 11:44:06,222.038,0.070%,
488,2025-01-31 13:15:19,2025-01-31 13:18:35,195.997,0.062%,
489,2025-01-31 14:50:01,2025-01-31 14:53:17,196.067,0.062%,
490,2025-01-31 16:24:39,2025-01-31 16:27:59,200.495,0.064%,
491,2025-01-31 17:59:34,2025-01-31 18:03:20,225.667,0.072%,
492,2025-01-31 19:34:22,2025-01-31 19:38:00,217.785,0.069%,
493,2025-01-31 21:08:54,2025-01-31 21:12:39,224.666,0.071%,
494,2025-01-31 22:43:49,2025-01-31 22:47:15,206.013,0.065%,
495,2025-02-01 00:18:14,2025-02-01 00:18:19,5.551,0.002%,
496,2025-02-01 00:18:44,2025-02-01 00:21:46,181.401,0.058%,
497,2025-02-01 01:53:09,2025-02-01 01:56:28,198.527,0.063%,
498,2025-02-01 03:27:56,2025-02-01 03:31:10,193.466,0.061%,
499,2025-02-01 05:02:29,2025-02-01 05:06:30,241.304,0.077%,
500,2025-02-01 06:37:24,2025-02-01 06:41:10,225.571,0.072%,
501,2025-02-01 08:12:17,2025-02-01 08:15:49,211.713,0.067%,
502,2025-02-01 09:46:44,2025-02-01 09:50:25,220.854,0.070%,
503,2025-02-01 11:21:40,2025-02-01 11:24:56,196.424,0.062%,
504,2025-02-01 12:56:35,2025-02-01 12:59:38,183.602,0.058%,
505,2025-02-01 14:30:59,2025-02-01 14:34:20,200.86,0.064%,
506,2025-02-01 16:05:51,2025-02-01 16:09:40,229.075,0.073%,
507,2025-02-01 17:40:50,2025-02-01 17:44:20,210.495,0.067%,
508,2025-02-01 19:15:15,2025-02-01 19:18:59,224.271,0.071%,
509,2025-02-01 20:50:10,2025-02-01 20:53:34,204.52,0.065%,
510,2025-02-01 22:24:49,2025-02-01 22:28:07,197.626,0.063%,
511,2025-02-01 23:59:30,2025-02-02 00:02:49,198.924,0.063%,
512,2025-02-02 01:34:25,2025-02-02 01:37:31,185.627,0.059%,
513,2025-02-02 03:08:49,2025-02-02 03:12:51,241.36,0.077%,
514,2025-02-02 04:43:45,2025-02-02 04:47:30,225.422,0.072%,
515,2025-02-02 06:18:40,2025-02-02 06:22:09,208.749,0.066%,
516,2025-02-02 07:53:05,2025-02-02 07:56:35,209.985,0.067%,
517,2025-02-02 07:56:36,2025-02-02 07:56:44,8.071,0.003%,
518,2025-02-02 09:28:00,2025-02-02 09:31:17,196.854,0.062%,
519,2025-02-02 11:02:44,2025-02-02 11:05:59,195.205,0.062%,
520,2025-02-02 12:37:20,2025-02-02 12:40:41,201.223,0.064%,
521,2025-02-02 14:12:15,2025-02-02 14:16:01,225.673,0.072%,
522,2025-02-02 15:47:05,2025-02-02 15:50:41,215.848,0.068%,
523,2025-02-02 17:21:35,2025-02-02 17:25:19,223.791,0.071%,
524,2025-02-02 18:56:30,2025-02-02 18:59:45,194.655,0.062%,
525,2025-02-02 18:59:48,2025-02-02 18:59:52,3.994,0.001%,
526,2025-02-02 20:31:25,2025-02-02 20:34:28,182.121,0.058%,
527,2025-02-02 22:05:50,2025-02-02 22:09:10,199.312,0.063%,
528,2025-02-02 23:40:39,2025-02-02 23:43:52,192.501,0.061%,
529,2025-02-03 01:15:10,2025-02-03 01:19:11,241.382,0.077%,
530,2025-02-03 02:50:06,2025-02-03 02:53:51,225.237,0.071%,
531,2025-02-03 04:25:00,2025-02-03 04:28:29,209.078,0.066%,
532,2025-02-03 05:59:25,2025-02-03 06:02:56,210.488,0.067%,
533,2025-02-03 07:34:21,2025-02-03 07:37:38,197.269,0.063%,
534,2025-02-03 09:09:16,2025-02-03 09:12:20,184.286,0.058%,
535,2025-02-03 10:43:40,2025-02-03 10:47:02,201.574,0.064%,
536,2025-02-03 12:18:34,2025-02-03 12:22:22,227.416,0.072%,
537,2025-02-03 13:53:31,2025-02-03 13:57:01,210.021,0.067%,
538,2025-02-03 15:27:56,2025-02-03 15:31:39,223.201,0.071%,
539,2025-02-03 17:02:51,2025-02-03 17:06:06,195.102,0.062%,
540,2025-02-03 18:37:32,2025-02-03 18:40:49,196.83,0.062%,
541,2025-02-03 20:12:11,2025-02-03 20:15:31,199.699,0.063%,
542,2025-02-03 21:47:06,2025-02-03 21:50:12,186.234,0.059%,
543,2025-02-03 23:21:52,2025-02-03 23:25:32,219.364,0.070%,
544,2025-02-04 00:56:26,2025-02-04 01:00:11,225.002,0.071%,
545,2025-02-04 02:31:21,2025-02-04 02:34:49,207.456,0.066%,
546,2025-02-04 04:05:46,2025-02-04 04:09:17,210.978,0.067%,
547,2025-02-04 05:40:41,2025-02-04 05:43:59,197.686,0.063%,
548,2025-02-04 07:15:27,2025-02-04 07:18:41,194.313,0.062%,
549,2025-02-04 08:50:01,2025-02-04 08:53:23,201.918,0.064%,
550,2025-02-04 08:53:54,2025-02-04 08:54:02,8.173,0.003%,
551,2025-02-04 10:24:56,2025-02-04 10:28:42,225.573,0.072%,
552,2025-02-04 11:59:48,2025-02-04 12:03:21,213.736,0.068%,
553,2025-02-04 13:34:16,2025-02-04 13:37:59,222.46,0.071%,
554,2025-02-04 15:09:12,2025-02-04 15:12:27,195.543,0.062%,
555,2025-02-04 16:44:07,2025-02-04 16:47:09,182.854,0.058%,
556,2025-02-04 18:18:31,2025-02-04 18:21:52,200.073,0.063%,
557,2025-02-04 19:53:22,2025-02-04 19:56:33,191.499,0.061%,
558,2025-02-04 19:56:48,2025-02-04 19:57:12,24.686,0.008%,
559,2025-02-04 21:28:22,2025-02-04 21:31:52,210.604,0.067%,
560,2025-02-04 23:02:47,2025-02-04 23:06:31,224.711,0.071%,
561,2025-02-05 00:37:42,2025-02-05 00:41:08,206.567,0.066%,
562,2025-02-05 02:12:06,2025-02-05 02:15:38,211.468,0.067%,
563,2025-02-05 03:47:02,2025-02-05 03:50:20,198.093,0.063%,
564,2025-02-05 05:21:57,2025-02-05 05:25:02,184.942,0.059%,
565,2025-02-05 06:56:22,2025-02-05 07:00:23,241.085,0.076%,
566,2025-02-05 08:31:17,2025-02-05 08:35:03,225.632,0.072%,
567,2025-02-05 10:06:12,2025-02-05 10:09:41,209.344,0.066%,
568,2025-02-05 11:40:37,2025-02-05 11:44:18,221.496,0.070%,
569,2025-02-05 13:15:32,2025-02-05 13:18:48,195.979,0.062%,
570,2025-02-05 14:50:14,2025-02-05 14:53:30,195.999,0.062%,
571,2025-02-05 16:24:52,2025-02-05 16:28:12,200.448,0.064%,
572,2025-02-05 17:59:47,2025-02-05 18:03:33,225.507,0.072%,
573,2025-02-05 19:34:35,2025-02-05 19:38:13,217.553,0.069%,
574,2025-02-05 21:09:07,2025-02-05 21:12:52,224.364,0.071%,
575,2025-02-05 22:44:03,2025-02-05 22:47:28,205.395,0.065%,
576,2025-02-06 00:18:27,2025-02-06 00:18:49,22.695,0.007%,
577,2025-02-06 00:18:57,2025-02-06 00:21:59,181.381,0.058%,
578,2025-02-06 01:53:22,2025-02-06 01:56:41,198.494,0.063%,
579,2025-02-06 03:28:10,2025-02-06 03:31:23,193.38,0.061%,
580,2025-02-06 05:02:42,2025-02-06 05:06:43,241.146,0.077%,
581,2025-02-06 06:37:38,2025-02-06 06:41:23,225.353,0.072%,
582,2025-02-06 08:12:30,2025-02-06 08:16:02,211.375,0.067%,
583,2025-02-06 09:46:57,2025-02-06 09:50:37,220.142,0.070%,
584,2025-02-06 11:21:53,2025-02-06 11:25:09,196.405,0.062%,
585,2025-02-06 12:56:48,2025-02-06 12:59:51,183.56,0.058%,
586,2025-02-06 14:31:13,2025-02-06 14:34:33,200.81,0.064%,
587,2025-02-06 16:06:05,2025-02-06 16:09:53,228.873,0.073%,
588,2025-02-06 17:41:03,2025-02-06 17:44:33,210.262,0.067%,
589,2025-02-06 19:15:28,2025-02-06 19:19:12,223.937,0.071%,
590,2025-02-06 20:50:23,2025-02-06 20:53:37,194.188,0.062%,
591,2025-02-06 20:53:38,2025-02-06 20:53:47,8.942,0.003%,
592,2025-02-06 22:25:02,2025-02-06 22:28:20,197.57,0.063%,
593,2025-02-06 23:59:43,2025-02-07 00:03:02,198.887,0.063%,
594,2025-02-07 01:34:38,2025-02-07 01:37:44,185.568,0.059%,
595,2025-02-07 03:09:03,2025-02-07 03:13:04,241.193,0.077%,
596,2025-02-07 04:43:58,2025-02-07 04:47:43,225.189,0.071%,
597,2025-02-07 06:18:53,2025-02-07 06:22:22,208.396,0.066%,
598,2025-02-07 07:53:18,2025-02-07 07:56:48,209.981,0.067%,
599,2025-02-07 07:56:50,2025-02-07 07:56:56,5.557,0.002%,
600,2025-02-07 09:28:13,2025-02-07 09:31:30,196.83,0.062%,
601,2025-02-07 11:02:57,2025-02-07 11:06:12,195.132,0.062%,
602,2025-02-07 12:37:33,2025-02-07 12:40:54,201.17,0.064%,
603,2025-02-07 14:12:29,2025-02-07 14:16:14,225.49,0.072%,
604,2025-02-07 15:47:18,2025-02-07 15:50:54,215.59,0.068%,
605,2025-02-07 17:21:48,2025-02-07 17:25:32,223.423,0.071%,
606,2025-02-07 18:56:44,2025-02-07 18:59:58,194.643,0.062%,
607,2025-02-07 20:31:39,2025-02-07 20:34:41,182.089,0.058%,
608,2025-02-07 22:06:04,2025-02-07 22:09:23,199.272,0.063%,
609,2025-02-07 23:40:52,2025-02-07 23:44:05,192.41,0.061%,
610,2025-02-08 01:15:23,2025-02-08 01:19:24,241.205,0.077%,
611,2025-02-08 02:50:19,2025-02-08 02:54:04,224.984,0.071%,
612,2025-02-08 04:25:13,2025-02-08 04:28:42,208.667,0.066%,
613,2025-02-08 05:59:38,2025-02-08 06:03:09,210.482,0.067%,
614,2025-02-08 07:34:34,2025-02-08 07:37:51,197.242,0.063%,
615,2025-02-08 09:09:29,2025-02-08 09:12:33,184.238,0.058%,
616,2025-02-08 10:43:54,2025-02-08 10:47:15,201.517,0.064%,
617,2025-02-08 12:18:47,2025-02-08 12:22:35,227.195,0.072%,
618,2025-02-08 13:53:44,2025-02-08 13:57:14,209.756,0.067%,
619,2025-02-08 15:28:09,2025-02-08 15:31:52,222.78,0.071%,
620,2025-02-08 17:03:04,2025-02-08 17:06:19,195.088,0.062%,
621,2025-02-08 18:37:45,2025-02-08 18:41:02,196.769,0.062%,
622,2025-02-08 20:12:24,2025-02-08 20:15:44,199.656,0.063%,
623,2025-02-08 21:47:19,2025-02-08 21:50:26,186.172,0.059%,
624,2025-02-08 23:22:06,2025-02-08 23:25:45,219.153,0.070%,
625,2025-02-09 00:56:39,2025-02-09 01:00:24,224.734,0.071%,
626,2025-02-09 02:31:35,2025-02-09 02:35:02,207.002,0.066%,
627,2025-02-09 04:05:59,2025-02-09 04:09:30,210.973,0.067%,
628,2025-02-09 05:40:55,2025-02-09 05:44:12,197.656,0.063%,
629,2025-02-09 07:15:40,2025-02-09 07:18:54,194.234,0.062%,
630,2025-02-09 08:50:14,2025-02-09 08:53:36,201.858,0.064%,
631,2025-02-09 08:54:10,2025-02-09 08:54:15,4.711,0.002%,
632,2025-02-09 10:25:10,2025-02-09 10:28:55,225.373,0.072%,
633,2025-02-09 12:00:01,2025-02-09 12:03:34,213.44,0.068%,
634,2025-02-09 13:34:29,2025-02-09 13:38:11,221.971,0.070%,
635,2025-02-09 15:09:25,2025-02-09 15:12:40,195.526,0.062%,
636,2025-02-09 16:44:20,2025-02-09 16:47:23,182.816,0.058%,
637,2025-02-09 18:18:45,2025-02-09 18:22:05,200.027,0.063%,
638,2025-02-09 19:53:35,2025-02-09 19:56:46,191.401,0.061%,
639,2025-02-09 19:57:02,2025-02-09 19:57:25,23.088,0.007%,
640,2025-02-09 21:28:35,2025-02-09 21:32:05,210.391,0.067%,
641,2025-02-09 23:03:00,2025-02-09 23:06:44,224.423,0.071%,
642,2025-02-10 00:37:55,2025-02-10 00:41:21,206.03,0.065%,
643,2025-02-10 02:12:19,2025-02-10 02:15:51,211.456,0.067%,
644,2025-02-10 03:47:15,2025-02-10 03:50:33,198.058,0.063%,
645,2025-02-10 05:22:10,2025-02-10 05:25:15,184.887,0.059%,
646,2025-02-10 06:56:35,2025-02-10 07:00:36,240.928,0.076%,
647,2025-02-10 08:31:30,2025-02-10 08:35:16,225.39,0.072%,
648,2025-02-10 10:06:25,2025-02-10 10:09:54,209.035,0.066%,
649,2025-02-10 11:40:50,2025-02-10 11:44:31,220.902,0.070%,
650,2025-02-10 13:15:45,2025-02-10 13:19:01,195.958,0.062%,
651,2025-02-10 14:50:28,2025-02-10 14:53:44,195.932,0.062%,
652,2025-02-10 16:25:05,2025-02-10 16:28:26,200.399,0.064%,
653,2025-02-10 18:00:01,2025-02-10 18:03:46,225.342,0.072%,
654,2025-02-10 19:34:48,2025-02-10 19:38:26,217.317,0.069%,
655,2025-02-10 21:09:20,2025-02-10 21:13:04,224.047,0.071%,
656,2025-02-10 22:44:16,2025-02-10 22:47:40,204.706,0.065%,
657,2025-02-11 00:18:40,2025-02-11 00:18:59,19.392,0.006%,
658,2025-02-11 00:19:11,2025-02-11 00:22:12,181.363,0.058%,
659,2025-02-11 01:53:36,2025-02-11 01:56:54,198.458,0.063%,
660,2025-02-11 03:28:23,2025-02-11 03:31:36,193.295,0.061%,
661,2025-02-11 05:02:55,2025-02-11 05:06:56,240.988,0.076%,
662,2025-02-11 06:37:51,2025-02-11 06:41:36,225.126,0.071%,
663,2025-02-11 08:12:44,2025-02-11 08:16:15,211.028,0.067%,
664,2025-02-11 09:47:10,2025-02-11 09:50:40,209.48,0.066%,
665,2025-02-11 09:50:40,2025-02-11 09:50:50,9.729,0.003%,
666,2025-02-11 11:22:06,2025-02-11 11:25:22,196.382,0.062%,
667,2025-02-11 12:57:01,2025-02-11 13:00:05,183.516,0.058%,
668,2025-02-11 14:31:26,2025-02-11 14:34:46,200.758,0.064%,
669,2025-02-11 16:06:18,2025-02-11 16:10:07,228.671,0.073%,
670,2025-02-11 17:41:16,2025-02-11 17:44:46,210.024,0.067%,
671,2025-02-11 19:15:41,2025-02-11 19:19:25,223.595,0.071%,
672,2025-02-11 20:50:36,2025-02-11 20:53:50,194.178,0.062%,
673,2025-02-11 20:53:52,2025-02-11 20:53:59,6.757,0.002%,
674,2025-02-11 22:25:15,2025-02-11 22:28:33,197.515,0.063%,
675,2025-02-11 23:59:56,2025-02-12 00:03:15,198.849,0.063%,
676,2025-02-12 01:34:51,2025-02-12 01:37:57,185.508,0.059%,
677,2025-02-12 03:09:16,2025-02-12 03:13:17,241.021,0.076%,
678,2025-02-12 04:44:11,2025-02-12 04:47:56,224.951,0.071%,
679,2025-02-12 06:19:07,2025-02-12 06:22:35,208.023,0.066%,
680,2025-02-12 07:53:31,2025-02-12 07:57:01,209.977,0.067%,
681,2025-02-12 09:28:27,2025-02-12 09:31:43,196.804,0.062%,
682,2025-02-12 11:03:10,2025-02-12 11:06:26,195.061,0.062%,
683,2025-02-12 12:37:46,2025-02-12 12:41:07,201.115,0.064%,
684,2025-02-12 14:12:42,2025-02-12 14:16:27,225.308,0.071%,
685,2025-02-12 15:47:31,2025-02-12 15:51:07,215.325,0.068%,
686,2025-02-12 17:22:02,2025-02-12 17:25:45,223.04,0.071%,
687,2025-02-12 18:56:57,2025-02-12 19:00:12,194.631,0.062%,
688,2025-02-12 20:31:52,2025-02-12 20:34:54,182.056,0.058%,
689,2025-02-12 22:06:17,2025-02-12 22:09:36,199.23,0.063%,
690,2025-02-12 23:41:06,2025-02-12 23:44:18,192.318,0.061%,
691,2025-02-13 01:15:36,2025-02-13 01:19:37,241.027,0.076%,
692,2025-02-13 02:50:32,2025-02-13 02:54:17,224.731,0.071%,
693,2025-02-13 04:25:26,2025-02-13 04:28:55,208.242,0.066%,
694,2025-02-13 05:59:52,2025-02-13 06:03:22,210.475,0.067%,
695,2025-02-13 07:34:47,2025-02-13 07:38:04,197.214,0.063%,
696,2025-02-13 09:09:42,2025-02-13 09:12:46,184.188,0.058%,
697,2025-02-13 10:44:07,2025-02-13 10:47:28,201.46,0.064%,
698,2025-02-13 12:19:01,2025-02-13 12:22:48,226.969,0.072%,
699,2025-02-13 13:53:57,2025-02-13 13:57:27,209.485,0.066%,
700,2025-02-13 15:28:22,2025-02-13 15:32:04,222.347,0.071%,
701,2025-02-13 17:03:17,2025-02-13 17:06:33,195.073,0.062%,
702,2025-02-13 18:37:58,2025-02-13 18:41:15,196.706,0.062%,
703,2025-02-13 20:12:37,2025-02-13 20:15:57,199.613,0.063%,
704,2025-02-13 21:47:33,2025-02-13 21:50:39,186.104,0.059%,
705,2025-02-13 21:51:17,2025-02-13 21:51:18,0.991,0.000%,
706,2025-02-13 23:22:19,2025-02-13 23:25:58,218.937,0.069%,
707,2025-02-14 00:56:53,2025-02-14 01:00:37,224.46,0.071%,
708,2025-02-14 02:31:48,2025-02-14 02:35:14,206.527,0.066%,
709,2025-02-14 04:06:12,2025-02-14 04:09:43,210.959,0.067%,
710,2025-02-14 05:41:08,2025-02-14 05:44:25,197.626,0.063%,
711,2025-02-14 07:15:53,2025-02-14 07:19:07,194.153,0.062%,
712,2025-02-14 08:50:27,2025-02-14 08:53:49,201.798,0.064%,
713,2025-02-14 08:54:07,2025-02-14 08:54:28,20.954,0.007%,
714,2025-02-14 10:25:23,2025-02-14 10:29:08,225.171,0.071%,
715,2025-02-14 12:00:14,2025-02-14 12:03:47,213.135,0.068%,
716,2025-02-14 13:34:43,2025-02-14 13:38:24,221.46,0.070%,
717,2025-02-14 15:09:38,2025-02-14 15:12:54,195.508,0.062%,
718,2025-02-14 16:44:33,2025-02-14 16:47:36,182.778,0.058%,
719,2025-02-14 18:18:58,2025-02-14 18:22:18,199.985,0.063%,
720,2025-02-14 19:53:48,2025-02-14 19:57:38,230.075,0.073%,
721,2025-02-14 21:28:48,2025-02-14 21:32:18,210.176,0.067%,
722,2025-02-14 23:03:13,2025-02-14 23:06:57,224.13,0.071%,
723,2025-02-15 00:38:08,2025-02-15 00:41:34,205.457,0.065%,
724,2025-02-15 02:12:33,2025-02-15 02:16:04,211.444,0.067%,
725,2025-02-15 03:47:28,2025-02-15 03:50:46,198.025,0.063%,
726,2025-02-15 05:22:23,2025-02-15 05:25:28,184.832,0.059%,
727,2025-02-15 06:56:48,2025-02-15 07:00:49,240.776,0.076%,
728,2025-02-15 08:31:43,2025-02-15 08:35:29,225.137,0.071%,
729,2025-02-15 10:06:39,2025-02-15 10:10:07,208.721,0.066%,
730,2025-02-15 11:41:03,2025-02-15 11:44:43,220.255,0.070%,
731,2025-02-15 13:15:59,2025-02-15 13:19:15,195.938,0.062%,
732,2025-02-15 14:50:41,2025-02-15 14:53:57,195.865,0.062%,
733,2025-02-15 16:25:18,2025-02-15 16:28:39,200.351,0.064%,
734,2025-02-15 18:00:14,2025-02-15 18:03:59,225.176,0.071%,
735,2025-02-15 19:35:02,2025-02-15 19:38:39,217.076,0.069%,
736,2025-02-15 21:09:34,2025-02-15 21:13:17,223.728,0.071%,
737,2025-02-15 22:44:29,2025-02-15 22:47:53,203.937,0.065%,
738,2025-02-16 00:19:24,2025-02-16 00:22:25,181.34,0.058%,
739,2025-02-16 01:53:49,2025-02-16 01:57:07,198.422,0.063%,
740,2025-02-16 03:28:36,2025-02-16 03:31:49,193.206,0.061%,
741,2025-02-16 05:03:08,2025-02-16 05:07:09,240.824,0.076%,
742,2025-02-16 06:38:04,2025-02-16 06:41:49,224.902,0.071%,
743,2025-02-16 08:12:57,2025-02-16 08:16:27,210.67,0.067%,
744,2025-02-16 09:47:24,2025-02-16 09:50:53,209.478,0.066%,
745,2025-02-16 09:50:54,2025-02-16 09:51:02,7.789,0.003%,
746,2025-02-16 11:22:19,2025-02-16 11:25:36,196.359,0.062%,
747,2025-02-16 12:57:14,2025-02-16 13:00:18,183.472,0.058%,
748,2025-02-16 14:31:39,2025-02-16 14:35:00,200.706,0.064%,
749,2025-02-16 16:06:31,2025-02-16 16:10:20,228.461,0.072%,
750,2025-02-16 17:41:29,2025-02-16 17:44:59,209.782,0.067%,
751,2025-02-16 19:15:54,2025-02-16 19:19:37,223.241,0.071%,
752,2025-02-16 20:50:50,2025-02-16 20:54:04,194.167,0.062%,
753,2025-02-16 20:54:07,2025-02-16 20:54:10,3.384,0.001%,
754,2025-02-16 22:25:29,2025-02-16 22:28:46,197.455,0.063%,
755,2025-02-17 00:00:09,2025-02-17 00:03:28,198.811,0.063%,
756,2025-02-17 01:35:05,2025-02-17 01:38:10,185.448,0.059%,
757,2025-02-17 03:09:29,2025-02-17 03:13:30,240.849,0.076%,
758,2025-02-17 04:44:25,2025-02-17 04:48:09,224.71,0.071%,
759,2025-02-17 06:19:20,2025-02-17 06:22:47,207.643,0.066%,
760,2025-02-17 07:53:44,2025-02-17 07:57:14,209.972,0.067%,
761,2025-02-17 09:28:40,2025-02-17 09:31:57,196.779,0.062%,
762,2025-02-17 11:03:24,2025-02-17 11:06:39,194.983,0.062%,
763,2025-02-17 12:37:59,2025-02-17 12:41:21,201.061,0.064%,
764,2025-02-17 14:12:55,2025-02-17 14:16:40,225.123,0.071%,
765,2025-02-17 15:47:44,2025-02-17 15:51:19,215.053,0.068%,
766,2025-02-17 17:22:15,2025-02-17 17:25:57,222.642,0.071%,
767,2025-02-17 18:57:10,2025-02-17 19:00:25,194.618,0.062%,
768,2025-02-17 20:32:05,2025-02-17 20:35:07,182.022,0.058%,
769,2025-02-17 22:06:30,2025-02-17 22:09:49,199.189,0.063%,
770,2025-02-17 23:41:19,2025-02-17 23:44:31,192.221,0.061%,
771,2025-02-18 01:15:49,2025-02-18 01:16:17,27.602,0.009%,
772,2025-02-18 01:16:20,2025-02-18 01:19:50,210.24,0.067%,
773,2025-02-18 02:50:45,2025-02-18 02:54:30,224.47,0.071%,
774,2025-02-18 04:25:39,2025-02-18 04:29:07,207.795,0.066%,
775,2025-02-18 06:00:05,2025-02-18 06:03:35,210.468,0.067%,
776,2025-02-18 07:35:00,2025-02-18 07:38:18,197.19,0.063%,
777,2025-02-18 09:09:55,2025-02-18 09:13:00,184.139,0.058%,
778,2025-02-18 10:44:20,2025-02-18 10:47:41,201.402,0.064%,
779,2025-02-18 10:48:08,2025-02-18 10:48:20,12.312,0.004%,
780,2025-02-18 12:19:14,2025-02-18 12:23:01,226.739,0.072%,
781,2025-02-18 13:54:11,2025-02-18 13:57:40,209.209,0.066%,
782,2025-02-18 15:28:35,2025-02-18 15:32:17,221.893,0.070%,
783,2025-02-18 17:03:31,2025-02-18 17:06:46,195.057,0.062%,
784,2025-02-18 18:38:11,2025-02-18 18:41:28,196.639,0.062%,
785,2025-02-18 20:12:50,2025-02-18 20:16:10,199.569,0.063%,
786,2025-02-18 21:47:46,2025-02-18 21:50:52,186.04,0.059%,
787,2025-02-18 21:50:57,2025-02-18 21:51:31,33.727,0.011%,
788,2025-02-18 23:22:32,2025-02-18 23:26:11,218.72,0.069%,
789,2025-02-19 00:57:06,2025-02-19 01:00:50,224.181,0.071%,
790,2025-02-19 02:32:01,2025-02-19 02:35:27,206.022,0.065%,
791,2025-02-19 04:06:25,2025-02-19 04:09:56,210.949,0.067%,
792,2025-02-19 05:41:21,2025-02-19 05:44:39,197.595,0.063%,
793,2025-02-19 07:16:06,2025-02-19 07:19:21,194.069,0.062%,
794,2025-02-19 08:50:41,2025-02-19 08:54:41,240.553,0.076%,
795,2025-02-19 10:25:36,2025-02-19 10:29:21,224.962,0.071%,
796,2025-02-19 12:00:27,2025-02-19 12:04:00,212.819,0.068%,
797,2025-02-19 13:34:56,2025-02-19 13:38:37,220.915,0.070%,
798,2025-02-19 15:09:51,2025-02-19 15:13:07,195.489,0.062%,
799,2025-02-19 16:44:46,2025-02-19 16:47:49,182.738,0.058%,
800,2025-02-19 18:19:11,2025-02-19 18:22:31,199.934,0.063%,
801,2025-02-19 19:54:02,2025-02-19 19:57:51,229.881,0.073%,
802,2025-02-19 21:29:01,2025-02-19 21:32:31,209.958,0.067%,
803,2025-02-19 23:03:26,2025-02-19 23:07:10,223.824,0.071%,
804,2025-02-20 00:38:22,2025-02-20 00:41:46,204.828,0.065%,
805,2025-02-20 02:12:46,2025-02-20 02:16:17,211.431,0.067%,
806,2025-02-20 03:47:41,2025-02-20 03:50:59,197.991,0.063%,
807,2025-02-20 05:22:37,2025-02-20 05:25:41,184.777,0.059%,
808,2025-02-20 06:57:01,2025-02-20 07:01:02,240.619,0.076%,
809,2025-02-20 08:31:57,2025-02-20 08:35:41,224.883,0.071%,
810,2025-02-20 10:06:52,2025-02-20 10:10:20,208.396,0.066%,
811,2025-02-20 11:41:16,2025-02-20 11:44:56,219.537,0.070%,
812,2025-02-20 13:16:12,2025-02-20 13:19:28,195.917,0.062%,
813,2025-02-20 14:50:54,2025-02-20 14:54:10,195.789,0.062%,
814,2025-02-20 16:25:32,2025-02-20 16:28:52,200.301,0.064%,
815,2025-02-20 18:00:27,2025-02-20 18:04:12,225.005,0.071%,
816,2025-02-20 19:35:15,2025-02-20 19:38:52,216.833,0.069%,
817,2025-02-20 21:09:47,2025-02-20 21:13:30,223.395,0.071%,
818,2025-02-20 22:44:42,2025-02-20 22:47:56,193.711,0.061%,
819,2025-02-20 22:47:56,2025-02-20 22:48:05,8.695,0.003%,
820,2025-02-21 00:19:37,2025-02-21 00:22:38,181.316,0.058%,
821,2025-02-21 01:54:02,2025-02-21 01:57:20,198.386,0.063%,
822,2025-02-21 03:28:49,2025-02-21 03:32:02,193.116,0.061%,
823,2025-02-21 05:03:22,2025-02-21 05:07:22,240.656,0.076%,
824,2025-02-21 06:38:17,2025-02-21 06:42:02,224.667,0.071%,
825,2025-02-21 08:13:10,2025-02-21 08:16:40,210.299,0.067%,
826,2025-02-21 09:47:37,2025-02-21 09:51:06,209.475,0.066%,
827,2025-02-21 09:51:09,2025-02-21 09:51:14,5.143,0.002%,
828,2025-02-21 11:22:32,2025-02-21 11:25:49,196.335,0.062%,
829,2025-02-21 12:57:27,2025-02-21 13:00:31,183.427,0.058%,
830,2025-02-21 14:31:52,2025-02-21 14:35:13,200.653,0.064%,
831,2025-02-21 16:06:44,2025-02-21 16:10:33,228.249,0.072%,
832,2025-02-21 17:41:43,2025-02-21 17:45:12,209.534,0.066%,
833,2025-02-21 19:16:07,2025-02-21 19:19:50,222.872,0.071%,
834,2025-02-21 20:51:03,2025-02-21 20:54:17,194.156,0.062%,
835,2025-02-21 22:25:42,2025-02-21 22:28:59,197.395,0.063%,
836,2025-02-22 00:00:23,2025-02-22 00:03:41,198.771,0.063%,
837,2025-02-22 01:35:18,2025-02-22 01:38:23,185.386,0.059%,
838,2025-02-22 03:09:42,2025-02-22 03:13:43,240.671,0.076%,
839,2025-02-22 04:44:38,2025-02-22 04:48:22,224.46,0.071%,
840,2025-02-22 06:19:33,2025-02-22 06:23:00,207.244,0.066%,
841,2025-02-22 07:53:57,2025-02-22 07:57:27,209.966,0.067%,
842,2025-02-22 09:28:53,2025-02-22 09:32:10,196.752,0.062%,
843,2025-02-22 11:03:37,2025-02-22 11:06:52,194.905,0.062%,
844,2025-02-22 12:38:13,2025-02-22 12:41:34,201.004,0.064%,
845,2025-02-22 12:41:58,2025-02-22 12:42:13,14.7,0.005%,
846,2025-02-22 14:13:08,2025-02-22 14:16:53,224.933,0.071%,
847,2025-02-22 15:47:58,2025-02-22 15:51:32,214.772,0.068%,
848,2025-02-22 17:22:28,2025-02-22 17:26:10,222.224,0.071%,
849,2025-02-22 18:57:23,2025-02-22 19:00:38,194.603,0.062%,
850,2025-02-22 20:32:18,2025-02-22 20:35:20,181.987,0.058%,
851,2025-02-22 22:06:43,2025-02-22 22:10:02,199.146,0.063%,
852,2025-02-22 23:41:32,2025-02-22 23:44:44,192.126,0.061%,
853,2025-02-22 23:44:46,2025-02-22 23:45:23,37.3,0.012%,
854,2025-02-23 01:16:33,2025-02-23 01:20:03,210.042,0.067%,
855,2025-02-23 02:50:58,2025-02-23 02:54:43,224.204,0.071%,
856,2025-02-23 04:25:53,2025-02-23 04:29:20,207.325,0.066%,
857,2025-02-23 06:00:18,2025-02-23 06:03:48,210.459,0.067%,
858,2025-02-23 07:35:14,2025-02-23 07:38:31,197.16,0.063%,
859,2025-02-23 09:10:09,2025-02-23 09:13:13,184.088,0.058%,
860,2025-02-23 10:44:33,2025-02-23 10:48:34,240.322,0.076%,
861,2025-02-23 12:19:27,2025-02-23 12:23:14,226.506,0.072%,
862,2025-02-23 13:54:24,2025-02-23 13:57:53,208.92,0.066%,
863,2025-02-23 15:28:48,2025-02-23 15:32:30,221.404,0.070%,
864,2025-02-23 17:03:44,2025-02-23 17:06:59,195.039,0.062%,
865,2025-02-23 18:38:25,2025-02-23 18:38:29,4.749,0.002%,
866,2025-02-23 18:38:39,2025-02-23 18:41:41,182.344,0.058%,
867,2025-02-23 20:13:04,2025-02-23 20:16:23,199.523,0.063%,
868,2025-02-23 21:47:59,2025-02-23 21:51:44,224.824,0.071%,
869,2025-02-23 23:22:45,2025-02-23 23:26:24,218.493,0.069%,
870,2025-02-24 00:57:19,2025-02-24 01:01:03,223.888,0.071%,
871,2025-02-24 02:32:14,2025-02-24 02:35:40,205.485,0.065%,
872,2025-02-24 04:06:38,2025-02-24 04:10:09,210.941,0.067%,
873,2025-02-24 05:41:34,2025-02-24 05:44:52,197.562,0.063%,
874,2025-02-24 07:16:29,2025-02-24 07:19:34,184.407,0.059%,
875,2025-02-24 08:50:54,2025-02-24 08:54:54,240.402,0.076%,
876,2025-02-24 10:25:49,2025-02-24 10:29:34,224.752,0.071%,
877,2025-02-24 12:00:40,2025-02-24 12:04:13,212.498,0.067%,
878,2025-02-24 13:35:09,2025-02-24 13:38:49,220.314,0.070%,
879,2025-02-24 15:10:04,2025-02-24 15:13:20,195.469,0.062%,
880,2025-02-24 16:44:59,2025-02-24 16:48:02,182.697,0.058%,
881,2025-02-24 18:19:24,2025-02-24 18:22:44,199.885,0.063%,
882,2025-02-24 19:54:20,2025-02-24 19:58:04,224.841,0.071%,
883,2025-02-24 21:29:15,2025-02-24 21:32:44,209.733,0.067%,
884,2025-02-24 23:03:39,2025-02-24 23:07:23,223.507,0.071%,
885,2025-02-25 00:38:35,2025-02-25 00:41:59,204.136,0.065%,
886,2025-02-25 02:12:59,2025-02-25 02:13:02,2.669,0.001%,
887,2025-02-25 02:13:30,2025-02-25 02:16:30,180.841,0.057%,
888,2025-02-25 03:47:55,2025-02-25 03:51:13,197.955,0.063%,
889,2025-02-25 05:22:50,2025-02-25 05:25:55,184.719,0.059%,
890,2025-02-25 06:57:14,2025-02-25 07:01:15,240.452,0.076%,
891,2025-02-25 08:32:10,2025-02-25 08:35:54,224.607,0.071%,
892,2025-02-25 10:07:05,2025-02-25 10:10:33,208.061,0.066%,
893,2025-02-25 11:41:30,2025-02-25 11:44:59,208.971,0.066%,
894,2025-02-25 11:44:59,2025-02-25 11:45:08,9.501,0.003%,
895,2025-02-25 13:16:25,2025-02-25 13:19:41,195.893,0.062%,
896,2025-02-25 14:51:20,2025-02-25 14:54:23,183.039,0.058%,
897,2025-02-25 16:25:45,2025-02-25 16:29:05,200.249,0.064%,
898,2025-02-25 18:00:40,2025-02-25 18:04:25,224.831,0.071%,
899,2025-02-25 19:35:28,2025-02-25 19:39:05,216.579,0.069%,
900,2025-02-25 21:10:00,2025-02-25 21:13:43,223.051,0.071%,
901,2025-02-25 22:44:55,2025-02-25 22:48:09,193.701,0.061%,
902,2025-02-25 22:48:11,2025-02-25 22:48:17,6.422,0.002%,
903,2025-02-26 00:19:50,2025-02-26 00:22:51,181.293,0.058%,
904,2025-02-26 01:54:15,2025-02-26 01:57:34,198.347,0.063%,
905,2025-02-26 03:29:10,2025-02-26 03:32:15,185.027,0.059%,
906,2025-02-26 03:32:51,2025-02-26 03:32:55,3.523,0.001%,
907,2025-02-26 05:03:35,2025-02-26 05:07:35,240.484,0.076%,
908,2025-02-26 06:38:30,2025-02-26 06:42:15,224.427,0.071%,
909,2025-02-26 08:13:23,2025-02-26 08:16:53,209.913,0.067%,
910,2025-02-26 09:47:50,2025-02-26 09:51:20,209.47,0.066%,
911,2025-02-26 11:22:46,2025-02-26 11:26:02,196.309,0.062%,
912,2025-02-26 12:57:41,2025-02-26 13:00:44,183.38,0.058%,
913,2025-02-26 14:32:05,2025-02-26 14:35:26,200.601,0.064%,
914,2025-02-26 14:35:38,2025-02-26 14:36:05,27.091,0.009%,
915,2025-02-26 16:07:01,2025-02-26 16:10:46,224.803,0.071%,
916,2025-02-26 17:41:56,2025-02-26 17:45:25,209.279,0.066%,
917,2025-02-26 19:16:21,2025-02-26 19:20:03,222.488,0.071%,
918,2025-02-26 20:51:16,2025-02-26 20:54:30,194.143,0.062%,
919,2025-02-26 22:26:11,2025-02-26 22:29:12,181.588,0.058%,
920,2025-02-27 00:00:36,2025-02-27 00:03:55,198.73,0.063%,
921,2025-02-27 01:35:31,2025-02-27 01:39:16,224.581,0.071%,
922,2025-02-27 03:09:55,2025-02-27 03:13:56,240.49,0.076%,
923,2025-02-27 04:44:51,2025-02-27 04:48:35,224.203,0.071%,
924,2025-02-27 06:19:46,2025-02-27 06:23:13,206.826,0.066%,
925,2025-02-27 07:54:11,2025-02-27 07:57:41,209.958,0.067%,
926,2025-02-27 09:29:06,2025-02-27 09:32:23,196.723,0.062%,
927,2025-02-27 11:04:01,2025-02-27 11:07:05,183.709,0.058%,
928,2025-02-27 12:38:26,2025-02-27 12:42:26,240.086,0.076%,
929,2025-02-27 14:13:21,2025-02-27 14:17:06,224.74,0.071%,
930,2025-02-27 15:48:11,2025-02-27 15:51:45,214.489,0.068%,
931,2025-02-27 17:22:41,2025-02-27 17:26:23,221.788,0.070%,
932,2025-02-27 18:57:37,2025-02-27 19:00:51,194.587,0.062%,
933,2025-02-27 20:32:31,2025-02-27 20:35:33,181.951,0.058%,
934,2025-02-27 22:06:56,2025-02-27 22:10:15,199.102,0.063%,
935,2025-02-27 23:41:52,2025-02-27 23:45:36,224.635,0.071%,
936,2025-02-28 01:16:47,2025-02-28 01:20:16,209.838,0.067%,
937,2025-02-28 02:51:12,2025-02-28 02:54:55,223.925,0.071%,
938,2025-02-28 04:26:06,2025-02-28 04:29:33,206.829,0.066%,
939,2025-02-28 06:00:31,2025-02-28 06:04:02,210.448,0.067%,
940,2025-02-28 07:35:27,2025-02-28 07:38:44,197.124,0.063%,
941,2025-02-28 09:10:22,2025-02-28 09:13:26,184.035,0.058%,
942,2025-02-28 10:44:46,2025-02-28 10:48:47,240.175,0.076%,
943,2025-02-28 12:19:42,2025-02-28 12:23:27,224.653,0.071%,
944,2025-02-28 13:54:37,2025-02-28 13:58:06,208.628,0.066%,
945,2025-02-28 15:29:02,2025-02-28 15:32:43,220.89,0.070%,
946,2025-02-28 17:03:57,2025-02-28 17:07:12,195.021,0.062%,
947,2025-02-28 18:38:52,2025-02-28 18:41:54,182.305,0.058%,
948,2025-02-28 20:13:17,2025-02-28 20:16:36,199.477,0.063%,
949,2025-02-28 21:48:12,2025-02-28 21:51:57,224.664,0.071%,
950,2025-02-28 23:22:59,2025-02-28 23:26:37,218.268,0.069%,
951,2025-03-01 00:57:32,2025-03-01 01:01:16,223.591,0.071%,
952,2025-03-01 02:32:27,2025-03-01 02:35:52,204.901,0.065%,
953,2025-03-01 04:06:52,2025-03-01 04:10:23,210.924,0.067%,
954,2025-03-01 05:41:47,2025-03-01 05:45:05,197.528,0.063%,
955,2025-03-01 07:16:42,2025-03-01 07:19:47,184.352,0.059%,
956,2025-03-01 08:51:07,2025-03-01 08:55:07,240.243,0.076%,
957,2025-03-01 10:26:02,2025-03-01 10:29:47,224.536,0.071%,
958,2025-03-01 12:00:54,2025-03-01 12:04:26,212.168,0.067%,
959,2025-03-01 13:35:22,2025-03-01 13:39:02,219.661,0.070%,
960,2025-03-01 15:10:18,2025-03-01 15:13:33,195.448,0.062%,
961,2025-03-01 16:45:13,2025-03-01 16:48:15,182.656,0.058%,
962,2025-03-01 18:19:37,2025-03-01 18:22:57,199.836,0.063%,
963,2025-03-01 19:54:33,2025-03-01 19:58:17,224.674,0.071%,
964,2025-03-01 21:29:28,2025-03-01 21:32:57,209.506,0.066%,
965,2025-03-01 23:03:53,2025-03-01 23:07:36,223.186,0.071%,
966,2025-03-02 00:38:48,2025-03-02 00:42:11,203.348,0.065%,
967,2025-03-02 02:13:43,2025-03-02 02:16:44,180.813,0.057%,
968,2025-03-02 03:48:08,2025-03-02 03:51:26,197.919,0.063%,
969,2025-03-02 05:23:03,2025-03-02 05:26:08,184.661,0.059%,
970,2025-03-02 05:26:23,2025-03-02 05:26:47,23.965,0.008%,
971,2025-03-02 06:57:27,2025-03-02 07:01:28,240.289,0.076%,
972,2025-03-02 08:32:23,2025-03-02 08:36:07,224.379,0.071%,
973,2025-03-02 10:07:18,2025-03-02 10:10:46,207.719,0.066%,
974,2025-03-02 11:41:43,2025-03-02 11:45:12,208.969,0.066%,
975,2025-03-02 11:45:13,2025-03-02 11:45:20,7.503,0.002%,
976,2025-03-02 13:16:38,2025-03-02 13:19:54,195.87,0.062%,
977,2025-03-02 14:51:33,2025-03-02 14:54:36,182.995,0.058%,
978,2025-03-02 16:25:58,2025-03-02 16:29:58,239.717,0.076%,
979,2025-03-02 18:00:53,2025-03-02 18:04:38,224.657,0.071%,
980,2025-03-02 19:35:41,2025-03-02 19:39:18,216.325,0.069%,
981,2025-03-02 21:10:13,2025-03-02 21:13:56,222.692,0.071%,
982,2025-03-02 22:45:09,2025-03-02 22:48:22,193.69,0.061%,
983,2025-03-02 22:48:26,2025-03-02 22:48:29,2.652,0.001%,
984,2025-03-03 00:20:03,2025-03-03 00:23:05,181.263,0.058%,
985,2025-03-03 01:54:28,2025-03-03 01:57:47,198.308,0.063%,
986,2025-03-03 03:29:24,2025-03-03 03:33:08,224.375,0.071%,
987,2025-03-03 05:03:48,2025-03-03 05:07:48,240.311,0.076%,
988,2025-03-03 06:38:44,2025-03-03 06:42:28,224.183,0.071%,
989,2025-03-03 08:13:36,2025-03-03 08:17:06,209.511,0.066%,
990,2025-03-03 09:48:03,2025-03-03 09:51:33,209.465,0.066%,
991,2025-03-03 11:22:59,2025-03-03 11:26:15,196.283,0.062%,
992,2025-03-03 12:57:54,2025-03-03 13:00:57,183.333,0.058%,
993,2025-03-03 14:32:19,2025-03-03 14:36:18,239.84,0.076%,
994,2025-03-03 16:07:14,2025-03-03 16:10:59,224.614,0.071%,
995,2025-03-03 17:42:09,2025-03-03 17:45:38,209.021,0.066%,
996,2025-03-03 19:16:34,2025-03-03 19:20:16,222.089,0.070%,
997,2025-03-03 20:51:29,2025-03-03 20:54:43,194.129,0.062%,
998,2025-03-03 22:26:24,2025-03-03 22:29:26,181.555,0.058%,
999,2025-03-04 00:00:49,2025-03-04 00:04:08,198.689,0.063%,
1000,2025-03-04 01:35:44,2025-03-04 01:39:29,224.436,0.071%,
1001,2025-03-04 03:10:29,2025-03-04 03:14:09,219.851,0.070%,
1002,2025-03-04 04:45:04,2025-03-04 04:48:48,223.943,0.071%,
1003,2025-03-04 06:19:59,2025-03-04 06:23:26,206.393,0.065%,
