3UCubedIntegratedSim/Reports & Plots/North Cusp/NorthCusp CSV/NorthCusp_Sat11.csv

"Number","Coverage Start (UTCG)","Coverage End (UTCG)","Duration (sec)","Percent"
1,1 Jan 2025 16:25:12.784,1 Jan 2025 16:30:44.284,331.500,0.001051
2,1 Jan 2025 16:30:49.795,1 Jan 2025 16:31:29.666,39.871,0.000126
3,1 Jan 2025 17:59:55.344,1 Jan 2025 18:06:16.013,380.669,0.001207
4,1 Jan 2025 19:34:37.992,1 Jan 2025 19:39:35.803,297.811,0.000944
5,1 Jan 2025 19:39:36.975,1 Jan 2025 19:41:00.380,83.406,0.000264
6,1 Jan 2025 21:09:34.062,1 Jan 2025 21:15:43.177,369.115,0.001170
7,1 Jan 2025 22:44:16.195,1 Jan 2025 22:50:24.476,368.282,0.001168
8,2 Jan 2025 00:18:58.453,2 Jan 2025 00:25:04.064,365.611,0.001159
9,2 Jan 2025 01:53:40.826,2 Jan 2025 01:59:51.286,370.460,0.001175
10,2 Jan 2025 03:28:23.304,2 Jan 2025 03:33:54.482,331.178,0.001050
11,2 Jan 2025 03:33:59.871,2 Jan 2025 03:34:40.668,40.797,0.000129
12,2 Jan 2025 05:03:05.872,2 Jan 2025 05:09:26.788,380.916,0.001208
13,2 Jan 2025 06:37:48.529,2 Jan 2025 06:42:46.099,297.571,0.000944
14,2 Jan 2025 06:42:48.807,2 Jan 2025 06:44:10.991,82.184,0.000261
15,2 Jan 2025 08:12:44.540,2 Jan 2025 08:18:53.649,369.109,0.001170
16,2 Jan 2025 09:47:26.682,2 Jan 2025 09:53:34.794,368.111,0.001167
17,2 Jan 2025 11:22:08.952,2 Jan 2025 11:28:14.188,365.236,0.001158
18,2 Jan 2025 12:56:51.338,2 Jan 2025 13:03:02.722,371.384,0.001178
19,2 Jan 2025 14:31:33.822,2 Jan 2025 14:37:04.662,330.840,0.001049
20,2 Jan 2025 14:37:09.972,2 Jan 2025 14:37:51.646,41.674,0.000132
21,2 Jan 2025 16:06:16.401,2 Jan 2025 16:12:37.547,381.146,0.001209
22,2 Jan 2025 17:40:59.062,2 Jan 2025 17:45:56.384,297.321,0.000943
23,2 Jan 2025 17:45:59.383,2 Jan 2025 17:47:21.588,82.205,0.000261
24,2 Jan 2025 19:15:55.013,2 Jan 2025 19:22:04.100,369.087,0.001170
25,2 Jan 2025 20:50:37.174,2 Jan 2025 20:56:45.095,367.921,0.001167
26,2 Jan 2025 22:25:19.455,2 Jan 2025 22:31:24.291,364.836,0.001157
27,3 Jan 2025 00:00:01.850,3 Jan 2025 00:06:14.081,372.231,0.001180
28,3 Jan 2025 01:34:44.344,3 Jan 2025 01:40:14.823,330.479,0.001048
29,3 Jan 2025 01:40:20.097,3 Jan 2025 01:41:02.592,42.495,0.000135
30,3 Jan 2025 03:09:26.931,3 Jan 2025 03:15:48.286,381.355,0.001209
31,3 Jan 2025 04:44:09.603,3 Jan 2025 04:49:06.652,297.049,0.000942
32,3 Jan 2025 04:49:09.597,3 Jan 2025 04:50:32.176,82.579,0.000262
33,3 Jan 2025 06:19:05.495,3 Jan 2025 06:25:14.539,369.044,0.001170
34,3 Jan 2025 07:53:47.662,3 Jan 2025 07:59:55.379,367.717,0.001166
35,3 Jan 2025 09:28:29.958,3 Jan 2025 09:34:34.366,364.408,0.001156
36,3 Jan 2025 11:03:12.364,3 Jan 2025 11:09:25.377,373.013,0.001183
37,3 Jan 2025 12:37:54.866,3 Jan 2025 12:43:25.944,331.078,0.001050
38,3 Jan 2025 12:43:30.249,3 Jan 2025 12:44:13.516,43.267,0.000137
39,3 Jan 2025 14:12:37.458,3 Jan 2025 14:18:59.009,381.551,0.001210
40,3 Jan 2025 15:47:20.139,3 Jan 2025 15:47:32.200,12.061,0.000038
41,3 Jan 2025 15:47:33.933,3 Jan 2025 15:52:17.344,283.411,0.000899
42,3 Jan 2025 15:52:19.823,3 Jan 2025 15:53:42.743,82.920,0.000263
43,3 Jan 2025 17:22:15.973,3 Jan 2025 17:28:24.963,368.991,0.001170
44,3 Jan 2025 18:56:58.155,3 Jan 2025 19:03:05.643,367.488,0.001165
45,3 Jan 2025 20:31:40.462,3 Jan 2025 20:37:44.414,363.953,0.001154
46,3 Jan 2025 22:06:22.877,3 Jan 2025 22:12:36.618,373.742,0.001185
47,3 Jan 2025 23:41:05.389,3 Jan 2025 23:46:37.751,332.362,0.001054
48,3 Jan 2025 23:46:40.419,3 Jan 2025 23:47:24.417,43.997,0.000140
49,4 Jan 2025 01:15:47.993,4 Jan 2025 01:22:09.718,381.726,0.001210
50,4 Jan 2025 02:50:30.681,4 Jan 2025 02:50:36.216,5.535,0.000018
51,4 Jan 2025 02:50:44.398,4 Jan 2025 02:55:28.910,284.512,0.000902
52,4 Jan 2025 02:55:30.070,4 Jan 2025 02:56:53.296,83.226,0.000264
53,4 Jan 2025 04:25:26.451,4 Jan 2025 04:31:35.375,368.924,0.001170
54,4 Jan 2025 06:00:08.649,4 Jan 2025 06:06:15.891,367.243,0.001165
55,4 Jan 2025 07:34:50.967,4 Jan 2025 07:40:54.435,363.469,0.001153
56,4 Jan 2025 09:09:33.390,4 Jan 2025 09:15:47.810,374.419,0.001187
57,4 Jan 2025 10:44:15.911,4 Jan 2025 10:49:49.396,333.485,0.001057
58,4 Jan 2025 10:49:50.616,4 Jan 2025 10:50:35.297,44.681,0.000142
59,4 Jan 2025 12:18:58.522,4 Jan 2025 12:25:20.411,381.889,0.001211
60,4 Jan 2025 13:53:54.865,4 Jan 2025 14:00:03.842,368.977,0.001170
61,4 Jan 2025 15:28:36.937,4 Jan 2025 15:34:45.773,368.836,0.001170
62,4 Jan 2025 17:03:19.144,4 Jan 2025 17:09:26.123,366.978,0.001164
63,4 Jan 2025 18:38:01.471,4 Jan 2025 18:44:06.523,365.052,0.001158
64,4 Jan 2025 20:12:43.906,4 Jan 2025 20:18:16.336,332.430,0.001054
65,4 Jan 2025 20:18:16.793,4 Jan 2025 20:18:58.958,42.165,0.000134
66,4 Jan 2025 21:47:26.437,4 Jan 2025 21:53:46.151,379.715,0.001204
67,4 Jan 2025 23:22:09.058,4 Jan 2025 23:28:31.085,382.027,0.001211
68,5 Jan 2025 00:57:05.335,5 Jan 2025 01:03:14.368,369.033,0.001170
69,5 Jan 2025 02:31:47.420,5 Jan 2025 02:37:56.157,368.736,0.001169
70,5 Jan 2025 04:06:29.639,5 Jan 2025 04:10:40.618,250.979,0.000796
71,5 Jan 2025 04:10:41.455,5 Jan 2025 04:12:36.337,114.881,0.000364
72,5 Jan 2025 05:41:11.978,5 Jan 2025 05:47:18.593,366.615,0.001163
73,5 Jan 2025 07:15:54.422,5 Jan 2025 07:21:26.594,332.172,0.001053
74,5 Jan 2025 07:21:28.585,5 Jan 2025 07:22:10.068,41.483,0.000132
75,5 Jan 2025 08:50:36.961,5 Jan 2025 08:56:56.990,380.029,0.001205
76,5 Jan 2025 10:25:19.592,5 Jan 2025 10:31:41.745,382.153,0.001212
77,5 Jan 2025 12:00:15.806,5 Jan 2025 12:06:24.880,369.074,0.001170
78,5 Jan 2025 13:34:57.904,5 Jan 2025 13:41:06.524,368.619,0.001169
79,5 Jan 2025 15:09:40.135,5 Jan 2025 15:13:51.285,251.150,0.000796
80,5 Jan 2025 15:13:51.763,5 Jan 2025 15:15:46.532,114.769,0.000364
81,5 Jan 2025 16:44:22.486,5 Jan 2025 16:50:30.431,367.945,0.001167
82,5 Jan 2025 18:19:04.939,5 Jan 2025 18:24:36.830,331.891,0.001052
83,5 Jan 2025 18:24:40.623,5 Jan 2025 18:25:21.144,40.521,0.000128
84,5 Jan 2025 19:53:47.489,5 Jan 2025 20:00:07.807,380.319,0.001206
85,5 Jan 2025 21:28:30.125,5 Jan 2025 21:34:52.392,382.266,0.001212
86,5 Jan 2025 23:03:26.277,5 Jan 2025 23:09:35.380,369.103,0.001170
87,6 Jan 2025 00:38:08.391,6 Jan 2025 00:44:16.876,368.485,0.001168
88,6 Jan 2025 02:12:50.634,6 Jan 2025 02:18:56.702,366.068,0.001161
89,6 Jan 2025 03:47:32.995,6 Jan 2025 03:53:42.107,369.112,0.001170
90,6 Jan 2025 05:22:15.456,6 Jan 2025 05:27:47.050,331.594,0.001051
91,6 Jan 2025 05:27:52.610,6 Jan 2025 05:28:32.188,39.578,0.000125
92,6 Jan 2025 06:56:58.016,6 Jan 2025 07:03:18.606,380.589,0.001207
93,6 Jan 2025 08:31:40.661,6 Jan 2025 08:36:38.543,297.882,0.000945
94,6 Jan 2025 08:36:39.282,6 Jan 2025 08:38:03.025,83.743,0.000266
95,6 Jan 2025 10:06:36.751,6 Jan 2025 10:12:45.865,369.114,0.001170
96,6 Jan 2025 11:41:18.878,6 Jan 2025 11:47:27.209,368.331,0.001168
97,6 Jan 2025 13:16:01.134,6 Jan 2025 13:22:06.858,365.724,0.001160
98,6 Jan 2025 14:50:43.505,6 Jan 2025 14:56:53.661,370.156,0.001174
99,6 Jan 2025 16:25:25.977,6 Jan 2025 16:30:57.258,331.281,0.001050
100,6 Jan 2025 16:31:02.676,6 Jan 2025 16:31:43.197,40.521,0.000128
101,6 Jan 2025 18:00:08.543,6 Jan 2025 18:06:29.385,380.842,0.001208
102,6 Jan 2025 19:34:51.197,6 Jan 2025 19:39:48.843,297.646,0.000944
103,6 Jan 2025 19:39:51.056,6 Jan 2025 19:41:13.640,82.584,0.000262
104,6 Jan 2025 21:09:47.225,6 Jan 2025 21:15:56.336,369.111,0.001170
105,6 Jan 2025 22:44:29.367,6 Jan 2025 22:50:37.531,368.164,0.001167
106,7 Jan 2025 00:19:11.633,7 Jan 2025 00:25:16.985,365.352,0.001159
107,7 Jan 2025 01:53:54.014,7 Jan 2025 02:00:05.123,371.109,0.001177
108,7 Jan 2025 03:28:36.498,7 Jan 2025 03:34:07.443,330.945,0.001049
109,7 Jan 2025 03:34:12.772,7 Jan 2025 03:34:54.181,41.409,0.000131
110,7 Jan 2025 05:03:19.072,7 Jan 2025 05:09:40.149,381.077,0.001208
111,7 Jan 2025 06:38:01.735,7 Jan 2025 06:42:59.131,297.396,0.000943
112,7 Jan 2025 06:43:02.159,7 Jan 2025 06:44:24.240,82.082,0.000260
113,7 Jan 2025 08:12:57.704,7 Jan 2025 08:19:06.799,369.095,0.001170
114,7 Jan 2025 09:47:39.855,7 Jan 2025 09:53:47.837,367.981,0.001167
115,7 Jan 2025 11:22:22.133,7 Jan 2025 11:28:27.095,364.961,0.001157
116,7 Jan 2025 12:57:04.526,7 Jan 2025 13:03:16.504,371.978,0.001180
117,7 Jan 2025 14:31:47.017,7 Jan 2025 14:37:17.610,330.592,0.001048
118,7 Jan 2025 14:37:22.893,7 Jan 2025 14:38:05.137,42.244,0.000134
119,7 Jan 2025 16:06:29.602,7 Jan 2025 16:12:50.896,381.294,0.001209
120,7 Jan 2025 17:41:12.269,7 Jan 2025 17:46:09.407,297.138,0.000942
121,7 Jan 2025 17:46:12.363,7 Jan 2025 17:47:34.828,82.466,0.000261
122,7 Jan 2025 19:16:08.181,7 Jan 2025 19:22:17.243,369.062,0.001170
123,7 Jan 2025 20:50:50.348,7 Jan 2025 20:56:58.127,367.780,0.001166
124,7 Jan 2025 22:25:32.637,7 Jan 2025 22:31:37.178,364.540,0.001156
125,8 Jan 2025 00:00:15.039,8 Jan 2025 00:06:27.819,372.780,0.001182
126,8 Jan 2025 01:34:57.540,8 Jan 2025 01:40:28.179,330.638,0.001048
127,8 Jan 2025 01:40:33.036,8 Jan 2025 01:41:16.068,43.032,0.000136
128,8 Jan 2025 03:09:40.133,8 Jan 2025 03:16:01.623,381.491,0.001210
129,8 Jan 2025 04:44:22.811,8 Jan 2025 04:49:19.670,296.860,0.000941
130,8 Jan 2025 04:49:22.586,8 Jan 2025 04:50:45.406,82.820,0.000263
131,8 Jan 2025 06:19:18.661,8 Jan 2025 06:25:27.673,369.011,0.001170
132,8 Jan 2025 07:54:00.838,8 Jan 2025 08:00:08.395,367.557,0.001166
133,8 Jan 2025 09:28:43.140,8 Jan 2025 09:34:47.238,364.098,0.001155
134,8 Jan 2025 11:03:25.554,8 Jan 2025 11:09:39.076,373.522,0.001184
135,8 Jan 2025 12:38:08.062,8 Jan 2025 12:43:40.046,331.984,0.001053
136,8 Jan 2025 12:43:43.199,8 Jan 2025 12:44:26.980,43.780,0.000139
137,8 Jan 2025 14:12:50.661,8 Jan 2025 14:19:12.335,381.675,0.001210
138,8 Jan 2025 15:47:33.347,8 Jan 2025 15:52:31.275,297.928,0.000945
139,8 Jan 2025 15:52:32.826,8 Jan 2025 15:53:55.963,83.137,0.000264
140,8 Jan 2025 17:22:29.140,8 Jan 2025 17:28:38.084,368.944,0.001170
141,8 Jan 2025 18:57:11.332,8 Jan 2025 19:03:18.651,367.320,0.001165
142,8 Jan 2025 20:31:53.646,8 Jan 2025 20:37:57.268,363.623,0.001153
143,8 Jan 2025 22:06:36.064,8 Jan 2025 22:12:50.282,374.218,0.001187
144,8 Jan 2025 23:41:18.586,8 Jan 2025 23:46:51.742,333.156,0.001056
145,8 Jan 2025 23:46:53.390,8 Jan 2025 23:47:37.865,44.476,0.000141
146,9 Jan 2025 01:16:01.196,9 Jan 2025 01:22:23.034,381.838,0.001211
147,9 Jan 2025 02:50:43.890,9 Jan 2025 02:55:42.771,298.881,0.000948
148,9 Jan 2025 02:55:43.084,9 Jan 2025 02:57:06.507,83.423,0.000265
149,9 Jan 2025 04:25:39.619,9 Jan 2025 04:31:48.485,368.866,0.001170
150,9 Jan 2025 06:00:21.826,9 Jan 2025 06:06:28.889,367.063,0.001164
151,9 Jan 2025 07:35:04.151,9 Jan 2025 07:41:08.653,364.502,0.001156
152,9 Jan 2025 09:09:46.582,9 Jan 2025 09:15:19.092,332.510,0.001054
153,9 Jan 2025 09:15:19.113,9 Jan 2025 09:16:01.444,42.331,0.000134
154,9 Jan 2025 10:44:29.107,9 Jan 2025 10:50:03.303,334.196,0.001060
155,9 Jan 2025 10:50:03.596,9 Jan 2025 10:50:48.729,45.133,0.000143
156,9 Jan 2025 12:19:11.726,9 Jan 2025 12:25:33.716,381.990,0.001211
157,9 Jan 2025 13:53:54.431,9 Jan 2025 14:00:17.041,382.610,0.001213
158,9 Jan 2025 15:28:50.106,9 Jan 2025 15:34:58.874,368.767,0.001169
159,9 Jan 2025 17:03:32.322,9 Jan 2025 17:07:43.348,251.025,0.000796
160,9 Jan 2025 17:07:43.917,9 Jan 2025 17:09:39.110,115.193,0.000365
161,9 Jan 2025 18:38:14.658,9 Jan 2025 18:44:20.823,366.166,0.001161
162,9 Jan 2025 20:12:57.099,9 Jan 2025 20:18:29.350,332.252,0.001054
163,9 Jan 2025 20:18:30.849,9 Jan 2025 20:19:12.568,41.718,0.000132
164,9 Jan 2025 21:47:39.636,9 Jan 2025 21:53:59.569,379.933,0.001205
165,9 Jan 2025 23:22:22.262,9 Jan 2025 23:28:44.380,382.117,0.001212
166,10 Jan 2025 00:57:04.972,10 Jan 2025 01:03:27.560,382.589,0.001213
167,10 Jan 2025 02:32:00.591,10 Jan 2025 02:38:09.247,368.656,0.001169
168,10 Jan 2025 04:06:42.818,10 Jan 2025 04:10:53.694,250.875,0.000796
169,10 Jan 2025 04:10:54.500,10 Jan 2025 04:12:49.307,114.808,0.000364
170,10 Jan 2025 05:41:25.164,10 Jan 2025 05:47:32.723,367.559,0.001166
171,10 Jan 2025 07:16:07.616,10 Jan 2025 07:21:39.592,331.976,0.001053
172,10 Jan 2025 07:21:42.800,10 Jan 2025 07:22:23.652,40.852,0.000130
173,10 Jan 2025 08:50:42.505,10 Jan 2025 08:50:45.958,3.453,0.000011
174,10 Jan 2025 08:50:50.161,10 Jan 2025 08:57:10.393,380.232,0.001206
175,10 Jan 2025 10:25:32.797,10 Jan 2025 10:31:55.029,382.232,0.001212
176,10 Jan 2025 12:00:15.515,10 Jan 2025 12:06:38.063,382.549,0.001213
177,10 Jan 2025 13:35:11.076,10 Jan 2025 13:41:19.602,368.526,0.001169
178,10 Jan 2025 15:09:53.315,10 Jan 2025 15:15:59.489,366.174,0.001161
179,10 Jan 2025 16:44:35.673,10 Jan 2025 16:50:44.440,368.767,0.001169
180,10 Jan 2025 18:19:18.133,10 Jan 2025 18:24:49.818,331.685,0.001052
181,10 Jan 2025 18:24:55.100,10 Jan 2025 18:25:34.704,39.604,0.000126
182,10 Jan 2025 19:54:00.689,10 Jan 2025 20:00:21.198,380.510,0.001207
183,10 Jan 2025 21:28:43.332,10 Jan 2025 21:33:41.282,297.951,0.000945
184,10 Jan 2025 21:33:41.610,10 Jan 2025 21:35:05.666,84.056,0.000267
185,10 Jan 2025 23:03:26.057,10 Jan 2025 23:09:48.554,382.496,0.001213
186,11 Jan 2025 00:38:21.559,11 Jan 2025 00:44:29.942,368.382,0.001168
187,11 Jan 2025 02:13:03.814,11 Jan 2025 02:19:09.645,365.831,0.001160
188,11 Jan 2025 03:47:46.183,11 Jan 2025 03:53:56.030,369.848,0.001173
189,11 Jan 2025 05:22:28.651,11 Jan 2025 05:28:00.029,331.378,0.001051
190,11 Jan 2025 05:28:05.486,11 Jan 2025 05:28:45.726,40.240,0.000128
191,11 Jan 2025 06:57:11.217,11 Jan 2025 07:03:31.984,380.767,0.001207
192,11 Jan 2025 08:31:53.868,11 Jan 2025 08:36:51.587,297.719,0.000944
193,11 Jan 2025 08:36:53.324,11 Jan 2025 08:38:16.290,82.965,0.000263
194,11 Jan 2025 10:06:36.601,11 Jan 2025 10:12:59.028,382.427,0.001213
195,11 Jan 2025 11:41:32.051,11 Jan 2025 11:47:40.267,368.216,0.001168
196,11 Jan 2025 13:16:14.315,11 Jan 2025 13:22:19.782,365.467,0.001159
197,11 Jan 2025 14:50:56.694,11 Jan 2025 14:57:07.521,370.827,0.001176
198,11 Jan 2025 16:25:39.172,11 Jan 2025 16:31:10.222,331.050,0.001050
199,11 Jan 2025 16:31:15.576,11 Jan 2025 16:31:56.718,41.141,0.000130
200,11 Jan 2025 18:00:21.745,11 Jan 2025 18:06:42.751,381.007,0.001208
201,11 Jan 2025 19:35:04.405,11 Jan 2025 19:40:01.879,297.474,0.000943
202,11 Jan 2025 19:40:04.933,11 Jan 2025 19:41:26.894,81.960,0.000260
203,11 Jan 2025 21:09:47.142,11 Jan 2025 21:16:09.490,382.348,0.001212
204,11 Jan 2025 22:44:42.541,11 Jan 2025 22:50:50.579,368.038,0.001167
205,12 Jan 2025 00:19:24.816,12 Jan 2025 00:25:29.898,365.082,0.001158
206,12 Jan 2025 01:54:07.203,12 Jan 2025 02:00:18.924,371.721,0.001179
207,12 Jan 2025 03:28:49.694,12 Jan 2025 03:34:20.397,330.703,0.001049
208,12 Jan 2025 03:34:25.688,12 Jan 2025 03:35:07.682,41.994,0.000133
209,12 Jan 2025 05:03:32.274,12 Jan 2025 05:09:53.503,381.229,0.001209
210,12 Jan 2025 06:38:14.942,12 Jan 2025 06:43:12.157,297.215,0.000942
211,12 Jan 2025 06:43:15.135,12 Jan 2025 06:44:37.485,82.350,0.000261
212,12 Jan 2025 08:12:57.691,12 Jan 2025 08:19:19.943,382.252,0.001212
213,12 Jan 2025 09:47:40.345,12 Jan 2025 09:47:45.992,5.647,0.000018
214,12 Jan 2025 09:47:53.030,12 Jan 2025 09:54:00.873,367.843,0.001166
215,12 Jan 2025 11:22:35.316,12 Jan 2025 11:28:39.990,364.673,0.001156
216,12 Jan 2025 12:57:17.716,12 Jan 2025 13:03:30.258,372.542,0.001181
217,12 Jan 2025 14:32:00.214,12 Jan 2025 14:37:30.550,330.337,0.001047
218,12 Jan 2025 14:37:35.825,12 Jan 2025 14:38:18.622,42.797,0.000136
219,12 Jan 2025 16:06:42.805,12 Jan 2025 16:13:04.239,381.434,0.001210
220,12 Jan 2025 17:41:25.477,12 Jan 2025 17:46:22.424,296.947,0.000942
221,12 Jan 2025 17:46:25.349,12 Jan 2025 17:47:48.063,82.714,0.000262
222,12 Jan 2025 19:16:08.233,12 Jan 2025 19:22:30.374,382.141,0.001212
223,12 Jan 2025 20:51:03.523,12 Jan 2025 20:57:11.150,367.626,0.001166
224,12 Jan 2025 22:25:45.821,12 Jan 2025 22:31:50.054,364.233,0.001155
225,13 Jan 2025 00:00:28.230,13 Jan 2025 00:06:41.533,373.303,0.001184
226,13 Jan 2025 01:35:10.735,13 Jan 2025 01:40:42.332,331.597,0.001051
227,13 Jan 2025 01:40:45.984,13 Jan 2025 01:41:29.535,43.551,0.000138
228,13 Jan 2025 03:09:53.336,13 Jan 2025 03:16:14.954,381.619,0.001210
229,13 Jan 2025 04:44:36.019,13 Jan 2025 04:49:33.635,297.616,0.000944
230,13 Jan 2025 04:49:35.585,13 Jan 2025 04:50:58.631,83.045,0.000263
231,13 Jan 2025 06:19:18.783,13 Jan 2025 06:25:40.794,382.011,0.001211
232,13 Jan 2025 07:53:58.015,13 Jan 2025 07:54:09.852,11.837,0.000038
233,13 Jan 2025 07:54:14.015,13 Jan 2025 08:00:21.407,367.393,0.001165
234,13 Jan 2025 09:28:56.324,13 Jan 2025 09:35:00.093,363.768,0.001154
235,13 Jan 2025 11:03:38.742,13 Jan 2025 11:09:52.753,374.011,0.001186
236,13 Jan 2025 12:38:21.260,13 Jan 2025 12:43:54.075,332.815,0.001055
237,13 Jan 2025 12:43:56.160,13 Jan 2025 12:44:40.429,44.269,0.000140
238,13 Jan 2025 14:13:03.864,13 Jan 2025 14:19:25.655,381.791,0.001211
239,13 Jan 2025 15:47:46.556,13 Jan 2025 15:52:45.158,298.601,0.000947
240,13 Jan 2025 15:52:45.837,13 Jan 2025 15:54:09.178,83.341,0.000264
241,13 Jan 2025 17:22:29.331,13 Jan 2025 17:28:51.198,381.867,0.001211
242,13 Jan 2025 18:57:24.509,13 Jan 2025 19:03:31.651,367.142,0.001164
243,13 Jan 2025 20:32:06.830,13 Jan 2025 20:38:10.747,363.917,0.001154
244,13 Jan 2025 22:06:49.257,13 Jan 2025 22:13:03.928,374.670,0.001188
245,13 Jan 2025 23:41:31.784,13 Jan 2025 23:47:05.675,333.890,0.001059
246,13 Jan 2025 23:47:06.362,13 Jan 2025 23:47:51.299,44.937,0.000142
247,14 Jan 2025 01:16:14.400,14 Jan 2025 01:22:36.343,381.944,0.001211
248,14 Jan 2025 02:50:57.099,14 Jan 2025 02:57:19.712,382.613,0.001213
249,14 Jan 2025 04:25:39.878,14 Jan 2025 04:32:01.589,381.711,0.001210
250,14 Jan 2025 06:00:35.003,14 Jan 2025 06:04:46.072,251.069,0.000796
251,14 Jan 2025 06:04:46.266,14 Jan 2025 06:06:41.874,115.608,0.000367
252,14 Jan 2025 07:35:17.336,14 Jan 2025 07:41:23.029,365.693,0.001160
253,14 Jan 2025 09:09:59.774,14 Jan 2025 09:15:32.107,332.334,0.001054
254,14 Jan 2025 09:15:33.137,14 Jan 2025 09:16:15.061,41.924,0.000133
255,14 Jan 2025 10:44:42.305,14 Jan 2025 10:51:02.148,379.843,0.001204
256,14 Jan 2025 12:19:24.930,14 Jan 2025 12:25:47.014,382.084,0.001212
257,14 Jan 2025 13:54:07.641,14 Jan 2025 14:00:30.236,382.595,0.001213
258,14 Jan 2025 15:28:50.426,14 Jan 2025 15:35:11.967,381.541,0.001210
259,14 Jan 2025 17:03:45.500,14 Jan 2025 17:07:56.420,250.920,0.000796
260,14 Jan 2025 17:07:57.242,14 Jan 2025 17:09:52.081,114.839,0.000364
261,14 Jan 2025 18:38:27.843,14 Jan 2025 18:44:34.996,367.153,0.001164
262,14 Jan 2025 20:13:10.291,14 Jan 2025 20:18:42.354,332.063,0.001053
263,14 Jan 2025 20:18:45.010,14 Jan 2025 20:19:26.159,41.149,0.000130
264,14 Jan 2025 21:47:52.834,14 Jan 2025 21:54:12.977,380.142,0.001205
265,14 Jan 2025 23:22:35.467,14 Jan 2025 23:28:57.667,382.200,0.001212
266,15 Jan 2025 00:57:18.182,15 Jan 2025 01:03:40.745,382.564,0.001213
267,15 Jan 2025 02:32:00.976,15 Jan 2025 02:32:12.142,11.166,0.000035
268,15 Jan 2025 02:32:13.761,15 Jan 2025 02:38:22.330,368.569,0.001169
269,15 Jan 2025 04:06:55.997,15 Jan 2025 04:11:07.493,251.496,0.000797
270,15 Jan 2025 04:11:07.549,15 Jan 2025 04:13:02.267,114.719,0.000364
271,15 Jan 2025 05:41:38.350,15 Jan 2025 05:47:46.764,368.414,0.001168
272,15 Jan 2025 07:16:20.809,15 Jan 2025 07:21:52.588,331.779,0.001052
273,15 Jan 2025 07:21:57.178,15 Jan 2025 07:22:37.219,40.041,0.000127
274,15 Jan 2025 08:50:55.308,15 Jan 2025 08:57:23.790,388.482,0.001232
275,15 Jan 2025 10:25:46.002,15 Jan 2025 10:32:08.306,382.304,0.001212
276,15 Jan 2025 12:00:28.725,15 Jan 2025 12:06:51.238,382.513,0.001213
277,15 Jan 2025 13:35:11.526,15 Jan 2025 13:35:13.174,1.648,0.000005
278,15 Jan 2025 13:35:24.247,15 Jan 2025 13:41:32.674,368.427,0.001168
279,15 Jan 2025 15:10:06.494,15 Jan 2025 15:16:12.435,365.940,0.001160
280,15 Jan 2025 16:44:48.860,15 Jan 2025 16:50:58.391,369.531,0.001172
281,15 Jan 2025 18:19:31.326,15 Jan 2025 18:25:02.801,331.475,0.001051
282,15 Jan 2025 18:25:08.300,15 Jan 2025 18:25:48.250,39.950,0.000127
283,15 Jan 2025 19:54:13.889,15 Jan 2025 20:00:34.580,380.692,0.001207
284,15 Jan 2025 21:28:56.537,15 Jan 2025 21:33:54.329,297.792,0.000944
285,15 Jan 2025 21:33:55.617,15 Jan 2025 21:35:18.933,83.316,0.000264
286,15 Jan 2025 23:03:39.268,15 Jan 2025 23:10:01.722,382.454,0.001213
287,16 Jan 2025 00:38:34.735,16 Jan 2025 00:44:43.007,368.272,0.001168
288,16 Jan 2025 02:13:16.994,16 Jan 2025 02:19:22.577,365.583,0.001159
289,16 Jan 2025 03:47:59.370,16 Jan 2025 03:54:09.909,370.539,0.001175
290,16 Jan 2025 05:22:41.845,16 Jan 2025 05:28:12.998,331.153,0.001050
291,16 Jan 2025 05:28:18.376,16 Jan 2025 05:28:59.251,40.875,0.000130
292,16 Jan 2025 06:57:13.849,16 Jan 2025 07:03:45.353,391.503,0.001241
293,16 Jan 2025 08:32:07.074,16 Jan 2025 08:37:04.622,297.549,0.000944
294,16 Jan 2025 08:37:07.473,16 Jan 2025 08:38:29.546,82.073,0.000260
295,16 Jan 2025 10:06:49.812,16 Jan 2025 10:13:12.188,382.376,0.001213
296,16 Jan 2025 11:41:45.224,16 Jan 2025 11:47:53.317,368.093,0.001167
297,16 Jan 2025 13:16:27.495,16 Jan 2025 13:22:32.697,365.202,0.001158
298,16 Jan 2025 14:51:09.881,16 Jan 2025 14:57:21.336,371.455,0.001178
299,16 Jan 2025 16:25:52.367,16 Jan 2025 16:31:23.177,330.810,0.001049
300,16 Jan 2025 16:31:28.484,16 Jan 2025 16:32:10.226,41.741,0.000132
301,16 Jan 2025 18:00:34.945,16 Jan 2025 18:06:56.108,381.163,0.001209
302,16 Jan 2025 19:35:17.611,16 Jan 2025 19:40:14.906,297.296,0.000943
303,16 Jan 2025 19:40:17.904,16 Jan 2025 19:41:40.140,82.236,0.000261
304,16 Jan 2025 21:10:00.354,16 Jan 2025 21:16:22.638,382.284,0.001212
305,16 Jan 2025 22:44:55.714,16 Jan 2025 22:51:03.617,367.904,0.001167
306,17 Jan 2025 00:19:37.997,17 Jan 2025 00:25:42.800,364.803,0.001157
307,17 Jan 2025 01:54:20.392,17 Jan 2025 02:00:32.687,372.295,0.001181
308,17 Jan 2025 03:29:02.888,17 Jan 2025 03:34:33.340,330.452,0.001048
309,17 Jan 2025 03:34:38.612,17 Jan 2025 03:35:21.170,42.558,0.000135
310,17 Jan 2025 05:03:45.475,17 Jan 2025 05:10:06.847,381.372,0.001209
311,17 Jan 2025 06:38:28.149,17 Jan 2025 06:43:25.175,297.026,0.000942
312,17 Jan 2025 06:43:28.115,17 Jan 2025 06:44:50.721,82.606,0.000262
313,17 Jan 2025 08:13:10.903,17 Jan 2025 08:19:33.079,382.176,0.001212
314,17 Jan 2025 09:47:52.936,17 Jan 2025 09:47:59.854,6.918,0.000022
315,17 Jan 2025 09:48:06.204,17 Jan 2025 09:54:13.900,367.696,0.001166
316,17 Jan 2025 11:22:48.498,17 Jan 2025 11:28:52.873,364.375,0.001155
317,17 Jan 2025 12:57:30.905,17 Jan 2025 13:03:43.982,373.077,0.001183
318,17 Jan 2025 14:32:13.409,17 Jan 2025 14:37:44.598,331.189,0.001050
319,17 Jan 2025 14:37:48.766,17 Jan 2025 14:38:32.093,43.327,0.000137
320,17 Jan 2025 16:06:56.006,17 Jan 2025 16:13:17.572,381.566,0.001210
321,17 Jan 2025 17:41:38.684,17 Jan 2025 17:46:35.976,297.291,0.000943
322,17 Jan 2025 17:46:38.346,17 Jan 2025 17:48:01.289,82.943,0.000263
323,17 Jan 2025 19:16:21.446,17 Jan 2025 19:22:43.503,382.057,0.001211
324,17 Jan 2025 20:51:16.698,17 Jan 2025 20:57:24.167,367.469,0.001165
325,17 Jan 2025 22:25:59.002,17 Jan 2025 22:32:02.918,363.916,0.001154
326,18 Jan 2025 00:00:41.419,18 Jan 2025 00:06:55.219,373.799,0.001185
327,18 Jan 2025 01:35:23.931,18 Jan 2025 01:40:56.390,332.459,0.001054
328,18 Jan 2025 01:40:58.939,18 Jan 2025 01:41:42.993,44.054,0.000140
329,18 Jan 2025 03:10:06.538,18 Jan 2025 03:16:28.276,381.738,0.001210
330,18 Jan 2025 04:44:49.227,18 Jan 2025 04:49:47.537,298.310,0.000946
331,18 Jan 2025 04:49:48.589,18 Jan 2025 04:51:11.847,83.258,0.000264
332,18 Jan 2025 06:19:31.996,18 Jan 2025 06:25:53.910,381.914,0.001211
333,18 Jan 2025 07:54:10.923,18 Jan 2025 07:54:23.398,12.475,0.000040
334,18 Jan 2025 07:54:27.189,18 Jan 2025 08:00:34.416,367.227,0.001164
335,18 Jan 2025 09:29:09.508,18 Jan 2025 09:35:12.938,363.430,0.001152
336,18 Jan 2025 11:03:51.933,18 Jan 2025 11:10:06.406,374.473,0.001187
337,18 Jan 2025 12:38:34.457,18 Jan 2025 12:44:08.028,333.572,0.001058
338,18 Jan 2025 12:44:09.131,18 Jan 2025 12:44:53.869,44.737,0.000142
339,18 Jan 2025 14:13:17.067,18 Jan 2025 14:19:38.966,381.899,0.001211
340,18 Jan 2025 15:47:59.765,18 Jan 2025 15:54:22.385,382.620,0.001213
341,18 Jan 2025 17:22:42.544,18 Jan 2025 17:29:04.309,381.764,0.001211
342,18 Jan 2025 18:57:37.687,18 Jan 2025 19:03:44.642,366.956,0.001164
343,18 Jan 2025 20:32:20.014,18 Jan 2025 20:38:25.207,365.192,0.001158
344,18 Jan 2025 22:07:02.447,18 Jan 2025 22:12:34.862,332.415,0.001054
345,18 Jan 2025 22:12:35.432,18 Jan 2025 22:13:17.551,42.119,0.000134
346,18 Jan 2025 23:41:44.982,18 Jan 2025 23:48:04.724,379.742,0.001204
347,19 Jan 2025 01:16:27.603,19 Jan 2025 01:22:49.644,382.041,0.001211
348,19 Jan 2025 02:51:10.308,19 Jan 2025 02:57:32.909,382.601,0.001213
349,19 Jan 2025 04:25:53.092,19 Jan 2025 04:32:14.685,381.593,0.001210
350,19 Jan 2025 06:00:29.865,19 Jan 2025 06:00:45.985,16.120,0.000051
351,19 Jan 2025 06:00:48.180,19 Jan 2025 06:04:59.151,250.971,0.000796
352,19 Jan 2025 06:04:59.981,19 Jan 2025 06:06:54.855,114.874,0.000364
353,19 Jan 2025 07:35:30.521,19 Jan 2025 07:41:37.254,366.733,0.001163
354,19 Jan 2025 09:10:12.966,19 Jan 2025 09:15:45.115,332.149,0.001053
355,19 Jan 2025 09:15:47.244,19 Jan 2025 09:16:28.659,41.415,0.000131
356,19 Jan 2025 10:44:52.185,19 Jan 2025 10:44:53.065,0.880,0.000003
357,19 Jan 2025 10:44:55.504,19 Jan 2025 10:51:15.559,380.055,0.001205
358,19 Jan 2025 12:19:38.134,19 Jan 2025 12:26:00.301,382.167,0.001212
359,19 Jan 2025 13:54:20.850,19 Jan 2025 14:00:43.423,382.573,0.001213
360,19 Jan 2025 15:29:03.641,19 Jan 2025 15:35:25.053,381.412,0.001209
361,19 Jan 2025 17:03:58.678,19 Jan 2025 17:08:09.903,251.225,0.000797
362,19 Jan 2025 17:08:10.288,19 Jan 2025 17:10:05.046,114.758,0.000364
363,19 Jan 2025 18:38:41.029,19 Jan 2025 18:44:49.076,368.047,0.001167
364,19 Jan 2025 20:13:23.483,19 Jan 2025 20:18:55.351,331.867,0.001052
365,19 Jan 2025 20:18:59.303,19 Jan 2025 20:19:39.731,40.428,0.000128
366,19 Jan 2025 21:48:06.033,19 Jan 2025 21:54:26.374,380.341,0.001206
367,19 Jan 2025 23:22:48.672,19 Jan 2025 23:29:10.946,382.274,0.001212
368,20 Jan 2025 00:57:31.392,20 Jan 2025 01:03:53.923,382.532,0.001213
369,20 Jan 2025 02:32:14.191,20 Jan 2025 02:38:35.405,381.214,0.001209
370,20 Jan 2025 04:07:09.176,20 Jan 2025 04:13:15.218,366.042,0.001161
371,20 Jan 2025 05:41:51.537,20 Jan 2025 05:48:00.738,369.202,0.001171
372,20 Jan 2025 07:16:34.002,20 Jan 2025 07:22:05.569,331.567,0.001051
373,20 Jan 2025 07:22:11.117,20 Jan 2025 07:22:50.773,39.656,0.000126
374,20 Jan 2025 08:51:08.151,20 Jan 2025 08:57:37.172,389.021,0.001234
375,20 Jan 2025 10:25:59.208,20 Jan 2025 10:30:57.072,297.864,0.000945
376,20 Jan 2025 10:30:57.925,20 Jan 2025 10:32:21.575,83.651,0.000265
377,20 Jan 2025 12:00:41.936,20 Jan 2025 12:07:04.410,382.474,0.001213
378,20 Jan 2025 13:35:24.742,20 Jan 2025 13:41:45.739,380.996,0.001208
379,20 Jan 2025 15:10:19.672,20 Jan 2025 15:16:25.371,365.698,0.001160
380,20 Jan 2025 16:45:02.047,20 Jan 2025 16:51:12.284,370.237,0.001174
381,20 Jan 2025 18:19:44.520,20 Jan 2025 18:25:15.776,331.255,0.001050
382,20 Jan 2025 18:25:21.187,20 Jan 2025 18:26:01.783,40.596,0.000129
383,20 Jan 2025 19:54:27.089,20 Jan 2025 20:00:47.953,380.864,0.001208
384,20 Jan 2025 21:29:09.743,20 Jan 2025 21:34:07.368,297.626,0.000944
385,20 Jan 2025 21:34:09.711,20 Jan 2025 21:35:32.192,82.481,0.000262
386,20 Jan 2025 23:03:52.480,20 Jan 2025 23:10:14.878,382.399,0.001213
387,21 Jan 2025 00:38:35.290,21 Jan 2025 00:44:56.057,380.766,0.001207
388,21 Jan 2025 02:13:30.175,21 Jan 2025 02:19:35.499,365.324,0.001158
389,21 Jan 2025 03:48:12.558,21 Jan 2025 03:54:23.741,371.182,0.001177
390,21 Jan 2025 05:22:55.040,21 Jan 2025 05:28:25.959,330.919,0.001049
391,21 Jan 2025 05:28:31.285,21 Jan 2025 05:29:12.762,41.476,0.000132
392,21 Jan 2025 06:57:26.818,21 Jan 2025 07:03:58.713,391.895,0.001243
393,21 Jan 2025 08:32:20.281,21 Jan 2025 08:37:17.656,297.376,0.000943
394,21 Jan 2025 08:37:20.674,21 Jan 2025 08:38:42.795,82.122,0.000260
395,21 Jan 2025 10:07:03.025,21 Jan 2025 10:13:25.338,382.313,0.001212
396,21 Jan 2025 11:41:45.845,21 Jan 2025 11:48:06.363,380.517,0.001207
397,21 Jan 2025 13:16:40.677,21 Jan 2025 13:22:45.605,364.927,0.001157
398,21 Jan 2025 14:51:23.071,21 Jan 2025 14:57:35.116,372.045,0.001180
399,21 Jan 2025 16:26:05.562,21 Jan 2025 16:31:36.125,330.563,0.001048
400,21 Jan 2025 16:31:41.403,21 Jan 2025 16:32:23.718,42.315,0.000134
401,21 Jan 2025 18:00:48.147,21 Jan 2025 18:07:09.457,381.310,0.001209
402,21 Jan 2025 19:35:30.818,21 Jan 2025 19:40:27.929,297.111,0.000942
403,21 Jan 2025 19:40:30.885,21 Jan 2025 19:41:53.380,82.495,0.000262
404,21 Jan 2025 21:10:13.567,21 Jan 2025 21:16:35.778,382.211,0.001212
405,21 Jan 2025 22:44:56.397,21 Jan 2025 22:51:16.652,380.255,0.001206
406,22 Jan 2025 00:19:51.180,22 Jan 2025 00:25:55.686,364.506,0.001156
407,22 Jan 2025 01:54:33.582,22 Jan 2025 02:00:46.422,372.840,0.001182
408,22 Jan 2025 03:29:16.085,22 Jan 2025 03:34:46.845,330.760,0.001049
409,22 Jan 2025 03:34:51.551,22 Jan 2025 03:35:34.646,43.095,0.000137
410,22 Jan 2025 05:03:46.004,22 Jan 2025 05:10:20.184,394.181,0.001250
411,22 Jan 2025 06:38:41.357,22 Jan 2025 06:43:38.308,296.951,0.000942
412,22 Jan 2025 06:43:41.108,22 Jan 2025 06:45:03.955,82.847,0.000263
413,22 Jan 2025 08:13:24.116,22 Jan 2025 08:19:46.209,382.093,0.001212
414,22 Jan 2025 09:48:05.635,22 Jan 2025 09:54:26.921,381.285,0.001209
415,22 Jan 2025 11:23:01.682,22 Jan 2025 11:29:05.745,364.063,0.001154
416,22 Jan 2025 12:57:44.096,22 Jan 2025 13:03:57.679,373.583,0.001185
417,22 Jan 2025 14:32:26.607,22 Jan 2025 14:37:58.693,332.087,0.001053
418,22 Jan 2025 14:38:01.719,22 Jan 2025 14:38:45.554,43.835,0.000139
419,22 Jan 2025 16:07:09.209,22 Jan 2025 16:13:30.898,381.689,0.001210
420,22 Jan 2025 17:41:51.893,22 Jan 2025 17:46:49.906,298.013,0.000945
421,22 Jan 2025 17:46:51.347,22 Jan 2025 17:48:14.510,83.163,0.000264
422,22 Jan 2025 19:16:34.660,22 Jan 2025 19:22:56.624,381.964,0.001211
423,22 Jan 2025 20:51:17.507,22 Jan 2025 20:57:37.176,379.669,0.001204
424,22 Jan 2025 22:26:12.187,22 Jan 2025 22:32:15.769,363.581,0.001153
425,23 Jan 2025 00:00:54.611,23 Jan 2025 00:07:08.882,374.271,0.001187
426,23 Jan 2025 01:35:37.129,23 Jan 2025 01:41:10.376,333.247,0.001057
427,23 Jan 2025 01:41:11.908,23 Jan 2025 01:41:56.435,44.527,0.000141
428,23 Jan 2025 03:10:19.742,23 Jan 2025 03:16:41.591,381.850,0.001211
429,23 Jan 2025 04:45:02.436,23 Jan 2025 04:50:01.389,298.953,0.000948
430,23 Jan 2025 04:50:01.608,23 Jan 2025 04:51:25.058,83.450,0.000265
431,23 Jan 2025 06:19:45.211,23 Jan 2025 06:26:07.021,381.810,0.001211
432,23 Jan 2025 07:54:23.857,23 Jan 2025 08:00:47.410,383.553,0.001216
433,23 Jan 2025 09:29:22.693,23 Jan 2025 09:35:27.346,364.653,0.001156
434,23 Jan 2025 11:04:05.125,23 Jan 2025 11:09:37.616,332.491,0.001054
435,23 Jan 2025 11:09:37.750,23 Jan 2025 11:10:20.038,42.288,0.000134
436,23 Jan 2025 12:38:47.655,23 Jan 2025 12:44:21.929,334.274,0.001060
437,23 Jan 2025 12:44:22.118,23 Jan 2025 12:45:07.298,45.180,0.000143
438,23 Jan 2025 14:13:30.271,23 Jan 2025 14:19:52.271,381.999,0.001211
439,23 Jan 2025 15:48:12.975,23 Jan 2025 15:54:35.586,382.612,0.001213
440,23 Jan 2025 17:22:55.760,23 Jan 2025 17:29:17.405,381.645,0.001210
441,23 Jan 2025 18:57:38.617,23 Jan 2025 18:57:39.499,0.882,0.000003
442,23 Jan 2025 18:57:50.863,23 Jan 2025 19:02:01.875,251.012,0.000796
443,23 Jan 2025 19:02:02.553,23 Jan 2025 19:03:57.629,115.077,0.000365
444,23 Jan 2025 20:32:33.201,23 Jan 2025 20:38:39.487,366.286,0.001161
445,23 Jan 2025 22:07:15.641,23 Jan 2025 22:12:47.873,332.232,0.001054
446,23 Jan 2025 22:12:49.499,23 Jan 2025 22:13:31.158,41.659,0.000132
447,23 Jan 2025 23:41:58.181,23 Jan 2025 23:48:18.140,379.959,0.001205
448,24 Jan 2025 01:16:40.808,24 Jan 2025 01:23:02.938,382.130,0.001212
449,24 Jan 2025 02:51:23.519,24 Jan 2025 02:57:46.101,382.582,0.001213
450,24 Jan 2025 04:26:06.308,24 Jan 2025 04:32:27.777,381.470,0.001210
451,24 Jan 2025 06:00:42.870,24 Jan 2025 06:00:59.440,16.569,0.000053
452,24 Jan 2025 06:01:01.360,24 Jan 2025 06:05:12.308,250.948,0.000796
453,24 Jan 2025 06:05:13.026,24 Jan 2025 06:07:07.826,114.800,0.000364
454,24 Jan 2025 07:35:43.709,24 Jan 2025 07:41:51.370,367.662,0.001166
455,24 Jan 2025 09:10:26.159,24 Jan 2025 09:15:58.116,331.957,0.001053
456,24 Jan 2025 09:16:01.473,24 Jan 2025 09:16:42.240,40.767,0.000129
457,24 Jan 2025 10:45:03.812,24 Jan 2025 10:45:07.900,4.088,0.000013
458,24 Jan 2025 10:45:08.704,24 Jan 2025 10:51:28.962,380.258,0.001206
459,24 Jan 2025 12:19:51.340,24 Jan 2025 12:26:13.585,382.245,0.001212
460,24 Jan 2025 13:54:34.062,24 Jan 2025 14:00:56.606,382.544,0.001213
461,24 Jan 2025 15:29:16.857,24 Jan 2025 15:35:38.133,381.275,0.001209
462,24 Jan 2025 17:04:11.859,24 Jan 2025 17:10:18.002,366.143,0.001161
463,24 Jan 2025 18:38:54.217,24 Jan 2025 18:45:03.077,368.860,0.001170
464,24 Jan 2025 20:13:36.678,24 Jan 2025 20:19:08.341,331.663,0.001052
465,24 Jan 2025 20:19:13.811,24 Jan 2025 20:19:53.290,39.479,0.000125
466,24 Jan 2025 21:48:19.234,24 Jan 2025 21:54:39.765,380.531,0.001207
467,24 Jan 2025 23:23:01.878,24 Jan 2025 23:27:59.812,297.933,0.000945
468,24 Jan 2025 23:28:00.245,24 Jan 2025 23:29:24.220,83.975,0.000266
469,25 Jan 2025 00:57:44.604,25 Jan 2025 01:04:07.096,382.492,0.001213
470,25 Jan 2025 02:32:27.409,25 Jan 2025 02:38:48.474,381.066,0.001208
471,25 Jan 2025 04:07:02.228,25 Jan 2025 04:07:21.596,19.368,0.000061
472,25 Jan 2025 04:07:22.357,25 Jan 2025 04:13:28.163,365.806,0.001160
473,25 Jan 2025 05:42:04.725,25 Jan 2025 05:48:14.656,369.931,0.001173
474,25 Jan 2025 07:16:47.198,25 Jan 2025 07:22:18.549,331.351,0.001051
475,25 Jan 2025 07:22:23.999,25 Jan 2025 07:23:04.309,40.311,0.000128
476,25 Jan 2025 08:51:21.024,25 Jan 2025 08:57:50.549,389.525,0.001235
477,25 Jan 2025 10:26:12.415,25 Jan 2025 10:31:10.116,297.701,0.000944
478,25 Jan 2025 10:31:11.976,25 Jan 2025 10:32:34.839,82.863,0.000263
479,25 Jan 2025 12:00:55.148,25 Jan 2025 12:07:17.573,382.425,0.001213
480,25 Jan 2025 13:35:37.960,25 Jan 2025 13:41:58.801,380.840,0.001208
481,25 Jan 2025 15:10:32.854,25 Jan 2025 15:16:38.297,365.443,0.001159
482,25 Jan 2025 16:45:15.236,25 Jan 2025 16:51:26.139,370.903,0.001176
483,25 Jan 2025 18:19:57.716,25 Jan 2025 18:25:28.738,331.021,0.001050
484,25 Jan 2025 18:25:34.087,25 Jan 2025 18:26:15.299,41.212,0.000131
485,25 Jan 2025 19:54:40.291,25 Jan 2025 20:01:01.318,381.028,0.001208
486,25 Jan 2025 21:29:22.951,25 Jan 2025 21:34:20.404,297.454,0.000943
487,25 Jan 2025 21:34:23.451,25 Jan 2025 21:35:45.446,81.995,0.000260
488,25 Jan 2025 23:04:05.693,25 Jan 2025 23:10:28.032,382.339,0.001212
489,26 Jan 2025 00:38:48.509,26 Jan 2025 00:45:09.104,380.596,0.001207
490,26 Jan 2025 02:13:43.358,26 Jan 2025 02:19:48.411,365.053,0.001158
491,26 Jan 2025 03:48:25.748,26 Jan 2025 03:54:37.537,371.789,0.001179
492,26 Jan 2025 05:23:08.236,26 Jan 2025 05:28:38.911,330.674,0.001049
493,26 Jan 2025 05:28:44.199,26 Jan 2025 05:29:26.261,42.062,0.000133
494,26 Jan 2025 06:57:39.794,26 Jan 2025 07:04:12.064,392.270,0.001244
495,26 Jan 2025 08:32:33.489,26 Jan 2025 08:37:30.684,297.195,0.000942
496,26 Jan 2025 08:37:33.651,26 Jan 2025 08:38:56.036,82.385,0.000261
497,26 Jan 2025 10:07:16.238,26 Jan 2025 10:13:38.477,382.239,0.001212
498,26 Jan 2025 11:41:59.064,26 Jan 2025 11:48:19.399,380.334,0.001206
499,26 Jan 2025 13:16:53.861,26 Jan 2025 13:22:58.499,364.639,0.001156
500,26 Jan 2025 14:51:36.261,26 Jan 2025 14:57:48.866,372.604,0.001182
501,26 Jan 2025 16:26:18.759,26 Jan 2025 16:31:49.068,330.309,0.001047
502,26 Jan 2025 16:31:54.336,26 Jan 2025 16:32:37.200,42.864,0.000136
503,26 Jan 2025 18:01:01.350,26 Jan 2025 18:07:22.799,381.448,0.001210
504,26 Jan 2025 19:35:44.027,26 Jan 2025 19:40:40.946,296.919,0.000942
505,26 Jan 2025 19:40:43.872,26 Jan 2025 19:42:06.614,82.741,0.000262
506,26 Jan 2025 21:10:26.781,26 Jan 2025 21:16:48.912,382.131,0.001212
507,26 Jan 2025 22:45:09.617,26 Jan 2025 22:51:29.675,380.058,0.001205
508,27 Jan 2025 00:20:04.364,27 Jan 2025 00:26:08.562,364.198,0.001155
509,27 Jan 2025 01:54:46.773,27 Jan 2025 02:01:00.135,373.361,0.001184
510,27 Jan 2025 03:29:29.283,27 Jan 2025 03:35:00.985,331.703,0.001052
511,27 Jan 2025 03:35:04.499,27 Jan 2025 03:35:48.115,43.616,0.000138
512,27 Jan 2025 05:03:59.031,27 Jan 2025 05:10:33.515,394.484,0.001251
513,27 Jan 2025 06:38:54.566,27 Jan 2025 06:43:52.266,297.700,0.000944
514,27 Jan 2025 06:43:54.110,27 Jan 2025 06:45:17.175,83.065,0.000263
515,27 Jan 2025 08:13:37.331,27 Jan 2025 08:19:59.333,382.002,0.001211
516,27 Jan 2025 09:48:18.398,27 Jan 2025 09:54:39.933,381.536,0.001210
517,27 Jan 2025 11:23:14.867,27 Jan 2025 11:29:18.599,363.732,0.001153
518,27 Jan 2025 12:57:57.288,27 Jan 2025 13:04:11.354,374.066,0.001186
519,27 Jan 2025 14:32:39.805,27 Jan 2025 14:38:12.709,332.905,0.001056
520,27 Jan 2025 14:38:14.683,27 Jan 2025 14:38:59.003,44.320,0.000141
521,27 Jan 2025 16:07:22.414,27 Jan 2025 16:13:44.215,381.801,0.001211
522,27 Jan 2025 17:42:05.103,27 Jan 2025 17:47:03.780,298.677,0.000947
523,27 Jan 2025 17:47:04.364,27 Jan 2025 17:48:27.724,83.361,0.000264
524,27 Jan 2025 19:16:47.875,27 Jan 2025 19:23:09.737,381.862,0.001211
525,27 Jan 2025 20:51:30.727,27 Jan 2025 20:57:50.175,379.448,0.001203
526,27 Jan 2025 22:26:25.373,27 Jan 2025 22:32:29.451,364.078,0.001154
527,28 Jan 2025 00:01:07.803,28 Jan 2025 00:07:22.522,374.719,0.001188
528,28 Jan 2025 01:35:50.328,28 Jan 2025 01:41:24.303,333.974,0.001059
529,28 Jan 2025 01:41:24.886,28 Jan 2025 01:42:09.872,44.986,0.000143
530,28 Jan 2025 03:10:18.523,28 Jan 2025 03:10:29.304,10.781,0.000034
531,28 Jan 2025 03:10:32.946,28 Jan 2025 03:16:54.897,381.951,0.001211
532,28 Jan 2025 04:45:15.647,28 Jan 2025 04:51:38.263,382.616,0.001213
533,28 Jan 2025 06:19:58.426,28 Jan 2025 06:26:20.125,381.699,0.001210
534,28 Jan 2025 07:54:36.800,28 Jan 2025 07:59:04.602,267.802,0.000849
535,28 Jan 2025 07:59:04.898,28 Jan 2025 08:01:00.397,115.499,0.000366
536,28 Jan 2025 09:29:35.879,28 Jan 2025 09:35:41.700,365.821,0.001160
537,28 Jan 2025 11:04:18.318,28 Jan 2025 11:09:50.631,332.313,0.001054
538,28 Jan 2025 11:09:51.784,28 Jan 2025 11:10:33.654,41.870,0.000133
539,28 Jan 2025 12:39:00.855,28 Jan 2025 12:45:20.719,379.865,0.001205
540,28 Jan 2025 14:13:43.477,28 Jan 2025 14:20:05.569,382.092,0.001212
541,28 Jan 2025 15:48:26.185,28 Jan 2025 15:54:48.781,382.596,0.001213
542,28 Jan 2025 17:23:08.976,28 Jan 2025 17:29:30.498,381.523,0.001210
543,28 Jan 2025 18:57:51.838,28 Jan 2025 19:02:14.952,263.115,0.000834
544,28 Jan 2025 19:02:15.770,28 Jan 2025 19:04:10.604,114.833,0.000364
545,28 Jan 2025 20:32:46.387,28 Jan 2025 20:38:53.652,367.265,0.001165
546,28 Jan 2025 22:07:28.836,28 Jan 2025 22:13:00.877,332.041,0.001053
547,28 Jan 2025 22:13:03.674,28 Jan 2025 22:13:44.747,41.073,0.000130
548,28 Jan 2025 23:42:11.381,28 Jan 2025 23:48:31.548,380.167,0.001206
549,29 Jan 2025 01:16:54.014,29 Jan 2025 01:23:16.225,382.211,0.001212
550,29 Jan 2025 02:51:36.730,29 Jan 2025 02:57:59.286,382.557,0.001213
551,29 Jan 2025 04:26:19.524,29 Jan 2025 04:32:40.860,381.336,0.001209
552,29 Jan 2025 06:00:55.876,29 Jan 2025 06:07:20.784,384.908,0.001221
553,29 Jan 2025 07:35:56.896,29 Jan 2025 07:42:05.404,368.508,0.001169
554,29 Jan 2025 09:10:39.353,29 Jan 2025 09:16:11.109,331.756,0.001052
555,29 Jan 2025 09:16:15.877,29 Jan 2025 09:16:55.810,39.932,0.000127
556,29 Jan 2025 10:45:16.222,29 Jan 2025 10:51:42.356,386.134,0.001224
557,29 Jan 2025 12:20:04.546,29 Jan 2025 12:25:02.551,298.004,0.000945
558,29 Jan 2025 12:25:02.587,29 Jan 2025 12:26:26.861,84.275,0.000267
559,29 Jan 2025 13:54:47.273,29 Jan 2025 14:01:09.781,382.508,0.001213
560,29 Jan 2025 15:29:30.074,29 Jan 2025 15:35:51.205,381.131,0.001209
561,29 Jan 2025 17:04:12.953,29 Jan 2025 17:10:30.948,377.995,0.001199
562,29 Jan 2025 18:39:07.404,29 Jan 2025 18:45:17.020,369.615,0.001172
563,29 Jan 2025 20:13:49.872,29 Jan 2025 20:19:21.322,331.449,0.001051
564,29 Jan 2025 20:19:26.810,29 Jan 2025 20:20:06.835,40.025,0.000127
565,29 Jan 2025 21:48:32.435,29 Jan 2025 21:54:53.146,380.711,0.001207
566,29 Jan 2025 23:23:15.084,29 Jan 2025 23:28:12.857,297.773,0.000944
567,29 Jan 2025 23:28:14.265,29 Jan 2025 23:29:37.486,83.221,0.000264
568,30 Jan 2025 00:57:57.816,30 Jan 2025 01:04:20.262,382.446,0.001213
569,30 Jan 2025 02:32:40.626,30 Jan 2025 02:39:01.535,380.909,0.001208
570,30 Jan 2025 04:07:15.272,30 Jan 2025 04:07:35.008,19.736,0.000063
571,30 Jan 2025 04:07:35.538,30 Jan 2025 04:13:41.092,365.553,0.001159
572,30 Jan 2025 05:42:17.914,30 Jan 2025 05:48:28.531,370.617,0.001175
573,30 Jan 2025 07:17:00.391,30 Jan 2025 07:22:31.515,331.124,0.001050
574,30 Jan 2025 07:22:36.891,30 Jan 2025 07:23:17.832,40.941,0.000130
575,30 Jan 2025 08:51:33.916,30 Jan 2025 08:58:03.918,390.002,0.001237
576,30 Jan 2025 10:26:25.622,30 Jan 2025 10:31:23.153,297.532,0.000943
577,30 Jan 2025 10:31:26.137,30 Jan 2025 10:32:48.095,81.958,0.000260
578,30 Jan 2025 12:01:08.360,30 Jan 2025 12:07:30.729,382.369,0.001212
579,30 Jan 2025 13:35:51.178,30 Jan 2025 13:42:11.848,380.670,0.001207
580,30 Jan 2025 15:10:46.036,30 Jan 2025 15:16:51.212,365.176,0.001158
581,30 Jan 2025 16:45:28.425,30 Jan 2025 16:51:39.952,371.527,0.001178
582,30 Jan 2025 18:20:10.912,30 Jan 2025 18:25:41.697,330.786,0.001049
583,30 Jan 2025 18:25:46.999,30 Jan 2025 18:26:28.805,41.806,0.000133
584,30 Jan 2025 19:54:53.492,30 Jan 2025 20:01:14.675,381.183,0.001209
585,30 Jan 2025 21:29:36.158,30 Jan 2025 21:34:33.433,297.275,0.000943
586,30 Jan 2025 21:34:36.420,30 Jan 2025 21:35:58.692,82.272,0.000261
587,30 Jan 2025 23:04:18.905,30 Jan 2025 23:10:41.178,382.273,0.001212
588,31 Jan 2025 00:39:01.727,31 Jan 2025 00:45:22.148,380.422,0.001206
589,31 Jan 2025 02:13:56.540,31 Jan 2025 02:20:01.310,364.770,0.001157
590,31 Jan 2025 03:48:38.937,31 Jan 2025 03:54:51.300,372.363,0.001181
591,31 Jan 2025 05:23:21.432,31 Jan 2025 05:28:51.854,330.422,0.001048
592,31 Jan 2025 05:28:57.128,31 Jan 2025 05:29:39.749,42.621,0.000135
593,31 Jan 2025 06:57:52.777,31 Jan 2025 07:04:25.408,392.631,0.001245
594,31 Jan 2025 08:32:46.696,31 Jan 2025 08:37:43.703,297.006,0.000942
595,31 Jan 2025 08:37:46.636,31 Jan 2025 08:39:09.272,82.636,0.000262
596,31 Jan 2025 10:07:29.451,31 Jan 2025 10:13:51.613,382.162,0.001212
597,31 Jan 2025 11:42:12.282,31 Jan 2025 11:48:32.426,380.143,0.001205
598,31 Jan 2025 13:17:07.043,31 Jan 2025 13:23:11.381,364.338,0.001155
599,31 Jan 2025 14:51:49.451,31 Jan 2025 14:58:02.586,373.135,0.001183
600,31 Jan 2025 16:26:31.956,31 Jan 2025 16:32:03.253,331.297,0.001051
601,31 Jan 2025 16:32:07.283,31 Jan 2025 16:32:50.669,43.386,0.000138
602,31 Jan 2025 18:01:14.552,31 Jan 2025 18:07:36.129,381.577,0.001210
603,31 Jan 2025 19:35:57.235,31 Jan 2025 19:40:54.613,297.378,0.000943
604,31 Jan 2025 19:40:56.867,31 Jan 2025 19:42:19.840,82.973,0.000263
605,31 Jan 2025 21:10:39.994,31 Jan 2025 21:17:02.038,382.044,0.001211
606,31 Jan 2025 22:45:22.835,31 Jan 2025 22:51:42.690,379.855,0.001205
607,1 Feb 2025 00:20:17.547,1 Feb 2025 00:26:21.426,363.879,0.001154
608,1 Feb 2025 01:54:59.964,1 Feb 2025 02:01:13.819,373.855,0.001185
609,1 Feb 2025 03:29:42.479,1 Feb 2025 03:35:15.035,332.555,0.001055
610,1 Feb 2025 03:35:17.459,1 Feb 2025 03:36:01.566,44.107,0.000140
611,1 Feb 2025 05:04:12.058,1 Feb 2025 05:10:46.837,394.778,0.001252
612,1 Feb 2025 06:39:07.775,1 Feb 2025 06:44:06.164,298.389,0.000946
613,1 Feb 2025 06:44:07.118,1 Feb 2025 06:45:30.391,83.273,0.000264
614,1 Feb 2025 08:13:50.544,1 Feb 2025 08:20:12.449,381.904,0.001211
615,1 Feb 2025 09:48:31.207,1 Feb 2025 09:54:52.939,381.732,0.001210
616,1 Feb 2025 11:23:28.051,1 Feb 2025 11:29:31.500,363.449,0.001152
617,1 Feb 2025 12:58:10.478,1 Feb 2025 13:04:25.004,374.525,0.001188
618,1 Feb 2025 14:32:53.002,1 Feb 2025 14:38:26.658,333.655,0.001058
619,1 Feb 2025 14:38:27.655,1 Feb 2025 14:39:12.442,44.786,0.000142
620,1 Feb 2025 16:07:35.617,1 Feb 2025 16:13:57.525,381.908,0.001211
621,1 Feb 2025 17:42:18.312,1 Feb 2025 17:48:40.931,382.619,0.001213
622,1 Feb 2025 19:17:01.089,1 Feb 2025 19:23:22.843,381.754,0.001211
623,1 Feb 2025 20:51:43.947,1 Feb 2025 20:58:03.165,379.219,0.001202
624,1 Feb 2025 22:26:38.558,1 Feb 2025 22:32:43.884,365.326,0.001158
625,2 Feb 2025 00:01:20.995,2 Feb 2025 00:06:53.386,332.391,0.001054
626,2 Feb 2025 00:06:54.079,2 Feb 2025 00:07:36.148,42.069,0.000133
627,2 Feb 2025 01:36:03.526,2 Feb 2025 01:42:23.295,379.769,0.001204
628,2 Feb 2025 03:10:31.583,2 Feb 2025 03:17:08.197,396.614,0.001258
629,2 Feb 2025 04:45:28.856,2 Feb 2025 04:51:51.460,382.604,0.001213
630,2 Feb 2025 06:20:11.641,2 Feb 2025 06:26:33.221,381.580,0.001210
631,2 Feb 2025 07:54:49.756,2 Feb 2025 07:59:17.680,267.925,0.000850
632,2 Feb 2025 07:59:18.511,2 Feb 2025 08:01:13.375,114.863,0.000364
633,2 Feb 2025 09:29:49.065,2 Feb 2025 09:35:55.908,366.844,0.001163
634,2 Feb 2025 11:04:31.510,2 Feb 2025 11:10:03.637,332.126,0.001053
635,2 Feb 2025 11:10:05.905,2 Feb 2025 11:10:47.251,41.346,0.000131
636,2 Feb 2025 12:39:14.053,2 Feb 2025 12:45:34.132,380.079,0.001205
637,2 Feb 2025 14:13:56.681,2 Feb 2025 14:20:18.858,382.177,0.001212
638,2 Feb 2025 15:48:39.395,2 Feb 2025 15:55:01.969,382.573,0.001213
639,2 Feb 2025 17:23:22.191,2 Feb 2025 17:29:43.584,381.393,0.001209
640,2 Feb 2025 18:58:05.057,2 Feb 2025 19:02:28.520,263.462,0.000835
641,2 Feb 2025 19:02:28.817,2 Feb 2025 19:04:23.565,114.747,0.000364
642,2 Feb 2025 20:32:59.573,2 Feb 2025 20:39:07.715,368.142,0.001167
643,2 Feb 2025 22:07:42.028,2 Feb 2025 22:13:13.876,331.847,0.001052
644,2 Feb 2025 22:13:17.989,2 Feb 2025 22:13:58.320,40.331,0.000128
645,2 Feb 2025 23:42:24.580,2 Feb 2025 23:48:44.945,380.365,0.001206
646,3 Feb 2025 01:17:07.219,3 Feb 2025 01:23:29.504,382.285,0.001212
647,3 Feb 2025 02:51:49.940,3 Feb 2025 02:58:12.467,382.526,0.001213
648,3 Feb 2025 04:26:32.740,3 Feb 2025 04:32:53.938,381.198,0.001209
649,3 Feb 2025 06:01:08.893,3 Feb 2025 06:07:33.738,384.845,0.001220
650,3 Feb 2025 07:36:10.083,3 Feb 2025 07:42:19.371,369.288,0.001171
651,3 Feb 2025 09:10:52.547,3 Feb 2025 09:16:24.094,331.547,0.001051
652,3 Feb 2025 09:16:29.626,3 Feb 2025 09:17:09.358,39.733,0.000126
653,3 Feb 2025 10:45:28.829,3 Feb 2025 10:51:55.738,386.908,0.001227
654,3 Feb 2025 12:20:17.752,3 Feb 2025 12:25:15.599,297.847,0.000944
655,3 Feb 2025 12:25:16.567,3 Feb 2025 12:26:40.130,83.563,0.000265
656,3 Feb 2025 13:55:00.484,3 Feb 2025 14:01:22.950,382.465,0.001213
657,3 Feb 2025 15:29:43.290,3 Feb 2025 15:36:04.269,380.979,0.001208
658,3 Feb 2025 17:04:26.174,3 Feb 2025 17:10:43.887,377.713,0.001198
659,3 Feb 2025 18:39:20.592,3 Feb 2025 18:45:30.908,370.316,0.001174
660,3 Feb 2025 20:14:03.067,3 Feb 2025 20:19:34.295,331.228,0.001050
661,3 Feb 2025 20:19:39.699,3 Feb 2025 20:20:20.364,40.665,0.000129
662,3 Feb 2025 21:48:45.635,3 Feb 2025 21:55:06.515,380.880,0.001208
663,3 Feb 2025 23:23:28.291,3 Feb 2025 23:28:25.897,297.606,0.000944
664,3 Feb 2025 23:28:28.373,3 Feb 2025 23:29:50.745,82.372,0.000261
665,4 Feb 2025 00:58:11.028,4 Feb 2025 01:04:33.421,382.393,0.001213
666,4 Feb 2025 02:32:53.843,4 Feb 2025 02:39:14.589,380.746,0.001207
667,4 Feb 2025 04:07:28.323,4 Feb 2025 04:13:54.011,385.689,0.001223
668,4 Feb 2025 05:42:31.102,4 Feb 2025 05:48:42.358,371.255,0.001177
669,4 Feb 2025 07:17:13.586,4 Feb 2025 07:22:44.478,330.892,0.001049
670,4 Feb 2025 07:22:49.797,4 Feb 2025 07:23:31.344,41.547,0.000132
671,4 Feb 2025 08:51:46.830,4 Feb 2025 08:58:17.277,390.448,0.001238
672,4 Feb 2025 10:26:38.829,4 Feb 2025 10:31:36.185,297.356,0.000943
673,4 Feb 2025 10:31:39.196,4 Feb 2025 10:33:01.344,82.148,0.000260
674,4 Feb 2025 12:01:21.573,4 Feb 2025 12:07:43.878,382.305,0.001212
675,4 Feb 2025 13:36:04.395,4 Feb 2025 13:42:24.893,380.498,0.001207
676,4 Feb 2025 15:10:47.292,4 Feb 2025 15:17:04.120,376.828,0.001195
677,4 Feb 2025 16:45:41.615,4 Feb 2025 16:51:53.728,372.113,0.001180
678,4 Feb 2025 18:20:24.108,4 Feb 2025 18:25:54.641,330.533,0.001048
679,4 Feb 2025 18:25:59.921,4 Feb 2025 18:26:42.298,42.377,0.000134
680,4 Feb 2025 19:55:06.695,4 Feb 2025 20:01:28.020,381.326,0.001209
681,4 Feb 2025 21:29:49.366,4 Feb 2025 21:34:46.456,297.090,0.000942
682,4 Feb 2025 21:34:49.405,4 Feb 2025 21:36:11.932,82.526,0.000262
683,4 Feb 2025 23:04:32.119,4 Feb 2025 23:10:54.318,382.199,0.001212
684,5 Feb 2025 00:39:14.945,5 Feb 2025 00:45:35.180,380.235,0.001206
685,5 Feb 2025 02:13:47.945,5 Feb 2025 02:13:57.435,9.489,0.000030
686,5 Feb 2025 02:14:09.724,5 Feb 2025 02:20:14.199,364.476,0.001156
687,5 Feb 2025 03:48:52.128,5 Feb 2025 03:55:05.033,372.905,0.001182
688,5 Feb 2025 05:23:34.629,5 Feb 2025 05:29:05.505,330.876,0.001049
689,5 Feb 2025 05:29:10.069,5 Feb 2025 05:29:53.224,43.155,0.000137
690,5 Feb 2025 06:58:05.776,5 Feb 2025 07:04:38.745,392.969,0.001246
691,5 Feb 2025 08:32:59.905,5 Feb 2025 08:37:56.948,297.043,0.000942
692,5 Feb 2025 08:37:59.631,5 Feb 2025 08:39:22.502,82.871,0.000263
693,5 Feb 2025 10:07:42.665,5 Feb 2025 10:14:04.748,382.083,0.001212
694,5 Feb 2025 11:42:25.502,5 Feb 2025 11:48:45.446,379.944,0.001205
695,5 Feb 2025 13:17:20.228,5 Feb 2025 13:23:24.252,364.024,0.001154
696,5 Feb 2025 14:52:02.643,5 Feb 2025 14:58:16.281,373.638,0.001185
697,5 Feb 2025 16:26:45.154,5 Feb 2025 16:32:17.338,332.184,0.001053
698,5 Feb 2025 16:32:20.236,5 Feb 2025 16:33:04.128,43.891,0.000139
699,5 Feb 2025 18:01:27.756,5 Feb 2025 18:07:49.455,381.699,0.001210
700,5 Feb 2025 19:36:10.444,5 Feb 2025 19:41:08.532,298.088,0.000945
701,5 Feb 2025 19:41:09.872,5 Feb 2025 19:42:33.060,83.188,0.000264
702,5 Feb 2025 21:10:53.209,5 Feb 2025 21:17:15.159,381.949,0.001211
703,5 Feb 2025 22:45:36.055,5 Feb 2025 22:51:55.699,379.644,0.001204
704,6 Feb 2025 00:20:30.733,6 Feb 2025 00:26:34.277,363.545,0.001153
705,6 Feb 2025 01:55:13.156,6 Feb 2025 02:01:27.480,374.323,0.001187
706,6 Feb 2025 03:29:55.678,6 Feb 2025 03:35:29.009,333.331,0.001057
707,6 Feb 2025 03:35:30.426,6 Feb 2025 03:36:15.011,44.585,0.000141
708,6 Feb 2025 05:04:25.098,6 Feb 2025 05:11:00.152,395.054,0.001253
709,6 Feb 2025 06:39:20.985,6 Feb 2025 06:44:20.012,299.027,0.000948
710,6 Feb 2025 06:44:20.134,6 Feb 2025 06:45:43.602,83.469,0.000265
711,6 Feb 2025 08:14:03.760,6 Feb 2025 08:20:25.559,381.799,0.001211
712,6 Feb 2025 09:48:44.055,6 Feb 2025 09:55:05.935,381.880,0.001211
713,6 Feb 2025 11:23:41.237,6 Feb 2025 11:29:46.034,364.797,0.001157
714,6 Feb 2025 12:58:23.672,6 Feb 2025 13:03:56.141,332.470,0.001054
715,6 Feb 2025 13:03:56.388,6 Feb 2025 13:04:38.633,42.245,0.000134
716,6 Feb 2025 14:33:06.202,6 Feb 2025 14:38:40.554,334.352,0.001060
717,6 Feb 2025 14:38:40.641,6 Feb 2025 14:39:25.871,45.231,0.000143
718,6 Feb 2025 16:07:48.822,6 Feb 2025 16:14:10.830,382.007,0.001211
719,6 Feb 2025 17:42:31.523,6 Feb 2025 17:48:54.132,382.609,0.001213
720,6 Feb 2025 19:17:14.305,6 Feb 2025 19:23:35.944,381.638,0.001210
721,6 Feb 2025 20:51:57.168,6 Feb 2025 20:56:20.409,263.241,0.000835
722,6 Feb 2025 20:56:21.192,6 Feb 2025 20:58:16.149,114.956,0.000365
723,6 Feb 2025 22:26:51.746,6 Feb 2025 22:32:58.152,366.407,0.001162
724,7 Feb 2025 00:01:34.189,7 Feb 2025 00:07:06.401,332.212,0.001053
725,7 Feb 2025 00:07:08.156,7 Feb 2025 00:07:49.752,41.596,0.000132
726,7 Feb 2025 01:36:16.727,7 Feb 2025 01:42:36.711,379.984,0.001205
727,7 Feb 2025 03:10:44.649,7 Feb 2025 03:17:21.491,396.843,0.001258
728,7 Feb 2025 04:45:42.068,7 Feb 2025 04:52:04.652,382.584,0.001213
729,7 Feb 2025 06:20:24.858,7 Feb 2025 06:26:46.311,381.454,0.001210
730,7 Feb 2025 07:55:02.727,7 Feb 2025 07:59:30.929,268.202,0.000850
731,7 Feb 2025 07:59:31.558,7 Feb 2025 08:01:26.347,114.789,0.000364
732,7 Feb 2025 09:30:02.253,7 Feb 2025 09:36:10.015,367.763,0.001166
733,7 Feb 2025 11:04:44.705,7 Feb 2025 11:10:16.638,331.932,0.001053
734,7 Feb 2025 11:10:20.151,7 Feb 2025 11:11:00.834,40.683,0.000129
735,7 Feb 2025 12:39:27.254,7 Feb 2025 12:45:47.532,380.277,0.001206
736,7 Feb 2025 14:14:09.888,7 Feb 2025 14:20:32.142,382.254,0.001212
737,7 Feb 2025 15:48:52.608,7 Feb 2025 15:55:15.151,382.544,0.001213
738,7 Feb 2025 17:23:35.408,7 Feb 2025 17:29:56.664,381.255,0.001209
739,7 Feb 2025 18:58:18.280,7 Feb 2025 19:04:36.522,378.242,0.001199
740,7 Feb 2025 20:33:12.762,7 Feb 2025 20:39:21.713,368.951,0.001170
741,7 Feb 2025 22:07:55.222,7 Feb 2025 22:13:26.863,331.641,0.001052
742,7 Feb 2025 22:13:32.443,7 Feb 2025 22:14:11.877,39.433,0.000125
743,7 Feb 2025 23:42:37.782,7 Feb 2025 23:48:58.336,380.554,0.001207
744,8 Feb 2025 01:17:20.426,8 Feb 2025 01:22:18.341,297.914,0.000945
745,8 Feb 2025 01:22:18.887,8 Feb 2025 01:23:42.778,83.891,0.000266
746,8 Feb 2025 02:52:03.153,8 Feb 2025 02:58:25.640,382.486,0.001213
747,8 Feb 2025 04:26:45.958,8 Feb 2025 04:33:07.005,381.047,0.001208
748,8 Feb 2025 06:01:21.915,8 Feb 2025 06:07:46.677,384.762,0.001220
749,8 Feb 2025 07:36:23.272,8 Feb 2025 07:42:33.283,370.011,0.001173
750,8 Feb 2025 09:11:05.743,8 Feb 2025 09:16:37.069,331.326,0.001051
751,8 Feb 2025 09:16:42.509,8 Feb 2025 09:17:22.895,40.386,0.000128
752,8 Feb 2025 10:45:41.533,8 Feb 2025 10:52:09.115,387.582,0.001229
753,8 Feb 2025 12:20:30.960,8 Feb 2025 12:25:28.643,297.683,0.000944
754,8 Feb 2025 12:25:30.632,8 Feb 2025 12:26:53.394,82.762,0.000262
755,8 Feb 2025 13:55:13.698,8 Feb 2025 14:01:36.113,382.415,0.001213
756,8 Feb 2025 15:29:56.509,8 Feb 2025 15:36:17.328,380.819,0.001208
757,8 Feb 2025 17:04:39.398,8 Feb 2025 17:10:56.814,377.417,0.001197
758,8 Feb 2025 18:39:33.783,8 Feb 2025 18:45:44.758,370.974,0.001176
759,8 Feb 2025 20:14:16.264,8 Feb 2025 20:19:47.261,330.997,0.001050
760,8 Feb 2025 20:19:52.598,8 Feb 2025 20:20:33.885,41.286,0.000131
761,8 Feb 2025 21:48:58.838,8 Feb 2025 21:55:19.881,381.043,0.001208
762,8 Feb 2025 23:23:41.500,8 Feb 2025 23:28:38.933,297.433,0.000943
763,8 Feb 2025 23:28:41.972,8 Feb 2025 23:30:03.999,82.027,0.000260
764,9 Feb 2025 00:58:24.242,9 Feb 2025 01:04:46.574,382.333,0.001212
765,9 Feb 2025 02:33:07.062,9 Feb 2025 02:39:27.636,380.574,0.001207
766,9 Feb 2025 04:07:41.378,9 Feb 2025 04:14:06.924,385.545,0.001223
767,9 Feb 2025 05:42:44.293,9 Feb 2025 05:48:56.151,371.858,0.001179
768,9 Feb 2025 07:17:26.783,9 Feb 2025 07:22:57.431,330.648,0.001048
769,9 Feb 2025 07:23:02.717,9 Feb 2025 07:23:44.843,42.126,0.000134
770,9 Feb 2025 08:51:59.764,9 Feb 2025 08:58:30.631,390.867,0.001239
771,9 Feb 2025 10:26:52.038,9 Feb 2025 10:31:49.208,297.170,0.000942
772,9 Feb 2025 10:31:52.175,9 Feb 2025 10:33:14.588,82.413,0.000261
773,9 Feb 2025 12:01:34.787,9 Feb 2025 12:07:57.022,382.235,0.001212
774,9 Feb 2025 13:36:17.615,9 Feb 2025 13:42:37.929,380.314,0.001206
775,9 Feb 2025 15:11:00.516,9 Feb 2025 15:17:17.011,376.495,0.001194
776,9 Feb 2025 16:45:54.806,9 Feb 2025 16:52:07.475,372.669,0.001182
777,9 Feb 2025 18:20:37.306,9 Feb 2025 18:26:07.737,330.431,0.001048
778,9 Feb 2025 18:26:12.858,9 Feb 2025 18:26:55.781,42.923,0.000136
779,9 Feb 2025 19:55:19.898,9 Feb 2025 20:01:41.362,381.463,0.001210
780,9 Feb 2025 21:30:02.575,9 Feb 2025 21:34:59.473,296.897,0.000941
781,9 Feb 2025 21:35:02.393,9 Feb 2025 21:36:25.166,82.773,0.000262
782,9 Feb 2025 23:04:45.333,9 Feb 2025 23:11:07.452,382.118,0.001212
783,10 Feb 2025 00:39:28.165,10 Feb 2025 00:45:48.202,380.037,0.001205
784,10 Feb 2025 02:14:01.019,10 Feb 2025 02:14:11.017,9.997,0.000032
785,10 Feb 2025 02:14:22.908,10 Feb 2025 02:20:27.073,364.165,0.001155
786,10 Feb 2025 03:49:05.320,10 Feb 2025 03:55:18.740,373.420,0.001184
787,10 Feb 2025 05:23:47.828,10 Feb 2025 05:29:19.632,331.805,0.001052
788,10 Feb 2025 05:29:23.016,10 Feb 2025 05:30:06.692,43.676,0.000138
789,10 Feb 2025 06:58:18.778,10 Feb 2025 07:04:52.075,393.297,0.001247
790,10 Feb 2025 08:33:13.115,10 Feb 2025 08:38:10.894,297.779,0.000944
791,10 Feb 2025 08:38:12.634,10 Feb 2025 08:39:35.726,83.093,0.000263
792,10 Feb 2025 10:07:55.880,10 Feb 2025 10:14:17.867,381.987,0.001211
793,10 Feb 2025 11:42:38.722,10 Feb 2025 11:48:58.462,379.740,0.001204
794,10 Feb 2025 13:17:33.413,10 Feb 2025 13:23:37.110,363.697,0.001153
795,10 Feb 2025 14:52:15.833,10 Feb 2025 14:58:29.952,374.119,0.001186
796,10 Feb 2025 16:26:58.353,10 Feb 2025 16:32:31.350,332.997,0.001056
797,10 Feb 2025 16:32:33.202,10 Feb 2025 16:33:17.579,44.376,0.000141
798,10 Feb 2025 18:01:40.961,10 Feb 2025 18:08:02.774,381.813,0.001211
799,10 Feb 2025 19:36:23.655,10 Feb 2025 19:41:22.404,298.750,0.000947
800,10 Feb 2025 19:41:22.886,10 Feb 2025 19:42:46.274,83.388,0.000264
801,10 Feb 2025 21:11:06.425,10 Feb 2025 21:17:28.272,381.848,0.001211
802,10 Feb 2025 22:45:49.276,10 Feb 2025 22:52:08.698,379.422,0.001203
803,11 Feb 2025 00:20:43.919,11 Feb 2025 00:26:48.150,364.231,0.001155
804,11 Feb 2025 01:55:26.349,11 Feb 2025 02:01:41.121,374.772,0.001188
805,11 Feb 2025 03:30:08.877,11 Feb 2025 03:35:42.927,334.050,0.001059
806,11 Feb 2025 03:35:43.405,11 Feb 2025 03:36:28.446,45.041,0.000143
807,11 Feb 2025 05:04:38.140,11 Feb 2025 05:11:13.460,395.320,0.001254
808,11 Feb 2025 06:39:34.196,11 Feb 2025 06:45:56.807,382.611,0.001213
809,11 Feb 2025 08:14:16.976,11 Feb 2025 08:20:38.662,381.686,0.001210
810,11 Feb 2025 09:48:56.928,11 Feb 2025 09:53:23.138,266.211,0.000844
811,11 Feb 2025 09:53:23.532,11 Feb 2025 09:55:18.920,115.388,0.000366
812,11 Feb 2025 11:23:54.424,11 Feb 2025 11:30:00.372,365.949,0.001160
813,11 Feb 2025 12:58:36.865,11 Feb 2025 13:04:09.157,332.292,0.001054
814,11 Feb 2025 13:04:10.429,11 Feb 2025 13:04:52.247,41.818,0.000133
815,11 Feb 2025 14:33:19.401,11 Feb 2025 14:39:39.290,379.888,0.001205
816,11 Feb 2025 16:08:02.028,11 Feb 2025 16:14:24.127,382.099,0.001212
817,11 Feb 2025 17:42:44.734,11 Feb 2025 17:49:07.327,382.593,0.001213
818,11 Feb 2025 19:17:27.521,11 Feb 2025 19:23:49.036,381.515,0.001210
819,11 Feb 2025 20:52:10.389,11 Feb 2025 20:56:33.486,263.096,0.000834
820,11 Feb 2025 20:56:34.299,11 Feb 2025 20:58:29.122,114.823,0.000364
821,11 Feb 2025 22:27:04.933,11 Feb 2025 22:33:12.301,367.368,0.001165
822,12 Feb 2025 00:01:47.383,12 Feb 2025 00:07:19.400,332.017,0.001053
823,12 Feb 2025 00:07:22.342,12 Feb 2025 00:08:03.339,40.997,0.000130
824,12 Feb 2025 01:36:29.927,12 Feb 2025 01:42:50.118,380.191,0.001206
825,12 Feb 2025 03:10:57.716,12 Feb 2025 03:17:34.778,397.062,0.001259
826,12 Feb 2025 04:45:55.279,12 Feb 2025 04:52:17.837,382.558,0.001213
827,12 Feb 2025 06:20:38.074,12 Feb 2025 06:26:59.394,381.319,0.001209
828,12 Feb 2025 07:55:15.702,12 Feb 2025 08:01:39.306,383.604,0.001216
829,12 Feb 2025 09:30:15.440,12 Feb 2025 09:36:24.042,368.602,0.001169
830,12 Feb 2025 11:04:57.899,12 Feb 2025 11:10:29.632,331.732,0.001052
831,12 Feb 2025 11:10:34.578,12 Feb 2025 11:11:14.394,39.817,0.000126
832,12 Feb 2025 12:39:40.455,12 Feb 2025 12:46:00.925,380.470,0.001206
833,12 Feb 2025 14:14:23.094,12 Feb 2025 14:19:21.081,297.987,0.000945
834,12 Feb 2025 14:19:21.219,12 Feb 2025 14:20:45.418,84.199,0.000267
835,12 Feb 2025 15:49:05.819,12 Feb 2025 15:55:28.326,382.507,0.001213
836,12 Feb 2025 17:23:48.625,12 Feb 2025 17:30:09.738,381.113,0.001209
837,12 Feb 2025 18:58:31.501,12 Feb 2025 19:04:49.468,377.966,0.001199
838,12 Feb 2025 20:33:25.950,12 Feb 2025 20:39:35.649,369.699,0.001172
839,12 Feb 2025 22:08:08.417,12 Feb 2025 22:13:39.843,331.426,0.001051
840,12 Feb 2025 22:13:45.319,12 Feb 2025 22:14:25.424,40.105,0.000127
841,12 Feb 2025 23:42:50.983,12 Feb 2025 23:49:11.716,380.734,0.001207
842,13 Feb 2025 01:17:33.633,13 Feb 2025 01:22:31.389,297.756,0.000944
843,13 Feb 2025 01:22:32.910,13 Feb 2025 01:23:56.044,83.134,0.000264
844,13 Feb 2025 02:52:16.365,13 Feb 2025 02:58:38.805,382.440,0.001213
845,13 Feb 2025 04:26:59.175,13 Feb 2025 04:33:20.069,380.893,0.001208
846,13 Feb 2025 06:01:34.943,13 Feb 2025 06:07:59.607,384.664,0.001220
847,13 Feb 2025 07:36:36.461,13 Feb 2025 07:42:47.152,370.691,0.001175
848,13 Feb 2025 09:11:18.939,13 Feb 2025 09:16:50.037,331.098,0.001050
849,13 Feb 2025 09:16:55.403,13 Feb 2025 09:17:36.417,41.014,0.000130
850,13 Feb 2025 10:45:54.298,13 Feb 2025 10:52:22.483,388.185,0.001231
851,13 Feb 2025 12:20:44.167,13 Feb 2025 12:25:41.680,297.513,0.000943
852,13 Feb 2025 12:25:44.749,13 Feb 2025 12:27:06.649,81.900,0.000260
853,13 Feb 2025 13:55:26.910,13 Feb 2025 14:01:49.272,382.361,0.001212
854,13 Feb 2025 15:30:09.726,13 Feb 2025 15:36:30.381,380.654,0.001207
855,13 Feb 2025 17:04:52.621,13 Feb 2025 17:11:09.729,377.109,0.001196
856,13 Feb 2025 18:39:46.968,13 Feb 2025 18:45:58.565,371.597,0.001178
857,13 Feb 2025 20:14:29.460,13 Feb 2025 20:20:00.217,330.757,0.001049
