3UCubedIntegratedSim/Reports & Plots/North Cusp/NorthCusp CSV/NorthCusp_Sat7.csv

Number,Coverage Start (UTCG),Coverage End (UTCG),Duration (sec),Percent,
1,2025-01-01 16:22:46,2025-01-01 16:25:55,189.108,0.060%,
2,2025-01-01 17:57:42,2025-01-01 18:00:37,175.51,0.056%,
3,2025-01-01 19:32:38,2025-01-01 19:35:20,161.818,0.051%,
4,2025-01-01 21:07:01,2025-01-01 21:10:02,180.921,0.057%,
5,2025-01-01 22:41:57,2025-01-01 22:44:44,166.955,0.053%,
6,2025-01-02 00:16:53,2025-01-02 00:19:26,152.954,0.049%,
7,2025-01-02 01:51:16,2025-01-02 01:54:23,186.417,0.059%,
8,2025-01-02 03:26:12,2025-01-02 03:29:05,172.893,0.055%,
9,2025-01-02 05:01:08,2025-01-02 05:03:48,159.387,0.051%,
10,2025-01-02 06:35:32,2025-01-02 06:38:30,178.529,0.057%,
11,2025-01-02 08:10:28,2025-01-02 08:13:12,164.657,0.052%,
12,2025-01-02 09:44:51,2025-01-02 09:44:54,3.283,0.001%,
13,2025-01-02 09:45:24,2025-01-02 09:47:54,150.865,0.048%,
14,2025-01-02 11:19:47,2025-01-02 11:22:36,169.598,0.054%,
15,2025-01-02 12:54:43,2025-01-02 12:57:33,170.201,0.054%,
16,2025-01-02 14:29:06,2025-01-02 14:32:16,189.627,0.060%,
17,2025-01-02 16:04:02,2025-01-02 16:06:58,176.025,0.056%,
18,2025-01-02 17:38:58,2025-01-02 17:41:41,162.292,0.052%,
19,2025-01-02 19:13:21,2025-01-02 19:16:23,181.377,0.058%,
20,2025-01-02 20:48:18,2025-01-02 20:51:05,167.4,0.053%,
21,2025-01-02 22:23:14,2025-01-02 22:25:47,153.365,0.049%,
22,2025-01-02 23:57:37,2025-01-03 00:00:44,186.966,0.059%,
23,2025-01-03 01:32:33,2025-01-03 01:35:26,173.423,0.055%,
24,2025-01-03 03:07:29,2025-01-03 03:10:09,159.877,0.051%,
25,2025-01-03 04:41:52,2025-01-03 04:44:51,179.012,0.057%,
26,2025-01-03 06:16:48,2025-01-03 06:19:33,165.12,0.052%,
27,2025-01-03 07:51:44,2025-01-03 07:54:15,151.277,0.048%,
28,2025-01-03 09:26:07,2025-01-03 09:28:57,170.019,0.054%,
29,2025-01-03 11:01:03,2025-01-03 11:03:54,170.745,0.054%,
30,2025-01-03 12:35:27,2025-01-03 12:38:37,190.144,0.060%,
31,2025-01-03 14:10:23,2025-01-03 14:13:19,176.53,0.056%,
32,2025-01-03 15:45:19,2025-01-03 15:48:02,162.766,0.052%,
33,2025-01-03 17:19:42,2025-01-03 17:22:44,181.83,0.058%,
34,2025-01-03 18:54:38,2025-01-03 18:57:26,167.844,0.053%,
35,2025-01-03 20:29:34,2025-01-03 20:32:08,153.768,0.049%,
36,2025-01-03 22:03:57,2025-01-03 22:07:05,187.511,0.060%,
37,2025-01-03 23:38:53,2025-01-03 23:41:47,173.953,0.055%,
38,2025-01-04 01:13:49,2025-01-04 01:16:30,160.36,0.051%,
39,2025-01-04 02:48:13,2025-01-04 02:51:12,179.494,0.057%,
40,2025-01-04 04:23:09,2025-01-04 04:25:54,165.576,0.053%,
41,2025-01-04 05:58:05,2025-01-04 06:00:36,151.691,0.048%,
42,2025-01-04 07:32:28,2025-01-04 07:35:18,170.432,0.054%,
43,2025-01-04 09:07:24,2025-01-04 09:10:15,171.29,0.054%,
44,2025-01-04 10:41:47,2025-01-04 10:44:58,190.65,0.061%,
45,2025-01-04 12:16:43,2025-01-04 12:19:40,177.033,0.056%,
46,2025-01-04 13:51:39,2025-01-04 13:54:23,163.239,0.052%,
47,2025-01-04 15:26:02,2025-01-04 15:29:05,182.275,0.058%,
48,2025-01-04 17:00:59,2025-01-04 17:03:47,168.281,0.053%,
49,2025-01-04 18:35:55,2025-01-04 18:38:29,154.167,0.049%,
50,2025-01-04 20:10:18,2025-01-04 20:13:26,188.052,0.060%,
51,2025-01-04 21:45:14,2025-01-04 21:48:08,174.476,0.055%,
52,2025-01-04 23:20:10,2025-01-04 23:22:51,160.846,0.051%,
53,2025-01-05 00:54:33,2025-01-05 00:57:33,179.967,0.057%,
54,2025-01-05 02:29:29,2025-01-05 02:32:15,166.032,0.053%,
55,2025-01-05 04:04:25,2025-01-05 04:06:57,152.103,0.048%,
56,2025-01-05 05:38:48,2025-01-05 05:41:39,170.847,0.054%,
57,2025-01-05 07:13:45,2025-01-05 07:16:36,171.828,0.055%,
58,2025-01-05 08:48:08,2025-01-05 08:48:39,31.301,0.010%,
59,2025-01-05 08:48:40,2025-01-05 08:51:19,158.402,0.050%,
60,2025-01-05 10:23:04,2025-01-05 10:26:01,177.531,0.056%,
61,2025-01-05 11:58:00,2025-01-05 12:00:44,163.706,0.052%,
62,2025-01-05 13:32:23,2025-01-05 13:35:26,182.719,0.058%,
63,2025-01-05 15:07:19,2025-01-05 15:10:08,168.712,0.054%,
64,2025-01-05 16:42:15,2025-01-05 16:44:50,154.566,0.049%,
65,2025-01-05 18:16:38,2025-01-05 18:19:47,188.58,0.060%,
66,2025-01-05 19:51:34,2025-01-05 19:54:29,174.994,0.056%,
67,2025-01-05 21:26:30,2025-01-05 21:29:12,161.326,0.051%,
68,2025-01-05 23:00:54,2025-01-05 23:03:54,180.437,0.057%,
69,2025-01-06 00:35:50,2025-01-06 00:38:36,166.481,0.053%,
70,2025-01-06 02:10:46,2025-01-06 02:13:18,152.511,0.048%,
71,2025-01-06 03:45:09,2025-01-06 03:48:00,171.249,0.054%,
72,2025-01-06 05:20:05,2025-01-06 05:22:57,172.365,0.055%,
73,2025-01-06 06:55:01,2025-01-06 06:57:40,158.894,0.050%,
74,2025-01-06 08:29:24,2025-01-06 08:32:22,178.028,0.057%,
75,2025-01-06 10:04:20,2025-01-06 10:07:05,164.176,0.052%,
76,2025-01-06 11:38:44,2025-01-06 11:41:47,183.152,0.058%,
77,2025-01-06 13:13:40,2025-01-06 13:16:29,169.142,0.054%,
78,2025-01-06 14:48:36,2025-01-06 14:51:11,154.96,0.049%,
79,2025-01-06 16:22:59,2025-01-06 16:26:08,189.11,0.060%,
80,2025-01-06 17:57:55,2025-01-06 18:00:50,175.506,0.056%,
81,2025-01-06 19:32:51,2025-01-06 19:35:33,161.804,0.051%,
82,2025-01-06 21:07:14,2025-01-06 21:10:15,180.9,0.057%,
83,2025-01-06 22:42:10,2025-01-06 22:44:57,166.928,0.053%,
84,2025-01-07 00:17:06,2025-01-07 00:19:39,152.918,0.049%,
85,2025-01-07 01:51:29,2025-01-07 01:54:21,171.649,0.054%,
86,2025-01-07 03:26:26,2025-01-07 03:29:18,172.896,0.055%,
87,2025-01-07 05:01:22,2025-01-07 05:04:01,159.379,0.051%,
88,2025-01-07 06:35:45,2025-01-07 06:38:43,178.516,0.057%,
89,2025-01-07 08:10:41,2025-01-07 08:13:25,164.636,0.052%,
90,2025-01-07 09:45:04,2025-01-07 09:48:08,183.579,0.058%,
91,2025-01-07 11:20:00,2025-01-07 11:22:50,169.563,0.054%,
92,2025-01-07 12:54:56,2025-01-07 12:57:32,155.356,0.049%,
93,2025-01-07 14:29:19,2025-01-07 14:32:29,189.627,0.060%,
94,2025-01-07 16:04:15,2025-01-07 16:07:11,176.019,0.056%,
95,2025-01-07 17:39:11,2025-01-07 17:41:54,162.277,0.052%,
96,2025-01-07 19:13:35,2025-01-07 19:16:36,181.355,0.058%,
97,2025-01-07 20:48:31,2025-01-07 20:51:18,167.37,0.053%,
98,2025-01-07 22:23:27,2025-01-07 22:26:00,153.326,0.049%,
99,2025-01-07 23:57:50,2025-01-08 00:00:42,172.044,0.055%,
100,2025-01-08 00:00:53,2025-01-08 00:00:57,4.23,0.001%,
101,2025-01-08 01:32:46,2025-01-08 01:35:39,173.425,0.055%,
102,2025-01-08 03:07:42,2025-01-08 03:10:22,159.868,0.051%,
103,2025-01-08 04:42:05,2025-01-08 04:45:04,178.997,0.057%,
104,2025-01-08 06:17:01,2025-01-08 06:19:46,165.098,0.052%,
105,2025-01-08 07:51:25,2025-01-08 07:54:29,183.996,0.058%,
106,2025-01-08 09:26:21,2025-01-08 09:29:11,169.984,0.054%,
107,2025-01-08 11:01:17,2025-01-08 11:03:52,155.742,0.049%,
108,2025-01-08 11:03:56,2025-01-08 11:04:07,11.727,0.004%,
109,2025-01-08 12:35:40,2025-01-08 12:38:50,190.142,0.060%,
110,2025-01-08 14:10:36,2025-01-08 14:13:32,176.523,0.056%,
111,2025-01-08 15:45:32,2025-01-08 15:48:15,162.749,0.052%,
112,2025-01-08 17:19:55,2025-01-08 17:22:57,181.804,0.058%,
113,2025-01-08 18:54:51,2025-01-08 18:57:39,167.811,0.053%,
114,2025-01-08 20:29:47,2025-01-08 20:32:21,153.728,0.049%,
115,2025-01-08 22:04:10,2025-01-08 22:07:18,187.518,0.060%,
116,2025-01-08 23:39:07,2025-01-08 23:42:01,173.952,0.055%,
117,2025-01-09 01:14:03,2025-01-09 01:16:43,160.349,0.051%,
118,2025-01-09 02:48:26,2025-01-09 02:51:25,179.477,0.057%,
119,2025-01-09 04:23:22,2025-01-09 04:26:07,165.552,0.053%,
120,2025-01-09 05:58:18,2025-01-09 06:00:50,151.656,0.048%,
121,2025-01-09 07:32:41,2025-01-09 07:35:31,170.396,0.054%,
122,2025-01-09 09:07:37,2025-01-09 09:10:28,171.296,0.054%,
123,2025-01-09 10:42:00,2025-01-09 10:45:11,190.646,0.061%,
124,2025-01-09 12:16:56,2025-01-09 12:19:53,177.024,0.056%,
125,2025-01-09 13:51:53,2025-01-09 13:54:36,163.221,0.052%,
126,2025-01-09 15:26:16,2025-01-09 15:29:18,182.248,0.058%,
127,2025-01-09 17:01:12,2025-01-09 17:04:00,168.249,0.053%,
128,2025-01-09 18:36:08,2025-01-09 18:38:42,154.125,0.049%,
129,2025-01-09 20:10:31,2025-01-09 20:13:39,188.057,0.060%,
130,2025-01-09 21:45:27,2025-01-09 21:48:22,174.469,0.055%,
131,2025-01-09 23:20:23,2025-01-09 23:23:04,160.833,0.051%,
132,2025-01-10 00:54:46,2025-01-10 00:57:46,179.949,0.057%,
133,2025-01-10 02:29:42,2025-01-10 02:32:28,166.006,0.053%,
134,2025-01-10 04:04:38,2025-01-10 04:07:10,152.065,0.048%,
135,2025-01-10 05:39:02,2025-01-10 05:41:52,170.801,0.054%,
136,2025-01-10 07:13:58,2025-01-10 07:16:50,171.833,0.055%,
137,2025-01-10 08:48:21,2025-01-10 08:51:32,191.145,0.061%,
138,2025-01-10 10:23:17,2025-01-10 10:26:14,177.52,0.056%,
139,2025-01-10 11:58:13,2025-01-10 12:00:57,163.686,0.052%,
140,2025-01-10 13:32:36,2025-01-10 13:35:39,182.691,0.058%,
141,2025-01-10 15:07:32,2025-01-10 15:10:21,168.677,0.054%,
142,2025-01-10 16:42:28,2025-01-10 16:45:03,154.522,0.049%,
143,2025-01-10 18:16:51,2025-01-10 18:20:00,188.583,0.060%,
144,2025-01-10 19:51:48,2025-01-10 19:54:43,174.991,0.056%,
145,2025-01-10 21:26:44,2025-01-10 21:29:25,161.312,0.051%,
146,2025-01-10 23:01:07,2025-01-10 23:04:07,180.417,0.057%,
147,2025-01-11 00:36:03,2025-01-11 00:38:49,166.454,0.053%,
148,2025-01-11 02:10:59,2025-01-11 02:13:31,152.473,0.048%,
149,2025-01-11 03:45:22,2025-01-11 03:48:13,171.206,0.054%,
150,2025-01-11 05:20:18,2025-01-11 05:23:11,172.368,0.055%,
151,2025-01-11 06:54:41,2025-01-11 06:57:53,191.638,0.061%,
152,2025-01-11 08:29:37,2025-01-11 08:32:35,178.011,0.056%,
153,2025-01-11 10:04:34,2025-01-11 10:07:18,164.154,0.052%,
154,2025-01-11 11:38:57,2025-01-11 11:42:00,183.122,0.058%,
155,2025-01-11 13:13:53,2025-01-11 13:16:42,169.106,0.054%,
156,2025-01-11 14:48:49,2025-01-11 14:51:24,154.914,0.049%,
157,2025-01-11 16:23:12,2025-01-11 16:26:21,189.111,0.060%,
158,2025-01-11 17:58:08,2025-01-11 18:01:04,175.504,0.056%,
159,2025-01-11 19:33:04,2025-01-11 19:35:46,161.789,0.051%,
160,2025-01-11 21:07:27,2025-01-11 21:10:28,180.878,0.057%,
161,2025-01-11 22:42:23,2025-01-11 22:45:10,166.899,0.053%,
162,2025-01-12 00:17:19,2025-01-12 00:19:52,152.879,0.049%,
163,2025-01-12 01:51:43,2025-01-12 01:54:34,171.604,0.054%,
164,2025-01-12 03:26:39,2025-01-12 03:29:32,172.897,0.055%,
165,2025-01-12 05:01:02,2025-01-12 05:01:05,3.143,0.001%,
166,2025-01-12 05:01:35,2025-01-12 05:04:14,159.369,0.051%,
167,2025-01-12 06:35:58,2025-01-12 06:38:56,178.502,0.057%,
168,2025-01-12 08:10:54,2025-01-12 08:13:39,164.613,0.052%,
169,2025-01-12 09:45:17,2025-01-12 09:48:21,183.547,0.058%,
170,2025-01-12 11:20:13,2025-01-12 11:23:03,169.525,0.054%,
171,2025-01-12 12:55:09,2025-01-12 12:57:45,155.305,0.049%,
172,2025-01-12 14:29:33,2025-01-12 14:32:42,189.626,0.060%,
173,2025-01-12 16:04:29,2025-01-12 16:07:25,176.012,0.056%,
174,2025-01-12 17:39:25,2025-01-12 17:42:07,162.26,0.052%,
175,2025-01-12 19:13:48,2025-01-12 19:16:49,181.331,0.058%,
176,2025-01-12 20:48:44,2025-01-12 20:51:31,167.34,0.053%,
177,2025-01-12 22:23:40,2025-01-12 22:26:13,153.285,0.049%,
178,2025-01-12 23:58:03,2025-01-13 00:00:55,171.997,0.055%,
179,2025-01-13 01:32:59,2025-01-13 01:35:53,173.424,0.055%,
180,2025-01-13 03:07:55,2025-01-13 03:10:35,159.857,0.051%,
181,2025-01-13 04:42:18,2025-01-13 04:45:17,178.981,0.057%,
182,2025-01-13 06:17:15,2025-01-13 06:20:00,165.074,0.052%,
183,2025-01-13 07:51:38,2025-01-13 07:54:42,183.961,0.058%,
184,2025-01-13 09:26:34,2025-01-13 09:29:24,169.942,0.054%,
185,2025-01-13 11:01:30,2025-01-13 11:04:06,155.692,0.049%,
186,2025-01-13 12:35:53,2025-01-13 12:39:03,190.139,0.060%,
187,2025-01-13 14:10:49,2025-01-13 14:13:46,176.514,0.056%,
188,2025-01-13 15:45:45,2025-01-13 15:48:28,162.731,0.052%,
189,2025-01-13 17:20:08,2025-01-13 17:23:10,181.78,0.058%,
190,2025-01-13 18:55:04,2025-01-13 18:57:52,167.782,0.053%,
191,2025-01-13 20:30:00,2025-01-13 20:32:34,153.686,0.049%,
192,2025-01-13 22:04:24,2025-01-13 22:07:16,172.381,0.055%,
193,2025-01-13 23:39:20,2025-01-13 23:42:14,173.951,0.055%,
194,2025-01-14 01:14:16,2025-01-14 01:16:56,160.337,0.051%,
195,2025-01-14 02:48:39,2025-01-14 02:51:38,179.46,0.057%,
196,2025-01-14 04:23:35,2025-01-14 04:26:21,165.527,0.053%,
197,2025-01-14 05:57:58,2025-01-14 06:01:03,184.371,0.059%,
198,2025-01-14 07:32:54,2025-01-14 07:35:45,170.356,0.054%,
199,2025-01-14 09:07:50,2025-01-14 09:10:26,156.081,0.050%,
200,2025-01-14 10:42:14,2025-01-14 10:45:24,190.641,0.061%,
201,2025-01-14 12:17:10,2025-01-14 12:20:07,177.014,0.056%,
202,2025-01-14 13:52:06,2025-01-14 13:54:49,163.202,0.052%,
203,2025-01-14 15:26:29,2025-01-14 15:29:31,182.221,0.058%,
204,2025-01-14 17:01:25,2025-01-14 17:04:13,168.215,0.053%,
205,2025-01-14 18:36:21,2025-01-14 18:38:55,154.082,0.049%,
206,2025-01-14 20:10:44,2025-01-14 20:13:37,172.761,0.055%,
207,2025-01-14 21:45:40,2025-01-14 21:48:35,174.466,0.055%,
208,2025-01-14 23:20:36,2025-01-14 23:23:17,160.82,0.051%,
209,2025-01-15 00:54:59,2025-01-15 00:57:59,179.93,0.057%,
210,2025-01-15 02:29:56,2025-01-15 02:32:42,165.98,0.053%,
211,2025-01-15 04:04:19,2025-01-15 04:04:34,15.233,0.005%,
212,2025-01-15 04:04:52,2025-01-15 04:07:24,152.029,0.048%,
213,2025-01-15 05:39:15,2025-01-15 05:42:06,170.759,0.054%,
214,2025-01-15 07:14:11,2025-01-15 07:16:47,156.461,0.050%,
215,2025-01-15 08:48:34,2025-01-15 08:51:45,191.138,0.061%,
216,2025-01-15 10:23:30,2025-01-15 10:26:28,177.509,0.056%,
217,2025-01-15 11:58:26,2025-01-15 12:01:10,163.666,0.052%,
218,2025-01-15 13:32:49,2025-01-15 13:35:52,182.662,0.058%,
219,2025-01-15 15:07:45,2025-01-15 15:10:34,168.643,0.054%,
220,2025-01-15 16:42:42,2025-01-15 16:45:16,154.478,0.049%,
221,2025-01-15 18:17:05,2025-01-15 18:19:58,173.136,0.055%,
222,2025-01-15 19:52:01,2025-01-15 19:54:56,174.986,0.056%,
223,2025-01-15 21:26:57,2025-01-15 21:29:38,161.298,0.051%,
224,2025-01-15 23:01:20,2025-01-15 23:04:20,180.397,0.057%,
225,2025-01-16 00:36:16,2025-01-16 00:39:03,166.427,0.053%,
226,2025-01-16 02:11:12,2025-01-16 02:13:45,152.435,0.048%,
227,2025-01-16 03:45:35,2025-01-16 03:48:26,171.163,0.054%,
228,2025-01-16 05:20:31,2025-01-16 05:23:08,156.838,0.050%,
229,2025-01-16 06:54:55,2025-01-16 06:58:06,191.629,0.061%,
230,2025-01-16 08:29:51,2025-01-16 08:32:49,177.999,0.056%,
231,2025-01-16 10:04:47,2025-01-16 10:07:31,164.133,0.052%,
232,2025-01-16 11:39:10,2025-01-16 11:42:13,183.091,0.058%,
233,2025-01-16 13:14:06,2025-01-16 13:16:55,169.07,0.054%,
234,2025-01-16 14:49:02,2025-01-16 14:51:37,154.87,0.049%,
235,2025-01-16 16:23:25,2025-01-16 16:26:19,173.503,0.055%,
236,2025-01-16 17:58:21,2025-01-16 18:01:17,175.495,0.056%,
237,2025-01-16 19:33:17,2025-01-16 19:35:59,161.774,0.051%,
238,2025-01-16 21:07:40,2025-01-16 21:10:41,180.856,0.057%,
239,2025-01-16 22:42:37,2025-01-16 22:45:23,166.87,0.053%,
240,2025-01-17 00:17:33,2025-01-17 00:20:05,152.84,0.049%,
241,2025-01-17 01:51:56,2025-01-17 01:54:47,171.559,0.054%,
242,2025-01-17 03:26:52,2025-01-17 03:29:29,157.213,0.050%,
243,2025-01-17 05:01:15,2025-01-17 05:04:27,192.108,0.061%,
244,2025-01-17 06:36:11,2025-01-17 06:39:10,178.488,0.057%,
245,2025-01-17 08:11:07,2025-01-17 08:13:52,164.591,0.052%,
246,2025-01-17 09:45:30,2025-01-17 09:48:34,183.515,0.058%,
247,2025-01-17 11:20:26,2025-01-17 11:23:16,169.488,0.054%,
248,2025-01-17 12:55:23,2025-01-17 12:57:58,155.259,0.049%,
249,2025-01-17 14:29:46,2025-01-17 14:32:40,173.86,0.055%,
250,2025-01-17 16:04:42,2025-01-17 16:07:38,176.005,0.056%,
251,2025-01-17 17:39:38,2025-01-17 17:42:20,162.244,0.051%,
252,2025-01-17 19:14:01,2025-01-17 19:17:02,181.31,0.058%,
253,2025-01-17 20:48:57,2025-01-17 20:51:44,167.313,0.053%,
254,2025-01-17 22:23:53,2025-01-17 22:26:26,153.245,0.049%,
255,2025-01-17 23:58:16,2025-01-18 00:01:08,171.951,0.055%,
256,2025-01-18 01:33:12,2025-01-18 01:35:50,157.58,0.050%,
257,2025-01-18 01:36:03,2025-01-18 01:36:06,3.039,0.001%,
258,2025-01-18 03:07:36,2025-01-18 03:07:57,21.462,0.007%,
259,2025-01-18 03:08:08,2025-01-18 03:10:48,159.846,0.051%,
260,2025-01-18 04:42:32,2025-01-18 04:45:31,178.968,0.057%,
261,2025-01-18 06:17:28,2025-01-18 06:20:13,165.051,0.052%,
262,2025-01-18 07:51:51,2025-01-18 07:54:55,183.93,0.058%,
263,2025-01-18 09:26:47,2025-01-18 09:29:37,169.903,0.054%,
264,2025-01-18 11:01:43,2025-01-18 11:04:19,155.646,0.049%,
265,2025-01-18 12:36:06,2025-01-18 12:39:00,174.213,0.055%,
266,2025-01-18 12:39:03,2025-01-18 12:39:16,13.461,0.004%,
267,2025-01-18 14:11:02,2025-01-18 14:13:59,176.506,0.056%,
268,2025-01-18 15:45:58,2025-01-18 15:48:41,162.714,0.052%,
269,2025-01-18 17:20:22,2025-01-18 17:23:23,181.755,0.058%,
270,2025-01-18 18:55:18,2025-01-18 18:58:05,167.748,0.053%,
271,2025-01-18 20:30:14,2025-01-18 20:32:47,153.645,0.049%,
272,2025-01-18 22:04:37,2025-01-18 22:07:29,172.331,0.055%,
273,2025-01-18 23:39:33,2025-01-18 23:42:27,173.95,0.055%,
274,2025-01-19 01:14:29,2025-01-19 01:17:09,160.326,0.051%,
275,2025-01-19 02:48:52,2025-01-19 02:51:52,179.443,0.057%,
276,2025-01-19 04:23:48,2025-01-19 04:26:34,165.502,0.053%,
277,2025-01-19 05:58:11,2025-01-19 06:01:16,184.335,0.059%,
278,2025-01-19 07:33:07,2025-01-19 07:35:58,170.316,0.054%,
279,2025-01-19 09:08:04,2025-01-19 09:10:40,156.032,0.050%,
280,2025-01-19 10:42:27,2025-01-19 10:45:37,190.636,0.061%,
281,2025-01-19 12:17:23,2025-01-19 12:20:20,177.004,0.056%,
282,2025-01-19 13:52:19,2025-01-19 13:55:02,163.183,0.052%,
283,2025-01-19 15:26:42,2025-01-19 15:29:44,182.194,0.058%,
284,2025-01-19 17:01:38,2025-01-19 17:04:26,168.183,0.053%,
285,2025-01-19 18:36:34,2025-01-19 18:39:08,154.042,0.049%,
286,2025-01-19 20:10:57,2025-01-19 20:13:50,172.711,0.055%,
287,2025-01-19 21:45:53,2025-01-19 21:48:48,174.463,0.055%,
288,2025-01-19 23:20:49,2025-01-19 23:23:30,160.807,0.051%,
289,2025-01-20 00:55:13,2025-01-20 00:58:13,179.911,0.057%,
290,2025-01-20 02:30:09,2025-01-20 02:32:55,165.953,0.053%,
291,2025-01-20 04:04:32,2025-01-20 04:07:37,184.737,0.059%,
292,2025-01-20 05:39:28,2025-01-20 05:42:19,170.719,0.054%,
293,2025-01-20 07:14:24,2025-01-20 07:17:01,156.411,0.050%,
294,2025-01-20 08:48:47,2025-01-20 08:51:58,191.132,0.061%,
295,2025-01-20 10:23:43,2025-01-20 10:26:41,177.498,0.056%,
296,2025-01-20 11:58:39,2025-01-20 12:01:23,163.646,0.052%,
297,2025-01-20 13:33:03,2025-01-20 13:36:05,182.633,0.058%,
298,2025-01-20 15:07:59,2025-01-20 15:10:47,168.609,0.054%,
299,2025-01-20 16:42:55,2025-01-20 16:45:29,154.434,0.049%,
300,2025-01-20 18:17:18,2025-01-20 18:20:11,173.084,0.055%,
301,2025-01-20 19:52:14,2025-01-20 19:55:09,174.982,0.056%,
302,2025-01-20 21:27:10,2025-01-20 21:29:51,161.283,0.051%,
303,2025-01-20 23:01:33,2025-01-20 23:04:34,180.376,0.057%,
304,2025-01-21 00:36:29,2025-01-21 00:39:16,166.399,0.053%,
305,2025-01-21 02:10:53,2025-01-21 02:11:14,21.502,0.007%,
306,2025-01-21 02:11:25,2025-01-21 02:13:58,152.401,0.048%,
307,2025-01-21 03:45:48,2025-01-21 03:48:40,171.119,0.054%,
308,2025-01-21 05:20:45,2025-01-21 05:23:21,156.786,0.050%,
309,2025-01-21 06:55:08,2025-01-21 06:58:19,191.621,0.061%,
310,2025-01-21 08:30:04,2025-01-21 08:33:02,177.989,0.056%,
311,2025-01-21 10:05:00,2025-01-21 10:07:44,164.112,0.052%,
312,2025-01-21 11:39:23,2025-01-21 11:42:26,183.06,0.058%,
313,2025-01-21 13:14:19,2025-01-21 13:17:08,169.034,0.054%,
314,2025-01-21 14:49:15,2025-01-21 14:51:50,154.825,0.049%,
315,2025-01-21 16:23:38,2025-01-21 16:26:32,173.444,0.055%,
316,2025-01-21 17:58:34,2025-01-21 18:01:30,175.49,0.056%,
317,2025-01-21 19:33:31,2025-01-21 19:36:12,161.758,0.051%,
318,2025-01-21 21:07:54,2025-01-21 21:10:55,180.834,0.057%,
319,2025-01-21 22:42:50,2025-01-21 22:45:37,166.841,0.053%,
320,2025-01-22 00:17:46,2025-01-22 00:20:19,152.801,0.049%,
321,2025-01-22 01:52:09,2025-01-22 01:55:01,171.513,0.054%,
322,2025-01-22 03:27:05,2025-01-22 03:29:42,157.16,0.050%,
323,2025-01-22 05:01:28,2025-01-22 05:04:40,192.098,0.061%,
324,2025-01-22 06:36:24,2025-01-22 06:39:23,178.473,0.057%,
325,2025-01-22 08:11:20,2025-01-22 08:14:05,164.568,0.052%,
326,2025-01-22 09:45:44,2025-01-22 09:48:47,183.482,0.058%,
327,2025-01-22 11:20:40,2025-01-22 11:23:29,169.451,0.054%,
328,2025-01-22 12:55:36,2025-01-22 12:58:11,155.212,0.049%,
329,2025-01-22 14:29:59,2025-01-22 14:32:53,173.804,0.055%,
330,2025-01-22 16:04:55,2025-01-22 16:07:51,175.998,0.056%,
331,2025-01-22 17:39:51,2025-01-22 17:42:33,162.227,0.051%,
332,2025-01-22 19:14:14,2025-01-22 19:17:15,181.283,0.058%,
333,2025-01-22 20:49:10,2025-01-22 20:51:58,167.283,0.053%,
334,2025-01-22 22:24:06,2025-01-22 22:26:40,153.204,0.049%,
335,2025-01-22 23:58:30,2025-01-23 00:01:21,171.904,0.055%,
336,2025-01-23 01:33:26,2025-01-23 01:36:03,157.526,0.050%,
337,2025-01-23 03:07:49,2025-01-23 03:11:01,192.573,0.061%,
338,2025-01-23 04:42:45,2025-01-23 04:45:44,178.949,0.057%,
339,2025-01-23 06:17:41,2025-01-23 06:20:26,165.026,0.052%,
340,2025-01-23 07:52:04,2025-01-23 07:55:08,183.895,0.058%,
341,2025-01-23 09:27:00,2025-01-23 09:29:50,169.867,0.054%,
342,2025-01-23 11:01:56,2025-01-23 11:04:32,155.598,0.049%,
343,2025-01-23 12:36:19,2025-01-23 12:39:14,174.154,0.055%,
344,2025-01-23 14:11:15,2025-01-23 14:14:12,176.497,0.056%,
345,2025-01-23 15:46:12,2025-01-23 15:48:54,162.695,0.052%,
346,2025-01-23 17:20:35,2025-01-23 17:23:36,181.727,0.058%,
347,2025-01-23 18:55:31,2025-01-23 18:58:19,167.716,0.053%,
348,2025-01-23 20:30:27,2025-01-23 20:33:00,153.603,0.049%,
349,2025-01-23 22:04:50,2025-01-23 22:07:42,172.282,0.055%,
350,2025-01-23 23:39:46,2025-01-23 23:42:24,157.889,0.050%,
351,2025-01-24 01:14:09,2025-01-24 01:14:24,15.033,0.005%,
352,2025-01-24 01:14:42,2025-01-24 01:17:22,160.313,0.051%,
353,2025-01-24 02:49:05,2025-01-24 02:52:05,179.424,0.057%,
354,2025-01-24 04:24:01,2025-01-24 04:26:47,165.476,0.053%,
355,2025-01-24 05:58:25,2025-01-24 06:01:29,184.298,0.058%,
356,2025-01-24 07:33:21,2025-01-24 07:36:11,170.275,0.054%,
357,2025-01-24 09:08:17,2025-01-24 09:10:53,155.982,0.050%,
358,2025-01-24 10:42:40,2025-01-24 10:45:34,174.498,0.055%,
359,2025-01-24 12:17:36,2025-01-24 12:20:33,176.993,0.056%,
360,2025-01-24 13:52:32,2025-01-24 13:55:15,163.164,0.052%,
361,2025-01-24 15:26:55,2025-01-24 15:29:57,182.166,0.058%,
362,2025-01-24 17:01:51,2025-01-24 17:04:39,168.149,0.053%,
363,2025-01-24 18:36:47,2025-01-24 18:39:21,153.998,0.049%,
364,2025-01-24 20:11:11,2025-01-24 20:14:03,172.659,0.055%,
365,2025-01-24 21:46:07,2025-01-24 21:48:45,158.25,0.050%,
366,2025-01-24 23:21:03,2025-01-24 23:23:43,160.793,0.051%,
367,2025-01-25 00:55:26,2025-01-25 00:58:26,179.89,0.057%,
368,2025-01-25 02:30:22,2025-01-25 02:33:08,165.926,0.053%,
369,2025-01-25 04:04:45,2025-01-25 04:07:50,184.697,0.059%,
370,2025-01-25 05:39:41,2025-01-25 05:42:32,170.676,0.054%,
371,2025-01-25 07:14:37,2025-01-25 07:17:14,156.359,0.050%,
372,2025-01-25 08:49:00,2025-01-25 08:51:55,174.832,0.055%,
373,2025-01-25 10:23:56,2025-01-25 10:26:54,177.485,0.056%,
374,2025-01-25 11:58:53,2025-01-25 12:01:36,163.629,0.052%,
375,2025-01-25 13:33:16,2025-01-25 13:36:18,182.603,0.058%,
376,2025-01-25 15:08:12,2025-01-25 15:11:00,168.573,0.054%,
377,2025-01-25 16:43:08,2025-01-25 16:45:42,154.388,0.049%,
378,2025-01-25 18:17:31,2025-01-25 18:20:24,173.026,0.055%,
379,2025-01-25 19:52:27,2025-01-25 19:55:06,158.606,0.050%,
380,2025-01-25 19:55:17,2025-01-25 19:55:22,5.575,0.002%,
381,2025-01-25 21:27:23,2025-01-25 21:30:04,161.268,0.051%,
382,2025-01-25 23:01:46,2025-01-25 23:04:47,180.354,0.057%,
383,2025-01-26 00:36:42,2025-01-26 00:39:29,166.37,0.053%,
384,2025-01-26 02:11:06,2025-01-26 02:14:11,185.087,0.059%,
385,2025-01-26 03:46:02,2025-01-26 03:48:53,171.074,0.054%,
386,2025-01-26 05:20:58,2025-01-26 05:23:35,156.732,0.050%,
387,2025-01-26 06:55:21,2025-01-26 06:58:33,191.611,0.061%,
388,2025-01-26 08:30:17,2025-01-26 08:33:15,177.971,0.056%,
389,2025-01-26 10:05:13,2025-01-26 10:07:57,164.089,0.052%,
390,2025-01-26 11:39:36,2025-01-26 11:42:39,183.028,0.058%,
391,2025-01-26 13:14:32,2025-01-26 13:17:21,168.997,0.054%,
392,2025-01-26 14:49:28,2025-01-26 14:52:03,154.778,0.049%,
393,2025-01-26 16:23:52,2025-01-26 16:26:45,173.388,0.055%,
394,2025-01-26 17:58:48,2025-01-26 18:01:43,175.485,0.056%,
395,2025-01-26 19:33:44,2025-01-26 19:36:25,161.741,0.051%,
396,2025-01-26 21:08:07,2025-01-26 21:11:08,180.81,0.057%,
397,2025-01-26 22:43:03,2025-01-26 22:45:50,166.81,0.053%,
398,2025-01-27 00:17:26,2025-01-27 00:17:28,1.807,0.001%,
399,2025-01-27 00:17:59,2025-01-27 00:20:32,152.76,0.048%,
400,2025-01-27 01:52:22,2025-01-27 01:55:14,171.466,0.054%,
401,2025-01-27 03:27:18,2025-01-27 03:29:55,157.104,0.050%,
402,2025-01-27 05:01:42,2025-01-27 05:04:54,192.086,0.061%,
403,2025-01-27 06:36:38,2025-01-27 06:39:36,178.457,0.057%,
404,2025-01-27 08:11:34,2025-01-27 08:14:18,164.544,0.052%,
405,2025-01-27 09:45:57,2025-01-27 09:49:00,183.447,0.058%,
406,2025-01-27 11:20:53,2025-01-27 11:23:42,169.411,0.054%,
407,2025-01-27 12:55:49,2025-01-27 12:58:24,155.163,0.049%,
408,2025-01-27 14:30:12,2025-01-27 14:33:06,173.746,0.055%,
409,2025-01-27 16:05:08,2025-01-27 16:08:04,175.989,0.056%,
410,2025-01-27 17:40:04,2025-01-27 17:42:46,162.209,0.051%,
411,2025-01-27 19:14:27,2025-01-27 19:17:29,181.257,0.058%,
412,2025-01-27 20:49:23,2025-01-27 20:52:11,167.251,0.053%,
413,2025-01-27 22:24:20,2025-01-27 22:26:53,153.162,0.049%,
414,2025-01-27 23:58:43,2025-01-28 00:01:35,171.855,0.055%,
415,2025-01-28 01:33:39,2025-01-28 01:36:16,157.472,0.050%,
416,2025-01-28 03:08:02,2025-01-28 03:11:15,192.559,0.061%,
417,2025-01-28 04:42:58,2025-01-28 04:45:57,178.931,0.057%,
418,2025-01-28 06:17:54,2025-01-28 06:20:39,165.001,0.052%,
419,2025-01-28 07:52:17,2025-01-28 07:55:21,183.859,0.058%,
420,2025-01-28 09:27:13,2025-01-28 09:30:03,169.823,0.054%,
421,2025-01-28 11:02:09,2025-01-28 11:04:45,155.546,0.049%,
422,2025-01-28 12:36:33,2025-01-28 12:39:27,174.095,0.055%,
423,2025-01-28 14:11:29,2025-01-28 14:14:25,176.486,0.056%,
424,2025-01-28 15:46:25,2025-01-28 15:49:07,162.676,0.052%,
425,2025-01-28 17:20:48,2025-01-28 17:23:50,181.699,0.058%,
426,2025-01-28 18:55:44,2025-01-28 18:58:32,167.682,0.053%,
427,2025-01-28 20:30:40,2025-01-28 20:33:14,153.559,0.049%,
428,2025-01-28 22:05:03,2025-01-28 22:07:55,172.232,0.055%,
429,2025-01-28 23:39:59,2025-01-28 23:42:37,157.831,0.050%,
430,2025-01-29 01:14:23,2025-01-29 01:17:36,193.019,0.061%,
431,2025-01-29 02:49:19,2025-01-29 02:52:18,179.405,0.057%,
432,2025-01-29 04:24:15,2025-01-29 04:27:00,165.449,0.053%,
433,2025-01-29 05:58:38,2025-01-29 06:01:42,184.26,0.058%,
434,2025-01-29 07:33:34,2025-01-29 07:36:24,170.232,0.054%,
435,2025-01-29 09:08:30,2025-01-29 09:11:06,155.93,0.049%,
436,2025-01-29 10:42:53,2025-01-29 10:45:48,174.434,0.055%,
437,2025-01-29 12:17:49,2025-01-29 12:20:46,176.981,0.056%,
438,2025-01-29 13:52:45,2025-01-29 13:55:28,163.141,0.052%,
439,2025-01-29 15:27:08,2025-01-29 15:30:11,182.137,0.058%,
440,2025-01-29 17:02:04,2025-01-29 17:04:53,168.114,0.053%,
441,2025-01-29 18:37:01,2025-01-29 18:39:35,153.953,0.049%,
442,2025-01-29 20:11:24,2025-01-29 20:14:16,172.606,0.055%,
443,2025-01-29 21:46:20,2025-01-29 21:48:58,158.19,0.050%,
444,2025-01-29 23:21:16,2025-01-29 23:23:57,160.778,0.051%,
445,2025-01-30 00:55:39,2025-01-30 00:58:39,179.869,0.057%,
446,2025-01-30 02:30:35,2025-01-30 02:33:21,165.897,0.053%,
447,2025-01-30 04:04:58,2025-01-30 04:08:03,184.658,0.059%,
448,2025-01-30 05:39:54,2025-01-30 05:42:45,170.632,0.054%,
449,2025-01-30 07:14:50,2025-01-30 07:17:27,156.307,0.050%,
450,2025-01-30 08:49:14,2025-01-30 08:52:08,174.771,0.055%,
451,2025-01-30 10:24:10,2025-01-30 10:27:07,177.472,0.056%,
452,2025-01-30 11:59:06,2025-01-30 12:01:49,163.603,0.052%,
453,2025-01-30 13:33:29,2025-01-30 13:36:32,182.572,0.058%,
454,2025-01-30 15:08:25,2025-01-30 15:11:14,168.536,0.053%,
455,2025-01-30 16:43:21,2025-01-30 16:45:55,154.342,0.049%,
456,2025-01-30 18:17:44,2025-01-30 18:20:37,172.973,0.055%,
457,2025-01-30 19:52:40,2025-01-30 19:55:19,158.544,0.050%,
458,2025-01-30 21:27:36,2025-01-30 21:30:18,161.252,0.051%,
459,2025-01-30 23:02:00,2025-01-30 23:05:00,180.332,0.057%,
460,2025-01-31 00:36:56,2025-01-31 00:39:42,166.341,0.053%,
461,2025-01-31 02:11:19,2025-01-31 02:14:24,185.045,0.059%,
462,2025-01-31 03:46:15,2025-01-31 03:49:06,171.028,0.054%,
463,2025-01-31 05:21:11,2025-01-31 05:23:48,156.679,0.050%,
464,2025-01-31 06:55:34,2025-01-31 06:58:29,175.094,0.056%,
465,2025-01-31 08:30:30,2025-01-31 08:33:28,177.957,0.056%,
466,2025-01-31 10:05:26,2025-01-31 10:08:10,164.066,0.052%,
467,2025-01-31 11:39:49,2025-01-31 11:42:52,182.995,0.058%,
468,2025-01-31 13:14:46,2025-01-31 13:17:34,168.959,0.054%,
469,2025-01-31 14:49:42,2025-01-31 14:52:16,154.731,0.049%,
470,2025-01-31 16:24:05,2025-01-31 16:26:58,173.333,0.055%,
471,2025-01-31 17:59:01,2025-01-31 18:01:40,158.89,0.050%,
472,2025-01-31 19:33:57,2025-01-31 19:36:39,161.725,0.051%,
473,2025-01-31 21:08:20,2025-01-31 21:11:21,180.786,0.057%,
474,2025-01-31 22:43:16,2025-01-31 22:46:03,166.78,0.053%,
475,2025-02-01 00:17:40,2025-02-01 00:20:45,185.426,0.059%,
476,2025-02-01 01:52:35,2025-02-01 01:55:27,171.419,0.054%,
477,2025-02-01 03:27:31,2025-02-01 03:30:09,157.049,0.050%,
478,2025-02-01 05:01:55,2025-02-01 05:04:50,175.41,0.056%,
479,2025-02-01 05:04:58,2025-02-01 05:05:07,8.376,0.003%,
480,2025-02-01 06:36:51,2025-02-01 06:39:49,178.441,0.057%,
481,2025-02-01 08:11:47,2025-02-01 08:14:31,164.52,0.052%,
482,2025-02-01 09:46:10,2025-02-01 09:49:13,183.413,0.058%,
483,2025-02-01 11:21:06,2025-02-01 11:23:55,169.373,0.054%,
484,2025-02-01 12:56:02,2025-02-01 12:58:37,155.116,0.049%,
485,2025-02-01 14:30:25,2025-02-01 14:33:19,173.689,0.055%,
486,2025-02-01 16:05:21,2025-02-01 16:08:17,175.981,0.056%,
487,2025-02-01 17:40:17,2025-02-01 17:43:00,162.191,0.051%,
488,2025-02-01 19:14:41,2025-02-01 19:17:42,181.232,0.058%,
489,2025-02-01 20:49:37,2025-02-01 20:52:24,167.219,0.053%,
490,2025-02-01 22:24:33,2025-02-01 22:27:06,153.12,0.049%,
491,2025-02-01 23:58:56,2025-02-02 00:01:48,171.806,0.055%,
492,2025-02-02 01:33:52,2025-02-02 01:36:29,157.416,0.050%,
493,2025-02-02 03:08:15,2025-02-02 03:11:28,192.545,0.061%,
494,2025-02-02 04:43:11,2025-02-02 04:46:10,178.914,0.057%,
495,2025-02-02 06:18:07,2025-02-02 06:20:52,164.976,0.052%,
496,2025-02-02 07:52:31,2025-02-02 07:55:34,183.823,0.058%,
497,2025-02-02 09:27:27,2025-02-02 09:30:16,169.782,0.054%,
498,2025-02-02 11:02:23,2025-02-02 11:04:58,155.499,0.049%,
499,2025-02-02 12:36:46,2025-02-02 12:39:40,174.035,0.055%,
500,2025-02-02 14:11:42,2025-02-02 14:14:38,176.476,0.056%,
501,2025-02-02 15:46:38,2025-02-02 15:49:21,162.657,0.052%,
502,2025-02-02 17:21:01,2025-02-02 17:24:03,181.672,0.058%,
503,2025-02-02 18:55:57,2025-02-02 18:58:45,167.649,0.053%,
504,2025-02-02 20:30:53,2025-02-02 20:33:27,153.516,0.049%,
505,2025-02-02 22:05:16,2025-02-02 22:08:09,172.182,0.055%,
506,2025-02-02 23:40:13,2025-02-02 23:42:50,157.777,0.050%,
507,2025-02-03 01:14:36,2025-02-03 01:17:49,193.003,0.061%,
508,2025-02-03 02:49:32,2025-02-03 02:52:31,179.386,0.057%,
509,2025-02-03 04:24:28,2025-02-03 04:27:13,165.423,0.053%,
510,2025-02-03 05:58:51,2025-02-03 06:01:55,184.222,0.058%,
511,2025-02-03 07:33:47,2025-02-03 07:36:37,170.191,0.054%,
512,2025-02-03 09:08:43,2025-02-03 09:11:19,155.88,0.049%,
513,2025-02-03 10:43:06,2025-02-03 10:46:01,174.372,0.055%,
514,2025-02-03 12:18:02,2025-02-03 12:20:59,176.97,0.056%,
515,2025-02-03 13:52:58,2025-02-03 13:55:42,163.121,0.052%,
516,2025-02-03 15:27:22,2025-02-03 15:30:24,182.108,0.058%,
517,2025-02-03 17:02:18,2025-02-03 17:05:06,168.079,0.053%,
518,2025-02-03 18:37:14,2025-02-03 18:39:48,153.907,0.049%,
519,2025-02-03 20:11:37,2025-02-03 20:14:29,172.557,0.055%,
520,2025-02-03 21:46:33,2025-02-03 21:49:11,158.13,0.050%,
521,2025-02-03 23:20:56,2025-02-03 23:21:04,7.214,0.002%,
522,2025-02-03 23:21:29,2025-02-03 23:24:10,160.764,0.051%,
523,2025-02-04 00:55:52,2025-02-04 00:58:52,179.849,0.057%,
524,2025-02-04 02:30:48,2025-02-04 02:33:34,165.869,0.053%,
525,2025-02-04 04:05:12,2025-02-04 04:08:16,184.62,0.059%,
526,2025-02-04 05:40:08,2025-02-04 05:42:58,170.588,0.054%,
527,2025-02-04 07:15:04,2025-02-04 07:17:40,156.255,0.050%,
528,2025-02-04 08:49:27,2025-02-04 08:52:22,174.707,0.055%,
529,2025-02-04 10:24:23,2025-02-04 10:27:20,177.459,0.056%,
530,2025-02-04 11:59:19,2025-02-04 12:02:03,163.581,0.052%,
531,2025-02-04 13:33:42,2025-02-04 13:36:45,182.541,0.058%,
532,2025-02-04 15:08:38,2025-02-04 15:11:27,168.5,0.053%,
533,2025-02-04 16:43:34,2025-02-04 16:46:09,154.297,0.049%,
534,2025-02-04 18:17:57,2025-02-04 18:20:50,172.919,0.055%,
535,2025-02-04 19:52:54,2025-02-04 19:55:32,158.483,0.050%,
536,2025-02-04 21:27:50,2025-02-04 21:30:31,161.236,0.051%,
537,2025-02-04 23:02:13,2025-02-04 23:05:13,180.309,0.057%,
538,2025-02-05 00:37:09,2025-02-05 00:39:55,166.312,0.053%,
539,2025-02-05 02:11:32,2025-02-05 02:14:37,185.003,0.059%,
540,2025-02-05 03:46:28,2025-02-05 03:49:19,170.983,0.054%,
541,2025-02-05 05:21:24,2025-02-05 05:24:01,156.625,0.050%,
542,2025-02-05 06:55:47,2025-02-05 06:58:42,175.031,0.056%,
543,2025-02-05 08:30:43,2025-02-05 08:33:41,177.945,0.056%,
544,2025-02-05 10:05:39,2025-02-05 10:08:24,164.043,0.052%,
545,2025-02-05 11:40:03,2025-02-05 11:43:06,182.962,0.058%,
546,2025-02-05 13:14:59,2025-02-05 13:17:48,168.921,0.054%,
547,2025-02-05 14:49:55,2025-02-05 14:52:29,154.683,0.049%,
548,2025-02-05 16:24:18,2025-02-05 16:27:11,173.279,0.055%,
549,2025-02-05 17:59:14,2025-02-05 18:01:53,158.827,0.050%,
550,2025-02-05 19:34:10,2025-02-05 19:36:52,161.707,0.051%,
551,2025-02-05 21:08:33,2025-02-05 21:11:34,180.759,0.057%,
552,2025-02-05 22:43:29,2025-02-05 22:46:16,166.748,0.053%,
553,2025-02-06 00:17:53,2025-02-06 00:20:58,185.383,0.059%,
554,2025-02-06 01:52:49,2025-02-06 01:55:40,171.371,0.054%,
555,2025-02-06 03:27:45,2025-02-06 03:30:22,156.993,0.050%,
556,2025-02-06 05:02:08,2025-02-06 05:05:03,175.342,0.056%,
557,2025-02-06 06:37:04,2025-02-06 06:40:02,178.424,0.057%,
558,2025-02-06 08:12:00,2025-02-06 08:14:45,164.495,0.052%,
559,2025-02-06 09:46:23,2025-02-06 09:49:27,183.378,0.058%,
560,2025-02-06 11:21:19,2025-02-06 11:24:09,169.331,0.054%,
561,2025-02-06 12:56:15,2025-02-06 12:58:50,155.066,0.049%,
562,2025-02-06 14:30:38,2025-02-06 14:33:32,173.63,0.055%,
563,2025-02-06 16:05:35,2025-02-06 16:08:14,159.17,0.051%,
564,2025-02-06 16:08:21,2025-02-06 16:08:31,9.446,0.003%,
565,2025-02-06 17:40:31,2025-02-06 17:43:13,162.172,0.051%,
566,2025-02-06 19:14:54,2025-02-06 19:17:55,181.205,0.058%,
567,2025-02-06 20:49:50,2025-02-06 20:52:37,167.186,0.053%,
568,2025-02-06 22:24:46,2025-02-06 22:27:19,153.077,0.049%,
569,2025-02-06 23:59:09,2025-02-07 00:02:01,171.756,0.055%,
570,2025-02-07 01:34:05,2025-02-07 01:36:43,157.358,0.050%,
571,2025-02-07 03:08:28,2025-02-07 03:11:41,192.53,0.061%,
572,2025-02-07 04:43:24,2025-02-07 04:46:23,178.898,0.057%,
573,2025-02-07 06:18:21,2025-02-07 06:21:05,164.949,0.052%,
574,2025-02-07 07:52:44,2025-02-07 07:55:48,183.786,0.058%,
575,2025-02-07 09:27:40,2025-02-07 09:30:29,169.74,0.054%,
576,2025-02-07 11:02:36,2025-02-07 11:05:11,155.448,0.049%,
577,2025-02-07 12:36:59,2025-02-07 12:39:53,173.974,0.055%,
578,2025-02-07 14:11:55,2025-02-07 14:14:52,176.465,0.056%,
579,2025-02-07 15:46:51,2025-02-07 15:49:34,162.636,0.052%,
580,2025-02-07 17:21:14,2025-02-07 17:24:16,181.646,0.058%,
581,2025-02-07 18:56:10,2025-02-07 18:58:58,167.614,0.053%,
582,2025-02-07 20:31:06,2025-02-07 20:33:40,153.472,0.049%,
583,2025-02-07 22:05:30,2025-02-07 22:08:22,172.128,0.055%,
584,2025-02-07 23:40:26,2025-02-07 23:43:03,157.713,0.050%,
585,2025-02-08 01:14:49,2025-02-08 01:18:02,192.986,0.061%,
586,2025-02-08 02:49:45,2025-02-08 02:52:44,179.366,0.057%,
587,2025-02-08 04:24:41,2025-02-08 04:27:26,165.395,0.052%,
588,2025-02-08 05:59:04,2025-02-08 06:02:08,184.182,0.058%,
589,2025-02-08 07:34:00,2025-02-08 07:36:50,170.147,0.054%,
590,2025-02-08 09:08:56,2025-02-08 09:11:32,155.827,0.049%,
591,2025-02-08 10:43:20,2025-02-08 10:46:14,174.309,0.055%,
592,2025-02-08 12:18:16,2025-02-08 12:21:13,176.957,0.056%,
593,2025-02-08 13:53:12,2025-02-08 13:55:55,163.099,0.052%,
594,2025-02-08 15:27:35,2025-02-08 15:30:37,182.082,0.058%,
595,2025-02-08 17:02:31,2025-02-08 17:05:19,168.043,0.053%,
596,2025-02-08 18:37:27,2025-02-08 18:40:01,153.86,0.049%,
597,2025-02-08 20:11:50,2025-02-08 20:14:43,172.5,0.055%,
598,2025-02-08 21:46:46,2025-02-08 21:49:24,158.069,0.050%,
599,2025-02-08 23:21:10,2025-02-08 23:21:22,12.145,0.004%,
600,2025-02-08 23:21:42,2025-02-08 23:24:23,160.747,0.051%,
601,2025-02-09 00:56:05,2025-02-09 00:59:05,179.826,0.057%,
602,2025-02-09 02:31:02,2025-02-09 02:33:47,165.84,0.053%,
603,2025-02-09 04:05:25,2025-02-09 04:08:29,184.579,0.059%,
604,2025-02-09 05:40:21,2025-02-09 05:43:11,170.542,0.054%,
605,2025-02-09 07:15:17,2025-02-09 07:17:53,156.201,0.050%,
606,2025-02-09 08:49:40,2025-02-09 08:52:35,174.639,0.055%,
607,2025-02-09 10:24:36,2025-02-09 10:27:34,177.444,0.056%,
608,2025-02-09 11:59:32,2025-02-09 12:02:16,163.558,0.052%,
609,2025-02-09 13:33:55,2025-02-09 13:36:58,182.509,0.058%,
610,2025-02-09 15:08:51,2025-02-09 15:11:40,168.462,0.053%,
611,2025-02-09 16:43:47,2025-02-09 16:46:22,154.249,0.049%,
612,2025-02-09 18:18:11,2025-02-09 18:21:03,172.863,0.055%,
613,2025-02-09 19:53:07,2025-02-09 19:55:45,158.419,0.050%,
614,2025-02-09 21:28:03,2025-02-09 21:30:44,161.218,0.051%,
615,2025-02-09 23:02:26,2025-02-09 23:05:26,180.285,0.057%,
616,2025-02-10 00:37:22,2025-02-10 00:40:08,166.278,0.053%,
617,2025-02-10 02:11:45,2025-02-10 02:14:50,184.959,0.059%,
618,2025-02-10 03:46:41,2025-02-10 03:49:32,170.935,0.054%,
619,2025-02-10 05:21:37,2025-02-10 05:24:14,156.569,0.050%,
620,2025-02-10 06:56:01,2025-02-10 06:58:56,174.96,0.056%,
621,2025-02-10 08:30:57,2025-02-10 08:33:54,177.925,0.056%,
622,2025-02-10 10:05:53,2025-02-10 10:08:37,164.018,0.052%,
623,2025-02-10 11:40:16,2025-02-10 11:43:19,182.928,0.058%,
624,2025-02-10 13:15:12,2025-02-10 13:18:01,168.881,0.054%,
625,2025-02-10 14:50:08,2025-02-10 14:52:43,154.635,0.049%,
626,2025-02-10 16:24:31,2025-02-10 16:27:24,173.22,0.055%,
627,2025-02-10 17:59:27,2025-02-10 18:02:06,158.762,0.050%,
628,2025-02-10 19:34:23,2025-02-10 19:37:05,161.688,0.051%,
629,2025-02-10 21:08:46,2025-02-10 21:11:47,180.733,0.057%,
630,2025-02-10 22:43:43,2025-02-10 22:46:29,166.716,0.053%,
631,2025-02-11 00:18:06,2025-02-11 00:21:11,185.338,0.059%,
632,2025-02-11 01:53:02,2025-02-11 01:55:53,171.322,0.054%,
633,2025-02-11 03:27:58,2025-02-11 03:30:35,156.935,0.050%,
634,2025-02-11 05:02:21,2025-02-11 05:05:16,175.272,0.056%,
635,2025-02-11 06:37:17,2025-02-11 06:40:15,178.406,0.057%,
636,2025-02-11 08:12:13,2025-02-11 08:14:58,164.472,0.052%,
637,2025-02-11 09:46:36,2025-02-11 09:49:40,183.342,0.058%,
638,2025-02-11 11:21:32,2025-02-11 11:24:22,169.29,0.054%,
639,2025-02-11 12:56:29,2025-02-11 12:59:04,155.016,0.049%,
640,2025-02-11 14:30:52,2025-02-11 14:33:45,173.571,0.055%,
641,2025-02-11 16:05:48,2025-02-11 16:08:27,159.102,0.051%,
642,2025-02-11 16:08:28,2025-02-11 16:08:44,15.362,0.005%,
643,2025-02-11 17:40:44,2025-02-11 17:43:26,162.152,0.051%,
644,2025-02-11 19:15:07,2025-02-11 19:18:08,181.178,0.058%,
645,2025-02-11 20:50:03,2025-02-11 20:52:50,167.153,0.053%,
646,2025-02-11 22:24:59,2025-02-11 22:27:32,153.032,0.049%,
647,2025-02-11 23:59:22,2025-02-12 00:02:14,171.705,0.054%,
648,2025-02-12 01:34:18,2025-02-12 01:36:56,157.299,0.050%,
649,2025-02-12 03:08:42,2025-02-12 03:11:54,192.515,0.061%,
650,2025-02-12 04:43:38,2025-02-12 04:46:36,178.876,0.057%,
651,2025-02-12 06:18:34,2025-02-12 06:21:19,164.922,0.052%,
652,2025-02-12 07:52:57,2025-02-12 07:56:01,183.745,0.058%,
653,2025-02-12 09:27:53,2025-02-12 09:30:43,169.698,0.054%,
654,2025-02-12 11:02:49,2025-02-12 11:05:24,155.397,0.049%,
655,2025-02-12 12:37:12,2025-02-12 12:40:06,173.915,0.055%,
656,2025-02-12 14:12:08,2025-02-12 14:15:05,176.453,0.056%,
657,2025-02-12 15:47:04,2025-02-12 15:49:47,162.615,0.052%,
658,2025-02-12 17:21:27,2025-02-12 17:24:29,181.619,0.058%,
659,2025-02-12 18:56:24,2025-02-12 18:59:11,167.579,0.053%,
660,2025-02-12 20:31:20,2025-02-12 20:33:53,153.427,0.049%,
661,2025-02-12 22:05:43,2025-02-12 22:08:35,172.077,0.055%,
662,2025-02-12 23:40:39,2025-02-12 23:43:17,157.653,0.050%,
663,2025-02-13 01:15:02,2025-02-13 01:18:15,192.969,0.061%,
664,2025-02-13 02:49:58,2025-02-13 02:52:57,179.345,0.057%,
665,2025-02-13 04:24:54,2025-02-13 04:27:40,165.366,0.052%,
666,2025-02-13 05:59:17,2025-02-13 06:02:22,184.142,0.058%,
667,2025-02-13 07:34:13,2025-02-13 07:37:04,170.098,0.054%,
668,2025-02-13 09:09:10,2025-02-13 09:11:45,155.774,0.049%,
669,2025-02-13 10:43:33,2025-02-13 10:46:27,174.246,0.055%,
670,2025-02-13 12:18:29,2025-02-13 12:21:26,176.943,0.056%,
671,2025-02-13 13:53:25,2025-02-13 13:56:08,163.077,0.052%,
672,2025-02-13 15:27:48,2025-02-13 15:30:50,182.049,0.058%,
673,2025-02-13 17:02:44,2025-02-13 17:05:32,168.006,0.053%,
674,2025-02-13 18:37:40,2025-02-13 18:40:14,153.815,0.049%,
675,2025-02-13 20:12:03,2025-02-13 20:14:56,172.446,0.055%,
676,2025-02-13 21:46:59,2025-02-13 21:49:37,158.007,0.050%,
677,2025-02-13 23:21:55,2025-02-13 23:24:36,160.731,0.051%,
678,2025-02-14 00:56:19,2025-02-14 00:59:18,179.804,0.057%,
679,2025-02-14 02:31:15,2025-02-14 02:34:01,165.81,0.053%,
680,2025-02-14 04:05:38,2025-02-14 04:08:43,184.536,0.059%,
681,2025-02-14 05:40:34,2025-02-14 05:43:24,170.5,0.054%,
682,2025-02-14 07:15:30,2025-02-14 07:18:06,156.148,0.050%,
683,2025-02-14 08:49:53,2025-02-14 08:52:48,174.574,0.055%,
684,2025-02-14 10:24:49,2025-02-14 10:27:47,177.43,0.056%,
685,2025-02-14 11:59:45,2025-02-14 12:02:29,163.535,0.052%,
686,2025-02-14 13:34:09,2025-02-14 13:37:11,182.476,0.058%,
687,2025-02-14 15:09:05,2025-02-14 15:11:53,168.424,0.053%,
688,2025-02-14 16:44:01,2025-02-14 16:46:35,154.201,0.049%,
689,2025-02-14 18:18:24,2025-02-14 18:21:17,172.808,0.055%,
690,2025-02-14 19:53:20,2025-02-14 19:55:58,158.356,0.050%,
691,2025-02-14 21:28:16,2025-02-14 21:30:57,161.201,0.051%,
692,2025-02-14 23:02:39,2025-02-14 23:05:39,180.261,0.057%,
693,2025-02-15 00:37:35,2025-02-15 00:40:21,166.248,0.053%,
694,2025-02-15 02:11:59,2025-02-15 02:15:03,184.916,0.059%,
695,2025-02-15 03:46:54,2025-02-15 03:49:45,170.889,0.054%,
696,2025-02-15 05:21:51,2025-02-15 05:24:27,156.514,0.050%,
697,2025-02-15 06:56:14,2025-02-15 06:59:09,174.896,0.056%,
698,2025-02-15 08:31:10,2025-02-15 08:34:08,177.913,0.056%,
699,2025-02-15 10:06:06,2025-02-15 10:08:50,163.994,0.052%,
700,2025-02-15 11:40:29,2025-02-15 11:43:32,182.894,0.058%,
701,2025-02-15 13:15:25,2025-02-15 13:18:14,168.842,0.054%,
702,2025-02-15 14:50:21,2025-02-15 14:52:56,154.587,0.049%,
703,2025-02-15 16:24:44,2025-02-15 16:27:38,173.163,0.055%,
704,2025-02-15 17:59:40,2025-02-15 18:02:19,158.698,0.050%,
705,2025-02-15 19:34:37,2025-02-15 19:37:18,161.67,0.051%,
706,2025-02-15 21:09:00,2025-02-15 21:12:00,180.708,0.057%,
707,2025-02-15 22:43:56,2025-02-15 22:46:42,166.684,0.053%,
708,2025-02-16 00:18:19,2025-02-16 00:18:50,30.929,0.010%,
709,2025-02-16 00:18:52,2025-02-16 00:21:24,152.594,0.048%,
710,2025-02-16 01:53:15,2025-02-16 01:56:06,171.273,0.054%,
711,2025-02-16 03:28:11,2025-02-16 03:30:48,156.878,0.050%,
712,2025-02-16 05:02:34,2025-02-16 05:05:46,192.033,0.061%,
713,2025-02-16 06:37:30,2025-02-16 06:40:29,178.389,0.057%,
714,2025-02-16 08:12:26,2025-02-16 08:15:11,164.447,0.052%,
715,2025-02-16 09:46:50,2025-02-16 09:49:53,183.306,0.058%,
716,2025-02-16 11:21:46,2025-02-16 11:24:35,169.25,0.054%,
717,2025-02-16 12:56:42,2025-02-16 12:59:17,154.971,0.049%,
718,2025-02-16 14:31:05,2025-02-16 14:33:58,173.512,0.055%,
719,2025-02-16 16:06:01,2025-02-16 16:08:57,175.95,0.056%,
720,2025-02-16 17:40:57,2025-02-16 17:43:39,162.133,0.051%,
721,2025-02-16 19:15:20,2025-02-16 19:18:21,181.154,0.057%,
722,2025-02-16 20:50:16,2025-02-16 20:53:03,167.119,0.053%,
723,2025-02-16 22:25:12,2025-02-16 22:27:45,152.989,0.049%,
724,2025-02-16 23:59:35,2025-02-17 00:02:27,171.655,0.054%,
725,2025-02-17 01:34:32,2025-02-17 01:37:09,157.241,0.050%,
726,2025-02-17 03:08:55,2025-02-17 03:12:07,192.499,0.061%,
727,2025-02-17 04:43:51,2025-02-17 04:46:50,178.859,0.057%,
728,2025-02-17 06:18:47,2025-02-17 06:21:32,164.895,0.052%,
729,2025-02-17 07:53:10,2025-02-17 07:56:14,183.708,0.058%,
730,2025-02-17 09:28:06,2025-02-17 09:30:56,169.655,0.054%,
731,2025-02-17 11:03:02,2025-02-17 11:05:38,155.346,0.049%,
732,2025-02-17 12:37:25,2025-02-17 12:40:19,173.851,0.055%,
733,2025-02-17 14:12:21,2025-02-17 14:15:18,176.442,0.056%,
734,2025-02-17 15:47:18,2025-02-17 15:50:00,162.594,0.052%,
735,2025-02-17 17:21:41,2025-02-17 17:24:42,181.589,0.058%,
736,2025-02-17 18:56:37,2025-02-17 18:59:24,167.544,0.053%,
737,2025-02-17 20:31:33,2025-02-17 20:34:06,153.382,0.049%,
738,2025-02-17 22:05:56,2025-02-17 22:08:48,172.024,0.055%,
739,2025-02-17 23:40:52,2025-02-17 23:43:30,157.593,0.050%,
740,2025-02-18 01:15:15,2025-02-18 01:18:28,192.954,0.061%,
741,2025-02-18 02:50:11,2025-02-18 02:53:11,179.324,0.057%,
742,2025-02-18 04:25:07,2025-02-18 04:27:53,165.338,0.052%,
743,2025-02-18 05:59:31,2025-02-18 06:02:35,184.103,0.058%,
744,2025-02-18 07:34:27,2025-02-18 07:37:17,170.055,0.054%,
745,2025-02-18 09:09:23,2025-02-18 09:11:58,155.722,0.049%,
746,2025-02-18 10:43:46,2025-02-18 10:46:40,174.182,0.055%,
747,2025-02-18 12:18:42,2025-02-18 12:21:39,176.93,0.056%,
748,2025-02-18 13:53:38,2025-02-18 13:56:21,163.056,0.052%,
749,2025-02-18 15:28:01,2025-02-18 15:31:03,182.018,0.058%,
750,2025-02-18 17:02:57,2025-02-18 17:05:45,167.97,0.053%,
751,2025-02-18 18:37:53,2025-02-18 18:40:27,153.769,0.049%,
752,2025-02-18 20:12:17,2025-02-18 20:15:09,172.391,0.055%,
753,2025-02-18 21:47:13,2025-02-18 21:49:51,157.946,0.050%,
754,2025-02-18 23:22:09,2025-02-18 23:24:49,160.715,0.051%,
755,2025-02-19 00:56:32,2025-02-19 00:59:32,179.781,0.057%,
756,2025-02-19 02:31:28,2025-02-19 02:34:14,165.78,0.053%,
757,2025-02-19 04:05:51,2025-02-19 04:08:56,184.492,0.059%,
758,2025-02-19 05:40:47,2025-02-19 05:43:38,170.451,0.054%,
759,2025-02-19 07:15:43,2025-02-19 07:18:19,156.094,0.050%,
760,2025-02-19 08:50:06,2025-02-19 08:53:01,174.508,0.055%,
761,2025-02-19 10:25:02,2025-02-19 10:28:00,177.415,0.056%,
762,2025-02-19 11:59:59,2025-02-19 12:02:42,163.511,0.052%,
763,2025-02-19 13:34:22,2025-02-19 13:37:24,182.444,0.058%,
764,2025-02-19 15:09:18,2025-02-19 15:12:06,168.386,0.053%,
765,2025-02-19 16:44:14,2025-02-19 16:46:48,154.154,0.049%,
766,2025-02-19 18:18:37,2025-02-19 18:21:30,172.75,0.055%,
767,2025-02-19 19:53:33,2025-02-19 19:56:11,158.293,0.050%,
768,2025-02-19 21:28:29,2025-02-19 21:31:10,161.184,0.051%,
769,2025-02-19 23:02:52,2025-02-19 23:05:53,180.236,0.057%,
770,2025-02-20 00:37:48,2025-02-20 00:40:35,166.217,0.053%,
771,2025-02-20 02:12:12,2025-02-20 02:15:17,184.872,0.059%,
772,2025-02-20 03:47:08,2025-02-20 03:49:58,170.841,0.054%,
773,2025-02-20 05:22:04,2025-02-20 05:24:40,156.459,0.050%,
774,2025-02-20 06:56:27,2025-02-20 06:59:22,174.824,0.055%,
775,2025-02-20 06:59:23,2025-02-20 06:59:39,15.598,0.005%,
776,2025-02-20 08:31:23,2025-02-20 08:34:21,177.892,0.056%,
777,2025-02-20 10:06:19,2025-02-20 10:09:03,163.969,0.052%,
778,2025-02-20 11:40:42,2025-02-20 11:43:45,182.859,0.058%,
779,2025-02-20 13:15:38,2025-02-20 13:18:27,168.802,0.054%,
780,2025-02-20 14:50:34,2025-02-20 14:53:09,154.54,0.049%,
781,2025-02-20 16:24:58,2025-02-20 16:27:51,173.107,0.055%,
782,2025-02-20 17:59:54,2025-02-20 18:02:49,175.443,0.056%,
783,2025-02-20 19:34:50,2025-02-20 19:37:31,161.651,0.051%,
784,2025-02-20 21:09:13,2025-02-20 21:12:14,180.681,0.057%,
785,2025-02-20 22:44:09,2025-02-20 22:46:56,166.651,0.053%,
786,2025-02-21 00:19:05,2025-02-21 00:21:38,152.549,0.048%,
787,2025-02-21 01:53:28,2025-02-21 01:56:19,171.224,0.054%,
788,2025-02-21 03:28:24,2025-02-21 03:31:01,156.82,0.050%,
789,2025-02-21 05:02:48,2025-02-21 05:06:00,192.018,0.061%,
790,2025-02-21 06:37:43,2025-02-21 06:40:42,178.37,0.057%,
791,2025-02-21 08:12:40,2025-02-21 08:15:24,164.42,0.052%,
792,2025-02-21 09:47:03,2025-02-21 09:50:06,183.27,0.058%,
793,2025-02-21 11:21:59,2025-02-21 11:24:48,169.209,0.054%,
794,2025-02-21 12:56:55,2025-02-21 12:59:30,154.92,0.049%,
795,2025-02-21 14:31:18,2025-02-21 14:34:12,173.451,0.055%,
796,2025-02-21 16:06:14,2025-02-21 16:09:10,175.939,0.056%,
797,2025-02-21 17:41:10,2025-02-21 17:43:52,162.116,0.051%,
798,2025-02-21 19:15:33,2025-02-21 19:18:34,181.122,0.057%,
799,2025-02-21 20:50:29,2025-02-21 20:53:17,167.085,0.053%,
800,2025-02-21 22:25:26,2025-02-21 22:27:58,152.944,0.049%,
801,2025-02-21 23:59:49,2025-02-22 00:02:40,171.603,0.054%,
802,2025-02-22 01:34:45,2025-02-22 01:37:22,157.177,0.050%,
803,2025-02-22 03:09:08,2025-02-22 03:12:21,192.482,0.061%,
804,2025-02-22 04:44:04,2025-02-22 04:47:03,178.836,0.057%,
805,2025-02-22 06:19:00,2025-02-22 06:21:45,164.867,0.052%,
806,2025-02-22 07:53:23,2025-02-22 07:56:27,183.669,0.058%,
807,2025-02-22 09:28:19,2025-02-22 09:31:09,169.612,0.054%,
808,2025-02-22 11:03:15,2025-02-22 11:05:51,155.294,0.049%,
809,2025-02-22 12:37:39,2025-02-22 12:40:32,173.788,0.055%,
810,2025-02-22 14:12:35,2025-02-22 14:15:31,176.429,0.056%,
811,2025-02-22 15:47:31,2025-02-22 15:50:13,162.572,0.052%,
812,2025-02-22 17:21:54,2025-02-22 17:24:55,181.557,0.058%,
813,2025-02-22 18:56:50,2025-02-22 18:59:37,167.508,0.053%,
814,2025-02-22 20:31:46,2025-02-22 20:34:19,153.336,0.049%,
815,2025-02-22 22:06:09,2025-02-22 22:09:01,171.971,0.055%,
816,2025-02-22 23:41:05,2025-02-22 23:43:43,157.531,0.050%,
817,2025-02-23 01:15:29,2025-02-23 01:15:44,15.063,0.005%,
818,2025-02-23 01:16:01,2025-02-23 01:18:42,160.225,0.051%,
819,2025-02-23 02:50:24,2025-02-23 02:53:24,179.302,0.057%,
820,2025-02-23 04:25:21,2025-02-23 04:28:06,165.309,0.052%,
821,2025-02-23 05:59:44,2025-02-23 06:02:48,184.061,0.058%,
822,2025-02-23 07:34:40,2025-02-23 07:37:30,170.01,0.054%,
823,2025-02-23 09:09:36,2025-02-23 09:12:12,155.667,0.049%,
824,2025-02-23 10:43:59,2025-02-23 10:46:53,174.117,0.055%,
825,2025-02-23 12:18:55,2025-02-23 12:21:52,176.915,0.056%,
826,2025-02-23 13:53:51,2025-02-23 13:56:34,163.033,0.052%,
827,2025-02-23 15:28:14,2025-02-23 15:31:16,181.986,0.058%,
828,2025-02-23 17:03:10,2025-02-23 17:05:58,167.932,0.053%,
829,2025-02-23 18:38:07,2025-02-23 18:40:40,153.721,0.049%,
830,2025-02-23 20:12:30,2025-02-23 20:15:22,172.335,0.055%,
831,2025-02-23 21:47:26,2025-02-23 21:50:04,157.883,0.050%,
832,2025-02-23 23:22:22,2025-02-23 23:25:03,160.698,0.051%,
833,2025-02-24 00:56:45,2025-02-24 00:59:45,179.757,0.057%,
834,2025-02-24 02:31:41,2025-02-24 02:34:27,165.749,0.053%,
835,2025-02-24 04:06:04,2025-02-24 04:09:09,184.449,0.059%,
836,2025-02-24 05:41:00,2025-02-24 05:43:51,170.404,0.054%,
837,2025-02-24 07:15:56,2025-02-24 07:18:32,156.038,0.050%,
838,2025-02-24 08:50:20,2025-02-24 08:53:31,191.064,0.061%,
839,2025-02-24 10:25:16,2025-02-24 10:28:13,177.399,0.056%,
840,2025-02-24 12:00:12,2025-02-24 12:02:55,163.486,0.052%,
841,2025-02-24 13:34:35,2025-02-24 13:37:37,182.41,0.058%,
842,2025-02-24 15:09:31,2025-02-24 15:12:19,168.346,0.053%,
843,2025-02-24 16:44:27,2025-02-24 16:47:01,154.104,0.049%,
844,2025-02-24 18:18:50,2025-02-24 18:21:43,172.693,0.055%,
845,2025-02-24 19:53:46,2025-02-24 19:56:41,174.933,0.056%,
846,2025-02-24 21:28:42,2025-02-24 21:31:24,161.165,0.051%,
847,2025-02-24 23:03:06,2025-02-24 23:06:06,180.21,0.057%,
848,2025-02-25 00:38:02,2025-02-25 00:40:48,166.185,0.053%,
849,2025-02-25 02:12:25,2025-02-25 02:15:30,184.827,0.059%,
850,2025-02-25 03:47:21,2025-02-25 03:50:12,170.792,0.054%,
851,2025-02-25 05:22:17,2025-02-25 05:24:53,156.399,0.050%,
852,2025-02-25 06:56:40,2025-02-25 06:59:52,191.537,0.061%,
853,2025-02-25 08:31:36,2025-02-25 08:34:34,177.875,0.056%,
854,2025-02-25 10:06:32,2025-02-25 10:09:16,163.943,0.052%,
855,2025-02-25 11:40:55,2025-02-25 11:43:58,182.823,0.058%,
856,2025-02-25 13:15:51,2025-02-25 13:18:40,168.76,0.054%,
857,2025-02-25 14:50:48,2025-02-25 14:53:22,154.489,0.049%,
858,2025-02-25 16:25:11,2025-02-25 16:28:04,173.047,0.055%,
859,2025-02-25 18:00:07,2025-02-25 18:03:02,175.432,0.056%,
860,2025-02-25 19:35:03,2025-02-25 19:37:45,161.631,0.051%,
861,2025-02-25 21:09:26,2025-02-25 21:12:27,180.654,0.057%,
862,2025-02-25 22:44:22,2025-02-25 22:47:09,166.617,0.053%,
863,2025-02-26 00:19:18,2025-02-26 00:21:51,152.506,0.048%,
864,2025-02-26 01:53:41,2025-02-26 01:56:33,171.173,0.054%,
865,2025-02-26 03:28:37,2025-02-26 03:31:14,156.761,0.050%,
866,2025-02-26 05:03:01,2025-02-26 05:06:13,192.003,0.061%,
867,2025-02-26 06:37:57,2025-02-26 06:40:55,178.351,0.057%,
868,2025-02-26 08:12:53,2025-02-26 08:15:37,164.393,0.052%,
869,2025-02-26 09:47:16,2025-02-26 09:50:19,183.232,0.058%,
870,2025-02-26 11:22:12,2025-02-26 11:25:01,169.166,0.054%,
871,2025-02-26 12:57:08,2025-02-26 12:59:43,154.864,0.049%,
872,2025-02-26 14:31:31,2025-02-26 14:34:25,173.389,0.055%,
873,2025-02-26 16:06:27,2025-02-26 16:09:23,175.927,0.056%,
874,2025-02-26 17:41:23,2025-02-26 17:44:06,162.094,0.051%,
875,2025-02-26 19:15:47,2025-02-26 19:18:48,181.096,0.057%,
876,2025-02-26 20:50:43,2025-02-26 20:53:30,167.045,0.053%,
877,2025-02-26 22:25:39,2025-02-26 22:28:12,152.899,0.049%,
878,2025-02-27 00:00:02,2025-02-27 00:02:53,171.551,0.054%,
879,2025-02-27 01:34:58,2025-02-27 01:37:35,157.117,0.050%,
880,2025-02-27 03:09:21,2025-02-27 03:12:34,192.465,0.061%,
881,2025-02-27 04:44:17,2025-02-27 04:47:16,178.815,0.057%,
882,2025-02-27 06:19:13,2025-02-27 06:21:58,164.839,0.052%,
883,2025-02-27 07:53:37,2025-02-27 07:56:40,183.629,0.058%,
884,2025-02-27 09:28:32,2025-02-27 09:31:22,169.567,0.054%,
885,2025-02-27 11:03:29,2025-02-27 11:06:04,155.241,0.049%,
886,2025-02-27 12:37:52,2025-02-27 12:40:46,173.724,0.055%,
887,2025-02-27 14:12:48,2025-02-27 14:15:44,176.415,0.056%,
888,2025-02-27 15:47:44,2025-02-27 15:50:26,162.555,0.052%,
889,2025-02-27 17:22:07,2025-02-27 17:25:09,181.526,0.058%,
890,2025-02-27 18:57:03,2025-02-27 18:59:51,167.472,0.053%,
891,2025-02-27 20:31:59,2025-02-27 20:34:33,153.29,0.049%,
892,2025-02-27 22:06:22,2025-02-27 22:09:14,171.92,0.055%,
893,2025-02-27 23:41:18,2025-02-27 23:43:56,157.469,0.050%,
894,2025-02-27 23:43:58,2025-02-27 23:44:12,14.547,0.005%,
895,2025-02-28 01:16:15,2025-02-28 01:18:55,160.209,0.051%,
896,2025-02-28 02:50:38,2025-02-28 02:53:37,179.279,0.057%,
897,2025-02-28 04:25:34,2025-02-28 04:28:19,165.279,0.052%,
898,2025-02-28 05:59:57,2025-02-28 06:03:01,184.025,0.058%,
899,2025-02-28 07:34:53,2025-02-28 07:37:43,169.965,0.054%,
900,2025-02-28 09:09:49,2025-02-28 09:12:25,155.613,0.049%,
901,2025-02-28 10:44:12,2025-02-28 10:47:23,190.573,0.060%,
902,2025-02-28 12:19:08,2025-02-28 12:22:05,176.9,0.056%,
903,2025-02-28 13:54:04,2025-02-28 13:56:47,163.01,0.052%,
904,2025-02-28 15:28:28,2025-02-28 15:31:30,181.956,0.058%,
905,2025-02-28 17:03:24,2025-02-28 17:06:12,167.894,0.053%,
906,2025-02-28 18:38:20,2025-02-28 18:40:53,153.674,0.049%,
907,2025-02-28 20:12:43,2025-02-28 20:15:35,172.28,0.055%,
908,2025-02-28 21:47:39,2025-02-28 21:50:33,174.417,0.055%,
909,2025-02-28 23:22:35,2025-02-28 23:25:16,160.68,0.051%,
910,2025-03-01 00:56:58,2025-03-01 00:59:58,179.733,0.057%,
911,2025-03-01 02:31:54,2025-03-01 02:34:40,165.718,0.053%,
912,2025-03-01 04:06:18,2025-03-01 04:09:22,184.405,0.059%,
913,2025-03-01 05:41:14,2025-03-01 05:44:04,170.357,0.054%,
914,2025-03-01 07:16:10,2025-03-01 07:18:46,155.98,0.050%,
915,2025-03-01 08:50:33,2025-03-01 08:53:44,191.052,0.061%,
916,2025-03-01 10:25:29,2025-03-01 10:28:26,177.383,0.056%,
917,2025-03-01 12:00:25,2025-03-01 12:03:08,163.462,0.052%,
918,2025-03-01 13:34:48,2025-03-01 13:37:51,182.376,0.058%,
919,2025-03-01 15:09:44,2025-03-01 15:12:32,168.307,0.053%,
920,2025-03-01 16:44:40,2025-03-01 16:47:14,154.055,0.049%,
921,2025-03-01 18:19:03,2025-03-01 18:21:56,172.636,0.055%,
922,2025-03-01 19:53:59,2025-03-01 19:56:54,174.924,0.056%,
923,2025-03-01 21:28:56,2025-03-01 21:31:37,161.146,0.051%,
924,2025-03-01 23:03:19,2025-03-01 23:06:19,180.185,0.057%,
925,2025-03-02 00:38:15,2025-03-02 00:41:01,166.154,0.053%,
926,2025-03-02 02:13:11,2025-03-02 02:15:43,152.067,0.048%,
927,2025-03-02 03:47:34,2025-03-02 03:50:25,170.744,0.054%,
928,2025-03-02 05:22:30,2025-03-02 05:25:06,156.343,0.050%,
929,2025-03-02 06:56:53,2025-03-02 07:00:05,191.524,0.061%,
930,2025-03-02 08:31:49,2025-03-02 08:34:47,177.857,0.056%,
931,2025-03-02 10:06:45,2025-03-02 10:09:29,163.918,0.052%,
932,2025-03-02 11:41:09,2025-03-02 11:44:11,182.787,0.058%,
933,2025-03-02 13:16:05,2025-03-02 13:18:53,168.719,0.054%,
934,2025-03-02 14:51:01,2025-03-02 14:53:35,154.44,0.049%,
935,2025-03-02 16:25:24,2025-03-02 16:28:17,172.987,0.055%,
936,2025-03-02 18:00:20,2025-03-02 18:03:15,175.422,0.056%,
937,2025-03-02 19:35:16,2025-03-02 19:37:58,161.612,0.051%,
938,2025-03-02 21:09:39,2025-03-02 21:12:40,180.627,0.057%,
939,2025-03-02 22:44:35,2025-03-02 22:47:22,166.584,0.053%,
940,2025-03-03 00:19:31,2025-03-03 00:22:04,152.463,0.048%,
941,2025-03-03 01:53:55,2025-03-03 01:56:46,171.123,0.054%,
942,2025-03-03 03:28:51,2025-03-03 03:31:27,156.703,0.050%,
943,2025-03-03 05:03:14,2025-03-03 05:06:26,191.987,0.061%,
944,2025-03-03 06:38:10,2025-03-03 06:41:08,178.332,0.057%,
945,2025-03-03 08:13:06,2025-03-03 08:15:50,164.366,0.052%,
946,2025-03-03 09:47:29,2025-03-03 09:50:32,183.194,0.058%,
947,2025-03-03 11:22:25,2025-03-03 11:25:14,169.123,0.054%,
948,2025-03-03 12:57:21,2025-03-03 12:59:56,154.813,0.049%,
949,2025-03-03 14:31:44,2025-03-03 14:34:38,173.328,0.055%,
950,2025-03-03 14:34:40,2025-03-03 14:34:54,13.577,0.004%,
951,2025-03-03 16:06:41,2025-03-03 16:09:36,175.916,0.056%,
952,2025-03-03 17:41:37,2025-03-03 17:44:19,162.074,0.051%,
953,2025-03-03 19:16:00,2025-03-03 19:19:01,181.064,0.057%,
954,2025-03-03 20:50:56,2025-03-03 20:53:43,167.011,0.053%,
955,2025-03-03 22:25:52,2025-03-03 22:28:25,152.854,0.049%,
956,2025-03-04 00:00:15,2025-03-04 00:03:07,171.499,0.054%,
957,2025-03-04 01:35:11,2025-03-04 01:38:05,173.396,0.055%,
958,2025-03-04 03:10:07,2025-03-04 03:12:47,159.724,0.051%,
959,2025-03-04 04:44:30,2025-03-04 04:47:29,178.795,0.057%,
960,2025-03-04 06:19:26,2025-03-04 06:22:11,164.811,0.052%,
961,2025-03-04 07:53:50,2025-03-04 07:56:53,183.59,0.058%,
962,2025-03-04 09:28:46,2025-03-04 09:31:35,169.524,0.054%,
963,2025-03-04 11:03:42,2025-03-04 11:06:17,155.188,0.049%,
964,2025-03-04 12:38:05,2025-03-04 12:41:15,190.08,0.060%,
965,2025-03-04 14:13:01,2025-03-04 14:15:57,176.402,0.056%,
966,2025-03-04 15:47:57,2025-03-04 15:50:40,162.533,0.052%,
967,2025-03-04 17:22:20,2025-03-04 17:25:22,181.496,0.058%,
968,2025-03-04 18:57:16,2025-03-04 19:00:04,167.438,0.053%,
969,2025-03-04 20:32:12,2025-03-04 20:34:46,153.243,0.049%,
970,2025-03-04 22:06:36,2025-03-04 22:09:27,171.865,0.055%,
971,2025-03-04 23:41:32,2025-03-04 23:44:26,173.908,0.055%,
972,2025-03-05 01:16:28,2025-03-05 01:19:08,160.192,0.051%,
973,2025-03-05 02:50:51,2025-03-05 02:53:50,179.257,0.057%,
974,2025-03-05 04:25:47,2025-03-05 04:28:32,165.249,0.052%,
975,2025-03-05 06:00:10,2025-03-05 06:03:14,183.98,0.058%,
976,2025-03-05 07:35:06,2025-03-05 07:37:56,169.919,0.054%,
977,2025-03-05 09:10:02,2025-03-05 09:12:38,155.558,0.049%,
978,2025-03-05 10:44:26,2025-03-05 10:47:36,190.562,0.060%,
979,2025-03-05 12:19:22,2025-03-05 12:22:18,176.885,0.056%,
980,2025-03-05 13:54:18,2025-03-05 13:57:01,162.984,0.052%,
981,2025-03-05 15:28:41,2025-03-05 15:31:43,181.921,0.058%,
982,2025-03-05 17:03:37,2025-03-05 17:06:25,167.856,0.053%,
983,2025-03-05 18:38:33,2025-03-05 18:41:07,153.626,0.049%,
984,2025-03-05 20:12:56,2025-03-05 20:15:48,172.223,0.055%,
985,2025-03-05 21:47:52,2025-03-05 21:50:47,174.411,0.055%,
986,2025-03-05 23:22:48,2025-03-05 23:25:29,160.662,0.051%,
987,2025-03-06 00:57:11,2025-03-06 01:00:11,179.709,0.057%,
988,2025-03-06 02:32:08,2025-03-06 02:34:53,165.687,0.053%,
989,2025-03-06 04:07:04,2025-03-06 04:09:35,151.631,0.048%,
990,2025-03-06 05:41:27,2025-03-06 05:44:17,170.312,0.054%,
991,2025-03-06 07:16:23,2025-03-06 07:18:59,155.924,0.049%,
992,2025-03-06 08:50:46,2025-03-06 08:53:57,191.04,0.061%,
993,2025-03-06 10:25:42,2025-03-06 10:28:39,177.366,0.056%,
994,2025-03-06 12:00:38,2025-03-06 12:03:22,163.437,0.052%,
995,2025-03-06 13:35:01,2025-03-06 13:38:04,182.341,0.058%,
996,2025-03-06 15:09:57,2025-03-06 15:12:46,168.267,0.053%,
997,2025-03-06 16:44:53,2025-03-06 16:47:27,154.006,0.049%,
998,2025-03-06 18:19:17,2025-03-06 18:22:09,172.577,0.055%,
999,2025-03-06 19:54:13,2025-03-06 19:57:08,174.914,0.056%,
1000,2025-03-06 21:29:09,2025-03-06 21:31:50,161.127,0.051%,
1001,2025-03-06 23:03:32,2025-03-06 23:06:32,180.158,0.057%,
1002,2025-03-07 00:38:28,2025-03-07 00:41:14,166.121,0.053%,
