3UCubedIntegratedSim/Reports & Plots/North Cusp/NorthCusp CSV/NorthCusp_Sat9.csv

Number,Coverage Start (UTCG),Coverage End (UTCG),Duration (sec),Percent,
1,2025-01-01 16:23:51,2025-01-01 16:30:32,400.919,0.127%,
2,2025-01-01 17:58:45,2025-01-01 18:04:48,362.972,0.115%,
3,2025-01-01 19:33:40,2025-01-01 19:39:26,346.482,0.110%,
4,2025-01-01 21:08:06,2025-01-01 21:13:41,335.537,0.106%,
5,2025-01-01 21:13:43,2025-01-01 21:14:01,17.786,0.006%,
6,2025-01-01 22:43:00,2025-01-01 22:48:21,321.205,0.102%,
7,2025-01-01 22:49:36,2025-01-01 22:50:15,38.477,0.012%,
8,2025-01-02 00:17:55,2025-01-02 00:24:27,392.202,0.124%,
9,2025-01-02 00:24:30,2025-01-02 00:24:48,17.923,0.006%,
10,2025-01-02 01:52:21,2025-01-02 01:59:06,405.061,0.128%,
11,2025-01-02 03:27:15,2025-01-02 03:33:41,385.907,0.122%,
12,2025-01-02 05:02:10,2025-01-02 05:07:58,348.237,0.110%,
13,2025-01-02 06:36:36,2025-01-02 06:42:36,360.544,0.114%,
14,2025-01-02 08:11:30,2025-01-02 08:16:52,321.277,0.102%,
15,2025-01-02 08:16:55,2025-01-02 08:17:10,15.038,0.005%,
16,2025-01-02 09:46:25,2025-01-02 09:51:32,306.383,0.097%,
17,2025-01-02 09:52:41,2025-01-02 09:53:25,44.064,0.014%,
18,2025-01-02 11:20:51,2025-01-02 11:27:37,406.619,0.129%,
19,2025-01-02 11:27:42,2025-01-02 11:27:57,14.502,0.005%,
20,2025-01-02 12:55:45,2025-01-02 13:02:16,390.435,0.124%,
21,2025-01-02 14:30:11,2025-01-02 14:36:29,377.525,0.120%,
22,2025-01-02 14:36:29,2025-01-02 14:36:51,21.729,0.007%,
23,2025-01-02 16:05:06,2025-01-02 16:11:08,362.705,0.115%,
24,2025-01-02 17:40:00,2025-01-02 17:45:46,345.772,0.110%,
25,2025-01-02 19:14:26,2025-01-02 19:20:02,335.574,0.106%,
26,2025-01-02 19:20:07,2025-01-02 19:20:18,11.593,0.004%,
27,2025-01-02 20:49:21,2025-01-02 20:54:42,321.018,0.102%,
28,2025-01-02 20:55:45,2025-01-02 20:56:35,49.683,0.016%,
29,2025-01-02 22:24:15,2025-01-02 22:30:48,392.049,0.124%,
30,2025-01-02 22:30:55,2025-01-02 22:31:05,9.828,0.003%,
31,2025-01-02 23:58:41,2025-01-03 00:05:26,404.426,0.128%,
32,2025-01-03 01:33:36,2025-01-03 01:39:39,363.272,0.115%,
33,2025-01-03 01:39:40,2025-01-03 01:40:00,19.358,0.006%,
34,2025-01-03 03:08:31,2025-01-03 03:14:19,347.983,0.110%,
35,2025-01-03 04:42:56,2025-01-03 04:48:56,359.734,0.114%,
36,2025-01-03 06:17:51,2025-01-03 06:23:12,321.314,0.102%,
37,2025-01-03 06:23:20,2025-01-03 06:23:26,6.392,0.002%,
38,2025-01-03 07:52:46,2025-01-03 07:57:52,306.221,0.097%,
39,2025-01-03 07:58:49,2025-01-03 07:59:44,55.34,0.018%,
40,2025-01-03 09:27:11,2025-01-03 09:33:58,406.395,0.129%,
41,2025-01-03 11:02:06,2025-01-03 11:08:36,389.754,0.124%,
42,2025-01-03 12:36:32,2025-01-03 12:42:49,377.495,0.120%,
43,2025-01-03 12:42:52,2025-01-03 12:43:09,16.596,0.005%,
44,2025-01-03 14:11:26,2025-01-03 14:17:29,362.368,0.115%,
45,2025-01-03 15:46:21,2025-01-03 15:52:06,344.906,0.109%,
46,2025-01-03 17:20:47,2025-01-03 17:26:22,335.577,0.106%,
47,2025-01-03 18:55:41,2025-01-03 19:01:02,320.768,0.102%,
48,2025-01-03 19:01:53,2025-01-03 19:02:54,61.046,0.019%,
49,2025-01-03 20:30:36,2025-01-03 20:37:08,391.824,0.124%,
50,2025-01-03 22:05:02,2025-01-03 22:11:46,403.662,0.128%,
51,2025-01-03 23:39:56,2025-01-03 23:46:00,363.22,0.115%,
52,2025-01-03 23:46:05,2025-01-03 23:46:18,13.189,0.004%,
53,2025-01-04 01:14:51,2025-01-04 01:20:39,347.65,0.110%,
54,2025-01-04 02:49:17,2025-01-04 02:55:16,358.755,0.114%,
55,2025-01-04 04:24:11,2025-01-04 04:29:33,321.304,0.102%,
56,2025-01-04 05:59:06,2025-01-04 06:04:12,305.992,0.097%,
57,2025-01-04 06:04:57,2025-01-04 06:06:04,66.768,0.021%,
58,2025-01-04 07:33:32,2025-01-04 07:40:18,406.1,0.129%,
59,2025-01-04 09:08:27,2025-01-04 09:14:55,388.937,0.123%,
60,2025-01-04 10:42:52,2025-01-04 10:49:10,377.415,0.120%,
61,2025-01-04 10:49:17,2025-01-04 10:49:26,8.384,0.003%,
62,2025-01-04 12:17:47,2025-01-04 12:23:49,361.953,0.115%,
63,2025-01-04 13:52:42,2025-01-04 13:58:25,343.851,0.109%,
64,2025-01-04 15:27:08,2025-01-04 15:32:43,335.532,0.106%,
65,2025-01-04 17:02:02,2025-01-04 17:07:22,320.459,0.102%,
66,2025-01-04 17:08:01,2025-01-04 17:09:13,72.523,0.023%,
67,2025-01-04 18:36:57,2025-01-04 18:43:28,391.523,0.124%,
68,2025-01-04 20:11:23,2025-01-04 20:18:05,402.747,0.128%,
69,2025-01-04 21:46:17,2025-01-04 21:52:20,363.117,0.115%,
70,2025-01-04 23:21:12,2025-01-04 23:26:59,347.232,0.110%,
71,2025-01-05 00:55:38,2025-01-05 01:01:35,357.555,0.113%,
72,2025-01-05 02:30:32,2025-01-05 02:35:53,321.246,0.102%,
73,2025-01-05 04:05:27,2025-01-05 04:10:33,305.697,0.097%,
74,2025-01-05 04:11:05,2025-01-05 04:12:23,78.285,0.025%,
75,2025-01-05 05:39:53,2025-01-05 05:46:38,405.726,0.129%,
76,2025-01-05 07:14:47,2025-01-05 07:21:15,387.94,0.123%,
77,2025-01-05 08:49:42,2025-01-05 08:55:30,348.339,0.111%,
78,2025-01-05 10:24:08,2025-01-05 10:30:09,361.451,0.115%,
79,2025-01-05 11:59:02,2025-01-05 12:04:45,342.533,0.109%,
80,2025-01-05 13:33:28,2025-01-05 13:39:04,335.445,0.106%,
81,2025-01-05 15:08:23,2025-01-05 15:13:43,320.081,0.102%,
82,2025-01-05 15:14:08,2025-01-05 15:15:32,84.049,0.027%,
83,2025-01-05 16:43:17,2025-01-05 16:49:48,391.133,0.124%,
84,2025-01-05 18:17:43,2025-01-05 18:24:25,401.629,0.127%,
85,2025-01-05 19:52:38,2025-01-05 19:58:41,362.956,0.115%,
86,2025-01-05 21:27:32,2025-01-05 21:33:19,346.715,0.110%,
87,2025-01-05 23:01:58,2025-01-05 23:07:54,356.04,0.113%,
88,2025-01-06 00:36:53,2025-01-06 00:42:14,321.145,0.102%,
89,2025-01-06 02:11:47,2025-01-06 02:16:53,305.325,0.097%,
90,2025-01-06 02:17:12,2025-01-06 02:18:20,67.564,0.021%,
91,2025-01-06 02:18:20,2025-01-06 02:18:42,21.511,0.007%,
92,2025-01-06 03:46:13,2025-01-06 03:52:58,405.26,0.129%,
93,2025-01-06 05:21:08,2025-01-06 05:27:34,386.719,0.123%,
94,2025-01-06 06:56:03,2025-01-06 07:01:51,348.2,0.110%,
95,2025-01-06 08:30:28,2025-01-06 08:36:29,360.845,0.114%,
96,2025-01-06 10:05:23,2025-01-06 10:10:44,321.073,0.102%,
97,2025-01-06 10:10:45,2025-01-06 10:11:04,18.542,0.006%,
98,2025-01-06 11:39:49,2025-01-06 11:45:24,335.315,0.106%,
99,2025-01-06 13:14:43,2025-01-06 13:20:03,319.622,0.101%,
100,2025-01-06 13:20:16,2025-01-06 13:21:30,74.326,0.024%,
101,2025-01-06 13:21:32,2025-01-06 13:21:51,18.841,0.006%,
102,2025-01-06 14:49:38,2025-01-06 14:56:09,390.649,0.124%,
103,2025-01-06 16:24:04,2025-01-06 16:30:44,400.249,0.127%,
104,2025-01-06 17:58:58,2025-01-06 18:05:01,362.731,0.115%,
105,2025-01-06 19:33:53,2025-01-06 19:39:39,346.087,0.110%,
106,2025-01-06 21:08:19,2025-01-06 21:13:54,335.399,0.106%,
107,2025-01-06 21:13:57,2025-01-06 21:14:13,15.94,0.005%,
108,2025-01-06 22:43:13,2025-01-06 22:48:34,320.988,0.102%,
109,2025-01-07 00:18:08,2025-01-07 00:23:13,304.863,0.097%,
110,2025-01-07 00:23:19,2025-01-07 00:24:40,81.175,0.026%,
111,2025-01-07 00:24:44,2025-01-07 00:25:00,15.643,0.005%,
112,2025-01-07 01:52:34,2025-01-07 01:59:19,404.697,0.128%,
113,2025-01-07 03:27:28,2025-01-07 03:33:54,385.171,0.122%,
114,2025-01-07 05:02:23,2025-01-07 05:08:11,347.993,0.110%,
115,2025-01-07 06:36:49,2025-01-07 06:42:49,360.123,0.114%,
116,2025-01-07 08:11:43,2025-01-07 08:17:05,321.136,0.102%,
117,2025-01-07 08:17:09,2025-01-07 08:17:22,12.761,0.004%,
118,2025-01-07 09:46:09,2025-01-07 09:51:45,335.129,0.106%,
119,2025-01-07 11:21:04,2025-01-07 11:27:50,406.393,0.129%,
120,2025-01-07 11:27:57,2025-01-07 11:28:08,11.482,0.004%,
121,2025-01-07 12:55:58,2025-01-07 13:02:29,390.052,0.124%,
122,2025-01-07 14:30:24,2025-01-07 14:36:42,377.363,0.120%,
123,2025-01-07 14:36:43,2025-01-07 14:37:03,20.128,0.006%,
124,2025-01-07 16:05:19,2025-01-07 16:11:21,362.44,0.115%,
125,2025-01-07 17:40:14,2025-01-07 17:45:59,345.33,0.110%,
126,2025-01-07 19:14:39,2025-01-07 19:20:15,335.422,0.106%,
127,2025-01-07 19:20:22,2025-01-07 19:20:30,8.355,0.003%,
128,2025-01-07 20:49:34,2025-01-07 20:54:55,320.781,0.102%,
129,2025-01-07 22:24:29,2025-01-07 22:31:00,391.817,0.124%,
130,2025-01-07 22:31:11,2025-01-07 22:31:15,4.062,0.001%,
131,2025-01-07 23:58:54,2025-01-08 00:05:39,404.021,0.128%,
132,2025-01-08 01:33:49,2025-01-08 01:39:52,363.103,0.115%,
133,2025-01-08 01:39:55,2025-01-08 01:40:12,17.5,0.006%,
134,2025-01-08 03:08:44,2025-01-08 03:14:32,347.71,0.110%,
135,2025-01-08 04:43:10,2025-01-08 04:49:09,359.26,0.114%,
136,2025-01-08 06:18:04,2025-01-08 06:23:25,321.154,0.102%,
137,2025-01-08 07:52:59,2025-01-08 07:58:05,305.982,0.097%,
138,2025-01-08 09:27:25,2025-01-08 09:34:11,406.147,0.129%,
139,2025-01-08 11:02:19,2025-01-08 11:08:48,389.332,0.124%,
140,2025-01-08 12:36:45,2025-01-08 12:43:02,377.317,0.120%,
141,2025-01-08 12:43:07,2025-01-08 12:43:21,14.331,0.005%,
142,2025-01-08 14:11:40,2025-01-08 14:17:42,362.076,0.115%,
143,2025-01-08 15:46:34,2025-01-08 15:52:19,344.406,0.109%,
144,2025-01-08 17:21:00,2025-01-08 17:26:36,335.41,0.106%,
145,2025-01-08 18:55:55,2025-01-08 19:01:15,320.512,0.102%,
146,2025-01-08 20:30:49,2025-01-08 20:37:21,391.567,0.124%,
147,2025-01-08 22:05:15,2025-01-08 22:11:58,403.207,0.128%,
148,2025-01-08 23:40:10,2025-01-08 23:46:13,363.036,0.115%,
149,2025-01-08 23:46:19,2025-01-08 23:46:29,10.115,0.003%,
150,2025-01-09 01:15:04,2025-01-09 01:20:52,347.351,0.110%,
151,2025-01-09 02:49:30,2025-01-09 02:55:28,358.212,0.114%,
152,2025-01-09 04:24:25,2025-01-09 04:29:46,321.132,0.102%,
153,2025-01-09 05:59:20,2025-01-09 06:04:25,305.73,0.097%,
154,2025-01-09 07:33:45,2025-01-09 07:40:31,405.821,0.129%,
155,2025-01-09 09:08:40,2025-01-09 09:15:08,388.455,0.123%,
156,2025-01-09 10:43:06,2025-01-09 10:49:23,377.217,0.120%,
157,2025-01-09 12:18:00,2025-01-09 12:24:02,361.632,0.115%,
158,2025-01-09 13:52:55,2025-01-09 13:58:38,343.266,0.109%,
159,2025-01-09 15:27:21,2025-01-09 15:32:56,335.35,0.106%,
160,2025-01-09 17:02:15,2025-01-09 17:07:35,320.176,0.102%,
161,2025-01-09 18:37:10,2025-01-09 18:43:41,391.236,0.124%,
162,2025-01-09 20:11:36,2025-01-09 20:18:18,402.229,0.128%,
163,2025-01-09 21:46:30,2025-01-09 21:52:33,362.909,0.115%,
164,2025-01-09 23:21:25,2025-01-09 23:27:12,346.902,0.110%,
165,2025-01-10 00:55:51,2025-01-10 01:01:48,356.914,0.113%,
166,2025-01-10 02:30:45,2025-01-10 02:36:06,321.058,0.102%,
167,2025-01-10 04:05:40,2025-01-10 04:10:46,305.411,0.097%,
168,2025-01-10 05:40:06,2025-01-10 05:46:51,405.42,0.129%,
169,2025-01-10 07:15:00,2025-01-10 07:21:28,387.39,0.123%,
170,2025-01-10 08:49:26,2025-01-10 08:55:43,377.062,0.120%,
171,2025-01-10 10:24:21,2025-01-10 10:30:22,361.097,0.115%,
172,2025-01-10 11:59:15,2025-01-10 12:04:57,341.827,0.108%,
173,2025-01-10 13:33:41,2025-01-10 13:39:17,335.247,0.106%,
174,2025-01-10 15:08:36,2025-01-10 15:13:56,319.774,0.101%,
175,2025-01-10 16:43:30,2025-01-10 16:50:01,390.815,0.124%,
176,2025-01-10 18:17:56,2025-01-10 18:24:37,401.03,0.127%,
177,2025-01-10 19:52:51,2025-01-10 19:58:54,362.728,0.115%,
178,2025-01-10 21:27:46,2025-01-10 21:33:32,346.35,0.110%,
179,2025-01-10 23:02:11,2025-01-10 23:07:47,335.2,0.106%,
180,2025-01-10 23:07:47,2025-01-10 23:08:07,19.255,0.006%,
181,2025-01-11 00:37:06,2025-01-11 00:42:27,320.939,0.102%,
182,2025-01-11 02:12:01,2025-01-11 02:17:06,305.01,0.097%,
183,2025-01-11 03:46:26,2025-01-11 03:53:11,404.922,0.128%,
184,2025-01-11 05:21:21,2025-01-11 05:27:47,386.066,0.122%,
185,2025-01-11 06:55:47,2025-01-11 06:55:56,8.833,0.003%,
186,2025-01-11 06:56:16,2025-01-11 07:02:04,347.969,0.110%,
187,2025-01-11 08:30:41,2025-01-11 08:36:42,360.452,0.114%,
188,2025-01-11 10:05:36,2025-01-11 10:10:57,320.939,0.102%,
189,2025-01-11 10:10:59,2025-01-11 10:11:16,16.784,0.005%,
190,2025-01-11 11:40:02,2025-01-11 11:45:37,335.099,0.106%,
191,2025-01-11 13:14:56,2025-01-11 13:20:16,319.285,0.101%,
192,2025-01-11 14:49:51,2025-01-11 14:56:21,390.292,0.124%,
193,2025-01-11 16:24:17,2025-01-11 16:30:57,399.529,0.127%,
194,2025-01-11 17:59:12,2025-01-11 18:05:14,362.48,0.115%,
195,2025-01-11 19:34:06,2025-01-11 19:39:52,345.677,0.110%,
196,2025-01-11 21:08:32,2025-01-11 21:14:07,335.255,0.106%,
197,2025-01-11 21:14:11,2025-01-11 21:14:25,13.811,0.004%,
198,2025-01-11 22:43:27,2025-01-11 22:48:47,320.764,0.102%,
199,2025-01-12 00:18:21,2025-01-12 00:23:26,304.514,0.097%,
200,2025-01-12 01:52:47,2025-01-12 01:59:31,404.319,0.128%,
201,2025-01-12 03:27:42,2025-01-12 03:33:45,362.958,0.115%,
202,2025-01-12 03:33:45,2025-01-12 03:34:06,20.847,0.007%,
203,2025-01-12 05:02:36,2025-01-12 05:08:24,347.737,0.110%,
204,2025-01-12 06:37:02,2025-01-12 06:43:02,359.681,0.114%,
205,2025-01-12 08:11:57,2025-01-12 08:17:18,320.988,0.102%,
206,2025-01-12 08:17:24,2025-01-12 08:17:33,9.915,0.003%,
207,2025-01-12 09:46:23,2025-01-12 09:51:58,334.894,0.106%,
208,2025-01-12 11:21:17,2025-01-12 11:26:36,318.707,0.101%,
209,2025-01-12 12:56:12,2025-01-12 13:02:41,389.657,0.124%,
210,2025-01-12 14:30:38,2025-01-12 14:36:55,377.194,0.120%,
211,2025-01-12 14:36:57,2025-01-12 14:37:15,18.347,0.006%,
212,2025-01-12 16:05:32,2025-01-12 16:11:34,362.168,0.115%,
213,2025-01-12 17:40:27,2025-01-12 17:46:12,344.867,0.109%,
214,2025-01-12 19:14:53,2025-01-12 19:20:28,335.264,0.106%,
215,2025-01-12 19:20:38,2025-01-12 19:20:40,2.017,0.001%,
216,2025-01-12 20:49:47,2025-01-12 20:55:08,320.537,0.102%,
217,2025-01-12 22:24:42,2025-01-12 22:29:46,303.923,0.096%,
218,2025-01-12 23:59:08,2025-01-13 00:05:51,403.598,0.128%,
219,2025-01-13 01:34:02,2025-01-13 01:40:05,362.927,0.115%,
220,2025-01-13 01:40:09,2025-01-13 01:40:24,15.372,0.005%,
221,2025-01-13 03:08:57,2025-01-13 03:14:44,347.429,0.110%,
222,2025-01-13 04:43:23,2025-01-13 04:49:21,358.762,0.114%,
223,2025-01-13 06:18:17,2025-01-13 06:23:38,320.99,0.102%,
224,2025-01-13 07:52:43,2025-01-13 07:58:18,334.637,0.106%,
225,2025-01-13 09:27:38,2025-01-13 09:32:56,318.017,0.101%,
226,2025-01-13 11:02:32,2025-01-13 11:09:01,388.884,0.123%,
227,2025-01-13 12:36:58,2025-01-13 12:43:15,377.13,0.120%,
228,2025-01-13 12:43:21,2025-01-13 12:43:33,11.57,0.004%,
229,2025-01-13 14:11:53,2025-01-13 14:17:55,361.774,0.115%,
230,2025-01-13 15:46:47,2025-01-13 15:52:31,343.876,0.109%,
231,2025-01-13 17:21:13,2025-01-13 17:26:49,335.237,0.106%,
232,2025-01-13 18:56:08,2025-01-13 19:01:28,320.247,0.102%,
233,2025-01-13 20:31:02,2025-01-13 20:36:06,303.2,0.096%,
234,2025-01-13 20:37:28,2025-01-13 20:37:34,5.47,0.002%,
235,2025-01-13 22:05:28,2025-01-13 22:12:11,402.73,0.128%,
236,2025-01-13 23:40:23,2025-01-13 23:46:26,362.841,0.115%,
237,2025-01-13 23:46:35,2025-01-13 23:46:40,5.424,0.002%,
238,2025-01-14 01:15:18,2025-01-14 01:21:05,347.04,0.110%,
239,2025-01-14 02:49:43,2025-01-14 02:55:41,357.634,0.113%,
240,2025-01-14 04:24:38,2025-01-14 04:29:59,320.953,0.102%,
241,2025-01-14 05:59:04,2025-01-14 05:59:26,22.607,0.007%,
242,2025-01-14 05:59:33,2025-01-14 06:04:38,305.46,0.097%,
243,2025-01-14 07:33:58,2025-01-14 07:39:16,317.19,0.101%,
244,2025-01-14 07:40:30,2025-01-14 07:40:44,14.194,0.005%,
245,2025-01-14 09:08:53,2025-01-14 09:15:21,387.947,0.123%,
246,2025-01-14 10:43:19,2025-01-14 10:49:36,377.011,0.120%,
247,2025-01-14 12:18:13,2025-01-14 12:24:15,361.3,0.115%,
248,2025-01-14 13:53:08,2025-01-14 13:58:51,342.645,0.109%,
249,2025-01-14 15:27:34,2025-01-14 15:33:09,335.162,0.106%,
250,2025-01-14 17:02:28,2025-01-14 17:07:48,319.887,0.101%,
251,2025-01-14 18:37:23,2025-01-14 18:42:25,302.324,0.096%,
252,2025-01-14 18:43:31,2025-01-14 18:43:54,23.025,0.007%,
253,2025-01-14 20:11:49,2025-01-14 20:18:31,401.683,0.127%,
254,2025-01-14 21:46:43,2025-01-14 21:52:46,362.695,0.115%,
255,2025-01-14 23:21:38,2025-01-14 23:27:25,346.557,0.110%,
256,2025-01-15 00:56:04,2025-01-15 01:02:00,356.228,0.113%,
257,2025-01-15 02:30:59,2025-01-15 02:36:19,320.862,0.102%,
258,2025-01-15 04:05:53,2025-01-15 04:10:58,305.115,0.097%,
259,2025-01-15 05:40:19,2025-01-15 05:45:35,316.192,0.100%,
260,2025-01-15 05:46:32,2025-01-15 05:47:04,31.985,0.010%,
261,2025-01-15 07:15:14,2025-01-15 07:21:40,386.805,0.123%,
262,2025-01-15 08:49:40,2025-01-15 08:55:56,376.837,0.120%,
263,2025-01-15 10:24:34,2025-01-15 10:30:35,360.729,0.114%,
264,2025-01-15 11:59:29,2025-01-15 12:04:49,320.724,0.102%,
265,2025-01-15 12:04:50,2025-01-15 12:05:10,19.937,0.006%,
266,2025-01-15 13:33:55,2025-01-15 13:39:30,335.04,0.106%,
267,2025-01-15 15:08:49,2025-01-15 15:14:09,319.457,0.101%,
268,2025-01-15 16:43:44,2025-01-15 16:48:45,301.247,0.096%,
269,2025-01-15 16:49:33,2025-01-15 16:50:14,41.061,0.013%,
270,2025-01-15 18:18:10,2025-01-15 18:24:50,400.394,0.127%,
271,2025-01-15 19:53:04,2025-01-15 19:59:07,362.493,0.115%,
272,2025-01-15 21:27:59,2025-01-15 21:33:45,345.968,0.110%,
273,2025-01-15 23:02:25,2025-01-15 23:08:00,335.066,0.106%,
274,2025-01-15 23:08:01,2025-01-15 23:08:19,17.58,0.006%,
275,2025-01-16 00:37:19,2025-01-16 00:42:40,320.727,0.102%,
276,2025-01-16 02:12:14,2025-01-16 02:17:19,304.685,0.097%,
277,2025-01-16 03:46:40,2025-01-16 03:51:55,314.956,0.100%,
278,2025-01-16 03:52:34,2025-01-16 03:53:24,50.25,0.016%,
279,2025-01-16 05:21:34,2025-01-16 05:28:00,385.367,0.122%,
280,2025-01-16 06:56:00,2025-01-16 07:02:17,376.603,0.119%,
281,2025-01-16 08:30:55,2025-01-16 08:36:55,360.041,0.114%,
282,2025-01-16 10:05:49,2025-01-16 10:11:10,320.801,0.102%,
283,2025-01-16 10:11:13,2025-01-16 10:11:28,14.795,0.005%,
284,2025-01-16 11:40:15,2025-01-16 11:45:50,334.877,0.106%,
285,2025-01-16 13:15:10,2025-01-16 13:20:29,318.938,0.101%,
286,2025-01-16 14:50:04,2025-01-16 14:55:04,299.88,0.095%,
287,2025-01-16 14:55:35,2025-01-16 14:56:34,59.554,0.019%,
288,2025-01-16 16:24:30,2025-01-16 16:30:47,377.053,0.120%,
289,2025-01-16 16:30:47,2025-01-16 16:31:09,21.544,0.007%,
290,2025-01-16 17:59:25,2025-01-16 18:05:27,362.221,0.115%,
291,2025-01-16 19:34:19,2025-01-16 19:40:05,345.248,0.110%,
292,2025-01-16 21:08:45,2025-01-16 21:14:20,335.107,0.106%,
293,2025-01-16 21:14:26,2025-01-16 21:14:37,11.259,0.004%,
294,2025-01-16 22:43:40,2025-01-16 22:49:00,320.533,0.102%,
295,2025-01-17 00:18:34,2025-01-17 00:23:39,304.16,0.096%,
296,2025-01-17 01:53:00,2025-01-17 01:57:55,294.846,0.094%,
297,2025-01-17 01:57:56,2025-01-17 01:58:14,17.765,0.006%,
298,2025-01-17 01:58:35,2025-01-17 01:59:44,68.978,0.022%,
299,2025-01-17 03:27:55,2025-01-17 03:33:58,362.794,0.115%,
300,2025-01-17 03:33:59,2025-01-17 03:34:18,19.152,0.006%,
301,2025-01-17 05:02:21,2025-01-17 05:08:37,376.303,0.119%,
302,2025-01-17 06:37:15,2025-01-17 06:43:15,359.224,0.114%,
303,2025-01-17 08:12:10,2025-01-17 08:17:31,320.836,0.102%,
304,2025-01-17 08:17:39,2025-01-17 08:17:45,5.749,0.002%,
305,2025-01-17 09:46:36,2025-01-17 09:52:10,334.652,0.106%,
306,2025-01-17 11:21:30,2025-01-17 11:26:49,318.322,0.101%,
307,2025-01-17 12:56:25,2025-01-17 13:01:06,280.608,0.089%,
308,2025-01-17 13:01:08,2025-01-17 13:01:23,15.362,0.005%,
309,2025-01-17 13:01:36,2025-01-17 13:02:54,78.518,0.025%,
310,2025-01-17 14:30:51,2025-01-17 14:37:08,377.02,0.120%,
311,2025-01-17 14:37:11,2025-01-17 14:37:27,16.344,0.005%,
312,2025-01-17 16:05:45,2025-01-17 16:11:47,361.884,0.115%,
313,2025-01-17 17:40:40,2025-01-17 17:46:24,344.384,0.109%,
314,2025-01-17 19:15:06,2025-01-17 19:20:41,335.102,0.106%,
315,2025-01-17 20:50:00,2025-01-17 20:55:21,320.286,0.102%,
316,2025-01-17 22:24:55,2025-01-17 22:29:59,303.525,0.096%,
317,2025-01-17 23:59:21,2025-01-18 00:04:16,294.991,0.094%,
318,2025-01-18 00:04:20,2025-01-18 00:04:32,12.461,0.004%,
319,2025-01-18 00:04:36,2025-01-18 00:06:04,88.172,0.028%,
320,2025-01-18 01:34:15,2025-01-18 01:40:18,362.746,0.115%,
321,2025-01-18 01:40:23,2025-01-18 01:40:36,12.871,0.004%,
322,2025-01-18 03:09:10,2025-01-18 03:14:57,347.137,0.110%,
323,2025-01-18 04:43:36,2025-01-18 04:49:34,358.241,0.114%,
324,2025-01-18 06:18:30,2025-01-18 06:23:51,320.822,0.102%,
325,2025-01-18 07:52:56,2025-01-18 07:58:31,334.375,0.106%,
326,2025-01-18 09:27:51,2025-01-18 09:33:09,317.591,0.101%,
327,2025-01-18 11:02:46,2025-01-18 11:07:26,280.759,0.089%,
328,2025-01-18 11:07:32,2025-01-18 11:09:14,101.967,0.032%,
329,2025-01-18 12:37:11,2025-01-18 12:43:28,376.938,0.120%,
330,2025-01-18 12:43:36,2025-01-18 12:43:44,7.857,0.003%,
331,2025-01-18 14:12:06,2025-01-18 14:18:07,361.463,0.115%,
332,2025-01-18 15:47:01,2025-01-18 15:52:44,343.321,0.109%,
333,2025-01-18 17:21:27,2025-01-18 17:27:02,335.06,0.106%,
334,2025-01-18 18:56:21,2025-01-18 19:01:41,319.974,0.102%,
335,2025-01-18 20:31:16,2025-01-18 20:36:18,302.751,0.096%,
336,2025-01-18 22:05:42,2025-01-18 22:12:24,402.231,0.128%,
337,2025-01-18 23:40:36,2025-01-18 23:46:39,362.637,0.115%,
338,2025-01-19 01:15:31,2025-01-19 01:21:18,346.719,0.110%,
339,2025-01-19 02:49:57,2025-01-19 02:55:54,357.028,0.113%,
340,2025-01-19 04:24:51,2025-01-19 04:30:12,320.77,0.102%,
341,2025-01-19 05:59:17,2025-01-19 06:04:51,334.03,0.106%,
342,2025-01-19 07:34:12,2025-01-19 07:39:28,316.71,0.100%,
343,2025-01-19 09:09:06,2025-01-19 09:15:34,387.421,0.123%,
344,2025-01-19 10:43:32,2025-01-19 10:49:49,376.8,0.120%,
345,2025-01-19 12:18:27,2025-01-19 12:24:28,360.955,0.115%,
346,2025-01-19 13:53:21,2025-01-19 13:59:03,341.989,0.108%,
347,2025-01-19 15:27:47,2025-01-19 15:33:22,334.969,0.106%,
348,2025-01-19 17:02:42,2025-01-19 17:08:01,319.589,0.101%,
349,2025-01-19 18:37:36,2025-01-19 18:42:38,301.814,0.096%,
350,2025-01-19 20:12:02,2025-01-19 20:18:43,401.112,0.127%,
351,2025-01-19 21:46:57,2025-01-19 21:52:59,362.474,0.115%,
352,2025-01-19 23:21:51,2025-01-19 23:27:38,346.202,0.110%,
353,2025-01-20 00:56:17,2025-01-20 01:01:52,334.866,0.106%,
354,2025-01-20 01:01:52,2025-01-20 01:02:13,20.603,0.007%,
355,2025-01-20 02:31:12,2025-01-20 02:36:32,320.662,0.102%,
356,2025-01-20 04:05:38,2025-01-20 04:11:11,333.618,0.106%,
357,2025-01-20 05:40:32,2025-01-20 05:45:48,315.638,0.100%,
358,2025-01-20 07:15:27,2025-01-20 07:21:53,386.187,0.123%,
359,2025-01-20 08:49:53,2025-01-20 08:56:09,376.604,0.119%,
360,2025-01-20 10:24:47,2025-01-20 10:30:48,360.35,0.114%,
361,2025-01-20 11:59:42,2025-01-20 12:05:02,320.595,0.102%,
362,2025-01-20 12:05:04,2025-01-20 12:05:22,18.338,0.006%,
363,2025-01-20 13:34:08,2025-01-20 13:39:43,334.831,0.106%,
364,2025-01-20 15:09:02,2025-01-20 15:14:21,319.131,0.101%,
365,2025-01-20 16:43:57,2025-01-20 16:48:58,300.651,0.095%,
366,2025-01-20 18:18:23,2025-01-20 18:25:03,399.717,0.127%,
367,2025-01-20 19:53:17,2025-01-20 19:59:20,362.247,0.115%,
368,2025-01-20 21:28:12,2025-01-20 21:33:58,345.573,0.110%,
369,2025-01-20 23:02:38,2025-01-20 23:08:13,334.927,0.106%,
370,2025-01-20 23:08:16,2025-01-20 23:08:31,15.711,0.005%,
371,2025-01-21 00:37:32,2025-01-21 00:42:53,320.509,0.102%,
372,2025-01-21 02:12:27,2025-01-21 02:17:31,304.35,0.097%,
373,2025-01-21 03:46:53,2025-01-21 03:52:07,314.3,0.100%,
374,2025-01-21 05:21:47,2025-01-21 05:28:12,384.623,0.122%,
375,2025-01-21 06:56:13,2025-01-21 07:02:30,376.349,0.119%,
376,2025-01-21 08:31:08,2025-01-21 08:37:07,359.618,0.114%,
377,2025-01-21 10:06:02,2025-01-21 10:11:23,320.658,0.102%,
378,2025-01-21 10:11:28,2025-01-21 10:11:40,12.46,0.004%,
379,2025-01-21 11:40:28,2025-01-21 11:46:03,334.649,0.106%,
380,2025-01-21 13:15:23,2025-01-21 13:20:41,318.578,0.101%,
381,2025-01-21 14:50:18,2025-01-21 14:54:58,280.331,0.089%,
382,2025-01-21 14:54:58,2025-01-21 14:55:17,18.43,0.006%,
383,2025-01-21 16:24:43,2025-01-21 16:31:00,376.891,0.120%,
384,2025-01-21 16:31:01,2025-01-21 16:31:21,19.926,0.006%,
385,2025-01-21 17:59:38,2025-01-21 18:05:40,361.955,0.115%,
386,2025-01-21 19:34:33,2025-01-21 19:40:17,344.806,0.109%,
387,2025-01-21 21:08:58,2025-01-21 21:14:33,334.954,0.106%,
388,2025-01-21 21:14:40,2025-01-21 21:14:48,7.88,0.003%,
389,2025-01-21 22:43:53,2025-01-21 22:49:13,320.295,0.102%,
390,2025-01-22 00:18:48,2025-01-22 00:23:51,303.787,0.096%,
391,2025-01-22 01:53:13,2025-01-22 01:58:08,294.744,0.094%,
392,2025-01-22 01:58:10,2025-01-22 01:58:26,16.144,0.005%,
393,2025-01-22 03:28:08,2025-01-22 03:34:11,362.624,0.115%,
394,2025-01-22 03:34:13,2025-01-22 03:34:31,17.265,0.006%,
395,2025-01-22 05:02:34,2025-01-22 05:08:50,376.025,0.119%,
396,2025-01-22 06:37:29,2025-01-22 06:43:27,358.749,0.114%,
397,2025-01-22 08:12:23,2025-01-22 08:17:44,320.679,0.102%,
398,2025-01-22 09:46:49,2025-01-22 09:52:23,334.405,0.106%,
399,2025-01-22 11:21:44,2025-01-22 11:27:01,317.928,0.101%,
400,2025-01-22 12:56:38,2025-01-22 13:01:19,280.504,0.089%,
401,2025-01-22 13:01:22,2025-01-22 13:01:35,13.422,0.004%,
402,2025-01-22 13:03:03,2025-01-22 13:03:07,3.548,0.001%,
403,2025-01-22 14:31:04,2025-01-22 14:37:21,376.84,0.120%,
404,2025-01-22 14:37:25,2025-01-22 14:37:39,14.035,0.005%,
405,2025-01-22 16:05:59,2025-01-22 16:12:00,361.591,0.115%,
406,2025-01-22 17:40:53,2025-01-22 17:46:37,343.877,0.109%,
407,2025-01-22 19:15:19,2025-01-22 19:20:54,334.935,0.106%,
408,2025-01-22 20:50:14,2025-01-22 20:55:34,320.027,0.102%,
409,2025-01-22 22:25:08,2025-01-22 22:30:11,303.112,0.096%,
410,2025-01-22 23:59:34,2025-01-23 00:04:29,294.878,0.094%,
411,2025-01-23 00:04:34,2025-01-23 00:04:44,9.915,0.003%,
412,2025-01-23 00:06:02,2025-01-23 00:06:17,14.851,0.005%,
413,2025-01-23 01:34:29,2025-01-23 01:40:31,362.554,0.115%,
414,2025-01-23 01:40:38,2025-01-23 01:40:48,9.687,0.003%,
415,2025-01-23 03:08:55,2025-01-23 03:09:23,28.139,0.009%,
416,2025-01-23 03:09:23,2025-01-23 03:15:10,346.838,0.110%,
417,2025-01-23 04:43:49,2025-01-23 04:49:47,357.694,0.113%,
418,2025-01-23 06:18:44,2025-01-23 06:24:04,320.649,0.102%,
419,2025-01-23 07:53:10,2025-01-23 07:58:44,334.106,0.106%,
420,2025-01-23 09:28:04,2025-01-23 09:33:21,317.148,0.101%,
421,2025-01-23 11:02:59,2025-01-23 11:07:39,280.644,0.089%,
422,2025-01-23 11:07:47,2025-01-23 11:07:51,3.884,0.001%,
423,2025-01-23 11:09:00,2025-01-23 11:09:27,26.292,0.008%,
424,2025-01-23 12:37:25,2025-01-23 12:43:41,376.74,0.120%,
425,2025-01-23 14:12:19,2025-01-23 14:18:20,361.141,0.115%,
426,2025-01-23 15:47:14,2025-01-23 15:52:57,342.734,0.109%,
427,2025-01-23 17:21:40,2025-01-23 17:27:15,334.877,0.106%,
428,2025-01-23 18:56:34,2025-01-23 19:01:54,319.692,0.101%,
429,2025-01-23 20:31:29,2025-01-23 20:36:31,302.286,0.096%,
430,2025-01-23 22:05:55,2025-01-23 22:10:50,294.987,0.094%,
431,2025-01-23 22:11:59,2025-01-23 22:12:36,37.833,0.012%,
432,2025-01-23 23:40:49,2025-01-23 23:46:52,362.429,0.115%,
433,2025-01-24 01:15:44,2025-01-24 01:21:30,346.387,0.110%,
434,2025-01-24 02:50:10,2025-01-24 02:56:06,356.383,0.113%,
435,2025-01-24 04:25:04,2025-01-24 04:30:25,320.58,0.102%,
436,2025-01-24 05:59:30,2025-01-24 06:05:04,333.736,0.106%,
437,2025-01-24 07:34:25,2025-01-24 07:39:41,316.208,0.100%,
438,2025-01-24 09:09:19,2025-01-24 09:14:00,280.751,0.089%,
439,2025-01-24 09:14:57,2025-01-24 09:15:46,49.486,0.016%,
440,2025-01-24 10:43:45,2025-01-24 10:50:02,376.582,0.119%,
441,2025-01-24 12:18:40,2025-01-24 12:24:40,360.599,0.114%,
442,2025-01-24 13:53:34,2025-01-24 13:59:16,341.279,0.108%,
443,2025-01-24 15:28:00,2025-01-24 15:33:35,334.77,0.106%,
444,2025-01-24 17:02:55,2025-01-24 17:08:14,319.28,0.101%,
445,2025-01-24 18:37:49,2025-01-24 18:42:51,301.28,0.096%,
446,2025-01-24 20:12:15,2025-01-24 20:17:10,295.06,0.094%,
447,2025-01-24 20:17:55,2025-01-24 20:18:56,61.247,0.019%,
448,2025-01-24 21:47:10,2025-01-24 21:53:12,362.245,0.115%,
449,2025-01-24 23:22:05,2025-01-24 23:27:50,345.833,0.110%,
450,2025-01-25 00:56:30,2025-01-25 01:02:05,334.736,0.106%,
451,2025-01-25 01:02:06,2025-01-25 01:02:25,19.065,0.006%,
452,2025-01-25 02:31:25,2025-01-25 02:36:45,320.456,0.102%,
453,2025-01-25 04:05:51,2025-01-25 04:11:24,333.296,0.106%,
454,2025-01-25 05:40:45,2025-01-25 05:46:00,315.051,0.100%,
455,2025-01-25 07:15:40,2025-01-25 07:20:21,280.824,0.089%,
456,2025-01-25 07:20:52,2025-01-25 07:22:05,73.09,0.023%,
457,2025-01-25 08:50:06,2025-01-25 08:56:22,376.364,0.119%,
458,2025-01-25 10:25:00,2025-01-25 10:31:00,359.955,0.114%,
459,2025-01-25 11:59:55,2025-01-25 12:05:15,320.461,0.102%,
460,2025-01-25 12:05:18,2025-01-25 12:05:34,16.559,0.005%,
461,2025-01-25 13:34:21,2025-01-25 13:39:56,334.615,0.106%,
462,2025-01-25 15:09:15,2025-01-25 15:14:34,318.794,0.101%,
463,2025-01-25 16:44:10,2025-01-25 16:49:10,300.012,0.095%,
464,2025-01-25 18:18:36,2025-01-25 18:23:31,295.107,0.094%,
465,2025-01-25 18:23:50,2025-01-25 18:25:15,85.005,0.027%,
466,2025-01-25 19:53:26,2025-01-25 19:53:28,2.581,0.001%,
467,2025-01-25 19:53:31,2025-01-25 19:59:33,361.996,0.115%,
468,2025-01-25 21:28:25,2025-01-25 21:34:10,345.161,0.109%,
469,2025-01-25 23:02:51,2025-01-25 23:08:26,334.783,0.106%,
470,2025-01-25 23:08:30,2025-01-25 23:08:43,13.544,0.004%,
471,2025-01-26 00:37:46,2025-01-26 00:43:06,320.284,0.102%,
472,2025-01-26 02:12:12,2025-01-26 02:12:29,16.994,0.005%,
473,2025-01-26 02:12:40,2025-01-26 02:17:44,304.002,0.096%,
474,2025-01-26 03:47:06,2025-01-26 03:52:01,294.482,0.093%,
475,2025-01-26 03:52:01,2025-01-26 03:52:20,19.068,0.006%,
476,2025-01-26 05:22:01,2025-01-26 05:26:41,280.862,0.089%,
477,2025-01-26 05:26:47,2025-01-26 05:28:03,75.649,0.024%,
478,2025-01-26 05:28:04,2025-01-26 05:28:24,20.661,0.007%,
479,2025-01-26 06:56:27,2025-01-26 07:02:43,376.086,0.119%,
480,2025-01-26 08:31:21,2025-01-26 08:37:20,359.523,0.114%,
481,2025-01-26 10:06:16,2025-01-26 10:11:36,320.509,0.102%,
482,2025-01-26 10:11:42,2025-01-26 10:11:52,9.52,0.003%,
483,2025-01-26 11:40:42,2025-01-26 11:46:16,334.413,0.106%,
484,2025-01-26 13:15:36,2025-01-26 13:20:54,318.206,0.101%,
485,2025-01-26 14:50:18,2025-01-26 14:50:28,9.337,0.003%,
486,2025-01-26 14:50:31,2025-01-26 14:55:11,280.233,0.089%,
487,2025-01-26 14:55:12,2025-01-26 14:55:29,16.878,0.005%,
488,2025-01-26 16:24:57,2025-01-26 16:31:13,376.723,0.120%,
489,2025-01-26 16:31:16,2025-01-26 16:31:34,18.122,0.006%,
490,2025-01-26 17:59:51,2025-01-26 18:05:53,361.679,0.115%,
491,2025-01-26 19:34:46,2025-01-26 19:40:30,344.339,0.109%,
492,2025-01-26 21:09:12,2025-01-26 21:14:46,334.796,0.106%,
493,2025-01-26 22:44:06,2025-01-26 22:49:26,320.05,0.102%,
494,2025-01-27 00:19:01,2025-01-27 00:24:04,303.403,0.096%,
495,2025-01-27 01:53:27,2025-01-27 01:58:21,294.638,0.093%,
496,2025-01-27 01:58:24,2025-01-27 01:58:38,14.308,0.005%,
497,2025-01-27 03:28:13,2025-01-27 03:34:24,370.32,0.117%,
498,2025-01-27 03:34:28,2025-01-27 03:34:43,15.1,0.005%,
499,2025-01-27 05:02:47,2025-01-27 05:09:03,375.736,0.119%,
500,2025-01-27 06:37:42,2025-01-27 06:43:40,358.25,0.114%,
501,2025-01-27 08:12:36,2025-01-27 08:17:57,320.512,0.102%,
502,2025-01-27 09:47:02,2025-01-27 09:52:36,334.149,0.106%,
503,2025-01-27 11:21:57,2025-01-27 11:27:14,317.513,0.101%,
504,2025-01-27 12:56:51,2025-01-27 13:01:32,280.395,0.089%,
505,2025-01-27 13:01:36,2025-01-27 13:01:47,11.106,0.004%,
506,2025-01-27 14:31:17,2025-01-27 14:37:34,376.653,0.119%,
507,2025-01-27 14:37:40,2025-01-27 14:37:51,11.202,0.004%,
508,2025-01-27 16:06:08,2025-01-27 16:12:13,364.65,0.116%,
509,2025-01-27 17:41:06,2025-01-27 17:46:50,343.346,0.109%,
510,2025-01-27 19:15:32,2025-01-27 19:21:07,334.761,0.106%,
511,2025-01-27 20:50:27,2025-01-27 20:55:47,319.76,0.101%,
512,2025-01-27 22:25:06,2025-01-27 22:25:15,9.392,0.003%,
513,2025-01-27 22:25:21,2025-01-27 22:30:24,302.677,0.096%,
514,2025-01-27 23:59:47,2025-01-28 00:04:42,294.761,0.094%,
515,2025-01-28 00:04:49,2025-01-28 00:04:55,6.365,0.002%,
516,2025-01-28 01:34:42,2025-01-28 01:40:44,362.359,0.115%,
517,2025-01-28 01:40:54,2025-01-28 01:40:58,4.568,0.001%,
518,2025-01-28 03:09:08,2025-01-28 03:15:23,375.305,0.119%,
519,2025-01-28 04:44:02,2025-01-28 04:49:59,357.112,0.113%,
520,2025-01-28 06:18:57,2025-01-28 06:24:17,320.471,0.102%,
521,2025-01-28 07:53:23,2025-01-28 07:58:57,333.827,0.106%,
522,2025-01-28 09:28:17,2025-01-28 09:33:34,316.683,0.100%,
523,2025-01-28 11:03:01,2025-01-28 11:03:10,9.414,0.003%,
524,2025-01-28 11:03:12,2025-01-28 11:07:52,280.524,0.089%,
525,2025-01-28 12:37:38,2025-01-28 12:43:54,376.534,0.119%,
526,2025-01-28 14:12:32,2025-01-28 14:18:33,360.805,0.114%,
527,2025-01-28 15:47:27,2025-01-28 15:53:09,342.109,0.109%,
528,2025-01-28 17:21:53,2025-01-28 17:27:28,334.688,0.106%,
529,2025-01-28 18:56:47,2025-01-28 19:02:07,319.401,0.101%,
530,2025-01-28 20:31:42,2025-01-28 20:36:44,301.799,0.096%,
531,2025-01-28 22:06:08,2025-01-28 22:11:03,294.859,0.094%,
532,2025-01-28 23:40:56,2025-01-28 23:47:05,368.607,0.117%,
533,2025-01-29 01:15:57,2025-01-29 01:21:43,346.042,0.110%,
534,2025-01-29 02:50:23,2025-01-29 02:56:19,355.692,0.113%,
535,2025-01-29 04:25:18,2025-01-29 04:30:38,320.385,0.102%,
536,2025-01-29 05:59:44,2025-01-29 06:05:17,333.432,0.106%,
537,2025-01-29 07:34:38,2025-01-29 07:39:54,315.673,0.100%,
538,2025-01-29 09:09:33,2025-01-29 09:14:13,280.62,0.089%,
539,2025-01-29 09:15:58,2025-01-29 09:15:59,0.522,0.000%,
540,2025-01-29 10:43:59,2025-01-29 10:50:15,376.355,0.119%,
541,2025-01-29 12:18:51,2025-01-29 12:24:53,362.127,0.115%,
542,2025-01-29 13:53:48,2025-01-29 13:59:08,320.249,0.102%,
543,2025-01-29 13:59:08,2025-01-29 13:59:28,19.754,0.006%,
544,2025-01-29 15:28:14,2025-01-29 15:33:48,334.564,0.106%,
545,2025-01-29 17:03:08,2025-01-29 17:08:27,318.962,0.101%,
546,2025-01-29 18:37:49,2025-01-29 18:37:58,9.468,0.003%,
547,2025-01-29 18:38:03,2025-01-29 18:43:03,300.709,0.095%,
548,2025-01-29 20:12:29,2025-01-29 20:17:24,294.921,0.094%,
549,2025-01-29 20:18:54,2025-01-29 20:19:08,14.056,0.005%,
550,2025-01-29 21:47:23,2025-01-29 21:53:25,362.008,0.115%,
551,2025-01-29 23:22:18,2025-01-29 23:28:03,345.449,0.110%,
552,2025-01-30 00:56:44,2025-01-30 01:02:18,334.6,0.106%,
553,2025-01-30 01:02:20,2025-01-30 01:02:37,17.364,0.006%,
554,2025-01-30 02:31:38,2025-01-30 02:36:58,320.243,0.102%,
555,2025-01-30 04:06:04,2025-01-30 04:11:37,332.964,0.106%,
556,2025-01-30 05:40:59,2025-01-30 05:46:13,314.429,0.100%,
557,2025-01-30 07:15:44,2025-01-30 07:20:34,290.123,0.092%,
558,2025-01-30 07:21:50,2025-01-30 07:22:18,27.69,0.009%,
559,2025-01-30 08:50:19,2025-01-30 08:56:35,376.117,0.119%,
560,2025-01-30 10:25:14,2025-01-30 10:31:13,359.545,0.114%,
561,2025-01-30 12:00:08,2025-01-30 12:05:29,320.322,0.102%,
562,2025-01-30 12:05:32,2025-01-30 12:05:47,14.531,0.005%,
563,2025-01-30 13:34:34,2025-01-30 13:40:09,334.392,0.106%,
564,2025-01-30 15:09:29,2025-01-30 15:14:47,318.445,0.101%,
565,2025-01-30 16:44:23,2025-01-30 16:49:23,299.329,0.095%,
566,2025-01-30 18:18:49,2025-01-30 18:23:44,294.956,0.094%,
567,2025-01-30 18:24:46,2025-01-30 18:25:06,19.758,0.006%,
568,2025-01-30 18:25:06,2025-01-30 18:25:27,21.36,0.007%,
569,2025-01-30 19:53:39,2025-01-30 19:59:45,366.651,0.116%,
570,2025-01-30 21:28:38,2025-01-30 21:34:23,344.732,0.109%,
571,2025-01-30 23:03:04,2025-01-30 23:08:39,334.634,0.106%,
572,2025-01-30 23:08:44,2025-01-30 23:08:55,10.914,0.004%,
573,2025-01-31 00:37:59,2025-01-31 00:43:19,320.052,0.102%,
574,2025-01-31 02:12:25,2025-01-31 02:17:57,332.404,0.105%,
575,2025-01-31 03:47:19,2025-01-31 03:52:14,294.382,0.093%,
576,2025-01-31 03:52:15,2025-01-31 03:52:32,17.578,0.006%,
577,2025-01-31 05:22:14,2025-01-31 05:26:55,280.708,0.089%,
578,2025-01-31 05:27:42,2025-01-31 05:28:16,34.494,0.011%,
579,2025-01-31 05:28:18,2025-01-31 05:28:37,18.942,0.006%,
580,2025-01-31 06:56:40,2025-01-31 07:02:56,375.814,0.119%,
581,2025-01-31 08:31:34,2025-01-31 08:37:33,359.15,0.114%,
582,2025-01-31 10:06:29,2025-01-31 10:11:49,320.356,0.102%,
583,2025-01-31 10:11:58,2025-01-31 10:12:03,5.023,0.002%,
584,2025-01-31 11:40:55,2025-01-31 11:46:29,334.17,0.106%,
585,2025-01-31 13:15:49,2025-01-31 13:21:07,317.821,0.101%,
586,2025-01-31 14:50:31,2025-01-31 14:50:41,9.539,0.003%,
587,2025-01-31 14:50:44,2025-01-31 14:55:24,280.132,0.089%,
588,2025-01-31 14:55:26,2025-01-31 14:55:41,15.141,0.005%,
589,2025-01-31 16:25:10,2025-01-31 16:30:05,294.951,0.094%,
590,2025-01-31 16:30:37,2025-01-31 16:31:26,49.402,0.016%,
591,2025-01-31 16:31:30,2025-01-31 16:31:46,16.095,0.005%,
592,2025-01-31 18:00:04,2025-01-31 18:06:06,361.394,0.115%,
593,2025-01-31 19:34:59,2025-01-31 19:40:43,343.855,0.109%,
594,2025-01-31 21:09:25,2025-01-31 21:15:00,334.632,0.106%,
595,2025-01-31 22:44:19,2025-01-31 22:49:39,319.798,0.101%,
596,2025-02-01 00:19:14,2025-02-01 00:24:17,303.002,0.096%,
597,2025-02-01 01:53:40,2025-02-01 01:58:34,294.528,0.093%,
598,2025-02-01 01:58:38,2025-02-01 01:58:50,12.181,0.004%,
599,2025-02-01 03:28:26,2025-02-01 03:33:15,288.646,0.092%,
600,2025-02-01 03:33:32,2025-02-01 03:34:37,64.458,0.020%,
601,2025-02-01 03:34:42,2025-02-01 03:34:55,12.537,0.004%,
602,2025-02-01 05:03:00,2025-02-01 05:09:16,375.438,0.119%,
603,2025-02-01 06:37:55,2025-02-01 06:43:53,357.722,0.113%,
604,2025-02-01 08:12:49,2025-02-01 08:18:10,320.344,0.102%,
605,2025-02-01 09:47:15,2025-02-01 09:52:49,333.885,0.106%,
606,2025-02-01 11:22:10,2025-02-01 11:27:27,317.087,0.101%,
607,2025-02-01 12:57:05,2025-02-01 13:01:45,280.283,0.089%,
608,2025-02-01 13:01:51,2025-02-01 13:01:59,8.12,0.003%,
609,2025-02-01 14:31:30,2025-02-01 14:36:25,294.919,0.094%,
610,2025-02-01 14:36:27,2025-02-01 14:37:47,79.69,0.025%,
611,2025-02-01 14:37:55,2025-02-01 14:38:02,7.293,0.002%,
612,2025-02-01 16:06:22,2025-02-01 16:12:26,364.415,0.116%,
613,2025-02-01 17:41:20,2025-02-01 17:47:02,342.787,0.109%,
614,2025-02-01 19:15:46,2025-02-01 19:21:20,334.583,0.106%,
615,2025-02-01 20:50:40,2025-02-01 20:55:59,319.486,0.101%,
616,2025-02-01 22:25:19,2025-02-01 22:25:29,9.589,0.003%,
617,2025-02-01 22:25:35,2025-02-01 22:30:37,302.23,0.096%,
618,2025-02-02 00:00:01,2025-02-02 00:04:55,294.641,0.093%,
619,2025-02-02 01:34:55,2025-02-02 01:40:57,362.157,0.115%,
620,2025-02-02 03:09:21,2025-02-02 03:15:36,374.979,0.119%,
621,2025-02-02 04:44:16,2025-02-02 04:50:12,356.503,0.113%,
622,2025-02-02 06:19:10,2025-02-02 06:24:30,320.287,0.102%,
623,2025-02-02 07:53:36,2025-02-02 07:59:10,333.541,0.106%,
624,2025-02-02 09:28:31,2025-02-02 09:33:47,316.2,0.100%,
625,2025-02-02 11:03:14,2025-02-02 11:03:24,9.608,0.003%,
626,2025-02-02 11:03:25,2025-02-02 11:08:06,280.401,0.089%,
627,2025-02-02 12:37:51,2025-02-02 12:44:07,376.322,0.119%,
628,2025-02-02 14:12:46,2025-02-02 14:18:46,360.464,0.114%,
629,2025-02-02 15:47:40,2025-02-02 15:53:22,341.444,0.108%,
630,2025-02-02 17:22:06,2025-02-02 17:27:41,334.494,0.106%,
631,2025-02-02 18:57:01,2025-02-02 19:02:20,319.102,0.101%,
632,2025-02-02 20:31:55,2025-02-02 20:36:57,301.287,0.096%,
633,2025-02-02 22:06:21,2025-02-02 22:11:16,294.729,0.094%,
634,2025-02-02 23:41:09,2025-02-02 23:47:18,368.461,0.117%,
635,2025-02-03 01:15:42,2025-02-03 01:16:10,28.34,0.009%,
636,2025-02-03 01:16:10,2025-02-03 01:21:56,345.685,0.110%,
637,2025-02-03 02:50:36,2025-02-03 02:56:11,334.397,0.106%,
638,2025-02-03 02:56:11,2025-02-03 02:56:31,20.424,0.007%,
639,2025-02-03 04:25:31,2025-02-03 04:30:51,320.184,0.102%,
640,2025-02-03 05:59:57,2025-02-03 06:05:30,333.12,0.106%,
641,2025-02-03 07:34:51,2025-02-03 07:40:06,315.12,0.100%,
642,2025-02-03 09:09:46,2025-02-03 09:14:26,280.486,0.089%,
643,2025-02-03 10:44:12,2025-02-03 10:50:28,376.122,0.119%,
644,2025-02-03 12:19:04,2025-02-03 12:25:06,361.822,0.115%,
645,2025-02-03 13:54:01,2025-02-03 13:59:21,320.12,0.102%,
646,2025-02-03 13:59:22,2025-02-03 13:59:41,18.141,0.006%,
647,2025-02-03 15:28:27,2025-02-03 15:34:01,334.353,0.106%,
648,2025-02-03 17:03:21,2025-02-03 17:08:40,318.635,0.101%,
649,2025-02-03 18:38:02,2025-02-03 18:38:11,9.657,0.003%,
650,2025-02-03 18:38:16,2025-02-03 18:43:16,300.109,0.095%,
651,2025-02-03 20:12:42,2025-02-03 20:17:37,294.78,0.094%,
652,2025-02-03 21:47:36,2025-02-03 21:53:38,361.765,0.115%,
653,2025-02-03 23:22:31,2025-02-03 23:28:16,345.051,0.109%,
654,2025-02-04 00:56:57,2025-02-04 01:02:31,334.461,0.106%,
655,2025-02-04 01:02:34,2025-02-04 01:02:50,15.464,0.005%,
656,2025-02-04 02:31:51,2025-02-04 02:37:11,320.024,0.102%,
657,2025-02-04 04:06:17,2025-02-04 04:11:50,332.622,0.106%,
658,2025-02-04 05:41:12,2025-02-04 05:46:26,313.762,0.100%,
659,2025-02-04 07:15:57,2025-02-04 07:20:47,290.05,0.092%,
660,2025-02-04 07:22:28,2025-02-04 07:22:30,2.714,0.001%,
661,2025-02-04 08:50:32,2025-02-04 08:56:48,375.863,0.119%,
662,2025-02-04 10:25:27,2025-02-04 10:31:26,359.12,0.114%,
663,2025-02-04 12:00:21,2025-02-04 12:05:42,320.178,0.102%,
664,2025-02-04 12:05:46,2025-02-04 12:05:59,12.148,0.004%,
665,2025-02-04 13:34:47,2025-02-04 13:40:22,334.162,0.106%,
666,2025-02-04 15:09:42,2025-02-04 15:15:00,318.086,0.101%,
667,2025-02-04 16:44:37,2025-02-04 16:49:16,279.852,0.089%,
668,2025-02-04 16:49:17,2025-02-04 16:49:35,18.251,0.006%,
669,2025-02-04 18:19:02,2025-02-04 18:23:57,294.803,0.094%,
670,2025-02-04 18:25:22,2025-02-04 18:25:40,18.224,0.006%,
671,2025-02-04 19:53:52,2025-02-04 19:59:58,366.459,0.116%,
672,2025-02-04 21:28:52,2025-02-04 21:34:36,344.286,0.109%,
673,2025-02-04 23:03:17,2025-02-04 23:08:52,334.48,0.106%,
674,2025-02-04 23:08:59,2025-02-04 23:09:07,7.363,0.002%,
675,2025-02-05 00:38:12,2025-02-05 00:43:32,319.814,0.101%,
676,2025-02-05 02:12:38,2025-02-05 02:18:10,332.027,0.105%,
677,2025-02-05 03:47:32,2025-02-05 03:52:27,294.28,0.093%,
678,2025-02-05 03:52:29,2025-02-05 03:52:44,15.935,0.005%,
679,2025-02-05 05:22:27,2025-02-05 05:27:08,280.55,0.089%,
680,2025-02-05 05:28:15,2025-02-05 05:28:29,13.936,0.004%,
681,2025-02-05 05:28:32,2025-02-05 05:28:49,17.026,0.005%,
682,2025-02-05 06:56:53,2025-02-05 07:03:09,375.534,0.119%,
683,2025-02-05 08:31:47,2025-02-05 08:37:46,358.745,0.114%,
684,2025-02-05 10:06:42,2025-02-05 10:12:02,320.198,0.102%,
685,2025-02-05 11:41:08,2025-02-05 11:46:42,333.922,0.106%,
686,2025-02-05 13:16:03,2025-02-05 13:21:20,317.427,0.101%,
687,2025-02-05 14:50:45,2025-02-05 14:50:54,9.727,0.003%,
688,2025-02-05 14:50:57,2025-02-05 14:55:37,280.027,0.089%,
689,2025-02-05 14:55:40,2025-02-05 14:55:54,13.17,0.004%,
690,2025-02-05 16:25:23,2025-02-05 16:30:18,294.79,0.094%,
691,2025-02-05 16:31:09,2025-02-05 16:31:39,30.738,0.010%,
692,2025-02-05 16:31:44,2025-02-05 16:31:58,13.737,0.004%,
693,2025-02-05 18:00:18,2025-02-05 18:06:19,361.1,0.115%,
694,2025-02-05 19:35:12,2025-02-05 19:40:56,343.35,0.109%,
695,2025-02-05 21:09:38,2025-02-05 21:15:13,334.464,0.106%,
696,2025-02-05 22:44:33,2025-02-05 22:49:52,319.539,0.101%,
697,2025-02-06 00:19:27,2025-02-06 00:24:30,302.587,0.096%,
698,2025-02-06 01:53:53,2025-02-06 01:58:48,294.415,0.093%,
699,2025-02-06 01:58:53,2025-02-06 01:59:02,9.559,0.003%,
700,2025-02-06 03:28:40,2025-02-06 03:33:28,288.549,0.092%,
701,2025-02-06 03:34:02,2025-02-06 03:34:50,47.706,0.015%,
702,2025-02-06 03:34:57,2025-02-06 03:35:06,9.237,0.003%,
703,2025-02-06 05:03:14,2025-02-06 05:09:29,375.13,0.119%,
704,2025-02-06 06:38:08,2025-02-06 06:44:05,357.174,0.113%,
705,2025-02-06 08:13:03,2025-02-06 08:18:23,320.17,0.102%,
706,2025-02-06 09:47:29,2025-02-06 09:53:02,333.615,0.106%,
707,2025-02-06 11:22:23,2025-02-06 11:27:40,316.639,0.100%,
708,2025-02-06 12:57:18,2025-02-06 13:01:58,280.168,0.089%,
709,2025-02-06 13:02:07,2025-02-06 13:02:09,2.826,0.001%,
710,2025-02-06 14:31:44,2025-02-06 14:36:38,294.74,0.094%,
711,2025-02-06 14:36:55,2025-02-06 14:38:00,64.832,0.021%,
712,2025-02-06 16:06:35,2025-02-06 16:12:39,364.165,0.116%,
713,2025-02-06 17:41:33,2025-02-06 17:47:15,342.194,0.109%,
714,2025-02-06 19:15:59,2025-02-06 19:21:33,334.399,0.106%,
715,2025-02-06 20:50:53,2025-02-06 20:56:12,319.204,0.101%,
716,2025-02-06 22:25:32,2025-02-06 22:25:42,9.779,0.003%,
717,2025-02-06 22:25:48,2025-02-06 22:30:50,301.758,0.096%,
718,2025-02-07 00:00:14,2025-02-07 00:05:08,294.517,0.093%,
719,2025-02-07 01:35:08,2025-02-07 01:41:10,361.949,0.115%,
720,2025-02-07 03:09:34,2025-02-07 03:15:49,374.64,0.119%,
721,2025-02-07 04:44:29,2025-02-07 04:50:25,355.854,0.113%,
722,2025-02-07 06:19:23,2025-02-07 06:24:43,320.095,0.102%,
723,2025-02-07 07:53:49,2025-02-07 07:59:23,333.246,0.106%,
724,2025-02-07 09:28:44,2025-02-07 09:33:59,315.69,0.100%,
725,2025-02-07 11:03:27,2025-02-07 11:03:37,9.8,0.003%,
726,2025-02-07 11:03:38,2025-02-07 11:08:19,280.275,0.089%,
727,2025-02-07 12:38:04,2025-02-07 12:44:20,376.103,0.119%,
728,2025-02-07 14:12:59,2025-02-07 14:18:59,360.107,0.114%,
729,2025-02-07 15:47:53,2025-02-07 15:53:34,340.729,0.108%,
730,2025-02-07 17:22:19,2025-02-07 17:27:54,334.294,0.106%,
731,2025-02-07 18:57:14,2025-02-07 19:02:33,318.793,0.101%,
732,2025-02-07 20:32:09,2025-02-07 20:37:09,300.746,0.095%,
733,2025-02-07 22:06:34,2025-02-07 22:11:29,294.594,0.093%,
734,2025-02-07 23:41:22,2025-02-07 23:47:31,368.308,0.117%,
735,2025-02-08 01:15:55,2025-02-08 01:22:09,374.055,0.119%,
736,2025-02-08 02:50:49,2025-02-08 02:56:24,334.266,0.106%,
737,2025-02-08 02:56:25,2025-02-08 02:56:44,18.874,0.006%,
738,2025-02-08 04:25:44,2025-02-08 04:31:04,319.976,0.102%,
739,2025-02-08 06:00:10,2025-02-08 06:05:43,332.797,0.106%,
740,2025-02-08 07:35:04,2025-02-08 07:40:19,314.525,0.100%,
741,2025-02-08 09:09:59,2025-02-08 09:14:39,280.348,0.089%,
742,2025-02-08 10:44:25,2025-02-08 10:50:41,375.881,0.119%,
743,2025-02-08 12:19:17,2025-02-08 12:25:19,361.498,0.115%,
744,2025-02-08 13:54:14,2025-02-08 13:59:34,319.985,0.102%,
745,2025-02-08 13:59:36,2025-02-08 13:59:53,16.33,0.005%,
746,2025-02-08 15:28:40,2025-02-08 15:34:14,334.135,0.106%,
747,2025-02-08 17:03:34,2025-02-08 17:08:53,318.297,0.101%,
748,2025-02-08 18:38:15,2025-02-08 18:38:25,9.848,0.003%,
749,2025-02-08 18:38:29,2025-02-08 18:43:29,299.467,0.095%,
750,2025-02-08 20:12:55,2025-02-08 20:17:50,294.633,0.093%,
751,2025-02-08 21:47:50,2025-02-08 21:53:51,361.512,0.115%,
752,2025-02-08 23:22:44,2025-02-08 23:28:29,344.636,0.109%,
753,2025-02-09 00:57:10,2025-02-09 01:02:44,334.316,0.106%,
754,2025-02-09 01:02:48,2025-02-09 01:03:02,13.252,0.004%,
755,2025-02-09 02:32:05,2025-02-09 02:37:24,319.798,0.101%,
756,2025-02-09 04:06:31,2025-02-09 04:12:03,332.266,0.105%,
757,2025-02-09 05:41:25,2025-02-09 05:46:19,294.019,0.093%,
758,2025-02-09 05:46:19,2025-02-09 05:46:38,18.893,0.006%,
759,2025-02-09 07:16:10,2025-02-09 07:21:00,289.976,0.092%,
760,2025-02-09 08:50:46,2025-02-09 08:57:01,375.6,0.119%,
761,2025-02-09 10:25:40,2025-02-09 10:31:39,358.675,0.114%,
762,2025-02-09 12:00:35,2025-02-09 12:05:55,320.029,0.102%,
763,2025-02-09 12:06:01,2025-02-09 12:06:10,9.104,0.003%,
764,2025-02-09 13:35:01,2025-02-09 13:40:35,333.928,0.106%,
765,2025-02-09 15:09:55,2025-02-09 15:15:13,317.712,0.101%,
766,2025-02-09 16:44:50,2025-02-09 16:49:29,279.754,0.089%,
767,2025-02-09 16:49:31,2025-02-09 16:49:47,16.677,0.005%,
768,2025-02-09 18:19:16,2025-02-09 18:24:10,294.644,0.093%,
769,2025-02-09 18:25:36,2025-02-09 18:25:52,15.587,0.005%,
770,2025-02-09 19:54:05,2025-02-09 20:00:11,366.26,0.116%,
771,2025-02-09 21:29:05,2025-02-09 21:34:49,343.818,0.109%,
772,2025-02-09 23:03:31,2025-02-09 23:09:05,334.321,0.106%,
773,2025-02-10 00:38:25,2025-02-10 00:43:45,319.568,0.101%,
774,2025-02-10 02:12:51,2025-02-10 02:18:23,331.635,0.105%,
775,2025-02-10 03:47:46,2025-02-10 03:52:40,294.173,0.093%,
776,2025-02-10 03:52:43,2025-02-10 03:52:57,14.071,0.005%,
777,2025-02-10 05:22:40,2025-02-10 05:27:21,280.387,0.089%,
778,2025-02-10 05:28:28,2025-02-10 05:28:42,13.926,0.004%,
779,2025-02-10 05:28:46,2025-02-10 05:29:01,14.827,0.005%,
780,2025-02-10 06:57:06,2025-02-10 07:03:21,375.246,0.119%,
781,2025-02-10 08:32:00,2025-02-10 08:37:58,358.317,0.114%,
782,2025-02-10 10:06:55,2025-02-10 10:12:15,320.034,0.102%,
783,2025-02-10 11:41:21,2025-02-10 11:46:55,333.664,0.106%,
784,2025-02-10 13:16:16,2025-02-10 13:21:33,317.012,0.101%,
785,2025-02-10 14:50:58,2025-02-10 14:51:08,9.92,0.003%,
786,2025-02-10 14:51:10,2025-02-10 14:55:50,279.919,0.089%,
787,2025-02-10 14:55:55,2025-02-10 14:56:06,10.792,0.003%,
788,2025-02-10 16:25:36,2025-02-10 16:30:31,294.618,0.093%,
789,2025-02-10 16:31:20,2025-02-10 16:31:52,32.569,0.010%,
790,2025-02-10 16:31:59,2025-02-10 16:32:10,10.815,0.003%,
791,2025-02-10 18:00:31,2025-02-10 18:06:32,360.796,0.114%,
792,2025-02-10 19:35:25,2025-02-10 19:41:08,342.812,0.109%,
793,2025-02-10 21:09:51,2025-02-10 21:15:26,334.29,0.106%,
794,2025-02-10 22:44:46,2025-02-10 22:50:05,319.271,0.101%,
795,2025-02-11 00:19:41,2025-02-11 00:24:43,302.154,0.096%,
796,2025-02-11 01:54:06,2025-02-11 01:59:01,294.297,0.093%,
797,2025-02-11 01:59:08,2025-02-11 01:59:14,5.782,0.002%,
798,2025-02-11 03:28:53,2025-02-11 03:33:41,288.447,0.092%,
799,2025-02-11 03:34:11,2025-02-11 03:35:03,51.368,0.016%,
800,2025-02-11 03:35:13,2025-02-11 03:35:16,3.494,0.001%,
801,2025-02-11 05:03:27,2025-02-11 05:09:42,374.811,0.119%,
802,2025-02-11 06:38:21,2025-02-11 06:44:18,356.591,0.113%,
803,2025-02-11 08:13:16,2025-02-11 08:18:36,319.993,0.102%,
804,2025-02-11 09:47:42,2025-02-11 09:53:15,333.335,0.106%,
805,2025-02-11 11:22:36,2025-02-11 11:27:53,316.171,0.100%,
806,2025-02-11 12:57:31,2025-02-11 13:02:11,280.048,0.089%,
807,2025-02-11 14:31:57,2025-02-11 14:36:51,294.555,0.093%,
808,2025-02-11 14:37:03,2025-02-11 14:38:13,70.309,0.022%,
809,2025-02-11 16:06:48,2025-02-11 16:12:52,363.906,0.115%,
810,2025-02-11 17:41:46,2025-02-11 17:47:28,341.567,0.108%,
811,2025-02-11 19:16:12,2025-02-11 19:21:46,334.21,0.106%,
812,2025-02-11 20:51:06,2025-02-11 20:56:25,318.912,0.101%,
813,2025-02-11 22:25:45,2025-02-11 22:25:55,9.973,0.003%,
814,2025-02-11 22:26:01,2025-02-11 22:31:02,301.268,0.096%,
815,2025-02-12 00:00:27,2025-02-12 00:05:21,294.389,0.093%,
816,2025-02-12 01:35:21,2025-02-12 01:41:23,361.733,0.115%,
817,2025-02-12 03:09:47,2025-02-12 03:16:02,374.288,0.119%,
818,2025-02-12 04:44:42,2025-02-12 04:50:37,355.159,0.113%,
819,2025-02-12 06:19:37,2025-02-12 06:24:56,319.9,0.101%,
820,2025-02-12 07:54:03,2025-02-12 07:59:35,332.94,0.106%,
821,2025-02-12 09:28:57,2025-02-12 09:34:12,315.157,0.100%,
822,2025-02-12 11:03:40,2025-02-12 11:03:50,9.989,0.003%,
823,2025-02-12 11:03:52,2025-02-12 11:08:32,280.144,0.089%,
824,2025-02-12 12:38:18,2025-02-12 12:44:33,375.872,0.119%,
825,2025-02-12 14:13:12,2025-02-12 14:19:12,359.736,0.114%,
826,2025-02-12 15:48:07,2025-02-12 15:53:26,319.768,0.101%,
827,2025-02-12 15:53:27,2025-02-12 15:53:47,19.572,0.006%,
828,2025-02-12 17:22:33,2025-02-12 17:28:07,334.088,0.106%,
829,2025-02-12 18:57:27,2025-02-12 19:02:46,318.474,0.101%,
830,2025-02-12 20:32:22,2025-02-12 20:37:22,300.173,0.095%,
831,2025-02-12 22:06:48,2025-02-12 22:11:42,294.454,0.093%,
832,2025-02-12 23:41:35,2025-02-12 23:47:44,368.144,0.117%,
833,2025-02-13 01:16:08,2025-02-13 01:16:34,25.687,0.008%,
834,2025-02-13 01:16:37,2025-02-13 01:22:22,344.93,0.109%,
835,2025-02-13 02:51:03,2025-02-13 02:56:37,334.13,0.106%,
836,2025-02-13 02:56:39,2025-02-13 02:56:56,17.156,0.005%,
837,2025-02-13 04:25:57,2025-02-13 04:31:17,319.763,0.101%,
838,2025-02-13 06:00:23,2025-02-13 06:05:56,332.464,0.105%,
839,2025-02-13 07:35:18,2025-02-13 07:40:32,313.897,0.100%,
840,2025-02-13 09:10:12,2025-02-13 09:14:52,280.205,0.089%,
841,2025-02-13 10:44:38,2025-02-13 10:50:54,375.632,0.119%,
842,2025-02-13 12:19:31,2025-02-13 12:25:32,361.165,0.115%,
843,2025-02-13 13:54:27,2025-02-13 13:59:47,319.846,0.101%,
844,2025-02-13 13:59:51,2025-02-13 14:00:05,14.269,0.005%,
845,2025-02-13 15:28:53,2025-02-13 15:34:27,333.911,0.106%,
846,2025-02-13 17:03:48,2025-02-13 17:09:06,317.946,0.101%,
847,2025-02-13 18:38:28,2025-02-13 18:38:38,10.039,0.003%,
848,2025-02-13 18:38:42,2025-02-13 18:43:41,298.778,0.095%,
849,2025-02-13 20:13:08,2025-02-13 20:18:03,294.482,0.093%,
850,2025-02-13 21:48:03,2025-02-13 21:54:04,361.252,0.115%,
851,2025-02-13 23:22:57,2025-02-13 23:28:42,344.206,0.109%,
852,2025-02-14 00:57:23,2025-02-14 01:02:57,334.166,0.106%,
853,2025-02-14 01:03:03,2025-02-14 01:03:14,10.556,0.003%,
854,2025-02-14 02:32:18,2025-02-14 02:37:37,319.566,0.101%,
855,2025-02-14 04:06:44,2025-02-14 04:12:16,331.897,0.105%,
856,2025-02-14 05:41:38,2025-02-14 05:46:32,293.919,0.093%,
857,2025-02-14 05:46:33,2025-02-14 05:46:51,17.389,0.006%,
858,2025-02-14 07:16:23,2025-02-14 07:21:13,289.892,0.092%,
859,2025-02-14 07:22:42,2025-02-14 07:22:55,13.593,0.004%,
860,2025-02-14 08:50:59,2025-02-14 08:57:14,375.326,0.119%,
861,2025-02-14 10:25:53,2025-02-14 10:31:52,358.213,0.114%,
862,2025-02-14 12:00:48,2025-02-14 12:06:08,319.876,0.101%,
863,2025-02-14 12:06:17,2025-02-14 12:06:21,4.177,0.001%,
864,2025-02-14 13:35:14,2025-02-14 13:40:48,333.686,0.106%,
865,2025-02-14 15:10:08,2025-02-14 15:15:26,317.326,0.101%,
866,2025-02-14 16:45:03,2025-02-14 16:49:43,279.652,0.089%,
867,2025-02-14 16:49:45,2025-02-14 16:50:00,14.917,0.005%,
868,2025-02-14 18:19:29,2025-02-14 18:24:23,294.482,0.093%,
869,2025-02-14 18:25:32,2025-02-14 18:25:45,13.157,0.004%,
870,2025-02-14 18:25:48,2025-02-14 18:26:04,15.837,0.005%,
871,2025-02-14 19:54:18,2025-02-14 20:00:24,366.049,0.116%,
872,2025-02-14 21:29:18,2025-02-14 21:35:01,343.331,0.109%,
873,2025-02-14 23:03:44,2025-02-14 23:09:18,334.157,0.106%,
874,2025-02-15 00:38:38,2025-02-15 00:43:58,319.315,0.101%,
875,2025-02-15 02:13:04,2025-02-15 02:18:36,331.229,0.105%,
876,2025-02-15 03:47:59,2025-02-15 03:52:53,294.062,0.093%,
877,2025-02-15 03:52:57,2025-02-15 03:53:09,11.895,0.004%,
878,2025-02-15 05:22:53,2025-02-15 05:27:34,280.22,0.089%,
879,2025-02-15 05:28:22,2025-02-15 05:28:55,33.37,0.011%,
880,2025-02-15 05:29:01,2025-02-15 05:29:13,12.197,0.004%,
881,2025-02-15 06:57:19,2025-02-15 07:03:34,374.947,0.119%,
882,2025-02-15 08:32:13,2025-02-15 08:38:11,357.864,0.114%,
883,2025-02-15 10:07:08,2025-02-15 10:12:28,319.866,0.101%,
884,2025-02-15 11:41:34,2025-02-15 11:47:08,333.401,0.106%,
885,2025-02-15 13:16:29,2025-02-15 13:21:46,316.582,0.100%,
886,2025-02-15 14:51:11,2025-02-15 14:51:21,10.103,0.003%,
887,2025-02-15 14:51:24,2025-02-15 14:56:03,279.807,0.089%,
888,2025-02-15 14:56:09,2025-02-15 14:56:17,7.68,0.002%,
889,2025-02-15 16:25:49,2025-02-15 16:30:44,294.444,0.093%,
890,2025-02-15 16:31:12,2025-02-15 16:32:05,53.71,0.017%,
891,2025-02-15 16:32:14,2025-02-15 16:32:21,6.678,0.002%,
892,2025-02-15 18:00:44,2025-02-15 18:06:44,360.482,0.114%,
893,2025-02-15 19:35:39,2025-02-15 19:41:21,342.251,0.109%,
894,2025-02-15 21:10:05,2025-02-15 21:15:39,334.111,0.106%,
895,2025-02-15 22:44:59,2025-02-15 22:50:18,318.996,0.101%,
896,2025-02-16 00:19:54,2025-02-16 00:24:55,301.701,0.096%,
897,2025-02-16 01:54:20,2025-02-16 01:59:14,294.177,0.093%,
898,2025-02-16 03:29:06,2025-02-16 03:33:54,288.336,0.091%,
899,2025-02-16 03:34:02,2025-02-16 03:35:16,74.201,0.024%,
900,2025-02-16 05:03:40,2025-02-16 05:09:55,374.483,0.119%,
901,2025-02-16 06:38:35,2025-02-16 06:44:31,355.975,0.113%,
902,2025-02-16 08:13:29,2025-02-16 08:18:49,319.809,0.101%,
903,2025-02-16 09:47:55,2025-02-16 09:53:28,333.048,0.106%,
904,2025-02-16 11:22:50,2025-02-16 11:28:05,315.687,0.100%,
905,2025-02-16 12:57:44,2025-02-16 13:02:24,279.921,0.089%,
906,2025-02-16 14:32:10,2025-02-16 14:38:26,375.84,0.119%,
907,2025-02-16 16:07:01,2025-02-16 16:13:05,363.632,0.115%,
908,2025-02-16 17:41:59,2025-02-16 17:47:40,340.897,0.108%,
909,2025-02-16 19:16:25,2025-02-16 19:21:59,334.015,0.106%,
910,2025-02-16 20:51:20,2025-02-16 20:56:38,318.612,0.101%,
911,2025-02-16 22:25:58,2025-02-16 22:26:09,10.148,0.003%,
912,2025-02-16 22:26:14,2025-02-16 22:31:15,300.753,0.095%,
913,2025-02-17 00:00:40,2025-02-17 00:05:34,294.258,0.093%,
914,2025-02-17 01:35:35,2025-02-17 01:41:36,361.509,0.115%,
915,2025-02-17 03:10:01,2025-02-17 03:16:15,373.93,0.119%,
916,2025-02-17 04:44:55,2025-02-17 04:50:29,333.932,0.106%,
917,2025-02-17 04:50:29,2025-02-17 04:50:50,20.248,0.006%,
918,2025-02-17 06:19:50,2025-02-17 06:25:09,319.699,0.101%,
919,2025-02-17 07:54:16,2025-02-17 07:59:48,332.628,0.106%,
920,2025-02-17 09:29:10,2025-02-17 09:34:25,314.599,0.100%,
921,2025-02-17 11:03:54,2025-02-17 11:04:04,10.166,0.003%,
922,2025-02-17 11:04:05,2025-02-17 11:08:45,280.01,0.089%,
923,2025-02-17 12:38:31,2025-02-17 12:44:46,375.639,0.119%,
924,2025-02-17 14:13:25,2025-02-17 14:19:25,359.354,0.114%,
925,2025-02-17 15:48:20,2025-02-17 15:53:39,319.638,0.101%,
926,2025-02-17 15:53:41,2025-02-17 15:53:59,17.938,0.006%,
927,2025-02-17 17:22:46,2025-02-17 17:28:20,333.877,0.106%,
928,2025-02-17 18:57:40,2025-02-17 19:02:58,318.146,0.101%,
929,2025-02-17 20:32:35,2025-02-17 20:37:34,299.569,0.095%,
930,2025-02-17 22:07:01,2025-02-17 22:11:55,294.312,0.093%,
931,2025-02-17 23:41:49,2025-02-17 23:47:57,367.967,0.117%,
932,2025-02-18 01:16:50,2025-02-18 01:22:35,344.533,0.109%,
933,2025-02-18 02:51:16,2025-02-18 02:56:50,333.991,0.106%,
934,2025-02-18 02:56:53,2025-02-18 02:57:08,15.224,0.005%,
935,2025-02-18 04:26:10,2025-02-18 04:31:30,319.544,0.101%,
936,2025-02-18 06:00:36,2025-02-18 06:06:08,332.121,0.105%,
937,2025-02-18 07:35:31,2025-02-18 07:40:44,313.229,0.099%,
938,2025-02-18 09:10:25,2025-02-18 09:15:05,280.06,0.089%,
939,2025-02-18 09:16:43,2025-02-18 09:16:49,6.109,0.002%,
940,2025-02-18 10:44:51,2025-02-18 10:51:07,375.376,0.119%,
941,2025-02-18 12:19:44,2025-02-18 12:25:44,360.804,0.114%,
942,2025-02-18 13:54:40,2025-02-18 14:00:00,319.702,0.101%,
943,2025-02-18 14:00:05,2025-02-18 14:00:17,11.831,0.004%,
944,2025-02-18 15:29:06,2025-02-18 15:34:40,333.682,0.106%,
945,2025-02-18 17:04:01,2025-02-18 17:09:18,317.586,0.101%,
946,2025-02-18 18:38:41,2025-02-18 18:38:51,10.209,0.003%,
947,2025-02-18 18:38:56,2025-02-18 18:43:35,279.377,0.089%,
948,2025-02-18 18:43:35,2025-02-18 18:43:54,18.074,0.006%,
949,2025-02-18 20:13:21,2025-02-18 20:18:16,294.329,0.093%,
950,2025-02-18 20:19:32,2025-02-18 20:19:37,5.666,0.002%,
951,2025-02-18 20:19:39,2025-02-18 20:19:58,19.522,0.006%,
952,2025-02-18 21:48:16,2025-02-18 21:54:17,360.984,0.115%,
953,2025-02-18 23:23:11,2025-02-18 23:28:54,343.758,0.109%,
954,2025-02-19 00:57:36,2025-02-19 01:03:10,334.013,0.106%,
955,2025-02-19 01:03:18,2025-02-19 01:03:25,6.819,0.002%,
956,2025-02-19 02:32:31,2025-02-19 02:37:50,319.327,0.101%,
957,2025-02-19 04:06:57,2025-02-19 04:12:28,331.523,0.105%,
958,2025-02-19 05:41:51,2025-02-19 05:46:45,293.816,0.093%,
959,2025-02-19 05:46:47,2025-02-19 05:47:03,15.723,0.005%,
960,2025-02-19 07:16:36,2025-02-19 07:21:26,289.799,0.092%,
961,2025-02-19 07:22:21,2025-02-19 07:22:48,27.178,0.009%,
962,2025-02-19 07:22:51,2025-02-19 07:23:07,16.782,0.005%,
963,2025-02-19 08:51:12,2025-02-19 08:57:27,375.045,0.119%,
964,2025-02-19 10:26:07,2025-02-19 10:32:04,357.73,0.113%,
965,2025-02-19 12:01:01,2025-02-19 12:06:21,319.717,0.101%,
966,2025-02-19 13:35:27,2025-02-19 13:41:00,333.436,0.106%,
967,2025-02-19 15:10:22,2025-02-19 15:15:38,316.926,0.101%,
968,2025-02-19 16:45:16,2025-02-19 16:49:56,279.548,0.089%,
969,2025-02-19 16:49:59,2025-02-19 16:50:12,12.907,0.004%,
970,2025-02-19 18:19:42,2025-02-19 18:24:36,294.316,0.093%,
971,2025-02-19 18:25:09,2025-02-19 18:25:58,48.811,0.016%,
972,2025-02-19 18:26:03,2025-02-19 18:26:16,13.432,0.004%,
973,2025-02-19 19:54:31,2025-02-19 20:00:37,365.815,0.116%,
974,2025-02-19 21:29:31,2025-02-19 21:35:14,342.821,0.109%,
975,2025-02-19 23:03:57,2025-02-19 23:09:31,333.989,0.106%,
976,2025-02-20 00:38:52,2025-02-20 00:44:11,319.056,0.101%,
977,2025-02-20 02:13:18,2025-02-20 02:13:41,23.789,0.008%,
978,2025-02-20 02:13:46,2025-02-20 02:18:48,302.066,0.096%,
979,2025-02-20 03:48:12,2025-02-20 03:53:06,293.949,0.093%,
980,2025-02-20 03:53:11,2025-02-20 03:53:21,9.193,0.003%,
981,2025-02-20 05:23:07,2025-02-20 05:27:47,280.048,0.089%,
982,2025-02-20 05:27:58,2025-02-20 05:29:08,70.573,0.022%,
983,2025-02-20 05:29:16,2025-02-20 05:29:24,8.763,0.003%,
984,2025-02-20 06:57:33,2025-02-20 07:03:47,374.639,0.119%,
985,2025-02-20 08:32:26,2025-02-20 08:38:24,357.377,0.113%,
986,2025-02-20 10:07:22,2025-02-20 10:12:41,319.693,0.101%,
987,2025-02-20 11:41:48,2025-02-20 11:47:21,333.129,0.106%,
988,2025-02-20 13:16:42,2025-02-20 13:21:58,316.135,0.100%,
989,2025-02-20 14:51:24,2025-02-20 14:51:32,7.643,0.002%,
990,2025-02-20 14:51:37,2025-02-20 14:56:16,279.691,0.089%,
991,2025-02-20 14:56:26,2025-02-20 14:56:27,1.041,0.000%,
992,2025-02-20 16:26:03,2025-02-20 16:32:18,375.783,0.119%,
993,2025-02-20 18:00:57,2025-02-20 18:06:57,360.158,0.114%,
994,2025-02-20 19:35:52,2025-02-20 19:41:33,341.659,0.108%,
995,2025-02-20 21:10:18,2025-02-20 21:15:52,333.928,0.106%,
996,2025-02-20 22:45:12,2025-02-20 22:50:31,318.713,0.101%,
997,2025-02-21 00:20:07,2025-02-21 00:25:08,301.233,0.096%,
998,2025-02-21 01:54:33,2025-02-21 01:59:27,294.053,0.093%,
999,2025-02-21 03:29:19,2025-02-21 03:29:22,2.629,0.001%,
1000,2025-02-21 03:29:27,2025-02-21 03:35:29,361.469,0.115%,
1001,2025-02-21 05:03:53,2025-02-21 05:10:07,374.144,0.119%,
1002,2025-02-21 06:38:48,2025-02-21 06:44:43,355.325,0.113%,
1003,2025-02-21 08:13:42,2025-02-21 08:19:02,319.618,0.101%,
1004,2025-02-21 09:48:08,2025-02-21 09:53:41,332.752,0.106%,
1005,2025-02-21 11:23:03,2025-02-21 11:28:18,315.18,0.100%,
1006,2025-02-21 12:57:57,2025-02-21 13:02:37,279.795,0.089%,
1007,2025-02-21 14:32:23,2025-02-21 14:38:39,375.62,0.119%,
