3UCubedIntegratedSim/Reports & Plots/North Cusp/NorthCusp CSV/NorthCusp_Sat3.csv

Number,Coverage Start (UTCG),Coverage End (UTCG),Duration (sec),Percent,
1,2025-01-01 16:16:46,2025-01-01 16:23:27,401.313,0.127%,
2,2025-01-01 17:51:23,2025-01-01 17:57:53,389.402,0.124%,
3,2025-01-01 19:25:37,2025-01-01 19:32:48,430.317,0.137%,
4,2025-01-01 21:00:14,2025-01-01 21:07:42,448.206,0.142%,
5,2025-01-01 22:34:53,2025-01-01 22:42:08,434.695,0.138%,
6,2025-01-02 00:09:34,2025-01-02 00:09:38,3.398,0.001%,
7,2025-01-02 00:11:03,2025-01-02 00:17:03,360.041,0.114%,
8,2025-01-02 01:45:23,2025-01-02 01:45:39,16.121,0.005%,
9,2025-01-02 01:45:42,2025-01-02 01:51:28,345.909,0.110%,
10,2025-01-02 03:19:56,2025-01-02 03:26:23,387.343,0.123%,
11,2025-01-02 04:54:34,2025-01-02 05:01:18,404.083,0.128%,
12,2025-01-02 06:28:47,2025-01-02 06:35:43,416.019,0.132%,
13,2025-01-02 08:03:24,2025-01-02 08:10:38,434.089,0.138%,
14,2025-01-02 09:38:04,2025-01-02 09:45:33,449.147,0.142%,
15,2025-01-02 11:14:13,2025-01-02 11:19:58,345.512,0.110%,
16,2025-01-02 12:48:32,2025-01-02 12:48:51,18.966,0.006%,
17,2025-01-02 12:48:52,2025-01-02 12:54:53,360.947,0.115%,
18,2025-01-02 14:23:06,2025-01-02 14:29:48,402.084,0.128%,
19,2025-01-02 15:57:27,2025-01-02 15:57:36,8.886,0.003%,
20,2025-01-02 15:57:44,2025-01-02 16:04:13,389.618,0.124%,
21,2025-01-02 17:31:57,2025-01-02 17:39:08,431.366,0.137%,
22,2025-01-02 19:06:34,2025-01-02 19:14:03,448.58,0.142%,
23,2025-01-02 20:41:14,2025-01-02 20:48:29,434.656,0.138%,
24,2025-01-02 22:17:23,2025-01-02 22:23:23,360.381,0.114%,
25,2025-01-02 23:51:41,2025-01-02 23:52:02,21.383,0.007%,
26,2025-01-02 23:52:03,2025-01-02 23:57:48,345.854,0.110%,
27,2025-01-03 01:26:16,2025-01-03 01:32:44,388.02,0.123%,
28,2025-01-03 03:00:35,2025-01-03 03:00:49,13.893,0.004%,
29,2025-01-03 03:00:54,2025-01-03 03:07:38,404.31,0.128%,
30,2025-01-03 04:35:07,2025-01-03 04:42:04,416.902,0.132%,
31,2025-01-03 06:09:44,2025-01-03 06:16:59,434.399,0.138%,
32,2025-01-03 07:44:24,2025-01-03 07:51:53,449.114,0.142%,
33,2025-01-03 09:20:33,2025-01-03 09:26:19,345.759,0.110%,
34,2025-01-03 10:54:50,2025-01-03 11:01:14,383.461,0.122%,
35,2025-01-03 12:29:26,2025-01-03 12:36:08,402.729,0.128%,
36,2025-01-03 14:03:44,2025-01-03 14:04:01,17.448,0.006%,
37,2025-01-03 14:04:04,2025-01-03 14:10:34,389.766,0.124%,
38,2025-01-03 15:38:17,2025-01-03 15:45:29,432.23,0.137%,
39,2025-01-03 17:12:55,2025-01-03 17:14:49,114.814,0.036%,
40,2025-01-03 17:14:50,2025-01-03 17:20:23,333.251,0.106%,
41,2025-01-03 18:47:35,2025-01-03 18:54:49,434.548,0.138%,
42,2025-01-03 20:23:43,2025-01-03 20:29:44,360.649,0.114%,
43,2025-01-03 21:58:00,2025-01-03 22:04:09,369.042,0.117%,
44,2025-01-03 23:32:36,2025-01-03 23:39:04,388.577,0.123%,
45,2025-01-04 01:06:53,2025-01-04 01:07:13,20.33,0.006%,
46,2025-01-04 01:07:15,2025-01-04 01:13:59,404.468,0.128%,
47,2025-01-04 02:41:27,2025-01-04 02:48:24,417.614,0.132%,
48,2025-01-04 04:16:05,2025-01-04 04:18:00,115.274,0.037%,
49,2025-01-04 04:18:01,2025-01-04 04:23:19,318.855,0.101%,
50,2025-01-04 05:50:45,2025-01-04 05:58:14,449.015,0.142%,
51,2025-01-04 07:26:54,2025-01-04 07:32:39,345.938,0.110%,
52,2025-01-04 09:01:10,2025-01-04 09:07:34,384.899,0.122%,
53,2025-01-04 10:35:46,2025-01-04 10:42:29,403.263,0.128%,
54,2025-01-04 12:10:02,2025-01-04 12:16:55,412.569,0.131%,
55,2025-01-04 13:44:37,2025-01-04 13:51:50,432.944,0.137%,
56,2025-01-04 15:19:15,2025-01-04 15:26:44,449.084,0.142%,
57,2025-01-04 16:53:55,2025-01-04 17:01:10,434.375,0.138%,
58,2025-01-04 18:30:04,2025-01-04 18:36:05,360.854,0.114%,
59,2025-01-04 20:04:19,2025-01-04 20:10:59,399.82,0.127%,
60,2025-01-04 21:38:56,2025-01-04 21:45:25,389.024,0.123%,
61,2025-01-04 23:13:11,2025-01-04 23:20:20,428.167,0.136%,
62,2025-01-05 00:47:47,2025-01-05 00:54:45,418.184,0.133%,
63,2025-01-05 02:22:25,2025-01-05 02:29:40,434.775,0.138%,
64,2025-01-05 03:57:06,2025-01-05 04:04:35,448.855,0.142%,
65,2025-01-05 05:33:14,2025-01-05 05:39:00,346.042,0.110%,
66,2025-01-05 07:07:29,2025-01-05 07:13:55,386.049,0.122%,
67,2025-01-05 08:42:06,2025-01-05 08:48:50,403.701,0.128%,
68,2025-01-05 10:16:21,2025-01-05 10:23:15,414.22,0.131%,
69,2025-01-05 11:50:57,2025-01-05 11:58:10,433.525,0.138%,
70,2025-01-05 13:25:35,2025-01-05 13:33:05,449.225,0.142%,
71,2025-01-05 15:00:16,2025-01-05 15:07:30,434.14,0.138%,
72,2025-01-05 16:36:10,2025-01-05 16:36:15,4.679,0.002%,
73,2025-01-05 16:36:24,2025-01-05 16:42:25,360.995,0.115%,
74,2025-01-05 18:10:39,2025-01-05 18:17:20,400.878,0.127%,
75,2025-01-05 19:45:16,2025-01-05 19:51:46,389.381,0.124%,
76,2025-01-05 21:19:31,2025-01-05 21:26:40,429.662,0.136%,
77,2025-01-05 22:54:07,2025-01-05 23:01:05,418.632,0.133%,
78,2025-01-06 00:28:46,2025-01-06 00:36:01,434.851,0.138%,
79,2025-01-06 02:03:27,2025-01-06 02:10:55,448.638,0.142%,
80,2025-01-06 03:39:17,2025-01-06 03:39:28,11.246,0.004%,
81,2025-01-06 03:39:34,2025-01-06 03:45:21,346.086,0.110%,
82,2025-01-06 05:13:49,2025-01-06 05:20:16,386.983,0.123%,
83,2025-01-06 06:48:26,2025-01-06 06:55:10,404.053,0.128%,
84,2025-01-06 08:22:40,2025-01-06 08:29:36,415.495,0.132%,
85,2025-01-06 09:57:17,2025-01-06 10:04:31,433.998,0.138%,
86,2025-01-06 11:31:56,2025-01-06 11:39:25,449.294,0.143%,
87,2025-01-06 13:06:37,2025-01-06 13:13:51,433.844,0.138%,
88,2025-01-06 14:42:26,2025-01-06 14:42:41,15.131,0.005%,
89,2025-01-06 14:42:45,2025-01-06 14:48:46,361.081,0.115%,
90,2025-01-06 16:16:59,2025-01-06 16:23:40,401.753,0.127%,
91,2025-01-06 17:51:36,2025-01-06 17:58:06,389.651,0.124%,
92,2025-01-06 19:25:50,2025-01-06 19:33:01,430.863,0.137%,
93,2025-01-06 21:00:27,2025-01-06 21:07:26,418.968,0.133%,
94,2025-01-06 22:35:06,2025-01-06 22:42:21,434.851,0.138%,
95,2025-01-07 00:09:48,2025-01-07 00:17:16,448.363,0.142%,
96,2025-01-07 01:45:35,2025-01-07 01:45:53,18.145,0.006%,
97,2025-01-07 01:45:55,2025-01-07 01:51:41,346.071,0.110%,
98,2025-01-07 03:20:09,2025-01-07 03:26:36,387.754,0.123%,
99,2025-01-07 04:54:31,2025-01-07 04:54:37,6.59,0.002%,
100,2025-01-07 04:54:47,2025-01-07 05:01:31,404.33,0.128%,
101,2025-01-07 06:29:00,2025-01-07 06:35:56,416.516,0.132%,
102,2025-01-07 08:03:37,2025-01-07 08:10:51,434.367,0.138%,
103,2025-01-07 09:38:17,2025-01-07 09:45:46,449.302,0.143%,
104,2025-01-07 11:12:58,2025-01-07 11:20:12,433.486,0.138%,
105,2025-01-07 12:48:44,2025-01-07 12:49:05,20.679,0.007%,
106,2025-01-07 12:49:05,2025-01-07 12:55:06,361.111,0.115%,
107,2025-01-07 14:23:19,2025-01-07 14:30:01,402.481,0.128%,
108,2025-01-07 15:57:38,2025-01-07 15:57:51,12.577,0.004%,
109,2025-01-07 15:57:57,2025-01-07 16:04:27,389.842,0.124%,
110,2025-01-07 17:32:10,2025-01-07 17:39:22,431.843,0.137%,
111,2025-01-07 19:06:47,2025-01-07 19:14:16,448.85,0.142%,
112,2025-01-07 20:41:27,2025-01-07 20:48:42,434.79,0.138%,
113,2025-01-07 22:16:09,2025-01-07 22:23:37,448.031,0.142%,
114,2025-01-07 23:51:53,2025-01-07 23:58:02,368.253,0.117%,
115,2025-01-08 01:26:29,2025-01-08 01:32:57,388.388,0.123%,
116,2025-01-08 03:00:47,2025-01-08 03:01:03,16.444,0.005%,
117,2025-01-08 03:01:07,2025-01-08 03:07:52,404.529,0.128%,
118,2025-01-08 04:35:20,2025-01-08 04:42:17,417.338,0.132%,
119,2025-01-08 06:09:57,2025-01-08 06:11:52,114.78,0.036%,
120,2025-01-08 06:11:53,2025-01-08 06:17:12,319.331,0.101%,
121,2025-01-08 07:44:37,2025-01-08 07:52:07,449.243,0.143%,
122,2025-01-08 09:19:19,2025-01-08 09:26:32,433.069,0.137%,
123,2025-01-08 10:55:03,2025-01-08 11:01:27,384.159,0.122%,
124,2025-01-08 12:29:39,2025-01-08 12:36:22,403.082,0.128%,
125,2025-01-08 14:03:56,2025-01-08 14:04:15,19.494,0.006%,
126,2025-01-08 14:04:17,2025-01-08 14:10:47,389.964,0.124%,
127,2025-01-08 15:38:29,2025-01-08 15:45:42,432.65,0.137%,
128,2025-01-08 17:13:08,2025-01-08 17:15:02,114.885,0.036%,
129,2025-01-08 17:15:03,2025-01-08 17:20:37,333.385,0.106%,
130,2025-01-08 18:47:48,2025-01-08 18:55:02,434.66,0.138%,
131,2025-01-08 20:22:30,2025-01-08 20:29:57,447.642,0.142%,
132,2025-01-08 21:58:13,2025-01-08 22:04:22,369.668,0.117%,
133,2025-01-08 23:32:49,2025-01-08 23:39:18,388.904,0.123%,
134,2025-01-09 01:07:05,2025-01-09 01:07:27,22.072,0.007%,
135,2025-01-09 01:07:28,2025-01-09 01:14:12,404.663,0.128%,
136,2025-01-09 02:41:39,2025-01-09 02:48:37,418.002,0.133%,
137,2025-01-09 04:16:18,2025-01-09 04:23:33,434.847,0.138%,
138,2025-01-09 05:50:58,2025-01-09 05:58:27,449.123,0.142%,
139,2025-01-09 07:25:40,2025-01-09 07:27:04,83.495,0.027%,
140,2025-01-09 07:27:04,2025-01-09 07:32:53,349.076,0.111%,
141,2025-01-09 09:01:22,2025-01-09 09:07:48,385.484,0.122%,
142,2025-01-09 10:35:59,2025-01-09 10:42:42,403.58,0.128%,
143,2025-01-09 12:10:14,2025-01-09 12:17:08,413.363,0.131%,
144,2025-01-09 13:44:49,2025-01-09 13:52:03,433.315,0.137%,
145,2025-01-09 15:19:28,2025-01-09 15:26:57,449.298,0.143%,
146,2025-01-09 16:54:09,2025-01-09 17:01:23,434.466,0.138%,
147,2025-01-09 18:28:51,2025-01-09 18:30:11,80.342,0.026%,
148,2025-01-09 18:30:17,2025-01-09 18:36:18,361.07,0.115%,
149,2025-01-09 20:04:32,2025-01-09 20:10:43,370.776,0.118%,
150,2025-01-09 21:39:09,2025-01-09 21:45:38,389.321,0.124%,
151,2025-01-09 23:13:24,2025-01-09 23:20:33,428.884,0.136%,
152,2025-01-10 00:47:59,2025-01-10 00:54:58,418.527,0.133%,
153,2025-01-10 02:22:38,2025-01-10 02:29:53,434.971,0.138%,
154,2025-01-10 03:57:19,2025-01-10 04:04:48,448.943,0.142%,
155,2025-01-10 05:32:01,2025-01-10 05:33:14,72.359,0.023%,
156,2025-01-10 05:33:27,2025-01-10 05:39:13,346.236,0.110%,
157,2025-01-10 07:07:42,2025-01-10 07:14:08,386.557,0.123%,
158,2025-01-10 08:42:19,2025-01-10 08:49:03,403.989,0.128%,
159,2025-01-10 10:16:34,2025-01-10 10:23:28,414.86,0.132%,
160,2025-01-10 11:51:10,2025-01-10 11:58:23,433.858,0.138%,
161,2025-01-10 13:25:49,2025-01-10 13:33:18,449.412,0.143%,
162,2025-01-10 15:00:29,2025-01-10 15:07:44,434.211,0.138%,
163,2025-01-10 16:35:12,2025-01-10 16:36:16,64.242,0.020%,
164,2025-01-10 16:36:21,2025-01-10 16:36:30,9.715,0.003%,
165,2025-01-10 16:36:37,2025-01-10 16:42:38,361.188,0.115%,
166,2025-01-10 18:10:52,2025-01-10 18:17:03,371.641,0.118%,
167,2025-01-10 18:17:19,2025-01-10 18:17:33,13.592,0.004%,
168,2025-01-10 19:45:29,2025-01-10 19:51:59,389.647,0.124%,
169,2025-01-10 21:19:43,2025-01-10 21:26:53,430.266,0.136%,
170,2025-01-10 22:54:20,2025-01-10 23:01:19,418.932,0.133%,
171,2025-01-11 00:28:59,2025-01-11 00:36:14,435.022,0.138%,
172,2025-01-11 02:03:40,2025-01-11 02:11:09,448.706,0.142%,
173,2025-01-11 03:38:22,2025-01-11 03:39:18,55.984,0.018%,
174,2025-01-11 03:39:29,2025-01-11 03:39:43,14.056,0.005%,
175,2025-01-11 03:39:48,2025-01-11 03:45:34,346.26,0.110%,
176,2025-01-11 05:14:01,2025-01-11 05:20:29,387.43,0.123%,
177,2025-01-11 06:48:39,2025-01-11 06:55:24,404.312,0.128%,
178,2025-01-11 08:22:53,2025-01-11 08:29:49,416.044,0.132%,
179,2025-01-11 09:57:30,2025-01-11 10:04:44,434.294,0.138%,
180,2025-01-11 11:32:09,2025-01-11 11:39:39,449.459,0.143%,
181,2025-01-11 13:06:50,2025-01-11 13:14:04,433.895,0.138%,
182,2025-01-11 14:41:33,2025-01-11 14:42:21,47.586,0.015%,
183,2025-01-11 14:42:38,2025-01-11 14:42:55,17.279,0.006%,
184,2025-01-11 14:42:58,2025-01-11 14:48:59,361.256,0.115%,
185,2025-01-11 16:17:11,2025-01-11 16:23:54,402.173,0.128%,
186,2025-01-11 17:51:35,2025-01-11 17:51:38,2.732,0.001%,
187,2025-01-11 17:51:49,2025-01-11 17:58:19,389.893,0.124%,
188,2025-01-11 19:26:03,2025-01-11 19:33:14,431.383,0.137%,
189,2025-01-11 21:00:40,2025-01-11 21:07:39,419.233,0.133%,
190,2025-01-11 22:35:19,2025-01-11 22:42:34,435.003,0.138%,
191,2025-01-12 00:10:01,2025-01-12 00:17:29,448.412,0.142%,
192,2025-01-12 01:44:44,2025-01-12 01:45:23,39.042,0.012%,
193,2025-01-12 01:45:47,2025-01-12 01:46:07,19.934,0.006%,
194,2025-01-12 01:46:08,2025-01-12 01:51:54,346.226,0.110%,
195,2025-01-12 03:20:21,2025-01-12 03:26:50,388.152,0.123%,
196,2025-01-12 04:54:42,2025-01-12 04:54:53,11.085,0.004%,
197,2025-01-12 04:55:00,2025-01-12 05:01:44,404.561,0.128%,
198,2025-01-12 06:29:13,2025-01-12 06:36:10,416.991,0.132%,
199,2025-01-12 08:03:50,2025-01-12 08:11:05,434.634,0.138%,
200,2025-01-12 09:38:30,2025-01-12 09:45:59,449.445,0.143%,
201,2025-01-12 11:13:11,2025-01-12 11:20:25,433.517,0.138%,
202,2025-01-12 12:47:54,2025-01-12 12:48:25,30.356,0.010%,
203,2025-01-12 12:48:56,2025-01-12 12:55:20,383.252,0.122%,
204,2025-01-12 14:23:31,2025-01-12 14:30:14,402.856,0.128%,
205,2025-01-12 15:57:50,2025-01-12 15:58:06,15.363,0.005%,
206,2025-01-12 15:58:10,2025-01-12 16:04:40,390.058,0.124%,
207,2025-01-12 17:32:22,2025-01-12 17:39:35,432.297,0.137%,
208,2025-01-12 19:07:00,2025-01-12 19:08:55,114.741,0.036%,
209,2025-01-12 19:08:55,2025-01-12 19:14:00,304.496,0.097%,
210,2025-01-12 20:41:40,2025-01-12 20:48:55,434.916,0.138%,
211,2025-01-12 22:16:22,2025-01-12 22:23:50,448.06,0.142%,
212,2025-01-12 23:51:05,2025-01-12 23:51:26,21.518,0.007%,
213,2025-01-12 23:52:06,2025-01-12 23:58:15,368.961,0.117%,
214,2025-01-13 01:26:41,2025-01-13 01:33:10,388.743,0.123%,
215,2025-01-13 03:00:59,2025-01-13 03:01:18,18.614,0.006%,
216,2025-01-13 03:01:20,2025-01-13 03:08:05,404.739,0.128%,
217,2025-01-13 04:35:32,2025-01-13 04:42:30,417.755,0.133%,
218,2025-01-13 06:10:10,2025-01-13 06:12:05,114.855,0.036%,
219,2025-01-13 06:12:06,2025-01-13 06:17:25,319.206,0.101%,
220,2025-01-13 07:44:50,2025-01-13 07:52:20,449.364,0.143%,
221,2025-01-13 09:19:32,2025-01-13 09:26:45,433.08,0.137%,
222,2025-01-13 10:54:15,2025-01-13 10:54:28,12.526,0.004%,
223,2025-01-13 10:55:15,2025-01-13 11:01:40,384.812,0.122%,
224,2025-01-13 12:29:51,2025-01-13 12:36:35,403.425,0.128%,
225,2025-01-13 14:04:08,2025-01-13 14:04:29,21.317,0.007%,
226,2025-01-13 14:04:30,2025-01-13 14:11:00,390.158,0.124%,
227,2025-01-13 15:38:42,2025-01-13 15:45:55,433.054,0.137%,
228,2025-01-13 17:13:21,2025-01-13 17:15:16,115.8,0.037%,
229,2025-01-13 17:15:16,2025-01-13 17:20:20,303.732,0.096%,
230,2025-01-13 18:48:01,2025-01-13 18:55:16,434.765,0.138%,
231,2025-01-13 20:22:43,2025-01-13 20:30:10,447.652,0.142%,
232,2025-01-13 21:57:26,2025-01-13 21:57:30,3.392,0.001%,
233,2025-01-13 21:58:25,2025-01-13 22:04:35,370.263,0.117%,
234,2025-01-13 23:33:01,2025-01-13 23:39:31,389.224,0.123%,
235,2025-01-14 01:07:17,2025-01-14 01:14:25,427.934,0.136%,
236,2025-01-14 02:41:52,2025-01-14 02:48:51,418.371,0.133%,
237,2025-01-14 04:16:31,2025-01-14 04:23:46,435.059,0.138%,
238,2025-01-14 05:51:11,2025-01-14 05:58:40,449.224,0.142%,
239,2025-01-14 07:25:53,2025-01-14 07:27:17,83.304,0.026%,
240,2025-01-14 07:27:17,2025-01-14 07:33:06,348.435,0.111%,
241,2025-01-14 09:01:35,2025-01-14 09:08:01,386.038,0.122%,
242,2025-01-14 10:36:12,2025-01-14 10:42:55,403.891,0.128%,
243,2025-01-14 12:10:27,2025-01-14 12:17:21,414.096,0.131%,
244,2025-01-14 13:45:02,2025-01-14 13:52:16,433.675,0.138%,
245,2025-01-14 15:19:41,2025-01-14 15:27:11,449.502,0.143%,
246,2025-01-14 16:54:22,2025-01-14 17:01:36,434.551,0.138%,
247,2025-01-14 18:29:04,2025-01-14 18:30:27,82.999,0.026%,
248,2025-01-14 18:30:29,2025-01-14 18:36:31,362.045,0.115%,
249,2025-01-14 20:04:45,2025-01-14 20:10:56,371.272,0.118%,
250,2025-01-14 21:39:22,2025-01-14 21:45:51,389.608,0.124%,
251,2025-01-14 23:13:36,2025-01-14 23:20:46,429.554,0.136%,
252,2025-01-15 00:48:12,2025-01-15 00:55:11,418.855,0.133%,
253,2025-01-15 02:22:51,2025-01-15 02:30:06,435.158,0.138%,
254,2025-01-15 03:57:32,2025-01-15 04:05:01,449.025,0.142%,
255,2025-01-15 05:32:14,2025-01-15 05:33:37,82.668,0.026%,
256,2025-01-15 05:33:40,2025-01-15 05:39:26,346.423,0.110%,
257,2025-01-15 07:07:54,2025-01-15 07:14:22,387.037,0.123%,
258,2025-01-15 08:42:32,2025-01-15 08:49:16,404.265,0.128%,
259,2025-01-15 10:16:46,2025-01-15 10:23:42,415.472,0.132%,
260,2025-01-15 11:51:22,2025-01-15 11:58:37,434.179,0.138%,
261,2025-01-15 13:26:02,2025-01-15 13:33:31,449.592,0.143%,
262,2025-01-15 15:00:42,2025-01-15 15:07:57,434.275,0.138%,
263,2025-01-15 16:35:25,2025-01-15 16:36:47,82.302,0.026%,
264,2025-01-15 16:36:50,2025-01-15 16:42:52,361.378,0.115%,
265,2025-01-15 18:11:04,2025-01-15 18:17:16,372.084,0.118%,
266,2025-01-15 19:45:42,2025-01-15 19:52:12,389.904,0.124%,
267,2025-01-15 21:19:56,2025-01-15 21:27:07,430.835,0.137%,
268,2025-01-15 22:54:32,2025-01-15 23:01:32,419.226,0.133%,
269,2025-01-16 00:29:12,2025-01-16 00:36:27,435.185,0.138%,
270,2025-01-16 02:03:53,2025-01-16 02:11:22,448.768,0.142%,
271,2025-01-16 03:38:36,2025-01-16 03:39:57,81.905,0.026%,
272,2025-01-16 03:40:01,2025-01-16 03:45:47,346.428,0.110%,
273,2025-01-16 05:14:14,2025-01-16 05:20:42,387.856,0.123%,
274,2025-01-16 06:48:52,2025-01-16 06:55:37,404.563,0.128%,
275,2025-01-16 08:23:06,2025-01-16 08:30:02,416.568,0.132%,
276,2025-01-16 09:57:43,2025-01-16 10:04:57,434.585,0.138%,
277,2025-01-16 11:32:22,2025-01-16 11:39:52,449.616,0.143%,
278,2025-01-16 13:07:03,2025-01-16 13:14:17,433.939,0.138%,
279,2025-01-16 14:41:46,2025-01-16 14:43:09,83.125,0.026%,
280,2025-01-16 14:43:11,2025-01-16 14:49:12,361.425,0.115%,
281,2025-01-16 16:17:24,2025-01-16 16:23:37,372.725,0.118%,
282,2025-01-16 17:51:45,2025-01-16 17:51:55,9.372,0.003%,
283,2025-01-16 17:52:02,2025-01-16 17:58:32,390.123,0.124%,
284,2025-01-16 19:26:15,2025-01-16 19:33:27,431.876,0.137%,
285,2025-01-16 21:00:53,2025-01-16 21:07:52,419.495,0.133%,
286,2025-01-16 22:35:32,2025-01-16 22:42:48,435.145,0.138%,
287,2025-01-17 00:10:14,2025-01-17 00:17:42,448.454,0.142%,
288,2025-01-17 01:44:57,2025-01-17 01:46:21,84.194,0.027%,
289,2025-01-17 01:46:21,2025-01-17 01:52:08,346.375,0.110%,
290,2025-01-17 03:20:34,2025-01-17 03:27:03,388.53,0.123%,
291,2025-01-17 04:54:53,2025-01-17 04:55:08,14.203,0.005%,
292,2025-01-17 04:55:13,2025-01-17 05:01:57,404.787,0.128%,
293,2025-01-17 06:29:25,2025-01-17 06:36:23,417.444,0.132%,
294,2025-01-17 08:04:03,2025-01-17 08:11:18,434.891,0.138%,
295,2025-01-17 09:38:43,2025-01-17 09:46:12,449.581,0.143%,
296,2025-01-17 11:13:24,2025-01-17 11:20:38,433.541,0.138%,
297,2025-01-17 12:48:07,2025-01-17 12:55:33,445.44,0.141%,
298,2025-01-17 14:23:44,2025-01-17 14:30:27,403.223,0.128%,
299,2025-01-17 15:58:02,2025-01-17 15:58:20,17.691,0.006%,
300,2025-01-17 15:58:23,2025-01-17 16:04:53,390.265,0.124%,
301,2025-01-17 17:32:35,2025-01-17 17:39:48,432.733,0.137%,
302,2025-01-17 19:07:13,2025-01-17 19:09:08,114.823,0.036%,
303,2025-01-17 19:09:09,2025-01-17 19:14:13,304.036,0.096%,
304,2025-01-17 20:41:53,2025-01-17 20:49:08,435.035,0.138%,
305,2025-01-17 22:16:35,2025-01-17 22:24:03,448.083,0.142%,
306,2025-01-17 23:51:18,2025-01-17 23:58:28,429.963,0.136%,
307,2025-01-18 01:26:54,2025-01-18 01:33:23,389.084,0.123%,
308,2025-01-18 03:01:11,2025-01-18 03:01:32,20.532,0.007%,
309,2025-01-18 03:01:33,2025-01-18 03:08:18,404.944,0.128%,
310,2025-01-18 04:35:45,2025-01-18 04:42:43,418.155,0.133%,
311,2025-01-18 06:10:23,2025-01-18 06:12:19,115.382,0.037%,
312,2025-01-18 06:12:19,2025-01-18 06:17:38,319.335,0.101%,
313,2025-01-18 07:45:04,2025-01-18 07:52:33,449.479,0.143%,
314,2025-01-18 09:19:45,2025-01-18 09:26:58,433.084,0.137%,
315,2025-01-18 10:54:29,2025-01-18 11:01:53,444.736,0.141%,
316,2025-01-18 12:30:04,2025-01-18 12:36:48,403.751,0.128%,
317,2025-01-18 14:04:21,2025-01-18 14:11:14,413.147,0.131%,
318,2025-01-18 15:38:55,2025-01-18 15:46:09,433.442,0.137%,
319,2025-01-18 17:13:34,2025-01-18 17:20:33,419.759,0.133%,
320,2025-01-18 18:48:14,2025-01-18 18:55:29,434.863,0.138%,
321,2025-01-18 20:22:56,2025-01-18 20:24:19,83.389,0.026%,
322,2025-01-18 20:24:20,2025-01-18 20:30:24,363.788,0.115%,
323,2025-01-18 21:57:39,2025-01-18 22:04:49,429.145,0.136%,
324,2025-01-18 23:33:14,2025-01-18 23:39:44,389.53,0.124%,
325,2025-01-19 01:07:30,2025-01-19 01:14:39,428.703,0.136%,
326,2025-01-19 02:42:05,2025-01-19 02:49:04,418.727,0.133%,
327,2025-01-19 04:16:44,2025-01-19 04:23:59,435.265,0.138%,
328,2025-01-19 05:51:24,2025-01-19 05:58:54,449.318,0.143%,
329,2025-01-19 07:26:06,2025-01-19 07:27:30,83.097,0.026%,
330,2025-01-19 07:27:31,2025-01-19 07:33:19,347.741,0.110%,
331,2025-01-19 09:00:50,2025-01-19 09:08:14,443.969,0.141%,
332,2025-01-19 10:36:25,2025-01-19 10:43:09,404.185,0.128%,
333,2025-01-19 12:10:39,2025-01-19 12:17:34,414.78,0.132%,
334,2025-01-19 13:45:15,2025-01-19 13:52:29,434.022,0.138%,
335,2025-01-19 15:19:54,2025-01-19 15:26:54,419.77,0.133%,
336,2025-01-19 16:54:35,2025-01-19 17:01:49,434.629,0.138%,
337,2025-01-19 18:29:17,2025-01-19 18:30:40,82.774,0.026%,
338,2025-01-19 18:30:43,2025-01-19 18:36:44,361.473,0.115%,
339,2025-01-19 20:04:01,2025-01-19 20:11:09,428.256,0.136%,
340,2025-01-19 21:39:35,2025-01-19 21:46:05,389.883,0.124%,
341,2025-01-19 23:13:49,2025-01-19 23:20:59,430.189,0.136%,
342,2025-01-20 00:48:25,2025-01-20 00:55:24,419.17,0.133%,
343,2025-01-20 02:23:04,2025-01-20 02:30:20,435.337,0.138%,
344,2025-01-20 03:57:45,2025-01-20 04:05:14,449.099,0.142%,
345,2025-01-20 05:32:28,2025-01-20 05:33:50,82.418,0.026%,
346,2025-01-20 05:33:53,2025-01-20 05:39:40,346.605,0.110%,
347,2025-01-20 07:07:12,2025-01-20 07:14:35,443.132,0.141%,
348,2025-01-20 08:42:45,2025-01-20 08:49:29,404.535,0.128%,
349,2025-01-20 10:16:59,2025-01-20 10:23:55,416.046,0.132%,
350,2025-01-20 11:51:35,2025-01-20 11:58:50,434.492,0.138%,
351,2025-01-20 13:26:15,2025-01-20 13:33:44,449.764,0.143%,
352,2025-01-20 15:00:56,2025-01-20 15:08:10,434.333,0.138%,
353,2025-01-20 16:35:38,2025-01-20 16:37:00,82.031,0.026%,
354,2025-01-20 16:37:03,2025-01-20 16:43:05,361.559,0.115%,
355,2025-01-20 18:10:22,2025-01-20 18:11:08,46.107,0.015%,
356,2025-01-20 18:11:17,2025-01-20 18:17:30,372.503,0.118%,
357,2025-01-20 19:45:55,2025-01-20 19:52:25,390.157,0.124%,
358,2025-01-20 21:20:09,2025-01-20 21:27:20,431.377,0.137%,
359,2025-01-20 22:54:45,2025-01-20 23:01:45,419.507,0.133%,
360,2025-01-21 00:29:25,2025-01-21 00:36:40,435.341,0.138%,
361,2025-01-21 02:04:06,2025-01-21 02:11:35,448.823,0.142%,
362,2025-01-21 03:38:49,2025-01-21 03:40:12,82.757,0.026%,
363,2025-01-21 03:40:14,2025-01-21 03:46:00,346.589,0.110%,
364,2025-01-21 05:13:33,2025-01-21 05:14:08,34.53,0.011%,
365,2025-01-21 05:14:27,2025-01-21 05:20:55,388.264,0.123%,
366,2025-01-21 06:48:49,2025-01-21 06:48:56,7.23,0.002%,
367,2025-01-21 06:49:05,2025-01-21 06:55:50,404.805,0.128%,
368,2025-01-21 08:23:18,2025-01-21 08:30:15,417.062,0.132%,
369,2025-01-21 09:57:56,2025-01-21 10:05:10,434.862,0.138%,
370,2025-01-21 11:32:35,2025-01-21 11:40:05,449.77,0.143%,
371,2025-01-21 13:07:17,2025-01-21 13:14:31,433.976,0.138%,
372,2025-01-21 14:41:59,2025-01-21 14:43:23,83.885,0.027%,
373,2025-01-21 14:43:24,2025-01-21 14:49:25,361.588,0.115%,
374,2025-01-21 16:16:44,2025-01-21 16:17:07,22.788,0.007%,
375,2025-01-21 16:17:37,2025-01-21 16:23:50,373.106,0.118%,
376,2025-01-21 17:51:57,2025-01-21 17:52:10,12.915,0.004%,
377,2025-01-21 17:52:15,2025-01-21 17:58:46,390.347,0.124%,
378,2025-01-21 19:26:28,2025-01-21 19:33:41,432.351,0.137%,
379,2025-01-21 21:01:06,2025-01-21 21:08:05,419.744,0.133%,
380,2025-01-21 22:35:46,2025-01-21 22:43:01,435.278,0.138%,
381,2025-01-22 00:10:27,2025-01-22 00:17:56,448.489,0.142%,
382,2025-01-22 01:45:10,2025-01-22 01:52:21,430.641,0.137%,
383,2025-01-22 03:19:55,2025-01-22 03:20:06,10.865,0.003%,
384,2025-01-22 03:20:47,2025-01-22 03:27:16,388.897,0.123%,
385,2025-01-22 04:55:05,2025-01-22 04:55:22,16.699,0.005%,
386,2025-01-22 04:55:26,2025-01-22 05:02:11,405.005,0.128%,
387,2025-01-22 06:29:38,2025-01-22 06:36:36,417.881,0.133%,
388,2025-01-22 08:04:16,2025-01-22 08:06:11,114.787,0.036%,
389,2025-01-22 08:06:11,2025-01-22 08:11:31,319.729,0.101%,
390,2025-01-22 09:38:56,2025-01-22 09:46:26,449.708,0.143%,
391,2025-01-22 11:13:38,2025-01-22 11:20:51,433.559,0.138%,
392,2025-01-22 12:48:21,2025-01-22 12:55:46,445.363,0.141%,
393,2025-01-22 14:23:57,2025-01-22 14:30:11,373.566,0.119%,
394,2025-01-22 15:58:14,2025-01-22 15:58:34,19.707,0.006%,
395,2025-01-22 15:58:36,2025-01-22 16:05:06,390.464,0.124%,
396,2025-01-22 17:32:48,2025-01-22 17:40:01,433.152,0.137%,
397,2025-01-22 19:07:26,2025-01-22 19:09:21,114.946,0.036%,
398,2025-01-22 19:09:22,2025-01-22 19:14:26,304.153,0.096%,
399,2025-01-22 20:42:06,2025-01-22 20:49:21,435.147,0.138%,
400,2025-01-22 22:16:48,2025-01-22 22:24:16,448.099,0.142%,
401,2025-01-22 23:51:31,2025-01-22 23:58:41,429.864,0.136%,
402,2025-01-23 01:27:07,2025-01-23 01:33:37,389.41,0.124%,
403,2025-01-23 03:01:24,2025-01-23 03:01:46,22.253,0.007%,
404,2025-01-23 03:01:46,2025-01-23 03:08:31,405.14,0.129%,
405,2025-01-23 04:35:58,2025-01-23 04:42:56,418.544,0.133%,
406,2025-01-23 06:10:36,2025-01-23 06:17:52,435.336,0.138%,
407,2025-01-23 07:45:17,2025-01-23 07:52:46,449.586,0.143%,
408,2025-01-23 09:19:59,2025-01-23 09:21:22,83.476,0.027%,
409,2025-01-23 09:21:22,2025-01-23 09:27:12,349.495,0.111%,
410,2025-01-23 10:54:42,2025-01-23 11:02:07,444.637,0.141%,
411,2025-01-23 12:30:17,2025-01-23 12:37:01,404.067,0.128%,
412,2025-01-23 14:04:33,2025-01-23 14:11:27,413.93,0.131%,
413,2025-01-23 15:39:08,2025-01-23 15:46:22,433.813,0.138%,
414,2025-01-23 17:13:47,2025-01-23 17:20:46,419.959,0.133%,
415,2025-01-23 18:48:27,2025-01-23 18:55:42,434.954,0.138%,
416,2025-01-23 20:23:09,2025-01-23 20:24:32,83.192,0.026%,
417,2025-01-23 20:24:34,2025-01-23 20:30:37,363.132,0.115%,
418,2025-01-23 21:57:53,2025-01-23 22:05:02,429.028,0.136%,
419,2025-01-23 23:33:27,2025-01-23 23:39:57,389.825,0.124%,
420,2025-01-24 01:07:42,2025-01-24 01:14:52,429.413,0.136%,
421,2025-01-24 02:42:18,2025-01-24 02:49:17,419.065,0.133%,
422,2025-01-24 04:16:57,2025-01-24 04:24:12,435.459,0.138%,
423,2025-01-24 05:51:37,2025-01-24 05:59:07,449.406,0.143%,
424,2025-01-24 07:26:20,2025-01-24 07:27:43,82.874,0.026%,
425,2025-01-24 07:27:45,2025-01-24 07:33:32,346.999,0.110%,
426,2025-01-24 09:01:03,2025-01-24 09:08:27,443.849,0.141%,
427,2025-01-24 10:36:37,2025-01-24 10:43:22,404.471,0.128%,
428,2025-01-24 12:10:52,2025-01-24 12:17:47,415.417,0.132%,
429,2025-01-24 13:45:28,2025-01-24 13:52:42,434.356,0.138%,
430,2025-01-24 15:20:07,2025-01-24 15:27:07,419.938,0.133%,
431,2025-01-24 16:54:48,2025-01-24 17:02:03,434.699,0.138%,
432,2025-01-24 18:29:30,2025-01-24 18:30:53,82.532,0.026%,
433,2025-01-24 18:30:56,2025-01-24 18:36:57,361.666,0.115%,
434,2025-01-24 20:04:14,2025-01-24 20:11:22,428.112,0.136%,
435,2025-01-24 21:39:48,2025-01-24 21:46:18,390.15,0.124%,
436,2025-01-24 23:14:02,2025-01-24 23:21:12,430.784,0.137%,
437,2025-01-25 00:48:38,2025-01-25 00:55:38,419.476,0.133%,
438,2025-01-25 02:23:17,2025-01-25 02:30:33,435.507,0.138%,
439,2025-01-25 03:57:58,2025-01-25 04:05:28,449.165,0.142%,
440,2025-01-25 05:32:41,2025-01-25 05:34:03,82.154,0.026%,
441,2025-01-25 05:34:06,2025-01-25 05:39:53,346.779,0.110%,
442,2025-01-25 07:07:25,2025-01-25 07:14:48,442.989,0.141%,
443,2025-01-25 08:42:58,2025-01-25 08:49:43,404.792,0.128%,
444,2025-01-25 10:17:11,2025-01-25 10:24:08,416.59,0.132%,
445,2025-01-25 11:51:48,2025-01-25 11:59:03,434.789,0.138%,
446,2025-01-25 13:26:28,2025-01-25 13:33:27,419.843,0.133%,
447,2025-01-25 15:01:09,2025-01-25 15:08:23,434.383,0.138%,
448,2025-01-25 16:35:51,2025-01-25 16:37:14,82.361,0.026%,
449,2025-01-25 16:37:16,2025-01-25 16:43:18,361.733,0.115%,
450,2025-01-25 18:10:36,2025-01-25 18:17:43,427.121,0.135%,
451,2025-01-25 19:45:53,2025-01-25 19:45:57,4.03,0.001%,
452,2025-01-25 19:46:08,2025-01-25 19:52:38,390.395,0.124%,
453,2025-01-25 21:20:21,2025-01-25 21:27:33,431.893,0.137%,
454,2025-01-25 22:54:58,2025-01-25 23:01:58,419.776,0.133%,
455,2025-01-26 00:29:38,2025-01-26 00:36:53,435.489,0.138%,
456,2025-01-26 02:04:19,2025-01-26 02:11:48,448.871,0.142%,
457,2025-01-26 03:39:02,2025-01-26 03:40:26,83.554,0.027%,
458,2025-01-26 03:40:27,2025-01-26 03:46:13,346.749,0.110%,
459,2025-01-26 05:13:46,2025-01-26 05:21:09,442.06,0.140%,
460,2025-01-26 06:49:00,2025-01-26 06:49:12,11.468,0.004%,
461,2025-01-26 06:49:18,2025-01-26 06:56:03,405.038,0.128%,
462,2025-01-26 08:23:31,2025-01-26 08:30:29,417.535,0.132%,
463,2025-01-26 09:58:08,2025-01-26 10:05:24,435.125,0.138%,
464,2025-01-26 11:32:48,2025-01-26 11:40:18,449.912,0.143%,
465,2025-01-26 13:07:30,2025-01-26 13:14:44,434.007,0.138%,
466,2025-01-26 14:42:13,2025-01-26 14:49:39,445.962,0.141%,
467,2025-01-26 16:16:57,2025-01-26 16:24:03,426.059,0.135%,
468,2025-01-26 17:52:09,2025-01-26 17:52:24,15.633,0.005%,
469,2025-01-26 17:52:28,2025-01-26 17:58:59,390.561,0.124%,
470,2025-01-26 19:26:41,2025-01-26 19:33:54,432.802,0.137%,
471,2025-01-26 21:01:19,2025-01-26 21:03:13,114.745,0.036%,
472,2025-01-26 21:03:14,2025-01-26 21:08:19,304.949,0.097%,
473,2025-01-26 22:35:59,2025-01-26 22:43:14,435.404,0.138%,
474,2025-01-27 00:10:40,2025-01-27 00:18:09,448.518,0.142%,
475,2025-01-27 01:45:23,2025-01-27 01:52:34,430.556,0.137%,
476,2025-01-27 03:20:08,2025-01-27 03:27:29,441.054,0.140%,
477,2025-01-27 04:55:17,2025-01-27 04:55:36,18.831,0.006%,
478,2025-01-27 04:55:39,2025-01-27 05:02:24,405.214,0.129%,
479,2025-01-27 06:29:51,2025-01-27 06:36:49,418.296,0.133%,
480,2025-01-27 08:04:29,2025-01-27 08:06:24,114.862,0.036%,
481,2025-01-27 08:06:25,2025-01-27 08:11:44,319.685,0.101%,
482,2025-01-27 09:39:09,2025-01-27 09:46:39,449.829,0.143%,
483,2025-01-27 11:13:51,2025-01-27 11:21:04,433.572,0.138%,
484,2025-01-27 12:48:34,2025-01-27 12:55:59,445.279,0.141%,
485,2025-01-27 14:23:19,2025-01-27 14:30:24,424.907,0.135%,
486,2025-01-27 15:58:27,2025-01-27 15:58:48,21.501,0.007%,
487,2025-01-27 15:58:49,2025-01-27 16:05:19,390.657,0.124%,
488,2025-01-27 17:33:01,2025-01-27 17:40:14,433.554,0.138%,
489,2025-01-27 19:07:39,2025-01-27 19:14:39,420.101,0.133%,
490,2025-01-27 20:42:19,2025-01-27 20:49:35,435.252,0.138%,
491,2025-01-27 22:17:01,2025-01-27 22:24:29,448.108,0.142%,
492,2025-01-27 23:51:45,2025-01-27 23:58:54,429.758,0.136%,
493,2025-01-28 01:26:30,2025-01-28 01:27:10,39.877,0.013%,
494,2025-01-28 01:27:20,2025-01-28 01:33:50,389.726,0.124%,
495,2025-01-28 03:01:36,2025-01-28 03:08:44,428.471,0.136%,
496,2025-01-28 04:36:11,2025-01-28 04:43:10,418.911,0.133%,
497,2025-01-28 06:10:49,2025-01-28 06:18:05,435.547,0.138%,
498,2025-01-28 07:45:30,2025-01-28 07:52:59,449.687,0.143%,
499,2025-01-28 09:20:12,2025-01-28 09:21:35,83.28,0.026%,
500,2025-01-28 09:21:36,2025-01-28 09:27:25,348.852,0.111%,
501,2025-01-28 10:54:55,2025-01-28 11:02:20,444.532,0.141%,
502,2025-01-28 12:29:41,2025-01-28 12:30:06,25.589,0.008%,
503,2025-01-28 12:30:30,2025-01-28 12:36:44,374.209,0.119%,
504,2025-01-28 12:36:58,2025-01-28 12:37:14,16.772,0.005%,
505,2025-01-28 14:04:45,2025-01-28 14:11:40,414.655,0.132%,
506,2025-01-28 15:39:21,2025-01-28 15:46:35,434.171,0.138%,
507,2025-01-28 17:14:00,2025-01-28 17:21:00,420.14,0.133%,
508,2025-01-28 18:48:40,2025-01-28 18:55:55,435.038,0.138%,
509,2025-01-28 20:23:22,2025-01-28 20:24:45,82.975,0.026%,
510,2025-01-28 20:24:48,2025-01-28 20:30:50,362.423,0.115%,
511,2025-01-28 21:58:06,2025-01-28 22:05:15,428.894,0.136%,
512,2025-01-28 23:32:52,2025-01-28 23:33:03,11.101,0.004%,
513,2025-01-28 23:33:40,2025-01-28 23:40:10,390.111,0.124%,
514,2025-01-29 01:07:55,2025-01-29 01:15:05,430.077,0.136%,
515,2025-01-29 02:42:31,2025-01-29 02:49:30,419.395,0.133%,
516,2025-01-29 04:17:10,2025-01-29 04:24:25,435.645,0.138%,
517,2025-01-29 05:51:51,2025-01-29 05:59:20,449.486,0.143%,
518,2025-01-29 07:26:33,2025-01-29 07:27:56,82.639,0.026%,
519,2025-01-29 07:27:59,2025-01-29 07:33:45,346.938,0.110%,
520,2025-01-29 09:01:17,2025-01-29 09:08:41,443.721,0.141%,
521,2025-01-29 10:36:50,2025-01-29 10:43:35,404.747,0.128%,
522,2025-01-29 12:11:05,2025-01-29 12:18:01,416.023,0.132%,
523,2025-01-29 13:45:41,2025-01-29 13:52:56,434.674,0.138%,
524,2025-01-29 15:20:20,2025-01-29 15:27:20,420.097,0.133%,
525,2025-01-29 16:55:01,2025-01-29 17:02:16,434.763,0.138%,
526,2025-01-29 18:29:44,2025-01-29 18:31:06,82.274,0.026%,
527,2025-01-29 18:31:09,2025-01-29 18:37:11,361.855,0.115%,
528,2025-01-29 20:04:28,2025-01-29 20:11:35,427.955,0.136%,
529,2025-01-29 21:40:01,2025-01-29 21:46:31,390.406,0.124%,
530,2025-01-29 23:14:14,2025-01-29 23:21:26,431.348,0.137%,
531,2025-01-30 00:48:51,2025-01-30 00:55:51,419.766,0.133%,
532,2025-01-30 02:23:30,2025-01-30 02:30:46,435.67,0.138%,
533,2025-01-30 03:58:11,2025-01-30 04:05:41,449.225,0.142%,
534,2025-01-30 05:32:54,2025-01-30 05:34:16,81.941,0.026%,
535,2025-01-30 05:34:19,2025-01-30 05:40:06,346.946,0.110%,
536,2025-01-30 07:07:38,2025-01-30 07:15:01,442.836,0.140%,
537,2025-01-30 08:43:11,2025-01-30 08:49:56,405.042,0.128%,
538,2025-01-30 10:17:24,2025-01-30 10:24:21,417.116,0.132%,
539,2025-01-30 11:52:01,2025-01-30 11:59:16,435.077,0.138%,
540,2025-01-30 13:26:41,2025-01-30 13:33:41,419.98,0.133%,
541,2025-01-30 15:01:22,2025-01-30 15:08:36,434.427,0.138%,
542,2025-01-30 16:36:05,2025-01-30 16:37:28,83.21,0.026%,
543,2025-01-30 16:37:29,2025-01-30 16:43:31,361.901,0.115%,
544,2025-01-30 18:10:49,2025-01-30 18:17:56,426.943,0.135%,
545,2025-01-30 19:46:04,2025-01-30 19:46:13,9.813,0.003%,
546,2025-01-30 19:46:21,2025-01-30 19:52:52,390.624,0.124%,
547,2025-01-30 21:20:34,2025-01-30 21:27:46,432.384,0.137%,
548,2025-01-30 22:55:11,2025-01-30 23:02:11,420.038,0.133%,
549,2025-01-31 00:29:51,2025-01-31 00:37:07,435.629,0.138%,
550,2025-01-31 02:04:32,2025-01-31 02:12:01,448.912,0.142%,
551,2025-01-31 03:39:15,2025-01-31 03:40:40,84.266,0.027%,
552,2025-01-31 03:40:40,2025-01-31 03:46:27,346.895,0.110%,
553,2025-01-31 05:14:00,2025-01-31 05:21:22,441.883,0.140%,
554,2025-01-31 06:49:12,2025-01-31 06:49:26,14.492,0.005%,
555,2025-01-31 06:49:31,2025-01-31 06:56:16,405.263,0.129%,
556,2025-01-31 08:23:44,2025-01-31 08:30:42,417.987,0.133%,
557,2025-01-31 09:58:21,2025-01-31 10:05:37,435.385,0.138%,
558,2025-01-31 11:33:01,2025-01-31 11:40:31,450.046,0.143%,
559,2025-01-31 13:07:43,2025-01-31 13:14:57,434.031,0.138%,
560,2025-01-31 14:42:26,2025-01-31 14:49:52,445.892,0.141%,
561,2025-01-31 16:17:11,2025-01-31 16:24:17,425.854,0.135%,
562,2025-01-31 17:52:21,2025-01-31 17:52:39,17.915,0.006%,
563,2025-01-31 17:52:41,2025-01-31 17:59:12,390.769,0.124%,
564,2025-01-31 19:26:54,2025-01-31 19:34:07,433.236,0.137%,
565,2025-01-31 21:01:32,2025-01-31 21:03:26,114.827,0.036%,
566,2025-01-31 21:03:27,2025-01-31 21:08:32,304.567,0.097%,
567,2025-01-31 22:36:12,2025-01-31 22:43:27,435.522,0.138%,
568,2025-02-01 00:10:53,2025-02-01 00:18:22,448.54,0.142%,
569,2025-02-01 01:45:37,2025-02-01 01:52:47,430.46,0.137%,
570,2025-02-01 03:20:21,2025-02-01 03:27:42,440.851,0.140%,
571,2025-02-01 04:55:30,2025-02-01 04:55:50,20.722,0.007%,
572,2025-02-01 04:55:52,2025-02-01 05:02:37,405.418,0.129%,
573,2025-02-01 06:30:04,2025-02-01 06:37:02,418.695,0.133%,
574,2025-02-01 08:04:42,2025-02-01 08:06:37,115.485,0.037%,
575,2025-02-01 08:06:38,2025-02-01 08:11:57,319.813,0.101%,
576,2025-02-01 09:39:22,2025-02-01 09:46:52,449.943,0.143%,
577,2025-02-01 11:14:04,2025-02-01 11:21:18,433.578,0.138%,
578,2025-02-01 12:48:47,2025-02-01 12:56:12,445.187,0.141%,
579,2025-02-01 14:23:32,2025-02-01 14:24:17,44.998,0.014%,
580,2025-02-01 14:24:18,2025-02-01 14:30:37,379.114,0.120%,
581,2025-02-01 15:58:39,2025-02-01 16:05:33,413.715,0.131%,
582,2025-02-01 17:33:14,2025-02-01 17:40:28,433.941,0.138%,
583,2025-02-01 19:07:52,2025-02-01 19:14:52,420.302,0.133%,
584,2025-02-01 20:42:32,2025-02-01 20:49:48,435.349,0.138%,
585,2025-02-01 22:17:14,2025-02-01 22:18:38,83.368,0.026%,
586,2025-02-01 22:18:38,2025-02-01 22:24:43,364.176,0.116%,
587,2025-02-01 23:51:58,2025-02-01 23:59:08,429.644,0.136%,
588,2025-02-02 01:26:43,2025-02-02 01:27:28,44.333,0.014%,
589,2025-02-02 01:27:29,2025-02-02 01:34:03,393.458,0.125%,
590,2025-02-02 03:01:48,2025-02-02 03:08:58,429.235,0.136%,
591,2025-02-02 04:36:24,2025-02-02 04:43:23,419.268,0.133%,
592,2025-02-02 06:11:02,2025-02-02 06:18:18,435.752,0.138%,
593,2025-02-02 07:45:43,2025-02-02 07:53:13,449.78,0.143%,
594,2025-02-02 09:20:25,2025-02-02 09:21:48,83.073,0.026%,
595,2025-02-02 09:21:50,2025-02-02 09:27:38,348.156,0.110%,
596,2025-02-02 10:55:09,2025-02-02 11:02:33,444.418,0.141%,
597,2025-02-02 12:29:54,2025-02-02 12:30:38,43.626,0.014%,
598,2025-02-02 12:30:41,2025-02-02 12:36:57,376.29,0.119%,
599,2025-02-02 14:04:58,2025-02-02 14:11:53,415.333,0.132%,
600,2025-02-02 15:39:34,2025-02-02 15:46:48,434.517,0.138%,
601,2025-02-02 17:14:13,2025-02-02 17:21:13,420.316,0.133%,
602,2025-02-02 18:48:53,2025-02-02 18:56:08,435.116,0.138%,
603,2025-02-02 20:23:36,2025-02-02 20:24:58,82.749,0.026%,
604,2025-02-02 20:25:01,2025-02-02 20:31:03,361.951,0.115%,
605,2025-02-02 21:58:19,2025-02-02 22:05:28,428.757,0.136%,
606,2025-02-02 23:33:05,2025-02-02 23:33:46,40.553,0.013%,
607,2025-02-02 23:33:53,2025-02-02 23:40:24,390.385,0.124%,
608,2025-02-03 01:08:08,2025-02-03 01:15:18,430.707,0.137%,
609,2025-02-03 02:42:44,2025-02-03 02:49:43,419.711,0.133%,
610,2025-02-03 04:17:23,2025-02-03 04:24:39,435.823,0.138%,
611,2025-02-03 05:52:04,2025-02-03 05:59:33,449.56,0.143%,
612,2025-02-03 07:26:46,2025-02-03 07:28:09,82.389,0.026%,
613,2025-02-03 07:28:12,2025-02-03 07:33:59,347.118,0.110%,
614,2025-02-03 09:01:30,2025-02-03 09:08:54,443.582,0.141%,
615,2025-02-03 10:36:16,2025-02-03 10:36:40,23.949,0.008%,
616,2025-02-03 10:37:03,2025-02-03 10:43:48,405.014,0.128%,
617,2025-02-03 12:11:17,2025-02-03 12:18:14,416.593,0.132%,
618,2025-02-03 13:45:54,2025-02-03 13:53:09,434.98,0.138%,
619,2025-02-03 15:20:33,2025-02-03 15:27:33,420.251,0.133%,
620,2025-02-03 16:55:14,2025-02-03 17:02:29,434.82,0.138%,
621,2025-02-03 18:29:57,2025-02-03 18:31:19,82.001,0.026%,
622,2025-02-03 18:31:22,2025-02-03 18:37:24,362.035,0.115%,
623,2025-02-03 20:04:41,2025-02-03 20:11:49,427.794,0.136%,
624,2025-02-03 21:39:27,2025-02-03 21:39:34,7.15,0.002%,
625,2025-02-03 21:40:13,2025-02-03 21:46:44,390.656,0.124%,
626,2025-02-03 23:14:27,2025-02-03 23:21:39,431.891,0.137%,
627,2025-02-04 00:49:04,2025-02-04 00:56:04,420.045,0.133%,
628,2025-02-04 02:23:43,2025-02-04 02:30:59,435.825,0.138%,
629,2025-02-04 03:58:25,2025-02-04 04:05:54,449.281,0.143%,
630,2025-02-04 05:33:07,2025-02-04 05:34:30,82.845,0.026%,
631,2025-02-04 05:34:32,2025-02-04 05:40:19,347.107,0.110%,
632,2025-02-04 07:07:52,2025-02-04 07:15:14,442.676,0.140%,
633,2025-02-04 08:43:07,2025-02-04 08:43:15,7.791,0.003%,
634,2025-02-04 08:43:24,2025-02-04 08:50:09,405.282,0.129%,
635,2025-02-04 10:17:37,2025-02-04 10:24:34,417.605,0.132%,
636,2025-02-04 11:52:14,2025-02-04 11:59:29,435.35,0.138%,
637,2025-02-04 13:26:54,2025-02-04 13:33:54,420.11,0.133%,
638,2025-02-04 15:01:35,2025-02-04 15:08:50,434.464,0.138%,
639,2025-02-04 16:36:18,2025-02-04 16:37:42,83.959,0.027%,
640,2025-02-04 16:37:42,2025-02-04 16:43:44,362.063,0.115%,
641,2025-02-04 18:11:02,2025-02-04 18:18:09,426.756,0.135%,
642,2025-02-04 19:46:15,2025-02-04 19:46:28,13.233,0.004%,
643,2025-02-04 19:46:34,2025-02-04 19:53:05,390.847,0.124%,
644,2025-02-04 21:20:47,2025-02-04 21:28:00,432.855,0.137%,
645,2025-02-04 22:55:24,2025-02-04 23:02:24,420.283,0.133%,
646,2025-02-05 00:30:04,2025-02-05 00:37:20,435.762,0.138%,
647,2025-02-05 02:04:46,2025-02-05 02:12:15,448.947,0.142%,
648,2025-02-05 03:39:29,2025-02-05 03:46:40,431.133,0.137%,
649,2025-02-05 05:14:13,2025-02-05 05:21:35,441.698,0.140%,
650,2025-02-05 06:49:24,2025-02-05 06:49:41,16.935,0.005%,
651,2025-02-05 06:49:44,2025-02-05 06:56:30,405.48,0.129%,
652,2025-02-05 08:23:57,2025-02-05 08:30:55,418.421,0.133%,
653,2025-02-05 09:58:34,2025-02-05 10:00:29,114.796,0.036%,
654,2025-02-05 10:00:30,2025-02-05 10:05:50,320.128,0.102%,
655,2025-02-05 11:33:14,2025-02-05 11:40:14,419.898,0.133%,
656,2025-02-05 11:40:23,2025-02-05 11:40:45,21.362,0.007%,
657,2025-02-05 13:07:56,2025-02-05 13:15:10,434.048,0.138%,
658,2025-02-05 14:42:39,2025-02-05 14:50:05,445.814,0.141%,
659,2025-02-05 16:17:24,2025-02-05 16:24:30,425.638,0.135%,
660,2025-02-05 17:52:33,2025-02-05 17:52:53,19.903,0.006%,
661,2025-02-05 17:52:54,2025-02-05 17:59:25,390.967,0.124%,
662,2025-02-05 19:27:06,2025-02-05 19:34:20,433.652,0.138%,
663,2025-02-05 21:01:45,2025-02-05 21:03:40,115.053,0.037%,
664,2025-02-05 21:03:40,2025-02-05 21:08:45,304.684,0.097%,
665,2025-02-05 22:36:25,2025-02-05 22:43:40,435.634,0.138%,
666,2025-02-06 00:11:07,2025-02-06 00:18:35,448.555,0.142%,
667,2025-02-06 01:45:50,2025-02-06 01:53:00,430.362,0.137%,
668,2025-02-06 03:20:35,2025-02-06 03:21:20,45.194,0.014%,
669,2025-02-06 03:21:20,2025-02-06 03:27:56,395.284,0.125%,
670,2025-02-06 04:55:42,2025-02-06 04:56:04,22.424,0.007%,
671,2025-02-06 04:56:05,2025-02-06 05:02:50,405.613,0.129%,
672,2025-02-06 06:30:16,2025-02-06 06:37:16,419.08,0.133%,
673,2025-02-06 08:04:55,2025-02-06 08:12:11,435.824,0.138%,
674,2025-02-06 09:39:35,2025-02-06 09:47:05,450.049,0.143%,
675,2025-02-06 11:14:17,2025-02-06 11:15:41,83.454,0.027%,
676,2025-02-06 11:15:41,2025-02-06 11:21:31,349.922,0.111%,
677,2025-02-06 12:49:01,2025-02-06 12:56:26,445.089,0.141%,
678,2025-02-06 14:23:46,2025-02-06 14:24:30,44.54,0.014%,
679,2025-02-06 14:24:32,2025-02-06 14:30:50,378.387,0.120%,
680,2025-02-06 15:58:51,2025-02-06 16:05:46,414.492,0.131%,
681,2025-02-06 17:33:26,2025-02-06 17:40:41,434.312,0.138%,
682,2025-02-06 19:08:05,2025-02-06 19:15:06,420.502,0.133%,
683,2025-02-06 20:42:46,2025-02-06 20:50:01,435.44,0.138%,
684,2025-02-06 22:17:28,2025-02-06 22:18:51,83.17,0.026%,
685,2025-02-06 22:18:52,2025-02-06 22:24:56,363.515,0.115%,
686,2025-02-06 23:52:11,2025-02-06 23:59:21,429.523,0.136%,
687,2025-02-07 01:26:57,2025-02-07 01:27:40,43.849,0.014%,
688,2025-02-07 01:27:43,2025-02-07 01:34:16,392.656,0.125%,
689,2025-02-07 03:02:01,2025-02-07 03:09:11,429.939,0.136%,
690,2025-02-07 04:36:36,2025-02-07 04:43:36,419.605,0.133%,
691,2025-02-07 06:11:15,2025-02-07 06:18:31,435.946,0.138%,
692,2025-02-07 07:45:56,2025-02-07 07:53:26,449.867,0.143%,
693,2025-02-07 09:20:38,2025-02-07 09:22:01,82.854,0.026%,
694,2025-02-07 09:22:04,2025-02-07 09:27:51,347.412,0.110%,
695,2025-02-07 10:55:22,2025-02-07 11:02:46,444.298,0.141%,
696,2025-02-07 12:30:08,2025-02-07 12:30:51,43.11,0.014%,
697,2025-02-07 12:30:55,2025-02-07 12:37:11,375.349,0.119%,
698,2025-02-07 14:05:10,2025-02-07 14:12:06,415.967,0.132%,
699,2025-02-07 15:39:47,2025-02-07 15:47:01,434.849,0.138%,
700,2025-02-07 17:14:26,2025-02-07 17:21:26,420.483,0.133%,
701,2025-02-07 18:49:06,2025-02-07 18:56:22,435.186,0.138%,
702,2025-02-07 20:23:49,2025-02-07 20:25:11,82.506,0.026%,
703,2025-02-07 20:25:14,2025-02-07 20:31:16,362.142,0.115%,
704,2025-02-07 21:58:33,2025-02-07 22:05:41,428.613,0.136%,
705,2025-02-07 23:33:18,2025-02-07 23:34:01,42.327,0.013%,
706,2025-02-07 23:34:06,2025-02-07 23:40:37,390.651,0.124%,
707,2025-02-08 01:08:20,2025-02-08 01:15:31,431.298,0.137%,
708,2025-02-08 02:42:57,2025-02-08 02:49:57,420.014,0.133%,
709,2025-02-08 04:17:36,2025-02-08 04:24:52,435.993,0.138%,
710,2025-02-08 05:52:17,2025-02-08 05:59:46,449.626,0.143%,
711,2025-02-08 07:26:59,2025-02-08 07:28:22,82.125,0.026%,
712,2025-02-08 07:28:25,2025-02-08 07:34:12,347.294,0.110%,
713,2025-02-08 09:01:43,2025-02-08 09:09:07,443.437,0.141%,
714,2025-02-08 10:36:29,2025-02-08 10:37:00,30.767,0.010%,
715,2025-02-08 10:37:16,2025-02-08 10:44:02,405.271,0.129%,
716,2025-02-08 12:11:30,2025-02-08 12:18:27,417.134,0.132%,
717,2025-02-08 13:46:07,2025-02-08 13:53:22,435.28,0.138%,
718,2025-02-08 15:20:46,2025-02-08 15:27:47,420.392,0.133%,
719,2025-02-08 16:55:27,2025-02-08 17:02:42,434.87,0.138%,
720,2025-02-08 18:30:10,2025-02-08 18:31:32,82.454,0.026%,
721,2025-02-08 18:31:35,2025-02-08 18:37:37,362.208,0.115%,
722,2025-02-08 20:04:54,2025-02-08 20:12:02,427.625,0.136%,
723,2025-02-08 21:39:40,2025-02-08 21:39:52,12.061,0.004%,
724,2025-02-08 21:40:11,2025-02-08 21:40:16,4.963,0.002%,
725,2025-02-08 21:40:26,2025-02-08 21:46:57,390.896,0.124%,
726,2025-02-08 23:14:40,2025-02-08 23:21:52,432.4,0.137%,
727,2025-02-09 00:49:17,2025-02-09 00:56:17,420.314,0.133%,
728,2025-02-09 02:23:56,2025-02-09 02:31:12,435.974,0.138%,
729,2025-02-09 03:58:38,2025-02-09 04:06:07,449.328,0.143%,
730,2025-02-09 05:33:21,2025-02-09 05:34:44,83.634,0.027%,
731,2025-02-09 05:34:45,2025-02-09 05:40:32,347.262,0.110%,
732,2025-02-09 07:08:05,2025-02-09 07:15:28,442.508,0.140%,
733,2025-02-09 08:43:19,2025-02-09 08:43:30,11.818,0.004%,
734,2025-02-09 08:43:37,2025-02-09 08:50:22,405.514,0.129%,
735,2025-02-09 10:17:50,2025-02-09 10:24:48,418.075,0.133%,
736,2025-02-09 11:52:27,2025-02-09 11:59:43,435.618,0.138%,
737,2025-02-09 13:27:07,2025-02-09 13:34:07,420.23,0.133%,
738,2025-02-09 15:01:48,2025-02-09 15:09:03,434.495,0.138%,
739,2025-02-09 16:36:31,2025-02-09 16:43:58,446.414,0.142%,
740,2025-02-09 18:11:16,2025-02-09 18:18:22,426.567,0.135%,
741,2025-02-09 19:46:27,2025-02-09 19:46:43,15.885,0.005%,
742,2025-02-09 19:46:47,2025-02-09 19:53:18,391.063,0.124%,
743,2025-02-09 21:20:59,2025-02-09 21:28:13,433.304,0.137%,
744,2025-02-09 22:55:37,2025-02-09 22:57:32,114.755,0.036%,
745,2025-02-09 22:57:32,2025-02-09 23:02:38,305.405,0.097%,
746,2025-02-10 00:30:17,2025-02-10 00:37:33,435.887,0.138%,
747,2025-02-10 02:04:59,2025-02-10 02:12:28,448.975,0.142%,
748,2025-02-10 03:39:42,2025-02-10 03:46:53,431.048,0.137%,
749,2025-02-10 05:14:27,2025-02-10 05:21:48,441.501,0.140%,
750,2025-02-10 06:49:36,2025-02-10 06:49:55,19.036,0.006%,
751,2025-02-10 06:49:57,2025-02-10 06:56:43,405.688,0.129%,
752,2025-02-10 08:24:09,2025-02-10 08:31:08,418.835,0.133%,
753,2025-02-10 09:58:47,2025-02-10 10:00:42,114.87,0.036%,
754,2025-02-10 10:00:43,2025-02-10 10:06:03,320.162,0.102%,
755,2025-02-10 11:33:28,2025-02-10 11:40:28,419.996,0.133%,
756,2025-02-10 11:40:35,2025-02-10 11:40:58,22.562,0.007%,
757,2025-02-10 13:08:09,2025-02-10 13:15:23,434.059,0.138%,
758,2025-02-10 14:42:53,2025-02-10 14:50:18,445.73,0.141%,
759,2025-02-10 16:17:37,2025-02-10 16:24:43,425.416,0.135%,
760,2025-02-10 17:52:45,2025-02-10 17:53:07,21.678,0.007%,
761,2025-02-10 17:53:07,2025-02-10 17:59:39,391.158,0.124%,
762,2025-02-10 19:27:19,2025-02-10 19:34:33,434.052,0.138%,
763,2025-02-10 21:01:58,2025-02-10 21:08:58,420.643,0.133%,
764,2025-02-10 22:36:38,2025-02-10 22:43:54,435.738,0.138%,
765,2025-02-11 00:11:20,2025-02-11 00:18:48,448.564,0.142%,
766,2025-02-11 01:46:03,2025-02-11 01:53:13,430.259,0.136%,
767,2025-02-11 03:20:48,2025-02-11 03:21:33,44.749,0.014%,
768,2025-02-11 03:21:34,2025-02-11 03:28:09,394.595,0.125%,
769,2025-02-11 04:55:54,2025-02-11 05:03:03,429.01,0.136%,
770,2025-02-11 06:30:29,2025-02-11 06:37:29,419.448,0.133%,
771,2025-02-11 08:05:08,2025-02-11 08:12:24,436.034,0.138%,
772,2025-02-11 09:39:48,2025-02-11 09:47:18,450.149,0.143%,
773,2025-02-11 11:14:30,2025-02-11 11:15:54,83.26,0.026%,
774,2025-02-11 11:15:55,2025-02-11 11:21:44,349.273,0.111%,
775,2025-02-11 12:49:14,2025-02-11 12:56:39,444.983,0.141%,
776,2025-02-11 14:23:59,2025-02-11 14:24:43,44.07,0.014%,
777,2025-02-11 14:24:46,2025-02-11 14:31:03,377.601,0.120%,
778,2025-02-11 15:59:04,2025-02-11 16:05:59,415.212,0.132%,
779,2025-02-11 17:33:39,2025-02-11 17:40:54,434.664,0.138%,
780,2025-02-11 19:08:18,2025-02-11 19:15:19,420.681,0.133%,
781,2025-02-11 20:42:59,2025-02-11 20:50:14,435.524,0.138%,
782,2025-02-11 22:17:41,2025-02-11 22:19:04,82.953,0.026%,
783,2025-02-11 22:19:06,2025-02-11 22:25:09,362.802,0.115%,
784,2025-02-11 23:52:25,2025-02-11 23:59:34,429.394,0.136%,
785,2025-02-12 01:27:10,2025-02-12 01:27:53,43.345,0.014%,
786,2025-02-12 01:27:58,2025-02-12 01:34:29,391.773,0.124%,
787,2025-02-12 03:02:13,2025-02-12 03:09:24,430.597,0.137%,
788,2025-02-12 04:36:49,2025-02-12 04:43:49,419.931,0.133%,
789,2025-02-12 06:11:28,2025-02-12 06:18:44,436.131,0.138%,
790,2025-02-12 07:46:09,2025-02-12 07:53:39,449.946,0.143%,
791,2025-02-12 09:20:51,2025-02-12 09:22:14,82.617,0.026%,
792,2025-02-12 09:22:17,2025-02-12 09:28:04,347.454,0.110%,
793,2025-02-12 10:55:35,2025-02-12 11:03:00,444.169,0.141%,
794,2025-02-12 12:30:21,2025-02-12 12:31:04,42.574,0.014%,
795,2025-02-12 12:31:09,2025-02-12 12:37:24,374.995,0.119%,
796,2025-02-12 14:05:23,2025-02-12 14:12:20,416.568,0.132%,
797,2025-02-12 15:39:59,2025-02-12 15:47:15,435.165,0.138%,
798,2025-02-12 17:14:39,2025-02-12 17:21:39,420.643,0.133%,
799,2025-02-12 18:49:20,2025-02-12 18:56:35,435.249,0.138%,
800,2025-02-12 20:24:02,2025-02-12 20:25:24,82.247,0.026%,
801,2025-02-12 20:25:27,2025-02-12 20:31:30,362.33,0.115%,
802,2025-02-12 21:58:46,2025-02-12 22:05:55,428.461,0.136%,
803,2025-02-12 23:33:32,2025-02-12 23:34:10,37.921,0.012%,
804,2025-02-12 23:34:19,2025-02-12 23:40:50,390.907,0.124%,
805,2025-02-13 01:08:33,2025-02-13 01:15:45,431.861,0.137%,
806,2025-02-13 02:43:10,2025-02-13 02:50:10,420.303,0.133%,
807,2025-02-13 04:17:49,2025-02-13 04:25:05,436.156,0.138%,
808,2025-02-13 05:52:30,2025-02-13 06:00:00,449.686,0.143%,
809,2025-02-13 07:27:13,2025-02-13 07:28:35,82.04,0.026%,
810,2025-02-13 07:28:38,2025-02-13 07:34:25,347.461,0.110%,
811,2025-02-13 09:01:57,2025-02-13 09:09:20,443.285,0.141%,
812,2025-02-13 10:36:43,2025-02-13 10:37:01,17.613,0.006%,
813,2025-02-13 10:37:29,2025-02-13 10:44:15,405.519,0.129%,
814,2025-02-13 12:11:43,2025-02-13 12:18:40,417.652,0.132%,
815,2025-02-13 13:46:20,2025-02-13 13:53:35,435.567,0.138%,
816,2025-02-13 15:20:59,2025-02-13 15:28:00,420.53,0.133%,
817,2025-02-13 16:55:40,2025-02-13 17:02:55,434.914,0.138%,
818,2025-02-13 18:30:23,2025-02-13 18:31:47,83.291,0.026%,
819,2025-02-13 18:31:48,2025-02-13 18:37:50,362.376,0.115%,
820,2025-02-13 20:05:08,2025-02-13 20:12:15,427.447,0.136%,
821,2025-02-13 21:40:22,2025-02-13 21:40:32,10.219,0.003%,
822,2025-02-13 21:40:39,2025-02-13 21:47:11,391.124,0.124%,
823,2025-02-13 23:14:52,2025-02-13 23:22:05,432.89,0.137%,
824,2025-02-14 00:49:30,2025-02-14 00:56:30,420.576,0.133%,
825,2025-02-14 02:24:10,2025-02-14 02:31:26,436.116,0.138%,
826,2025-02-14 03:58:51,2025-02-14 04:06:20,449.369,0.143%,
827,2025-02-14 05:33:34,2025-02-14 05:40:46,431.704,0.137%,
828,2025-02-14 07:08:18,2025-02-14 07:15:41,442.331,0.140%,
829,2025-02-14 08:43:30,2025-02-14 08:43:45,14.763,0.005%,
830,2025-02-14 08:43:50,2025-02-14 08:50:35,405.738,0.129%,
831,2025-02-14 10:18:02,2025-02-14 10:25:01,418.525,0.133%,
832,2025-02-14 11:52:40,2025-02-14 11:54:35,114.718,0.036%,
833,2025-02-14 11:54:35,2025-02-14 11:59:56,321.12,0.102%,
834,2025-02-14 13:27:20,2025-02-14 13:34:20,420.345,0.133%,
835,2025-02-14 15:02:01,2025-02-14 15:09:16,434.518,0.138%,
836,2025-02-14 16:36:45,2025-02-14 16:44:11,446.343,0.142%,
837,2025-02-14 18:11:29,2025-02-14 18:18:36,426.357,0.135%,
838,2025-02-14 19:46:39,2025-02-14 19:46:57,18.135,0.006%,
839,2025-02-14 19:47:00,2025-02-14 19:53:31,391.268,0.124%,
840,2025-02-14 21:21:12,2025-02-14 21:28:26,433.735,0.138%,
841,2025-02-14 22:55:50,2025-02-14 22:57:45,114.838,0.036%,
842,2025-02-14 22:57:46,2025-02-14 23:02:51,305.099,0.097%,
843,2025-02-15 00:30:30,2025-02-15 00:37:46,436.006,0.138%,
844,2025-02-15 02:05:12,2025-02-15 02:12:41,448.996,0.142%,
845,2025-02-15 03:39:55,2025-02-15 03:47:06,430.96,0.137%,
846,2025-02-15 05:14:40,2025-02-15 05:22:01,441.297,0.140%,
847,2025-02-15 06:49:48,2025-02-15 06:50:09,20.905,0.007%,
848,2025-02-15 06:50:10,2025-02-15 06:56:56,405.891,0.129%,
849,2025-02-15 08:24:22,2025-02-15 08:31:21,419.236,0.133%,
850,2025-02-15 09:59:00,2025-02-15 10:00:56,115.577,0.037%,
851,2025-02-15 10:00:56,2025-02-15 10:06:16,320.289,0.102%,
852,2025-02-15 11:33:41,2025-02-15 11:41:11,450.406,0.143%,
853,2025-02-15 13:08:22,2025-02-15 13:15:37,434.062,0.138%,
854,2025-02-15 14:43:06,2025-02-15 14:50:31,445.638,0.141%,
855,2025-02-15 16:17:51,2025-02-15 16:18:36,44.949,0.014%,
856,2025-02-15 16:18:37,2025-02-15 16:24:56,379.575,0.120%,
857,2025-02-15 17:52:57,2025-02-15 17:59:52,414.278,0.131%,
858,2025-02-15 19:27:32,2025-02-15 19:34:47,434.436,0.138%,
859,2025-02-15 21:02:11,2025-02-15 21:09:11,420.844,0.133%,
860,2025-02-15 22:36:51,2025-02-15 22:44:07,435.835,0.138%,
861,2025-02-16 00:11:33,2025-02-16 00:12:56,83.348,0.026%,
862,2025-02-16 00:12:57,2025-02-16 00:19:02,364.566,0.116%,
863,2025-02-16 01:46:17,2025-02-16 01:53:27,430.141,0.136%,
864,2025-02-16 03:21:02,2025-02-16 03:21:46,44.279,0.014%,
865,2025-02-16 03:21:48,2025-02-16 03:28:22,393.85,0.125%,
866,2025-02-16 04:56:07,2025-02-16 05:03:17,429.762,0.136%,
867,2025-02-16 06:30:42,2025-02-16 06:37:42,419.8,0.133%,
868,2025-02-16 08:05:21,2025-02-16 08:12:37,436.238,0.138%,
869,2025-02-16 09:40:01,2025-02-16 09:47:32,450.241,0.143%,
870,2025-02-16 11:14:44,2025-02-16 11:16:07,83.051,0.026%,
871,2025-02-16 11:16:09,2025-02-16 11:21:57,348.579,0.111%,
872,2025-02-16 12:49:27,2025-02-16 12:56:52,444.869,0.141%,
873,2025-02-16 14:24:13,2025-02-16 14:24:56,43.57,0.014%,
874,2025-02-16 14:25:00,2025-02-16 14:31:17,376.737,0.120%,
875,2025-02-16 15:59:16,2025-02-16 16:06:12,415.886,0.132%,
876,2025-02-16 17:33:52,2025-02-16 17:41:07,435.007,0.138%,
877,2025-02-16 19:08:31,2025-02-16 19:15:32,420.857,0.134%,
878,2025-02-16 20:43:12,2025-02-16 20:50:27,435.6,0.138%,
879,2025-02-16 22:17:54,2025-02-16 22:19:17,82.725,0.026%,
880,2025-02-16 22:19:20,2025-02-16 22:25:22,362.426,0.115%,
881,2025-02-16 23:52:38,2025-02-16 23:59:47,429.257,0.136%,
882,2025-02-17 01:27:24,2025-02-17 01:28:06,42.818,0.014%,
883,2025-02-17 01:28:12,2025-02-17 01:34:43,390.885,0.124%,
884,2025-02-17 03:02:26,2025-02-17 03:09:37,431.224,0.137%,
885,2025-02-17 04:37:02,2025-02-17 04:44:02,420.247,0.133%,
886,2025-02-17 06:11:41,2025-02-17 06:18:58,436.308,0.138%,
887,2025-02-17 07:46:22,2025-02-17 07:53:52,450.019,0.143%,
888,2025-02-17 09:21:05,2025-02-17 09:22:27,82.365,0.026%,
889,2025-02-17 09:22:30,2025-02-17 09:28:18,347.636,0.110%,
890,2025-02-17 10:55:49,2025-02-17 11:03:13,444.033,0.141%,
891,2025-02-17 12:30:35,2025-02-17 12:31:04,29.76,0.009%,
892,2025-02-17 12:31:22,2025-02-17 12:37:37,375.24,0.119%,
893,2025-02-17 12:37:56,2025-02-17 12:38:07,11.637,0.004%,
894,2025-02-17 14:05:36,2025-02-17 14:12:33,417.136,0.132%,
895,2025-02-17 15:40:12,2025-02-17 15:47:28,435.475,0.138%,
896,2025-02-17 17:14:52,2025-02-17 17:21:52,420.794,0.133%,
897,2025-02-17 18:49:33,2025-02-17 18:56:48,435.306,0.138%,
898,2025-02-17 20:24:15,2025-02-17 20:25:37,81.973,0.026%,
899,2025-02-17 20:25:40,2025-02-17 20:31:43,362.51,0.115%,
900,2025-02-17 21:58:59,2025-02-17 22:06:08,428.295,0.136%,
901,2025-02-17 23:33:45,2025-02-17 23:33:53,7.989,0.003%,
902,2025-02-17 23:34:32,2025-02-17 23:41:03,391.153,0.124%,
903,2025-02-18 01:08:45,2025-02-18 01:15:58,432.399,0.137%,
904,2025-02-18 02:43:22,2025-02-18 02:50:23,420.585,0.133%,
905,2025-02-18 04:18:02,2025-02-18 04:25:18,436.311,0.138%,
906,2025-02-18 05:52:43,2025-02-18 06:00:13,449.74,0.143%,
907,2025-02-18 07:27:26,2025-02-18 07:28:49,82.931,0.026%,
908,2025-02-18 07:28:51,2025-02-18 07:34:38,347.622,0.110%,
909,2025-02-18 09:02:10,2025-02-18 09:09:33,443.124,0.141%,
910,2025-02-18 10:37:26,2025-02-18 10:37:34,8.294,0.003%,
911,2025-02-18 10:37:42,2025-02-18 10:44:28,405.757,0.129%,
912,2025-02-18 12:11:55,2025-02-18 12:18:53,418.141,0.133%,
913,2025-02-18 13:46:33,2025-02-18 13:53:48,435.838,0.138%,
914,2025-02-18 15:21:12,2025-02-18 15:28:13,420.659,0.133%,
915,2025-02-18 16:55:54,2025-02-18 17:03:09,434.951,0.138%,
916,2025-02-18 18:30:37,2025-02-18 18:32:01,84.028,0.027%,
917,2025-02-18 18:32:01,2025-02-18 18:38:03,362.537,0.115%,
918,2025-02-18 20:05:21,2025-02-18 20:12:28,427.261,0.136%,
919,2025-02-18 21:40:34,2025-02-18 21:40:47,13.527,0.004%,
920,2025-02-18 21:40:52,2025-02-18 21:47:24,391.346,0.124%,
921,2025-02-18 23:15:05,2025-02-18 23:22:19,433.358,0.137%,
922,2025-02-19 00:49:43,2025-02-19 00:56:44,420.82,0.133%,
923,2025-02-19 02:24:23,2025-02-19 02:31:39,436.248,0.138%,
924,2025-02-19 03:59:04,2025-02-19 04:06:34,449.402,0.143%,
925,2025-02-19 05:33:47,2025-02-19 05:40:59,431.627,0.137%,
926,2025-02-19 07:08:32,2025-02-19 07:15:54,442.145,0.140%,
927,2025-02-19 08:43:42,2025-02-19 08:43:59,17.166,0.005%,
928,2025-02-19 08:44:03,2025-02-19 08:50:49,405.953,0.129%,
929,2025-02-19 10:18:15,2025-02-19 10:25:14,418.957,0.133%,
930,2025-02-19 11:52:53,2025-02-19 11:54:48,114.804,0.036%,
931,2025-02-19 11:54:48,2025-02-19 12:00:09,320.531,0.102%,
932,2025-02-19 13:27:33,2025-02-19 13:34:33,420.448,0.133%,
933,2025-02-19 15:02:15,2025-02-19 15:09:29,434.535,0.138%,
934,2025-02-19 16:36:58,2025-02-19 16:44:24,446.265,0.142%,
935,2025-02-19 18:11:43,2025-02-19 18:18:49,426.142,0.135%,
936,2025-02-19 19:46:51,2025-02-19 19:47:11,20.092,0.006%,
937,2025-02-19 19:47:13,2025-02-19 19:53:44,391.466,0.124%,
938,2025-02-19 21:21:25,2025-02-19 21:28:39,434.15,0.138%,
939,2025-02-19 22:56:03,2025-02-19 22:57:58,115.147,0.037%,
940,2025-02-19 22:57:59,2025-02-19 23:03:04,305.212,0.097%,
941,2025-02-20 00:30:43,2025-02-20 00:37:59,436.117,0.138%,
942,2025-02-20 02:05:25,2025-02-20 02:12:54,449.01,0.142%,
943,2025-02-20 03:40:08,2025-02-20 03:47:19,430.857,0.137%,
944,2025-02-20 05:14:53,2025-02-20 05:15:39,45.149,0.014%,
945,2025-02-20 05:15:39,2025-02-20 05:22:15,395.685,0.126%,
946,2025-02-20 06:50:00,2025-02-20 06:50:23,22.587,0.007%,
947,2025-02-20 06:50:23,2025-02-20 06:57:09,406.084,0.129%,
948,2025-02-20 08:24:35,2025-02-20 08:31:35,419.616,0.133%,
949,2025-02-20 09:59:13,2025-02-20 10:06:30,436.31,0.138%,
950,2025-02-20 11:33:54,2025-02-20 11:41:24,450.511,0.143%,
951,2025-02-20 13:08:36,2025-02-20 13:09:59,83.435,0.027%,
952,2025-02-20 13:09:59,2025-02-20 13:15:50,350.346,0.111%,
953,2025-02-20 14:43:19,2025-02-20 14:50:45,445.539,0.141%,
954,2025-02-20 16:18:04,2025-02-20 16:18:49,44.497,0.014%,
955,2025-02-20 16:18:50,2025-02-20 16:25:09,378.844,0.120%,
956,2025-02-20 17:53:10,2025-02-20 18:00:05,415.05,0.132%,
957,2025-02-20 19:27:45,2025-02-20 19:35:00,434.804,0.138%,
958,2025-02-20 21:02:24,2025-02-20 21:09:25,421.037,0.134%,
959,2025-02-20 22:37:04,2025-02-20 22:44:20,435.925,0.138%,
960,2025-02-21 00:11:46,2025-02-21 00:13:09,83.147,0.026%,
961,2025-02-21 00:13:11,2025-02-21 00:19:15,363.9,0.115%,
962,2025-02-21 01:46:30,2025-02-21 01:53:40,430.02,0.136%,
963,2025-02-21 03:21:15,2025-02-21 03:21:59,43.799,0.014%,
964,2025-02-21 03:22:02,2025-02-21 03:28:35,393.042,0.125%,
965,2025-02-21 04:56:19,2025-02-21 05:03:30,430.461,0.137%,
966,2025-02-21 06:30:55,2025-02-21 06:37:55,420.139,0.133%,
967,2025-02-21 08:05:34,2025-02-21 08:12:50,436.431,0.138%,
968,2025-02-21 09:40:15,2025-02-21 09:47:45,450.327,0.143%,
969,2025-02-21 11:14:57,2025-02-21 11:16:20,82.831,0.026%,
970,2025-02-21 11:16:22,2025-02-21 11:22:10,347.825,0.110%,
971,2025-02-21 12:49:41,2025-02-21 12:57:05,444.748,0.141%,
972,2025-02-21 14:24:26,2025-02-21 14:24:57,30.604,0.010%,
973,2025-02-21 14:25:14,2025-02-21 14:31:30,375.309,0.119%,
974,2025-02-21 15:59:29,2025-02-21 16:06:25,416.515,0.132%,
975,2025-02-21 17:34:05,2025-02-21 17:41:20,435.336,0.138%,
976,2025-02-21 19:08:44,2025-02-21 19:15:45,421.024,0.134%,
977,2025-02-21 20:43:25,2025-02-21 20:50:41,435.67,0.138%,
978,2025-02-21 22:18:07,2025-02-21 22:19:30,82.48,0.026%,
979,2025-02-21 22:19:33,2025-02-21 22:25:35,362.617,0.115%,
980,2025-02-21 23:52:51,2025-02-22 00:00:00,429.112,0.136%,
981,2025-02-22 01:27:37,2025-02-22 01:27:45,7.652,0.002%,
982,2025-02-22 01:28:25,2025-02-22 01:34:56,391.15,0.124%,
983,2025-02-22 03:02:39,2025-02-22 03:09:50,431.809,0.137%,
984,2025-02-22 04:37:15,2025-02-22 04:44:16,420.548,0.133%,
985,2025-02-22 06:11:54,2025-02-22 06:19:11,436.477,0.138%,
986,2025-02-22 07:46:35,2025-02-22 07:54:05,450.085,0.143%,
987,2025-02-22 09:21:18,2025-02-22 09:22:40,82.098,0.026%,
988,2025-02-22 09:22:43,2025-02-22 09:28:31,347.809,0.110%,
989,2025-02-22 10:56:02,2025-02-22 11:03:26,443.889,0.141%,
990,2025-02-22 12:31:35,2025-02-22 12:38:21,405.747,0.129%,
991,2025-02-22 14:05:48,2025-02-22 14:12:46,417.676,0.132%,
992,2025-02-22 15:40:25,2025-02-22 15:47:41,435.769,0.138%,
993,2025-02-22 17:15:05,2025-02-22 17:22:06,420.938,0.134%,
994,2025-02-22 18:49:46,2025-02-22 18:57:01,435.356,0.138%,
995,2025-02-22 20:24:29,2025-02-22 20:25:51,82.542,0.026%,
996,2025-02-22 20:25:53,2025-02-22 20:31:56,362.682,0.115%,
997,2025-02-22 21:59:13,2025-02-22 22:06:21,428.126,0.136%,
998,2025-02-22 23:34:30,2025-02-22 23:34:35,5.713,0.002%,
999,2025-02-22 23:34:45,2025-02-22 23:41:16,391.395,0.124%,
1000,2025-02-23 01:08:58,2025-02-23 01:16:11,432.905,0.137%,
1001,2025-02-23 02:43:35,2025-02-23 02:50:36,420.852,0.134%,
1002,2025-02-23 04:18:15,2025-02-23 04:25:31,436.46,0.138%,
1003,2025-02-23 05:52:56,2025-02-23 06:00:26,449.786,0.143%,
1004,2025-02-23 07:27:39,2025-02-23 07:29:03,83.707,0.027%,
1005,2025-02-23 07:29:04,2025-02-23 07:34:51,347.776,0.110%,
