3UCubedIntegratedSim/Reports & Plots/North Cusp/NorthCusp CSV/NorthCusp_Sat1.csv

"Number","Coverage Start (UTCG)","Coverage End (UTCG)","Duration (sec)","Percent"
1,1 Jan 2025 16:15:54.616,1 Jan 2025 16:22:08.460,373.845,0.001185
2,1 Jan 2025 17:50:46.997,1 Jan 2025 17:56:50.878,363.881,0.001154
3,1 Jan 2025 19:25:25.735,1 Jan 2025 19:31:33.185,367.450,0.001165
4,1 Jan 2025 21:00:06.387,1 Jan 2025 21:06:15.370,368.983,0.001170
5,1 Jan 2025 22:34:48.587,1 Jan 2025 22:36:11.557,82.970,0.000263
6,1 Jan 2025 22:36:13.828,1 Jan 2025 22:40:57.415,283.587,0.000899
7,2 Jan 2025 00:09:32.295,2 Jan 2025 00:15:39.297,367.002,0.001164
8,2 Jan 2025 01:44:17.761,2 Jan 2025 01:45:01.144,43.383,0.000138
9,2 Jan 2025 01:45:05.183,2 Jan 2025 01:50:20.977,315.794,0.001001
10,2 Jan 2025 03:19:05.846,2 Jan 2025 03:25:18.979,373.132,0.001183
11,2 Jan 2025 04:53:57.041,2 Jan 2025 05:00:01.382,364.341,0.001155
12,2 Jan 2025 06:28:35.999,2 Jan 2025 06:34:43.680,367.681,0.001166
13,2 Jan 2025 08:03:16.810,2 Jan 2025 08:09:25.852,369.041,0.001170
14,2 Jan 2025 09:37:59.154,2 Jan 2025 09:39:21.789,82.634,0.000262
15,2 Jan 2025 09:39:24.725,2 Jan 2025 09:44:07.879,283.154,0.000898
16,2 Jan 2025 11:12:43.016,2 Jan 2025 11:18:49.741,366.725,0.001163
17,2 Jan 2025 12:47:28.679,2 Jan 2025 12:48:11.295,42.616,0.000135
18,2 Jan 2025 12:48:16.570,2 Jan 2025 12:53:31.401,314.831,0.000998
19,2 Jan 2025 14:22:17.136,2 Jan 2025 14:28:29.487,372.351,0.001181
20,2 Jan 2025 15:57:07.116,2 Jan 2025 16:03:11.885,364.769,0.001157
21,2 Jan 2025 17:31:46.281,2 Jan 2025 17:37:54.169,367.888,0.001167
22,2 Jan 2025 19:06:27.249,2 Jan 2025 19:12:36.328,369.079,0.001170
23,2 Jan 2025 20:41:09.736,2 Jan 2025 20:42:32.001,82.265,0.000261
24,2 Jan 2025 20:42:34.991,2 Jan 2025 20:47:18.345,283.354,0.000899
25,2 Jan 2025 22:15:53.757,2 Jan 2025 22:22:00.188,366.430,0.001162
26,2 Jan 2025 23:50:39.625,2 Jan 2025 23:51:21.426,41.802,0.000133
27,2 Jan 2025 23:51:26.730,2 Jan 2025 23:56:41.825,315.095,0.000999
28,3 Jan 2025 01:25:28.484,3 Jan 2025 01:31:40.002,371.518,0.001178
29,3 Jan 2025 03:00:17.210,3 Jan 2025 03:06:22.386,365.176,0.001158
30,3 Jan 2025 04:34:56.578,3 Jan 2025 04:41:04.659,368.081,0.001167
31,3 Jan 2025 06:09:37.699,3 Jan 2025 06:15:46.805,369.106,0.001170
32,3 Jan 2025 07:44:20.331,3 Jan 2025 07:45:42.304,81.972,0.000260
33,3 Jan 2025 07:45:45.273,3 Jan 2025 07:50:28.804,283.531,0.000899
34,3 Jan 2025 09:19:04.512,3 Jan 2025 09:25:10.633,366.121,0.001161
35,3 Jan 2025 10:53:50.598,3 Jan 2025 10:54:31.533,40.935,0.000130
36,3 Jan 2025 10:54:36.907,3 Jan 2025 10:59:52.246,315.339,0.001000
37,3 Jan 2025 12:28:39.905,3 Jan 2025 12:34:50.512,370.608,0.001175
38,3 Jan 2025 14:03:27.333,3 Jan 2025 14:09:32.887,365.554,0.001159
39,3 Jan 2025 15:38:06.890,3 Jan 2025 15:44:15.149,368.259,0.001168
40,3 Jan 2025 17:12:48.165,3 Jan 2025 17:18:57.283,369.118,0.001170
41,3 Jan 2025 18:47:30.941,3 Jan 2025 18:48:54.180,83.238,0.000264
42,3 Jan 2025 18:48:55.567,3 Jan 2025 18:53:39.267,283.700,0.000900
43,3 Jan 2025 20:22:15.284,3 Jan 2025 20:28:21.075,365.791,0.001160
44,3 Jan 2025 21:57:01.595,3 Jan 2025 21:57:41.615,40.020,0.000127
45,3 Jan 2025 21:57:47.104,3 Jan 2025 22:03:02.664,315.560,0.001001
46,3 Jan 2025 23:31:51.413,3 Jan 2025 23:38:01.025,369.611,0.001172
47,4 Jan 2025 01:06:37.472,4 Jan 2025 01:12:43.386,365.914,0.001160
48,4 Jan 2025 02:41:17.218,4 Jan 2025 02:47:25.638,368.419,0.001168
49,4 Jan 2025 04:15:58.645,4 Jan 2025 04:22:07.757,369.112,0.001170
50,4 Jan 2025 05:50:41.566,4 Jan 2025 05:52:05.853,84.288,0.000267
51,4 Jan 2025 05:52:05.874,4 Jan 2025 05:56:49.723,283.848,0.000900
52,4 Jan 2025 07:25:26.074,4 Jan 2025 07:31:31.513,365.439,0.001159
53,4 Jan 2025 09:00:12.623,4 Jan 2025 09:00:52.571,39.948,0.000127
54,4 Jan 2025 09:00:57.317,4 Jan 2025 09:06:13.082,315.765,0.001001
55,4 Jan 2025 10:35:03.031,4 Jan 2025 10:41:11.531,368.500,0.001169
56,4 Jan 2025 12:09:47.640,4 Jan 2025 12:15:53.887,366.247,0.001161
57,4 Jan 2025 13:44:27.564,4 Jan 2025 13:50:36.125,368.561,0.001169
58,4 Jan 2025 15:19:09.138,4 Jan 2025 15:25:18.228,369.090,0.001170
59,4 Jan 2025 16:53:52.205,4 Jan 2025 17:00:00.180,367.976,0.001167
60,4 Jan 2025 18:28:36.882,4 Jan 2025 18:34:41.951,365.069,0.001158
61,4 Jan 2025 20:03:23.682,4 Jan 2025 20:04:04.765,41.083,0.000130
62,4 Jan 2025 20:04:07.548,4 Jan 2025 20:09:23.495,315.947,0.001002
63,4 Jan 2025 21:38:14.787,4 Jan 2025 21:44:22.040,367.252,0.001165
64,4 Jan 2025 23:12:57.824,4 Jan 2025 23:14:52.657,114.833,0.000364
65,4 Jan 2025 23:14:53.473,4 Jan 2025 23:19:04.382,250.909,0.000796
66,5 Jan 2025 00:47:37.924,5 Jan 2025 00:53:46.609,368.684,0.001169
67,5 Jan 2025 02:22:19.645,5 Jan 2025 02:28:28.699,369.054,0.001170
68,5 Jan 2025 03:57:02.859,5 Jan 2025 04:03:10.636,367.777,0.001166
69,5 Jan 2025 05:31:47.713,5 Jan 2025 05:37:52.383,364.671,0.001156
70,5 Jan 2025 07:06:34.779,5 Jan 2025 07:07:16.658,41.879,0.000133
71,5 Jan 2025 07:07:17.794,5 Jan 2025 07:12:33.907,316.112,0.001002
72,5 Jan 2025 08:41:26.738,5 Jan 2025 08:47:32.546,365.808,0.001160
73,5 Jan 2025 10:16:08.029,5 Jan 2025 10:18:03.543,115.514,0.000366
74,5 Jan 2025 10:18:03.825,5 Jan 2025 10:22:14.881,251.056,0.000796
75,5 Jan 2025 11:50:48.300,5 Jan 2025 11:56:57.092,368.792,0.001169
76,5 Jan 2025 13:25:30.166,5 Jan 2025 13:31:39.172,369.006,0.001170
77,5 Jan 2025 15:00:13.528,5 Jan 2025 15:06:21.089,367.562,0.001166
78,5 Jan 2025 16:34:58.559,5 Jan 2025 16:35:43.538,44.980,0.000143
79,5 Jan 2025 16:35:44.135,5 Jan 2025 16:41:02.819,318.684,0.001011
80,5 Jan 2025 18:09:45.909,5 Jan 2025 18:15:44.311,358.402,0.001136
81,5 Jan 2025 19:44:38.990,5 Jan 2025 19:50:43.053,364.062,0.001154
82,5 Jan 2025 21:19:18.252,5 Jan 2025 21:25:25.374,367.122,0.001164
83,5 Jan 2025 22:53:58.690,5 Jan 2025 23:00:07.576,368.886,0.001170
84,6 Jan 2025 00:28:40.701,6 Jan 2025 00:30:04.063,83.362,0.000264
85,6 Jan 2025 00:30:04.658,6 Jan 2025 00:34:49.638,284.980,0.000904
86,6 Jan 2025 02:03:24.213,6 Jan 2025 02:09:31.541,367.328,0.001165
87,6 Jan 2025 03:38:09.429,6 Jan 2025 03:38:53.742,44.312,0.000141
88,6 Jan 2025 03:38:55.725,6 Jan 2025 03:44:13.252,317.527,0.001007
89,6 Jan 2025 05:12:57.081,6 Jan 2025 05:18:54.716,357.635,0.001134
90,6 Jan 2025 06:47:49.824,6 Jan 2025 06:53:53.560,363.735,0.001153
91,6 Jan 2025 08:22:28.492,6 Jan 2025 08:28:35.867,367.376,0.001165
92,6 Jan 2025 09:57:09.094,6 Jan 2025 10:03:18.057,368.962,0.001170
93,6 Jan 2025 11:31:51.250,6 Jan 2025 11:33:14.316,83.065,0.000263
94,6 Jan 2025 11:33:16.177,6 Jan 2025 11:38:00.104,283.927,0.000900
95,6 Jan 2025 13:06:34.912,6 Jan 2025 13:12:41.991,367.079,0.001164
96,6 Jan 2025 14:41:20.318,6 Jan 2025 14:42:03.927,43.608,0.000138
97,6 Jan 2025 14:42:07.452,6 Jan 2025 14:47:23.678,316.226,0.001003
98,6 Jan 2025 16:16:08.298,6 Jan 2025 16:22:05.118,356.820,0.001131
99,6 Jan 2025 17:50:59.859,6 Jan 2025 17:57:04.061,364.202,0.001155
100,6 Jan 2025 19:25:38.751,6 Jan 2025 19:31:46.363,367.612,0.001166
101,6 Jan 2025 21:00:19.513,6 Jan 2025 21:06:28.536,369.023,0.001170
102,6 Jan 2025 22:35:01.815,6 Jan 2025 22:36:24.553,82.737,0.000262
103,6 Jan 2025 22:36:27.479,6 Jan 2025 22:41:10.571,283.092,0.000898
104,7 Jan 2025 00:09:45.627,7 Jan 2025 00:15:52.441,366.814,0.001163
105,7 Jan 2025 01:44:31.231,7 Jan 2025 01:45:14.085,42.854,0.000136
106,7 Jan 2025 01:45:19.360,7 Jan 2025 01:50:34.106,314.746,0.000998
107,7 Jan 2025 03:19:19.571,7 Jan 2025 03:25:15.518,355.948,0.001129
108,7 Jan 2025 04:54:09.922,7 Jan 2025 05:00:14.565,364.643,0.001156
109,7 Jan 2025 06:28:49.027,7 Jan 2025 06:34:56.855,367.828,0.001166
110,7 Jan 2025 08:03:29.946,7 Jan 2025 08:09:39.017,369.071,0.001170
111,7 Jan 2025 09:38:12.390,7 Jan 2025 09:39:34.772,82.382,0.000261
112,7 Jan 2025 09:39:37.742,7 Jan 2025 09:44:21.035,283.293,0.000898
113,7 Jan 2025 11:12:56.363,7 Jan 2025 11:19:02.884,366.520,0.001162
114,7 Jan 2025 12:47:42.168,7 Jan 2025 12:48:24.223,42.055,0.000133
115,7 Jan 2025 12:48:29.512,7 Jan 2025 12:53:44.529,315.017,0.000999
116,7 Jan 2025 14:22:30.898,7 Jan 2025 14:28:25.910,355.013,0.001126
117,7 Jan 2025 15:57:20.014,7 Jan 2025 16:03:25.066,365.052,0.001158
118,7 Jan 2025 17:31:59.320,7 Jan 2025 17:38:07.342,368.023,0.001167
119,7 Jan 2025 19:06:40.396,7 Jan 2025 19:12:49.492,369.097,0.001170
120,7 Jan 2025 20:41:22.981,7 Jan 2025 20:42:44.972,81.991,0.000260
121,7 Jan 2025 20:42:48.019,7 Jan 2025 20:47:31.499,283.480,0.000899
122,7 Jan 2025 22:16:07.113,7 Jan 2025 22:22:13.328,366.216,0.001161
123,7 Jan 2025 23:50:53.128,7 Jan 2025 23:51:34.337,41.210,0.000131
124,7 Jan 2025 23:51:39.681,7 Jan 2025 23:56:54.951,315.269,0.001000
125,8 Jan 2025 01:25:42.293,8 Jan 2025 01:31:36.306,354.013,0.001123
126,8 Jan 2025 03:00:30.127,8 Jan 2025 03:06:35.567,365.441,0.001159
127,8 Jan 2025 04:35:09.628,8 Jan 2025 04:41:17.832,368.204,0.001168
128,8 Jan 2025 06:09:50.855,8 Jan 2025 06:15:59.969,369.114,0.001170
129,8 Jan 2025 07:44:33.586,8 Jan 2025 07:45:56.460,82.874,0.000263
130,8 Jan 2025 07:45:58.310,8 Jan 2025 07:50:41.957,283.647,0.000899
131,8 Jan 2025 09:19:17.879,8 Jan 2025 09:25:23.773,365.894,0.001160
132,8 Jan 2025 10:54:04.117,8 Jan 2025 10:54:44.427,40.310,0.000128
133,8 Jan 2025 10:54:49.876,8 Jan 2025 11:00:05.370,315.494,0.001000
134,8 Jan 2025 12:28:53.775,8 Jan 2025 12:34:46.696,352.921,0.001119
135,8 Jan 2025 14:03:40.264,8 Jan 2025 14:09:46.067,365.803,0.001160
136,8 Jan 2025 15:38:19.951,8 Jan 2025 15:44:28.320,368.370,0.001168
137,8 Jan 2025 17:13:01.330,8 Jan 2025 17:19:10.446,369.116,0.001170
138,8 Jan 2025 18:47:44.206,8 Jan 2025 18:49:08.188,83.982,0.000266
139,8 Jan 2025 18:49:08.612,8 Jan 2025 18:53:52.418,283.806,0.000900
140,8 Jan 2025 20:22:28.663,8 Jan 2025 20:28:34.209,365.546,0.001159
141,8 Jan 2025 21:57:15.137,8 Jan 2025 21:57:54.633,39.496,0.000125
142,8 Jan 2025 21:58:00.084,8 Jan 2025 22:03:15.786,315.702,0.001001
143,8 Jan 2025 23:32:05.357,8 Jan 2025 23:37:57.081,351.724,0.001115
144,9 Jan 2025 01:06:50.422,9 Jan 2025 01:12:56.565,366.143,0.001161
145,9 Jan 2025 02:41:30.290,9 Jan 2025 02:47:38.808,368.518,0.001169
146,9 Jan 2025 04:16:11.819,9 Jan 2025 04:22:20.918,369.099,0.001170
147,9 Jan 2025 05:50:54.840,9 Jan 2025 05:57:02.873,368.033,0.001167
148,9 Jan 2025 07:25:39.465,9 Jan 2025 07:31:44.649,365.184,0.001158
149,9 Jan 2025 09:00:26.187,9 Jan 2025 09:01:06.964,40.777,0.000129
150,9 Jan 2025 09:01:10.308,9 Jan 2025 09:06:26.202,315.894,0.001002
151,9 Jan 2025 10:35:17.064,9 Jan 2025 10:41:07.463,350.399,0.001111
152,9 Jan 2025 12:10:00.600,9 Jan 2025 12:11:55.396,114.795,0.000364
153,9 Jan 2025 12:11:56.129,9 Jan 2025 12:16:07.065,250.936,0.000796
154,9 Jan 2025 13:44:40.646,9 Jan 2025 13:50:49.295,368.649,0.001169
155,9 Jan 2025 15:19:22.321,9 Jan 2025 15:25:31.388,369.067,0.001170
156,9 Jan 2025 16:54:05.490,9 Jan 2025 17:00:13.327,367.838,0.001166
157,9 Jan 2025 18:28:50.289,9 Jan 2025 18:34:55.084,364.796,0.001157
158,9 Jan 2025 20:03:37.272,9 Jan 2025 20:04:18.934,41.662,0.000132
159,9 Jan 2025 20:04:20.550,9 Jan 2025 20:09:36.613,316.063,0.001002
160,9 Jan 2025 21:38:28.945,9 Jan 2025 21:44:17.837,348.893,0.001106
161,9 Jan 2025 21:44:31.373,9 Jan 2025 21:44:35.224,3.851,0.000012
162,9 Jan 2025 23:13:10.797,9 Jan 2025 23:15:05.884,115.087,0.000365
163,9 Jan 2025 23:15:06.549,9 Jan 2025 23:19:17.559,251.010,0.000796
164,10 Jan 2025 00:47:51.016,10 Jan 2025 00:53:59.777,368.761,0.001169
165,10 Jan 2025 02:22:32.838,10 Jan 2025 02:28:41.858,369.020,0.001170
166,10 Jan 2025 03:57:16.154,10 Jan 2025 04:03:23.783,367.629,0.001166
167,10 Jan 2025 05:32:01.130,10 Jan 2025 05:32:46.306,45.176,0.000143
168,10 Jan 2025 05:32:46.500,10 Jan 2025 05:38:05.518,319.018,0.001012
169,10 Jan 2025 07:06:48.389,10 Jan 2025 07:07:30.684,42.295,0.000134
170,10 Jan 2025 07:07:30.807,10 Jan 2025 07:12:47.022,316.215,0.001003
171,10 Jan 2025 08:41:41.087,10 Jan 2025 08:47:28.215,347.128,0.001101
172,10 Jan 2025 08:47:33.915,10 Jan 2025 08:47:45.730,11.815,0.000037
173,10 Jan 2025 10:16:21.015,10 Jan 2025 10:22:28.057,367.042,0.001164
174,10 Jan 2025 11:51:01.402,10 Jan 2025 11:57:10.259,368.858,0.001170
175,10 Jan 2025 13:25:43.369,10 Jan 2025 13:27:06.815,83.447,0.000265
176,10 Jan 2025 13:27:07.044,10 Jan 2025 13:31:52.330,285.286,0.000905
177,10 Jan 2025 15:00:26.833,10 Jan 2025 15:06:34.235,367.402,0.001165
178,10 Jan 2025 16:35:11.991,10 Jan 2025 16:35:56.517,44.527,0.000141
179,10 Jan 2025 16:35:58.056,10 Jan 2025 16:41:15.949,317.894,0.001008
180,10 Jan 2025 18:09:59.548,10 Jan 2025 18:15:57.428,357.879,0.001135
181,10 Jan 2025 19:44:52.650,10 Jan 2025 19:50:56.235,363.585,0.001153
182,10 Jan 2025 21:19:31.249,10 Jan 2025 21:25:38.549,367.301,0.001165
183,10 Jan 2025 22:54:11.802,10 Jan 2025 23:00:20.742,368.940,0.001170
184,11 Jan 2025 00:28:53.913,11 Jan 2025 00:30:17.073,83.160,0.000264
185,11 Jan 2025 00:30:18.532,11 Jan 2025 00:35:02.794,284.263,0.000901
186,11 Jan 2025 02:03:37.529,11 Jan 2025 02:09:44.684,367.156,0.001164
187,11 Jan 2025 03:38:22.875,11 Jan 2025 03:39:06.706,43.830,0.000139
188,11 Jan 2025 03:39:09.737,11 Jan 2025 03:44:26.382,316.645,0.001004
189,11 Jan 2025 05:13:10.752,11 Jan 2025 05:19:07.828,357.075,0.001132
190,11 Jan 2025 06:48:02.680,11 Jan 2025 06:54:06.742,364.062,0.001154
191,11 Jan 2025 08:22:41.502,11 Jan 2025 08:28:49.041,367.539,0.001165
192,11 Jan 2025 09:57:22.216,11 Jan 2025 10:03:31.222,369.006,0.001170
193,11 Jan 2025 11:32:04.471,11 Jan 2025 11:33:27.316,82.845,0.000263
194,11 Jan 2025 11:33:30.126,11 Jan 2025 11:38:13.259,283.133,0.000898
195,11 Jan 2025 13:06:48.238,11 Jan 2025 13:12:55.133,366.895,0.001163
196,11 Jan 2025 14:41:33.781,11 Jan 2025 14:42:16.870,43.089,0.000137
197,11 Jan 2025 14:42:21.589,11 Jan 2025 14:47:36.806,315.217,0.001000
198,11 Jan 2025 16:16:22.006,11 Jan 2025 16:22:18.228,356.222,0.001130
199,11 Jan 2025 17:51:12.732,11 Jan 2025 17:57:17.243,364.511,0.001156
200,11 Jan 2025 19:25:51.773,11 Jan 2025 19:31:59.536,367.763,0.001166
201,11 Jan 2025 21:00:32.644,11 Jan 2025 21:06:41.700,369.056,0.001170
202,11 Jan 2025 22:35:15.045,11 Jan 2025 22:36:37.539,82.493,0.000262
203,11 Jan 2025 22:36:40.494,11 Jan 2025 22:41:23.725,283.231,0.000898
204,12 Jan 2025 00:09:58.968,12 Jan 2025 00:16:05.582,366.614,0.001163
205,12 Jan 2025 01:44:44.710,12 Jan 2025 01:45:27.015,42.305,0.000134
206,12 Jan 2025 01:45:32.295,12 Jan 2025 01:50:47.232,314.937,0.000999
207,12 Jan 2025 03:19:33.315,12 Jan 2025 03:25:28.625,355.310,0.001127
208,12 Jan 2025 04:54:22.818,12 Jan 2025 05:00:27.745,364.927,0.001157
209,12 Jan 2025 06:29:02.061,12 Jan 2025 06:35:10.027,367.966,0.001167
210,12 Jan 2025 08:03:43.087,12 Jan 2025 08:09:52.180,369.093,0.001170
211,12 Jan 2025 09:38:25.631,12 Jan 2025 09:39:47.745,82.115,0.000260
212,12 Jan 2025 09:39:50.765,12 Jan 2025 09:44:34.187,283.422,0.000899
213,12 Jan 2025 11:13:09.713,12 Jan 2025 11:19:16.024,366.310,0.001162
214,12 Jan 2025 12:47:55.663,12 Jan 2025 12:48:37.137,41.474,0.000132
215,12 Jan 2025 12:48:42.462,12 Jan 2025 12:53:57.653,315.191,0.000999
216,12 Jan 2025 14:22:44.690,12 Jan 2025 14:28:39.014,354.324,0.001124
217,12 Jan 2025 15:57:32.922,12 Jan 2025 16:03:38.246,365.324,0.001158
218,12 Jan 2025 17:32:12.364,12 Jan 2025 17:38:20.514,368.149,0.001167
219,12 Jan 2025 19:06:53.544,12 Jan 2025 19:13:02.654,369.110,0.001170
220,12 Jan 2025 20:41:36.232,12 Jan 2025 20:42:58.723,82.491,0.000262
221,12 Jan 2025 20:43:01.051,12 Jan 2025 20:47:44.650,283.599,0.000899
222,12 Jan 2025 22:16:20.475,12 Jan 2025 22:22:26.467,365.992,0.001161
223,12 Jan 2025 23:51:06.643,12 Jan 2025 23:51:47.234,40.591,0.000129
224,12 Jan 2025 23:51:52.645,12 Jan 2025 23:57:08.073,315.428,0.001000
225,13 Jan 2025 01:25:56.142,13 Jan 2025 01:31:49.407,353.266,0.001120
226,13 Jan 2025 03:00:43.052,13 Jan 2025 03:06:48.746,365.694,0.001160
227,13 Jan 2025 04:35:22.681,13 Jan 2025 04:41:31.003,368.321,0.001168
228,13 Jan 2025 06:10:04.015,13 Jan 2025 06:16:13.129,369.115,0.001170
229,13 Jan 2025 07:44:46.847,13 Jan 2025 07:46:10.512,83.666,0.000265
230,13 Jan 2025 07:46:11.351,13 Jan 2025 07:50:55.107,283.756,0.000900
231,13 Jan 2025 09:19:31.253,13 Jan 2025 09:25:36.906,365.653,0.001159
232,13 Jan 2025 10:54:17.654,13 Jan 2025 10:54:57.303,39.648,0.000126
233,13 Jan 2025 10:55:02.851,13 Jan 2025 11:00:18.490,315.640,0.001001
234,13 Jan 2025 12:29:07.689,13 Jan 2025 12:34:59.795,352.106,0.001117
235,13 Jan 2025 14:03:53.203,13 Jan 2025 14:09:59.244,366.041,0.001161
236,13 Jan 2025 15:38:33.018,13 Jan 2025 15:44:41.490,368.472,0.001168
237,13 Jan 2025 17:13:14.500,13 Jan 2025 17:19:23.606,369.106,0.001170
238,13 Jan 2025 18:47:57.477,13 Jan 2025 18:54:05.567,368.091,0.001167
239,13 Jan 2025 20:22:42.050,13 Jan 2025 20:28:47.345,365.296,0.001158
240,13 Jan 2025 21:57:28.694,13 Jan 2025 21:58:09.131,40.437,0.000128
241,13 Jan 2025 21:58:13.069,13 Jan 2025 22:03:28.905,315.836,0.001002
242,13 Jan 2025 23:32:19.355,13 Jan 2025 23:38:10.177,350.822,0.001112
243,14 Jan 2025 01:07:03.376,14 Jan 2025 01:08:58.135,114.758,0.000364
244,14 Jan 2025 01:08:58.532,14 Jan 2025 01:13:09.742,251.210,0.000797
245,14 Jan 2025 02:41:43.367,14 Jan 2025 02:47:51.977,368.609,0.001169
246,14 Jan 2025 04:16:24.998,14 Jan 2025 04:22:34.077,369.079,0.001170
247,14 Jan 2025 05:51:08.121,14 Jan 2025 05:57:16.021,367.900,0.001167
248,14 Jan 2025 07:25:52.868,14 Jan 2025 07:31:57.783,364.915,0.001157
249,14 Jan 2025 09:00:39.768,14 Jan 2025 09:01:21.191,41.423,0.000131
250,14 Jan 2025 09:01:23.307,14 Jan 2025 09:06:39.319,316.011,0.001002
251,14 Jan 2025 10:35:31.180,14 Jan 2025 10:41:20.556,349.376,0.001108
252,14 Jan 2025 12:10:13.566,14 Jan 2025 12:12:08.436,114.871,0.000364
253,14 Jan 2025 12:12:09.273,14 Jan 2025 12:16:20.241,250.968,0.000796
254,14 Jan 2025 13:44:53.734,14 Jan 2025 13:51:02.462,368.729,0.001169
255,14 Jan 2025 15:19:35.511,14 Jan 2025 15:25:44.544,369.033,0.001170
256,14 Jan 2025 16:54:18.781,14 Jan 2025 17:00:26.476,367.694,0.001166
257,14 Jan 2025 18:29:03.702,14 Jan 2025 18:35:08.215,364.513,0.001156
258,14 Jan 2025 20:03:50.876,14 Jan 2025 20:04:33.000,42.124,0.000134
259,14 Jan 2025 20:04:33.560,14 Jan 2025 20:09:49.728,316.168,0.001003
260,14 Jan 2025 21:38:43.231,14 Jan 2025 21:44:30.929,347.698,0.001103
261,14 Jan 2025 23:13:23.779,14 Jan 2025 23:19:30.735,366.956,0.001164
262,15 Jan 2025 00:48:04.115,15 Jan 2025 00:54:12.944,368.830,0.001170
263,15 Jan 2025 02:22:46.037,15 Jan 2025 02:28:55.018,368.981,0.001170
264,15 Jan 2025 03:57:29.456,15 Jan 2025 04:03:36.928,367.472,0.001165
265,15 Jan 2025 05:32:14.558,15 Jan 2025 05:32:59.284,44.726,0.000142
266,15 Jan 2025 05:33:00.401,15 Jan 2025 05:38:18.649,318.248,0.001009
267,15 Jan 2025 07:07:02.024,15 Jan 2025 07:13:00.135,358.111,0.001136
268,15 Jan 2025 08:41:55.477,15 Jan 2025 08:47:41.303,345.826,0.001097
269,15 Jan 2025 10:16:34.010,15 Jan 2025 10:22:41.232,367.223,0.001164
270,15 Jan 2025 11:51:14.510,15 Jan 2025 11:57:23.426,368.915,0.001170
271,15 Jan 2025 13:25:56.578,15 Jan 2025 13:27:19.828,83.250,0.000264
272,15 Jan 2025 13:27:20.898,15 Jan 2025 13:32:05.486,284.587,0.000902
273,15 Jan 2025 15:00:40.146,15 Jan 2025 15:06:47.380,367.233,0.001164
274,15 Jan 2025 16:35:25.436,15 Jan 2025 16:36:09.479,44.043,0.000140
275,15 Jan 2025 16:36:12.040,15 Jan 2025 16:41:29.079,317.039,0.001005
276,15 Jan 2025 18:10:13.213,15 Jan 2025 18:16:10.538,357.326,0.001133
277,15 Jan 2025 19:45:05.500,15 Jan 2025 19:50:51.670,346.170,0.001098
278,15 Jan 2025 21:19:44.255,15 Jan 2025 21:25:51.724,367.468,0.001165
279,15 Jan 2025 22:54:24.920,15 Jan 2025 23:00:33.907,368.987,0.001170
280,16 Jan 2025 00:29:07.132,16 Jan 2025 00:30:30.077,82.945,0.000263
281,16 Jan 2025 00:30:32.459,16 Jan 2025 00:35:15.950,283.490,0.000899
282,16 Jan 2025 02:03:50.853,16 Jan 2025 02:09:57.830,366.977,0.001164
283,16 Jan 2025 03:38:36.334,16 Jan 2025 03:39:19.657,43.323,0.000137
284,16 Jan 2025 03:39:23.834,16 Jan 2025 03:44:39.510,315.676,0.001001
285,16 Jan 2025 05:13:24.447,16 Jan 2025 05:19:20.937,356.490,0.001130
286,16 Jan 2025 06:48:15.546,16 Jan 2025 06:54:02.033,346.487,0.001099
287,16 Jan 2025 08:22:54.521,16 Jan 2025 08:29:02.215,367.694,0.001166
288,16 Jan 2025 09:57:35.345,16 Jan 2025 10:03:44.387,369.042,0.001170
289,16 Jan 2025 11:32:17.700,16 Jan 2025 11:33:40.306,82.605,0.000262
290,16 Jan 2025 11:33:43.246,16 Jan 2025 11:38:26.414,283.169,0.000898
291,16 Jan 2025 13:07:01.574,16 Jan 2025 13:13:08.273,366.699,0.001163
292,16 Jan 2025 14:41:47.256,16 Jan 2025 14:42:29.806,42.550,0.000135
293,16 Jan 2025 14:42:35.082,16 Jan 2025 14:47:49.933,314.851,0.000998
294,16 Jan 2025 16:16:35.743,16 Jan 2025 16:22:31.336,355.593,0.001128
295,16 Jan 2025 17:51:25.623,16 Jan 2025 17:57:12.387,346.764,0.001100
296,16 Jan 2025 19:26:04.804,16 Jan 2025 19:32:12.709,367.905,0.001167
297,16 Jan 2025 21:00:45.783,16 Jan 2025 21:06:54.864,369.081,0.001170
298,16 Jan 2025 22:35:28.283,16 Jan 2025 22:36:50.516,82.233,0.000261
299,16 Jan 2025 22:36:53.515,16 Jan 2025 22:41:36.876,283.361,0.000899
300,17 Jan 2025 00:10:12.317,17 Jan 2025 00:16:18.723,366.406,0.001162
301,17 Jan 2025 01:44:58.202,17 Jan 2025 01:45:39.935,41.733,0.000132
302,17 Jan 2025 01:45:45.243,17 Jan 2025 01:51:00.358,315.115,0.000999
303,17 Jan 2025 03:19:47.095,17 Jan 2025 03:25:41.730,354.635,0.001125
304,17 Jan 2025 04:54:35.719,17 Jan 2025 05:00:22.745,347.026,0.001100
305,17 Jan 2025 06:29:15.103,17 Jan 2025 06:35:23.199,368.096,0.001167
306,17 Jan 2025 08:03:56.236,17 Jan 2025 08:10:05.344,369.108,0.001170
307,17 Jan 2025 09:38:38.879,17 Jan 2025 09:40:00.964,82.085,0.000260
308,17 Jan 2025 09:40:03.796,17 Jan 2025 09:44:47.340,283.544,0.000899
309,17 Jan 2025 11:13:23.073,17 Jan 2025 11:19:29.164,366.090,0.001161
310,17 Jan 2025 12:48:09.177,17 Jan 2025 12:48:50.041,40.864,0.000130
311,17 Jan 2025 12:48:55.421,17 Jan 2025 12:54:10.777,315.355,0.001000
312,17 Jan 2025 14:22:58.521,17 Jan 2025 14:28:52.117,353.596,0.001121
313,17 Jan 2025 15:57:45.843,17 Jan 2025 16:03:33.094,347.251,0.001101
314,17 Jan 2025 17:32:25.416,17 Jan 2025 17:38:33.686,368.270,0.001168
315,17 Jan 2025 19:07:06.703,17 Jan 2025 19:13:15.817,369.114,0.001170
316,17 Jan 2025 20:41:49.490,17 Jan 2025 20:43:12.818,83.328,0.000264
317,17 Jan 2025 20:43:14.091,17 Jan 2025 20:47:57.802,283.711,0.000900
318,17 Jan 2025 22:16:33.846,17 Jan 2025 22:22:39.605,365.759,0.001160
319,17 Jan 2025 23:51:20.175,17 Jan 2025 23:52:00.120,39.945,0.000127
320,17 Jan 2025 23:52:05.620,17 Jan 2025 23:57:21.195,315.575,0.001001
321,18 Jan 2025 01:26:10.037,18 Jan 2025 01:32:02.508,352.470,0.001118
322,18 Jan 2025 03:00:55.984,18 Jan 2025 03:06:43.438,347.454,0.001102
323,18 Jan 2025 04:35:35.745,18 Jan 2025 04:41:44.175,368.430,0.001168
324,18 Jan 2025 06:10:17.183,18 Jan 2025 06:16:26.291,369.108,0.001170
325,18 Jan 2025 07:45:00.116,18 Jan 2025 07:51:08.257,368.142,0.001167
326,18 Jan 2025 09:19:44.637,18 Jan 2025 09:25:50.044,365.406,0.001159
327,18 Jan 2025 10:54:31.207,18 Jan 2025 10:55:11.262,40.055,0.000127
328,18 Jan 2025 10:55:15.835,18 Jan 2025 11:00:31.611,315.776,0.001001
329,18 Jan 2025 12:29:21.665,18 Jan 2025 12:35:12.893,351.228,0.001114
330,18 Jan 2025 14:04:06.150,18 Jan 2025 14:06:00.873,114.722,0.000364
331,18 Jan 2025 14:06:00.943,18 Jan 2025 14:09:53.777,232.833,0.000738
332,18 Jan 2025 15:38:46.093,18 Jan 2025 15:44:54.660,368.567,0.001169
333,18 Jan 2025 17:13:27.678,18 Jan 2025 17:19:36.766,369.089,0.001170
334,18 Jan 2025 18:48:10.756,18 Jan 2025 18:54:18.717,367.961,0.001167
335,18 Jan 2025 20:22:55.447,18 Jan 2025 20:29:00.482,365.035,0.001158
336,18 Jan 2025 21:57:42.269,18 Jan 2025 21:58:23.427,41.159,0.000131
337,18 Jan 2025 21:58:26.067,18 Jan 2025 22:03:42.021,315.955,0.001002
338,18 Jan 2025 23:32:33.434,18 Jan 2025 23:38:23.273,349.840,0.001109
339,19 Jan 2025 01:07:16.339,19 Jan 2025 01:09:11.181,114.841,0.000364
340,19 Jan 2025 01:09:12.001,19 Jan 2025 01:13:04.109,232.108,0.000736
341,19 Jan 2025 02:41:56.454,19 Jan 2025 02:48:05.146,368.693,0.001169
342,19 Jan 2025 04:16:38.186,19 Jan 2025 04:22:47.237,369.051,0.001170
343,19 Jan 2025 05:51:21.411,19 Jan 2025 05:57:29.169,367.758,0.001166
344,19 Jan 2025 07:26:06.278,19 Jan 2025 07:32:10.918,364.640,0.001156
345,19 Jan 2025 09:00:53.365,19 Jan 2025 09:01:35.299,41.934,0.000133
346,19 Jan 2025 09:01:36.314,19 Jan 2025 09:06:52.436,316.122,0.001002
347,19 Jan 2025 10:35:45.403,19 Jan 2025 10:41:33.650,348.247,0.001104
348,19 Jan 2025 12:10:26.545,19 Jan 2025 12:12:22.170,115.626,0.000367
349,19 Jan 2025 12:12:22.352,19 Jan 2025 12:16:14.437,232.084,0.000736
350,19 Jan 2025 12:16:29.488,19 Jan 2025 12:16:33.418,3.930,0.000012
351,19 Jan 2025 13:45:06.830,19 Jan 2025 13:51:15.631,368.801,0.001169
352,19 Jan 2025 15:19:48.708,19 Jan 2025 15:25:57.704,368.996,0.001170
353,19 Jan 2025 16:54:32.081,19 Jan 2025 17:00:39.622,367.541,0.001165
354,19 Jan 2025 18:29:17.127,19 Jan 2025 18:30:02.056,44.929,0.000142
355,19 Jan 2025 18:30:02.757,19 Jan 2025 18:35:21.349,318.592,0.001010
356,19 Jan 2025 20:04:04.500,19 Jan 2025 20:10:02.840,358.340,0.001136
357,19 Jan 2025 21:38:57.687,19 Jan 2025 21:44:44.019,346.332,0.001098
358,19 Jan 2025 23:13:36.771,19 Jan 2025 23:19:24.757,347.987,0.001103
359,19 Jan 2025 23:19:29.103,19 Jan 2025 23:19:43.915,14.812,0.000047
360,20 Jan 2025 00:48:17.221,20 Jan 2025 00:54:26.112,368.891,0.001170
361,20 Jan 2025 02:22:59.244,20 Jan 2025 02:24:22.586,83.342,0.000264
362,20 Jan 2025 02:24:23.276,20 Jan 2025 02:29:08.176,284.900,0.000903
363,20 Jan 2025 03:57:42.767,20 Jan 2025 04:03:50.075,367.308,0.001165
364,20 Jan 2025 05:32:27.997,20 Jan 2025 05:33:12.259,44.263,0.000140
365,20 Jan 2025 05:33:14.356,20 Jan 2025 05:38:31.781,317.424,0.001007
366,20 Jan 2025 07:07:15.676,20 Jan 2025 07:13:13.248,357.572,0.001134
367,20 Jan 2025 08:42:08.326,20 Jan 2025 08:47:54.391,346.065,0.001097
368,20 Jan 2025 10:16:47.011,20 Jan 2025 10:22:54.408,367.397,0.001165
369,20 Jan 2025 11:51:27.627,20 Jan 2025 11:57:36.593,368.966,0.001170
370,20 Jan 2025 13:26:09.794,20 Jan 2025 13:27:32.834,83.040,0.000263
371,20 Jan 2025 13:27:34.800,20 Jan 2025 13:32:18.640,283.840,0.000900
372,20 Jan 2025 15:00:53.468,20 Jan 2025 15:07:00.525,367.057,0.001164
373,20 Jan 2025 16:35:38.889,20 Jan 2025 16:36:22.440,43.551,0.000138
374,20 Jan 2025 16:36:26.097,20 Jan 2025 16:41:42.209,316.113,0.001002
375,20 Jan 2025 18:10:26.896,20 Jan 2025 18:16:23.648,356.752,0.001131
376,20 Jan 2025 19:45:18.364,20 Jan 2025 19:51:04.756,346.392,0.001098
377,20 Jan 2025 21:19:57.272,20 Jan 2025 21:26:04.899,367.627,0.001166
378,20 Jan 2025 22:54:38.047,20 Jan 2025 23:00:47.073,369.026,0.001170
379,21 Jan 2025 00:29:20.358,21 Jan 2025 00:30:43.071,82.713,0.000262
380,21 Jan 2025 00:30:46.000,21 Jan 2025 00:35:29.106,283.106,0.000898
381,21 Jan 2025 02:04:04.186,21 Jan 2025 02:10:10.974,366.789,0.001163
382,21 Jan 2025 03:38:49.804,21 Jan 2025 03:39:32.597,42.793,0.000136
383,21 Jan 2025 03:39:37.871,21 Jan 2025 03:44:52.639,314.768,0.000998
384,21 Jan 2025 05:13:38.173,21 Jan 2025 05:19:34.047,355.874,0.001128
385,21 Jan 2025 06:48:28.428,21 Jan 2025 06:54:15.115,346.688,0.001099
386,21 Jan 2025 08:23:07.550,21 Jan 2025 08:29:15.390,367.840,0.001166
387,21 Jan 2025 09:57:48.481,21 Jan 2025 10:03:57.552,369.071,0.001170
388,21 Jan 2025 11:32:30.936,21 Jan 2025 11:33:53.288,82.352,0.000261
389,21 Jan 2025 11:33:56.263,21 Jan 2025 11:38:39.568,283.305,0.000898
390,21 Jan 2025 13:07:14.921,21 Jan 2025 13:13:21.420,366.499,0.001162
391,21 Jan 2025 14:42:00.743,21 Jan 2025 14:42:42.733,41.990,0.000133
392,21 Jan 2025 14:42:48.024,21 Jan 2025 14:48:03.060,315.036,0.000999
393,21 Jan 2025 16:16:49.504,21 Jan 2025 16:22:44.443,354.939,0.001126
394,21 Jan 2025 17:51:38.520,21 Jan 2025 17:57:25.466,346.946,0.001100
395,21 Jan 2025 19:26:17.843,21 Jan 2025 19:32:25.882,368.039,0.001167
396,21 Jan 2025 21:00:58.929,21 Jan 2025 21:07:08.029,369.099,0.001170
397,21 Jan 2025 22:35:41.529,21 Jan 2025 22:37:03.487,81.958,0.000260
398,21 Jan 2025 22:37:06.541,21 Jan 2025 22:41:50.031,283.489,0.000899
399,22 Jan 2025 00:10:25.672,22 Jan 2025 00:16:31.864,366.192,0.001161
400,22 Jan 2025 01:45:11.705,22 Jan 2025 01:45:52.845,41.140,0.000130
401,22 Jan 2025 01:45:58.200,22 Jan 2025 01:51:13.484,315.284,0.001000
402,22 Jan 2025 03:20:00.906,22 Jan 2025 03:25:54.835,353.928,0.001122
403,22 Jan 2025 04:54:48.637,22 Jan 2025 05:00:35.821,347.185,0.001101
404,22 Jan 2025 06:29:28.153,22 Jan 2025 06:35:36.371,368.219,0.001168
405,22 Jan 2025 08:04:09.392,22 Jan 2025 08:10:18.507,369.116,0.001170
406,22 Jan 2025 09:38:52.135,22 Jan 2025 09:40:15.105,82.970,0.000263
407,22 Jan 2025 09:40:16.833,22 Jan 2025 09:45:00.493,283.660,0.000899
408,22 Jan 2025 11:13:36.440,22 Jan 2025 11:19:42.303,365.863,0.001160
409,22 Jan 2025 12:48:22.696,22 Jan 2025 12:49:02.933,40.236,0.000128
410,22 Jan 2025 12:49:08.392,22 Jan 2025 12:54:23.901,315.509,0.001000
411,22 Jan 2025 14:23:12.393,22 Jan 2025 14:29:05.219,352.826,0.001119
412,22 Jan 2025 15:57:58.775,22 Jan 2025 16:03:46.167,347.391,0.001102
413,22 Jan 2025 17:32:38.476,22 Jan 2025 17:38:46.857,368.381,0.001168
414,22 Jan 2025 19:07:19.869,22 Jan 2025 19:13:28.982,369.113,0.001170
415,22 Jan 2025 20:42:02.756,22 Jan 2025 20:43:26.818,84.062,0.000267
416,22 Jan 2025 20:43:27.137,22 Jan 2025 20:48:10.953,283.817,0.000900
417,22 Jan 2025 22:16:47.226,22 Jan 2025 22:22:52.743,365.518,0.001159
418,22 Jan 2025 23:51:33.721,22 Jan 2025 23:52:13.337,39.616,0.000126
419,22 Jan 2025 23:52:18.601,22 Jan 2025 23:57:34.317,315.716,0.001001
420,23 Jan 2025 01:26:23.986,23 Jan 2025 01:32:15.608,351.622,0.001115
421,23 Jan 2025 03:01:08.935,23 Jan 2025 03:06:56.507,347.572,0.001102
422,23 Jan 2025 04:35:48.817,23 Jan 2025 04:41:57.346,368.529,0.001169
423,23 Jan 2025 06:10:30.358,23 Jan 2025 06:16:39.452,369.094,0.001170
424,23 Jan 2025 07:45:13.391,23 Jan 2025 07:51:21.408,368.017,0.001167
425,23 Jan 2025 09:19:58.029,23 Jan 2025 09:26:03.181,365.152,0.001158
426,23 Jan 2025 10:54:44.771,23 Jan 2025 10:55:25.631,40.861,0.000130
427,23 Jan 2025 10:55:28.828,23 Jan 2025 11:00:44.731,315.902,0.001002
428,23 Jan 2025 12:29:35.705,23 Jan 2025 12:35:25.990,350.285,0.001111
429,23 Jan 2025 14:04:19.114,23 Jan 2025 14:06:13.921,114.807,0.000364
430,23 Jan 2025 14:06:14.728,23 Jan 2025 14:10:06.841,232.113,0.000736
431,23 Jan 2025 15:38:59.175,23 Jan 2025 15:45:07.830,368.654,0.001169
432,23 Jan 2025 17:13:40.862,23 Jan 2025 17:19:49.926,369.065,0.001170
433,23 Jan 2025 18:48:24.041,23 Jan 2025 18:54:31.866,367.825,0.001166
434,23 Jan 2025 20:23:08.854,23 Jan 2025 20:29:13.615,364.761,0.001157
435,23 Jan 2025 21:57:55.857,23 Jan 2025 21:58:37.579,41.722,0.000132
436,23 Jan 2025 21:58:39.070,23 Jan 2025 22:03:55.140,316.070,0.001002
437,23 Jan 2025 23:32:47.604,23 Jan 2025 23:38:36.368,348.763,0.001106
438,24 Jan 2025 01:07:29.314,24 Jan 2025 01:09:24.512,115.198,0.000365
439,24 Jan 2025 01:09:25.077,24 Jan 2025 01:13:17.170,232.093,0.000736
440,24 Jan 2025 02:42:09.546,24 Jan 2025 02:48:18.315,368.768,0.001169
441,24 Jan 2025 04:16:51.379,24 Jan 2025 04:23:00.396,369.017,0.001170
442,24 Jan 2025 05:51:34.706,24 Jan 2025 05:57:42.316,367.609,0.001166
443,24 Jan 2025 07:26:19.696,24 Jan 2025 07:27:04.824,45.128,0.000143
444,24 Jan 2025 07:27:05.120,24 Jan 2025 07:32:24.051,318.931,0.001011
445,24 Jan 2025 09:01:06.979,24 Jan 2025 09:01:49.315,42.336,0.000134
446,24 Jan 2025 09:01:49.328,24 Jan 2025 09:07:05.548,316.220,0.001003
447,24 Jan 2025 10:35:59.771,24 Jan 2025 10:41:46.741,346.971,0.001100
448,24 Jan 2025 12:10:39.532,24 Jan 2025 12:16:27.493,347.961,0.001103
449,24 Jan 2025 13:45:19.933,24 Jan 2025 13:51:28.799,368.866,0.001170
450,24 Jan 2025 15:20:01.911,24 Jan 2025 15:21:25.336,83.425,0.000265
451,24 Jan 2025 15:21:25.658,24 Jan 2025 15:26:10.861,285.203,0.000904
452,24 Jan 2025 16:54:45.387,24 Jan 2025 17:00:52.769,367.382,0.001165
453,24 Jan 2025 18:29:30.559,24 Jan 2025 18:30:15.032,44.473,0.000141
454,24 Jan 2025 18:30:16.683,24 Jan 2025 18:35:34.481,317.798,0.001008
455,24 Jan 2025 20:04:18.141,24 Jan 2025 20:10:15.955,357.813,0.001135
456,24 Jan 2025 21:39:11.152,24 Jan 2025 21:44:57.107,345.955,0.001097
457,24 Jan 2025 23:13:49.768,24 Jan 2025 23:19:37.809,348.041,0.001104
458,25 Jan 2025 00:48:30.334,25 Jan 2025 00:54:39.279,368.945,0.001170
459,25 Jan 2025 02:23:12.456,25 Jan 2025 02:24:35.592,83.136,0.000264
460,25 Jan 2025 02:24:37.152,25 Jan 2025 02:29:21.330,284.178,0.000901
461,25 Jan 2025 03:57:56.083,25 Jan 2025 04:04:03.219,367.136,0.001164
462,25 Jan 2025 05:32:41.446,25 Jan 2025 05:33:25.220,43.774,0.000139
463,25 Jan 2025 05:33:28.376,25 Jan 2025 05:38:44.911,316.535,0.001004
464,25 Jan 2025 07:07:29.348,25 Jan 2025 07:13:26.359,357.011,0.001132
465,25 Jan 2025 08:42:21.184,25 Jan 2025 08:48:07.477,346.293,0.001098
466,25 Jan 2025 10:17:00.023,25 Jan 2025 10:22:48.114,348.091,0.001104
467,25 Jan 2025 11:51:40.749,25 Jan 2025 11:57:49.758,369.009,0.001170
468,25 Jan 2025 13:26:23.016,25 Jan 2025 13:27:45.834,82.818,0.000263
469,25 Jan 2025 13:27:48.754,25 Jan 2025 13:32:31.795,283.041,0.000898
470,25 Jan 2025 15:01:06.795,25 Jan 2025 15:07:13.668,366.873,0.001163
471,25 Jan 2025 16:35:52.349,25 Jan 2025 16:36:35.382,43.033,0.000136
472,25 Jan 2025 16:36:40.244,25 Jan 2025 16:41:55.338,315.093,0.000999
473,25 Jan 2025 18:10:40.606,25 Jan 2025 18:16:36.758,356.152,0.001129
474,25 Jan 2025 19:45:31.238,25 Jan 2025 19:51:17.838,346.600,0.001099
475,25 Jan 2025 21:20:10.295,25 Jan 2025 21:25:58.420,348.125,0.001104
476,25 Jan 2025 22:54:51.179,25 Jan 2025 23:01:00.237,369.059,0.001170
477,26 Jan 2025 00:29:33.590,26 Jan 2025 00:30:56.056,82.467,0.000262
478,26 Jan 2025 00:30:59.013,26 Jan 2025 00:35:42.260,283.247,0.000898
479,26 Jan 2025 02:04:17.524,26 Jan 2025 02:10:24.116,366.592,0.001162
480,26 Jan 2025 03:39:03.284,26 Jan 2025 03:39:45.526,42.242,0.000134
481,26 Jan 2025 03:39:50.808,26 Jan 2025 03:45:05.765,314.957,0.000999
482,26 Jan 2025 05:13:51.919,26 Jan 2025 05:19:47.154,355.235,0.001126
483,26 Jan 2025 06:48:41.321,26 Jan 2025 06:54:28.194,346.873,0.001100
484,26 Jan 2025 08:23:20.584,26 Jan 2025 08:29:08.711,348.127,0.001104
485,26 Jan 2025 09:58:01.623,26 Jan 2025 10:04:10.715,369.092,0.001170
486,26 Jan 2025 11:32:44.177,26 Jan 2025 11:34:06.261,82.083,0.000260
487,26 Jan 2025 11:34:09.287,26 Jan 2025 11:38:52.722,283.435,0.000899
488,26 Jan 2025 13:07:28.272,26 Jan 2025 13:13:34.560,366.288,0.001161
489,26 Jan 2025 14:42:14.238,26 Jan 2025 14:42:55.646,41.408,0.000131
490,26 Jan 2025 14:43:00.976,26 Jan 2025 14:48:16.185,315.209,0.001000
491,26 Jan 2025 16:17:03.299,26 Jan 2025 16:22:57.547,354.248,0.001123
492,26 Jan 2025 17:51:51.431,26 Jan 2025 17:57:38.542,347.111,0.001101
493,26 Jan 2025 19:26:30.889,26 Jan 2025 19:32:18.998,348.109,0.001104
494,26 Jan 2025 19:32:37.685,26 Jan 2025 19:32:39.053,1.368,0.000004
495,26 Jan 2025 21:01:12.081,26 Jan 2025 21:07:21.191,369.110,0.001170
496,26 Jan 2025 22:35:54.780,26 Jan 2025 22:37:17.371,82.591,0.000262
497,26 Jan 2025 22:37:19.574,26 Jan 2025 22:42:03.183,283.608,0.000899
498,27 Jan 2025 00:10:39.035,27 Jan 2025 00:16:45.003,365.968,0.001160
499,27 Jan 2025 01:45:25.221,27 Jan 2025 01:46:05.741,40.520,0.000128
500,27 Jan 2025 01:46:11.163,27 Jan 2025 01:51:26.606,315.443,0.001000
501,27 Jan 2025 03:20:14.758,27 Jan 2025 03:26:07.937,353.178,0.001120
502,27 Jan 2025 04:55:01.560,27 Jan 2025 05:00:48.893,347.333,0.001101
503,27 Jan 2025 06:29:41.208,27 Jan 2025 06:35:29.275,348.067,0.001104
504,27 Jan 2025 06:35:34.730,27 Jan 2025 06:35:49.542,14.812,0.000047
505,27 Jan 2025 08:04:22.552,27 Jan 2025 08:10:31.668,369.116,0.001170
506,27 Jan 2025 09:39:05.396,27 Jan 2025 09:40:29.144,83.749,0.000266
507,27 Jan 2025 09:40:29.875,27 Jan 2025 09:45:13.640,283.766,0.000900
508,27 Jan 2025 11:13:49.815,27 Jan 2025 11:19:55.441,365.626,0.001159
509,27 Jan 2025 12:48:36.234,27 Jan 2025 12:49:15.806,39.572,0.000125
510,27 Jan 2025 12:49:21.368,27 Jan 2025 12:54:37.022,315.654,0.001001
511,27 Jan 2025 14:23:26.313,27 Jan 2025 14:29:18.318,352.005,0.001116
512,27 Jan 2025 15:58:11.716,27 Jan 2025 16:03:59.234,347.518,0.001102
513,27 Jan 2025 17:32:51.543,27 Jan 2025 17:39:00.026,368.483,0.001168
514,27 Jan 2025 19:07:33.039,27 Jan 2025 19:13:42.142,369.103,0.001170
515,27 Jan 2025 20:42:16.027,27 Jan 2025 20:48:24.102,368.076,0.001167
516,27 Jan 2025 22:17:00.613,27 Jan 2025 22:23:05.879,365.266,0.001158
517,27 Jan 2025 23:51:47.278,27 Jan 2025 23:52:27.806,40.527,0.000129
518,27 Jan 2025 23:52:31.587,27 Jan 2025 23:57:47.436,315.849,0.001002
519,28 Jan 2025 01:26:37.990,28 Jan 2025 01:32:28.704,350.714,0.001112
520,28 Jan 2025 03:01:21.886,28 Jan 2025 03:03:16.659,114.773,0.000364
521,28 Jan 2025 03:03:17.142,28 Jan 2025 03:07:09.570,232.429,0.000737
522,28 Jan 2025 04:36:01.896,28 Jan 2025 04:42:10.512,368.616,0.001169
523,28 Jan 2025 06:10:43.538,28 Jan 2025 06:16:52.611,369.073,0.001170
524,28 Jan 2025 07:45:26.672,28 Jan 2025 07:51:34.555,367.883,0.001167
525,28 Jan 2025 09:20:11.432,28 Jan 2025 09:26:16.316,364.884,0.001157
526,28 Jan 2025 10:54:58.352,28 Jan 2025 10:55:39.838,41.486,0.000132
527,28 Jan 2025 10:55:41.827,28 Jan 2025 11:00:57.847,316.020,0.001002
528,28 Jan 2025 12:29:49.830,28 Jan 2025 12:35:39.084,349.254,0.001107
529,28 Jan 2025 14:04:32.083,28 Jan 2025 14:06:26.962,114.879,0.000364
530,28 Jan 2025 14:06:27.801,28 Jan 2025 14:10:19.901,232.100,0.000736
531,28 Jan 2025 15:39:12.264,28 Jan 2025 15:45:20.997,368.733,0.001169
532,28 Jan 2025 17:13:54.051,28 Jan 2025 17:20:03.084,369.033,0.001170
533,28 Jan 2025 18:48:37.333,28 Jan 2025 18:54:45.012,367.679,0.001166
534,28 Jan 2025 20:23:22.268,28 Jan 2025 20:29:26.749,364.481,0.001156
535,28 Jan 2025 21:58:09.464,28 Jan 2025 21:58:51.633,42.169,0.000134
536,28 Jan 2025 21:58:52.081,28 Jan 2025 22:04:08.255,316.174,0.001003
537,28 Jan 2025 23:33:01.901,28 Jan 2025 23:38:49.459,347.558,0.001102
538,29 Jan 2025 01:07:42.296,29 Jan 2025 01:13:30.222,347.926,0.001103
539,29 Jan 2025 02:42:22.645,29 Jan 2025 02:48:31.481,368.836,0.001170
540,29 Jan 2025 04:17:04.579,29 Jan 2025 04:23:13.553,368.974,0.001170
541,29 Jan 2025 05:51:48.009,29 Jan 2025 05:57:55.462,367.453,0.001165
542,29 Jan 2025 07:26:33.125,29 Jan 2025 07:27:17.801,44.677,0.000142
543,29 Jan 2025 07:27:19.024,29 Jan 2025 07:32:37.182,318.158,0.001009
544,29 Jan 2025 09:01:20.614,29 Jan 2025 09:07:18.662,358.048,0.001135
545,29 Jan 2025 10:36:13.981,29 Jan 2025 10:41:59.829,345.849,0.001097
546,29 Jan 2025 12:10:52.527,29 Jan 2025 12:16:40.543,348.016,0.001104
547,29 Jan 2025 13:45:33.042,29 Jan 2025 13:51:41.965,368.923,0.001170
548,29 Jan 2025 15:20:15.120,29 Jan 2025 15:21:38.350,83.230,0.000264
549,29 Jan 2025 15:21:39.514,29 Jan 2025 15:26:24.017,284.503,0.000902
550,29 Jan 2025 16:54:58.700,29 Jan 2025 17:01:05.913,367.213,0.001164
551,29 Jan 2025 18:29:44.005,29 Jan 2025 18:30:27.997,43.992,0.000139
552,29 Jan 2025 18:30:30.673,29 Jan 2025 18:35:47.611,316.937,0.001005
553,29 Jan 2025 20:04:31.807,29 Jan 2025 20:10:29.064,357.257,0.001133
554,29 Jan 2025 21:39:24.003,29 Jan 2025 21:45:10.194,346.190,0.001098
555,29 Jan 2025 23:14:02.776,29 Jan 2025 23:19:50.851,348.076,0.001104
556,30 Jan 2025 00:48:43.453,30 Jan 2025 00:54:52.444,368.991,0.001170
557,30 Jan 2025 02:23:25.675,30 Jan 2025 02:24:48.593,82.917,0.000263
558,30 Jan 2025 02:24:51.086,30 Jan 2025 02:29:34.485,283.398,0.000899
559,30 Jan 2025 03:58:09.407,30 Jan 2025 04:04:16.362,366.954,0.001164
560,30 Jan 2025 05:32:54.905,30 Jan 2025 05:33:38.167,43.262,0.000137
561,30 Jan 2025 05:33:42.481,30 Jan 2025 05:38:58.039,315.558,0.001001
562,30 Jan 2025 07:07:43.045,30 Jan 2025 07:13:39.468,356.423,0.001130
563,30 Jan 2025 08:42:34.055,30 Jan 2025 08:48:20.559,346.504,0.001099
564,30 Jan 2025 10:17:13.043,30 Jan 2025 10:23:01.156,348.113,0.001104
565,30 Jan 2025 11:51:53.878,30 Jan 2025 11:58:02.923,369.044,0.001170
566,30 Jan 2025 13:26:36.245,30 Jan 2025 13:27:58.823,82.578,0.000262
567,30 Jan 2025 13:28:01.766,30 Jan 2025 13:32:44.949,283.183,0.000898
568,30 Jan 2025 15:01:20.131,30 Jan 2025 15:07:26.810,366.679,0.001163
569,30 Jan 2025 16:36:05.828,30 Jan 2025 16:36:48.317,42.489,0.000135
570,30 Jan 2025 16:36:53.594,30 Jan 2025 16:42:08.464,314.870,0.000998
571,30 Jan 2025 18:10:54.343,30 Jan 2025 18:16:49.864,355.520,0.001127
572,30 Jan 2025 19:45:44.130,30 Jan 2025 19:51:30.917,346.787,0.001100
573,30 Jan 2025 21:20:23.327,30 Jan 2025 21:26:11.456,348.129,0.001104
574,30 Jan 2025 22:55:04.318,30 Jan 2025 23:01:13.401,369.083,0.001170
575,31 Jan 2025 00:29:46.828,31 Jan 2025 00:31:09.033,82.204,0.000261
576,31 Jan 2025 00:31:12.034,31 Jan 2025 00:35:55.413,283.378,0.000899
577,31 Jan 2025 02:04:30.872,31 Jan 2025 02:10:37.256,366.385,0.001162
578,31 Jan 2025 03:39:16.776,31 Jan 2025 03:39:58.444,41.669,0.000132
579,31 Jan 2025 03:40:03.756,31 Jan 2025 03:45:18.890,315.133,0.000999
580,31 Jan 2025 05:14:05.705,31 Jan 2025 05:20:00.259,354.554,0.001124
581,31 Jan 2025 06:48:54.229,31 Jan 2025 06:54:41.270,347.042,0.001100
582,31 Jan 2025 08:23:33.627,31 Jan 2025 08:29:21.741,348.115,0.001104
583,31 Jan 2025 09:58:14.772,31 Jan 2025 10:04:23.878,369.106,0.001170
584,31 Jan 2025 11:32:57.426,31 Jan 2025 11:34:19.617,82.191,0.000261
585,31 Jan 2025 11:34:22.318,31 Jan 2025 11:39:05.874,283.556,0.000899
586,31 Jan 2025 13:07:41.632,31 Jan 2025 13:13:47.699,366.067,0.001161
587,31 Jan 2025 14:42:27.753,31 Jan 2025 14:43:08.548,40.795,0.000129
588,31 Jan 2025 14:43:13.936,31 Jan 2025 14:48:29.310,315.375,0.001000
589,31 Jan 2025 16:17:17.135,31 Jan 2025 16:23:10.649,353.515,0.001121
590,31 Jan 2025 17:52:04.354,31 Jan 2025 17:57:51.614,347.260,0.001101
591,31 Jan 2025 19:26:43.941,31 Jan 2025 19:32:32.022,348.082,0.001104
592,31 Jan 2025 21:01:25.239,31 Jan 2025 21:07:34.353,369.113,0.001170
593,31 Jan 2025 22:36:08.039,31 Jan 2025 22:37:31.455,83.416,0.000265
594,31 Jan 2025 22:37:32.614,31 Jan 2025 22:42:16.334,283.720,0.000900
595,1 Feb 2025 00:10:52.407,1 Feb 2025 00:16:58.141,365.734,0.001160
596,1 Feb 2025 01:45:38.753,1 Feb 2025 01:46:18.625,39.872,0.000126
597,1 Feb 2025 01:46:24.135,1 Feb 2025 01:51:39.728,315.593,0.001001
598,1 Feb 2025 03:20:28.659,1 Feb 2025 03:26:21.037,352.378,0.001117
599,1 Feb 2025 04:55:14.500,1 Feb 2025 05:01:01.962,347.462,0.001102
600,1 Feb 2025 06:29:54.272,1 Feb 2025 06:35:42.294,348.022,0.001104
601,1 Feb 2025 08:04:35.721,1 Feb 2025 08:10:44.828,369.107,0.001170
602,1 Feb 2025 09:39:18.665,1 Feb 2025 09:45:26.791,368.127,0.001167
603,1 Feb 2025 11:14:03.199,1 Feb 2025 11:20:08.578,365.378,0.001159
604,1 Feb 2025 12:48:49.787,1 Feb 2025 12:49:29.943,40.156,0.000127
605,1 Feb 2025 12:49:34.349,1 Feb 2025 12:54:50.142,315.793,0.001001
606,1 Feb 2025 14:23:40.295,1 Feb 2025 14:29:31.416,351.121,0.001113
607,1 Feb 2025 15:58:24.664,1 Feb 2025 16:00:19.397,114.733,0.000364
608,1 Feb 2025 16:00:19.550,1 Feb 2025 16:04:12.300,232.750,0.000738
609,1 Feb 2025 17:33:04.619,1 Feb 2025 17:38:52.554,347.935,0.001103
610,1 Feb 2025 19:07:46.218,1 Feb 2025 19:13:55.302,369.084,0.001170
611,1 Feb 2025 20:42:29.306,1 Feb 2025 20:48:37.251,367.945,0.001167
612,1 Feb 2025 22:17:14.013,1 Feb 2025 22:23:19.014,365.002,0.001157
613,1 Feb 2025 23:52:00.850,1 Feb 2025 23:52:42.080,41.230,0.000131
614,1 Feb 2025 23:52:44.585,1 Feb 2025 23:58:00.555,315.970,0.001002
615,2 Feb 2025 01:26:52.077,2 Feb 2025 01:32:41.800,349.723,0.001109
616,2 Feb 2025 03:01:34.855,2 Feb 2025 03:03:29.704,114.849,0.000364
617,2 Feb 2025 03:03:30.527,2 Feb 2025 03:07:22.633,232.105,0.000736
618,2 Feb 2025 04:36:14.982,2 Feb 2025 04:42:02.808,347.826,0.001103
619,2 Feb 2025 04:42:14.468,2 Feb 2025 04:42:23.681,9.212,0.000029
620,2 Feb 2025 06:10:56.726,2 Feb 2025 06:17:05.771,369.045,0.001170
621,2 Feb 2025 07:45:39.962,2 Feb 2025 07:51:47.704,367.741,0.001166
622,2 Feb 2025 09:20:24.843,2 Feb 2025 09:26:29.448,364.606,0.001156
623,2 Feb 2025 10:55:11.951,2 Feb 2025 10:55:53.934,41.983,0.000133
624,2 Feb 2025 10:55:54.834,2 Feb 2025 11:01:10.964,316.130,0.001002
625,2 Feb 2025 12:30:04.067,2 Feb 2025 12:35:52.177,348.110,0.001104
626,2 Feb 2025 14:04:45.063,2 Feb 2025 14:06:40.791,115.729,0.000367
627,2 Feb 2025 14:06:40.880,2 Feb 2025 14:10:32.959,232.079,0.000736
628,2 Feb 2025 15:39:25.361,2 Feb 2025 15:45:34.166,368.805,0.001169
629,2 Feb 2025 17:14:07.249,2 Feb 2025 17:20:16.243,368.994,0.001170
630,2 Feb 2025 18:48:50.633,2 Feb 2025 18:54:58.155,367.522,0.001165
631,2 Feb 2025 20:23:35.693,2 Feb 2025 20:24:20.572,44.879,0.000142
632,2 Feb 2025 20:24:21.376,2 Feb 2025 20:29:39.881,318.505,0.001010
633,2 Feb 2025 21:58:23.089,2 Feb 2025 22:04:21.370,358.281,0.001136
634,2 Feb 2025 23:33:16.382,2 Feb 2025 23:39:02.549,346.168,0.001098
635,3 Feb 2025 01:07:55.289,3 Feb 2025 01:13:43.275,347.986,0.001103
636,3 Feb 2025 02:42:35.752,3 Feb 2025 02:48:44.649,368.897,0.001170
637,3 Feb 2025 04:17:17.786,3 Feb 2025 04:18:41.103,83.317,0.000264
638,3 Feb 2025 04:18:41.888,3 Feb 2025 04:23:26.711,284.822,0.000903
639,3 Feb 2025 05:52:01.320,3 Feb 2025 05:58:08.610,367.290,0.001165
640,3 Feb 2025 07:26:46.566,3 Feb 2025 07:27:30.771,44.205,0.000140
641,3 Feb 2025 07:27:32.985,3 Feb 2025 07:32:50.314,317.328,0.001006
642,3 Feb 2025 09:01:34.268,3 Feb 2025 09:07:31.774,357.506,0.001134
643,3 Feb 2025 10:36:26.827,3 Feb 2025 10:42:12.917,346.091,0.001097
644,3 Feb 2025 12:11:05.532,3 Feb 2025 12:16:53.593,348.061,0.001104
645,3 Feb 2025 13:45:46.159,3 Feb 2025 13:51:55.132,368.973,0.001170
646,3 Feb 2025 15:20:28.337,3 Feb 2025 15:21:51.353,83.016,0.000263
647,3 Feb 2025 15:21:53.423,3 Feb 2025 15:26:37.177,283.753,0.000900
648,3 Feb 2025 16:55:12.022,3 Feb 2025 17:01:19.057,367.034,0.001164
649,3 Feb 2025 18:29:57.459,3 Feb 2025 18:30:40.953,43.494,0.000138
650,3 Feb 2025 18:30:44.738,3 Feb 2025 18:36:00.741,316.003,0.001002
651,3 Feb 2025 20:04:45.491,3 Feb 2025 20:10:42.177,356.685,0.001131
652,3 Feb 2025 21:39:36.866,3 Feb 2025 21:45:23.278,346.412,0.001098
653,3 Feb 2025 23:14:15.793,3 Feb 2025 23:20:03.897,348.104,0.001104
654,4 Feb 2025 00:48:56.580,4 Feb 2025 00:55:05.610,369.030,0.001170
655,4 Feb 2025 02:23:38.902,4 Feb 2025 02:25:01.589,82.687,0.000262
656,4 Feb 2025 02:25:04.520,4 Feb 2025 02:29:47.641,283.121,0.000898
657,4 Feb 2025 03:58:22.740,4 Feb 2025 04:04:29.505,366.765,0.001163
658,4 Feb 2025 05:33:08.372,4 Feb 2025 05:33:51.106,42.734,0.000136
659,4 Feb 2025 05:33:56.382,4 Feb 2025 05:39:11.167,314.785,0.000998
660,4 Feb 2025 07:07:56.772,4 Feb 2025 07:13:52.577,355.805,0.001128
661,4 Feb 2025 08:42:46.937,4 Feb 2025 08:48:33.641,346.705,0.001099
662,4 Feb 2025 10:17:26.072,4 Feb 2025 10:23:14.196,348.124,0.001104
663,4 Feb 2025 11:52:07.015,4 Feb 2025 11:58:16.088,369.073,0.001170
664,4 Feb 2025 13:26:49.481,4 Feb 2025 13:28:11.804,82.323,0.000261
665,4 Feb 2025 13:28:14.784,4 Feb 2025 13:32:58.104,283.321,0.000898
666,4 Feb 2025 15:01:33.480,4 Feb 2025 15:07:39.952,366.472,0.001162
667,4 Feb 2025 16:36:19.314,4 Feb 2025 16:37:01.242,41.928,0.000133
668,4 Feb 2025 16:37:06.537,4 Feb 2025 16:42:21.591,315.054,0.000999
669,4 Feb 2025 18:11:08.110,4 Feb 2025 18:17:02.969,354.859,0.001125
670,4 Feb 2025 19:45:57.031,4 Feb 2025 19:51:43.996,346.965,0.001100
671,4 Feb 2025 21:20:36.367,4 Feb 2025 21:26:24.491,348.124,0.001104
672,4 Feb 2025 22:55:17.464,4 Feb 2025 23:01:26.565,369.100,0.001170
673,5 Feb 2025 00:30:00.074,5 Feb 2025 00:31:22.002,81.927,0.000260
674,5 Feb 2025 00:31:25.063,5 Feb 2025 00:36:08.566,283.503,0.000899
675,5 Feb 2025 02:04:44.227,5 Feb 2025 02:10:50.395,366.168,0.001161
676,5 Feb 2025 03:39:30.280,5 Feb 2025 03:40:11.353,41.072,0.000130
677,5 Feb 2025 03:40:16.714,5 Feb 2025 03:45:32.015,315.301,0.001000
678,5 Feb 2025 05:14:19.517,5 Feb 2025 05:20:13.364,353.847,0.001122
679,5 Feb 2025 06:49:07.147,5 Feb 2025 06:54:54.346,347.199,0.001101
680,5 Feb 2025 08:23:46.677,5 Feb 2025 08:29:34.771,348.094,0.001104
681,5 Feb 2025 09:58:27.928,5 Feb 2025 10:04:37.040,369.113,0.001170
682,5 Feb 2025 11:33:10.682,5 Feb 2025 11:34:33.743,83.061,0.000263
683,5 Feb 2025 11:34:35.356,5 Feb 2025 11:39:19.026,283.671,0.000900
684,5 Feb 2025 13:07:55.000,5 Feb 2025 13:14:00.839,365.839,0.001160
685,5 Feb 2025 14:42:41.273,5 Feb 2025 14:43:21.438,40.165,0.000127
686,5 Feb 2025 14:43:26.907,5 Feb 2025 14:48:42.429,315.522,0.001001
687,5 Feb 2025 16:17:31.011,5 Feb 2025 16:23:23.752,352.741,0.001119
688,5 Feb 2025 17:52:17.283,5 Feb 2025 17:58:04.687,347.403,0.001102
689,5 Feb 2025 19:26:57.001,5 Feb 2025 19:32:45.046,348.044,0.001104
690,5 Feb 2025 21:01:38.405,5 Feb 2025 21:07:47.515,369.110,0.001170
691,5 Feb 2025 22:36:21.304,5 Feb 2025 22:37:45.445,84.141,0.000267
692,5 Feb 2025 22:37:45.660,5 Feb 2025 22:42:29.484,283.823,0.000900
693,6 Feb 2025 00:11:05.786,6 Feb 2025 00:17:11.279,365.493,0.001159
694,6 Feb 2025 01:45:52.299,6 Feb 2025 01:46:32.029,39.730,0.000126
695,6 Feb 2025 01:46:37.118,6 Feb 2025 01:51:52.847,315.729,0.001001
696,6 Feb 2025 03:20:42.612,6 Feb 2025 03:26:34.137,351.524,0.001115
697,6 Feb 2025 04:55:27.448,6 Feb 2025 05:01:15.031,347.582,0.001102
698,6 Feb 2025 06:30:07.344,6 Feb 2025 06:35:55.309,347.964,0.001103
699,6 Feb 2025 08:04:48.896,6 Feb 2025 08:10:57.986,369.090,0.001170
700,6 Feb 2025 09:39:31.940,6 Feb 2025 09:45:39.942,368.002,0.001167
701,6 Feb 2025 11:14:16.591,6 Feb 2025 11:20:21.712,365.120,0.001158
702,6 Feb 2025 12:49:03.350,6 Feb 2025 12:49:44.289,40.939,0.000130
703,6 Feb 2025 12:49:47.347,6 Feb 2025 12:55:03.262,315.915,0.001002
704,6 Feb 2025 14:23:54.342,6 Feb 2025 14:29:44.513,350.172,0.001110
705,6 Feb 2025 15:58:37.628,6 Feb 2025 16:00:32.444,114.816,0.000364
706,6 Feb 2025 16:00:33.254,6 Feb 2025 16:04:25.365,232.111,0.000736
707,6 Feb 2025 17:33:17.702,6 Feb 2025 17:39:05.564,347.862,0.001103
708,6 Feb 2025 19:07:59.402,6 Feb 2025 19:14:08.459,369.057,0.001170
709,6 Feb 2025 20:42:42.591,6 Feb 2025 20:48:50.400,367.808,0.001166
710,6 Feb 2025 22:17:27.418,6 Feb 2025 22:23:32.149,364.732,0.001157
711,6 Feb 2025 23:52:14.441,6 Feb 2025 23:52:56.217,41.776,0.000132
712,6 Feb 2025 23:52:57.589,6 Feb 2025 23:58:13.673,316.084,0.001002
713,7 Feb 2025 01:27:06.258,7 Feb 2025 01:32:54.894,348.637,0.001106
714,7 Feb 2025 03:01:47.830,7 Feb 2025 03:03:43.135,115.305,0.000366
715,7 Feb 2025 03:03:43.604,7 Feb 2025 03:07:35.693,232.089,0.000736
716,7 Feb 2025 04:36:28.075,7 Feb 2025 04:42:15.809,347.734,0.001103
717,7 Feb 2025 06:11:09.919,7 Feb 2025 06:17:18.929,369.010,0.001170
718,7 Feb 2025 07:45:53.258,7 Feb 2025 07:52:00.851,367.593,0.001166
719,7 Feb 2025 09:20:38.261,7 Feb 2025 09:21:23.341,45.079,0.000143
720,7 Feb 2025 09:21:23.735,7 Feb 2025 09:26:42.583,318.848,0.001011
721,7 Feb 2025 10:55:25.566,7 Feb 2025 11:01:24.080,358.514,0.001137
722,7 Feb 2025 12:30:18.451,7 Feb 2025 12:36:05.269,346.818,0.001100
723,7 Feb 2025 14:04:58.051,7 Feb 2025 14:10:46.014,347.963,0.001103
724,7 Feb 2025 15:39:38.464,7 Feb 2025 15:45:26.037,347.573,0.001102
725,7 Feb 2025 15:45:32.639,7 Feb 2025 15:45:47.333,14.694,0.000047
726,7 Feb 2025 17:14:20.452,7 Feb 2025 17:15:43.856,83.404,0.000264
727,7 Feb 2025 17:15:44.269,7 Feb 2025 17:20:29.400,285.132,0.000904
728,7 Feb 2025 18:49:03.939,7 Feb 2025 18:55:11.301,367.362,0.001165
729,7 Feb 2025 20:23:49.126,7 Feb 2025 20:24:33.548,44.422,0.000141
730,7 Feb 2025 20:24:35.307,7 Feb 2025 20:29:53.013,317.706,0.001007
731,7 Feb 2025 21:58:36.731,7 Feb 2025 22:04:34.484,357.753,0.001134
732,7 Feb 2025 23:33:29.654,7 Feb 2025 23:39:15.638,345.984,0.001097
733,8 Feb 2025 01:08:08.287,8 Feb 2025 01:13:56.327,348.040,0.001104
734,8 Feb 2025 02:42:48.865,8 Feb 2025 02:48:57.815,368.950,0.001170
735,8 Feb 2025 04:17:30.999,8 Feb 2025 04:18:54.111,83.112,0.000264
736,8 Feb 2025 04:18:55.771,8 Feb 2025 04:23:39.867,284.096,0.000901
737,8 Feb 2025 05:52:14.637,8 Feb 2025 05:58:21.751,367.114,0.001164
738,8 Feb 2025 07:27:00.013,8 Feb 2025 07:27:43.733,43.720,0.000139
739,8 Feb 2025 07:27:47.011,8 Feb 2025 07:33:03.443,316.433,0.001003
740,8 Feb 2025 09:01:47.941,8 Feb 2025 09:07:44.886,356.945,0.001132
741,8 Feb 2025 10:36:39.685,8 Feb 2025 10:42:26.003,346.318,0.001098
742,8 Feb 2025 12:11:18.542,8 Feb 2025 12:17:06.636,348.094,0.001104
743,8 Feb 2025 13:45:59.281,8 Feb 2025 13:52:08.297,369.015,0.001170
744,8 Feb 2025 15:20:41.559,8 Feb 2025 15:22:04.352,82.793,0.000263
745,8 Feb 2025 15:22:07.273,8 Feb 2025 15:26:50.332,283.059,0.000898
746,8 Feb 2025 16:55:25.350,8 Feb 2025 17:01:32.199,366.849,0.001163
747,8 Feb 2025 18:30:10.922,8 Feb 2025 18:30:53.894,42.972,0.000136
748,8 Feb 2025 18:30:58.895,8 Feb 2025 18:36:13.869,314.974,0.000999
749,8 Feb 2025 20:04:59.203,8 Feb 2025 20:10:55.286,356.083,0.001129
750,8 Feb 2025 21:39:49.743,8 Feb 2025 21:45:36.360,346.616,0.001099
751,8 Feb 2025 23:14:28.817,8 Feb 2025 23:20:16.938,348.121,0.001104
752,9 Feb 2025 00:49:09.712,9 Feb 2025 00:55:18.774,369.062,0.001170
753,9 Feb 2025 02:23:52.134,9 Feb 2025 02:25:14.572,82.439,0.000261
754,9 Feb 2025 02:25:17.533,9 Feb 2025 02:30:00.794,283.261,0.000898
755,9 Feb 2025 03:58:36.079,9 Feb 2025 04:04:42.647,366.567,0.001162
756,9 Feb 2025 05:33:21.855,9 Feb 2025 05:34:04.036,42.181,0.000134
757,9 Feb 2025 05:34:09.320,9 Feb 2025 05:39:24.294,314.973,0.000999
758,9 Feb 2025 07:08:10.522,9 Feb 2025 07:14:05.683,355.161,0.001126
759,9 Feb 2025 08:42:59.832,9 Feb 2025 08:48:46.720,346.888,0.001100
760,9 Feb 2025 10:17:39.107,9 Feb 2025 10:23:27.231,348.125,0.001104
761,9 Feb 2025 11:52:20.157,9 Feb 2025 11:58:29.251,369.094,0.001170
762,9 Feb 2025 13:27:02.723,9 Feb 2025 13:28:24.775,82.053,0.000260
763,9 Feb 2025 13:28:27.808,9 Feb 2025 13:33:11.257,283.448,0.000899
764,9 Feb 2025 15:01:46.830,9 Feb 2025 15:07:53.092,366.263,0.001161
765,9 Feb 2025 16:36:32.811,9 Feb 2025 16:37:14.154,41.343,0.000131
766,9 Feb 2025 16:37:19.489,9 Feb 2025 16:42:34.715,315.226,0.001000
767,9 Feb 2025 18:11:21.906,9 Feb 2025 18:17:16.074,354.167,0.001123
768,9 Feb 2025 19:46:09.940,9 Feb 2025 19:51:57.071,347.131,0.001101
769,9 Feb 2025 21:20:49.413,9 Feb 2025 21:26:37.520,348.107,0.001104
770,9 Feb 2025 22:55:30.616,9 Feb 2025 23:01:39.727,369.111,0.001170
771,10 Feb 2025 00:30:13.326,10 Feb 2025 00:31:36.011,82.686,0.000262
772,10 Feb 2025 00:31:38.097,10 Feb 2025 00:36:21.717,283.620,0.000899
773,10 Feb 2025 02:04:57.593,10 Feb 2025 02:11:03.532,365.938,0.001160
774,10 Feb 2025 03:39:43.796,10 Feb 2025 03:40:24.247,40.451,0.000128
775,10 Feb 2025 03:40:29.675,10 Feb 2025 03:45:45.137,315.463,0.001000
776,10 Feb 2025 05:14:33.372,10 Feb 2025 05:20:26.465,353.093,0.001120
777,10 Feb 2025 06:49:20.071,10 Feb 2025 06:55:07.418,347.347,0.001101
778,10 Feb 2025 08:23:59.731,10 Feb 2025 08:29:47.794,348.063,0.001104
779,10 Feb 2025 09:58:41.089,10 Feb 2025 10:04:50.201,369.112,0.001170
780,10 Feb 2025 11:33:23.943,10 Feb 2025 11:34:47.771,83.828,0.000266
781,10 Feb 2025 11:34:48.398,10 Feb 2025 11:39:32.176,283.778,0.000900
782,10 Feb 2025 13:08:08.375,10 Feb 2025 13:14:13.972,365.597,0.001159
783,10 Feb 2025 14:42:54.812,10 Feb 2025 14:43:34.312,39.500,0.000125
784,10 Feb 2025 14:43:39.884,10 Feb 2025 14:48:55.550,315.666,0.001001
785,10 Feb 2025 16:17:44.940,10 Feb 2025 16:23:36.851,351.911,0.001116
786,10 Feb 2025 17:52:30.229,10 Feb 2025 17:58:17.754,347.525,0.001102
787,10 Feb 2025 19:27:10.070,10 Feb 2025 19:32:58.060,347.990,0.001103
788,10 Feb 2025 21:01:51.576,10 Feb 2025 21:08:00.675,369.099,0.001170
789,10 Feb 2025 22:36:34.576,10 Feb 2025 22:42:42.634,368.058,0.001167
790,11 Feb 2025 00:11:19.174,11 Feb 2025 00:17:24.414,365.240,0.001158
791,11 Feb 2025 01:46:05.858,11 Feb 2025 01:46:46.471,40.613,0.000129
792,11 Feb 2025 01:46:50.105,11 Feb 2025 01:52:05.964,315.859,0.001002
793,11 Feb 2025 03:20:56.622,11 Feb 2025 03:26:47.233,350.611,0.001112
794,11 Feb 2025 04:55:40.403,11 Feb 2025 04:57:35.182,114.779,0.000364
795,11 Feb 2025 04:57:35.749,11 Feb 2025 05:01:28.095,232.346,0.000737
796,11 Feb 2025 06:30:20.423,11 Feb 2025 06:36:08.318,347.895,0.001103
797,11 Feb 2025 08:05:02.076,11 Feb 2025 08:11:11.145,369.069,0.001170
798,11 Feb 2025 09:39:45.222,11 Feb 2025 09:45:53.090,367.868,0.001167
799,11 Feb 2025 11:14:29.995,11 Feb 2025 11:20:34.846,364.851,0.001157
800,11 Feb 2025 12:49:16.934,11 Feb 2025 12:49:58.484,41.549,0.000132
801,11 Feb 2025 12:50:00.347,11 Feb 2025 12:55:16.379,316.032,0.001002
802,11 Feb 2025 14:24:08.476,11 Feb 2025 14:29:57.607,349.131,0.001107
803,11 Feb 2025 15:58:50.599,11 Feb 2025 16:00:45.484,114.886,0.000364
804,11 Feb 2025 16:00:46.328,11 Feb 2025 16:04:38.425,232.097,0.000736
805,11 Feb 2025 17:33:30.792,11 Feb 2025 17:39:18.564,347.773,0.001103
806,11 Feb 2025 19:08:12.592,11 Feb 2025 19:14:21.617,369.025,0.001170
807,11 Feb 2025 20:42:55.884,11 Feb 2025 20:49:03.546,367.662,0.001166
808,11 Feb 2025 22:17:40.832,11 Feb 2025 22:18:26.105,45.273,0.000144
809,11 Feb 2025 22:18:26.106,11 Feb 2025 22:23:45.282,319.176,0.001012
810,11 Feb 2025 23:52:28.050,11 Feb 2025 23:53:10.261,42.211,0.000134
811,11 Feb 2025 23:53:10.601,11 Feb 2025 23:58:26.789,316.187,0.001003
812,12 Feb 2025 01:27:20.569,12 Feb 2025 01:33:07.986,347.416,0.001102
813,12 Feb 2025 03:02:00.814,12 Feb 2025 03:07:48.749,347.935,0.001103
814,12 Feb 2025 04:36:41.175,12 Feb 2025 04:42:28.802,347.627,0.001102
815,12 Feb 2025 04:42:45.112,12 Feb 2025 04:42:50.015,4.903,0.000016
816,12 Feb 2025 06:11:23.119,12 Feb 2025 06:12:46.610,83.490,0.000265
817,12 Feb 2025 06:12:46.658,12 Feb 2025 06:17:32.089,285.431,0.000905
818,12 Feb 2025 07:46:06.561,12 Feb 2025 07:52:13.996,367.435,0.001165
819,12 Feb 2025 09:20:51.690,12 Feb 2025 09:21:36.315,44.625,0.000142
820,12 Feb 2025 09:21:37.644,12 Feb 2025 09:26:55.713,318.069,0.001009
821,12 Feb 2025 10:55:39.203,12 Feb 2025 11:01:37.192,357.989,0.001135
822,12 Feb 2025 12:30:32.482,12 Feb 2025 12:36:18.357,345.875,0.001097
823,12 Feb 2025 14:05:11.045,12 Feb 2025 14:10:59.064,348.019,0.001104
824,12 Feb 2025 15:39:51.573,12 Feb 2025 15:46:00.499,368.925,0.001170
825,12 Feb 2025 17:14:33.662,12 Feb 2025 17:15:56.867,83.205,0.000264
826,12 Feb 2025 17:15:58.130,12 Feb 2025 17:20:42.556,284.426,0.000902
827,12 Feb 2025 18:49:17.253,12 Feb 2025 18:55:24.446,367.193,0.001164
828,12 Feb 2025 20:24:02.572,12 Feb 2025 20:24:46.511,43.939,0.000139
829,12 Feb 2025 20:24:49.303,12 Feb 2025 20:30:06.143,316.840,0.001005
830,12 Feb 2025 21:58:50.399,12 Feb 2025 22:04:47.596,357.197,0.001133
831,12 Feb 2025 23:33:42.507,12 Feb 2025 23:39:28.723,346.216,0.001098
832,13 Feb 2025 01:08:21.296,13 Feb 2025 01:14:09.375,348.079,0.001104
833,13 Feb 2025 02:43:01.985,13 Feb 2025 02:49:10.980,368.995,0.001170
834,13 Feb 2025 04:17:44.218,13 Feb 2025 04:19:07.114,82.895,0.000263
835,13 Feb 2025 04:19:09.710,13 Feb 2025 04:23:53.020,283.310,0.000898
836,13 Feb 2025 05:52:27.962,13 Feb 2025 05:58:34.895,366.933,0.001164
837,13 Feb 2025 07:27:13.473,13 Feb 2025 07:27:56.678,43.205,0.000137
838,13 Feb 2025 07:28:01.125,13 Feb 2025 07:33:16.571,315.446,0.001000
839,13 Feb 2025 09:02:01.643,13 Feb 2025 09:07:57.996,356.353,0.001130
840,13 Feb 2025 10:36:52.555,13 Feb 2025 10:42:39.086,346.530,0.001099
841,13 Feb 2025 12:11:31.561,13 Feb 2025 12:17:19.678,348.117,0.001104
842,13 Feb 2025 13:46:12.411,13 Feb 2025 13:52:21.461,369.050,0.001170
843,13 Feb 2025 15:20:54.789,13 Feb 2025 15:22:17.340,82.551,0.000262
844,13 Feb 2025 15:22:20.286,13 Feb 2025 15:27:03.487,283.201,0.000898
845,13 Feb 2025 16:55:38.688,13 Feb 2025 17:01:45.344,366.656,0.001163
846,13 Feb 2025 18:30:24.396,13 Feb 2025 18:31:06.827,42.431,0.000135
847,13 Feb 2025 18:31:12.106,13 Feb 2025 18:36:26.996,314.891,0.000999
848,13 Feb 2025 20:05:12.942,13 Feb 2025 20:11:08.394,355.452,0.001127
849,13 Feb 2025 21:40:02.637,13 Feb 2025 21:45:49.439,346.802,0.001100
850,13 Feb 2025 23:14:41.849,13 Feb 2025 23:20:29.974,348.125,0.001104
851,14 Feb 2025 00:49:22.852,14 Feb 2025 00:55:31.938,369.086,0.001170
852,14 Feb 2025 02:24:05.373,14 Feb 2025 02:25:27.548,82.175,0.000261
853,14 Feb 2025 02:25:30.556,14 Feb 2025 02:30:13.948,283.392,0.000899
854,14 Feb 2025 03:58:49.431,14 Feb 2025 04:04:55.788,366.356,0.001162
855,14 Feb 2025 05:33:35.347,14 Feb 2025 05:34:16.954,41.607,0.000132
856,14 Feb 2025 05:34:22.270,14 Feb 2025 05:39:37.419,315.149,0.000999
857,14 Feb 2025 07:08:24.309,14 Feb 2025 07:14:18.788,354.480,0.001124
