3UCubedIntegratedSim/Reports & Plots/North Cusp/NorthCusp CSV/NorthCusp_Sat5.csv

Number,Coverage Start (UTCG),Coverage End (UTCG),Duration (sec),Percent,
1,2025-01-01 16:21:27,2025-01-01 16:24:31,184.906,0.059%,
2,2025-01-01 17:56:09,2025-01-01 17:58:55,165.429,0.053%,
3,2025-01-01 19:30:52,2025-01-01 19:33:51,178.649,0.057%,
4,2025-01-01 21:05:24,2025-01-01 21:08:47,202.572,0.064%,
5,2025-01-01 22:40:30,2025-01-01 22:43:10,160.178,0.051%,
6,2025-01-02 00:15:12,2025-01-02 00:18:06,173.905,0.055%,
7,2025-01-02 01:49:55,2025-01-02 01:52:29,154.897,0.049%,
8,2025-01-02 03:24:37,2025-01-02 03:27:25,168.151,0.053%,
9,2025-01-02 04:59:20,2025-01-02 05:02:21,181.556,0.058%,
10,2025-01-02 06:34:03,2025-01-02 06:36:45,162.094,0.051%,
11,2025-01-02 08:08:34,2025-01-02 08:11:41,186.313,0.059%,
12,2025-01-02 09:43:40,2025-01-02 09:46:37,176.392,0.056%,
13,2025-01-02 11:18:23,2025-01-02 11:21:00,157.322,0.050%,
14,2025-01-02 12:53:05,2025-01-02 12:55:56,170.81,0.054%,
15,2025-01-02 14:27:48,2025-01-02 14:30:52,184.357,0.059%,
16,2025-01-02 16:02:30,2025-01-02 16:05:15,164.876,0.052%,
17,2025-01-02 17:37:10,2025-01-02 17:37:13,2.13,0.001%,
18,2025-01-02 17:37:13,2025-01-02 17:40:11,178.051,0.057%,
19,2025-01-02 19:11:44,2025-01-02 19:15:07,203.013,0.064%,
20,2025-01-02 20:46:51,2025-01-02 20:49:30,159.708,0.051%,
21,2025-01-02 22:21:33,2025-01-02 22:24:27,173.399,0.055%,
22,2025-01-02 23:56:16,2025-01-02 23:58:50,154.413,0.049%,
23,2025-01-03 01:30:58,2025-01-03 01:33:46,167.609,0.053%,
24,2025-01-03 03:05:41,2025-01-03 03:08:42,180.979,0.057%,
25,2025-01-03 04:40:19,2025-01-03 04:43:05,166.394,0.053%,
26,2025-01-03 06:14:54,2025-01-03 06:18:01,186.705,0.059%,
27,2025-01-03 07:50:01,2025-01-03 07:52:57,175.904,0.056%,
28,2025-01-03 09:24:44,2025-01-03 09:27:20,156.844,0.050%,
29,2025-01-03 10:59:26,2025-01-03 11:02:16,170.283,0.054%,
30,2025-01-03 12:34:09,2025-01-03 12:37:12,183.803,0.058%,
31,2025-01-03 14:08:51,2025-01-03 14:11:36,164.321,0.052%,
32,2025-01-03 15:43:28,2025-01-03 15:46:32,183.562,0.058%,
33,2025-01-03 17:18:04,2025-01-03 17:21:28,203.355,0.065%,
34,2025-01-03 18:53:12,2025-01-03 18:55:51,159.238,0.051%,
35,2025-01-03 20:27:54,2025-01-03 20:30:47,172.888,0.055%,
36,2025-01-03 22:02:37,2025-01-03 22:05:43,186.512,0.059%,
37,2025-01-03 23:37:19,2025-01-03 23:40:06,167.065,0.053%,
38,2025-01-04 01:12:02,2025-01-04 01:15:02,180.397,0.057%,
39,2025-01-04 02:46:38,2025-01-04 02:49:26,168.05,0.053%,
40,2025-01-04 04:21:15,2025-01-04 04:24:22,187.013,0.059%,
41,2025-01-04 05:56:22,2025-01-04 05:59:18,175.414,0.056%,
42,2025-01-04 07:31:05,2025-01-04 07:33:41,156.361,0.050%,
43,2025-01-04 09:05:47,2025-01-04 09:08:37,169.752,0.054%,
44,2025-01-04 10:40:30,2025-01-04 10:43:33,183.246,0.058%,
45,2025-01-04 12:15:12,2025-01-04 12:17:56,163.761,0.052%,
46,2025-01-04 13:49:47,2025-01-04 13:52:52,184.774,0.059%,
47,2025-01-04 15:24:25,2025-01-04 15:27:48,203.621,0.065%,
48,2025-01-04 16:59:33,2025-01-04 17:02:12,158.768,0.050%,
49,2025-01-04 18:34:15,2025-01-04 18:37:08,172.375,0.055%,
50,2025-01-04 20:08:58,2025-01-04 20:12:04,185.983,0.059%,
51,2025-01-04 21:43:40,2025-01-04 21:46:27,166.518,0.053%,
52,2025-01-04 23:18:23,2025-01-04 23:21:23,179.809,0.057%,
53,2025-01-05 00:52:57,2025-01-05 00:55:47,170.207,0.054%,
54,2025-01-05 02:27:35,2025-01-05 02:30:42,187.254,0.059%,
55,2025-01-05 04:02:43,2025-01-05 04:05:38,174.918,0.056%,
56,2025-01-05 05:37:26,2025-01-05 05:40:02,155.876,0.049%,
57,2025-01-05 07:12:08,2025-01-05 07:14:57,169.22,0.054%,
58,2025-01-05 08:46:51,2025-01-05 08:49:54,182.68,0.058%,
59,2025-01-05 10:21:34,2025-01-05 10:24:17,163.202,0.052%,
60,2025-01-05 11:56:07,2025-01-05 11:59:13,185.586,0.059%,
61,2025-01-05 13:30:45,2025-01-05 13:34:09,203.822,0.065%,
62,2025-01-05 15:05:54,2025-01-05 15:08:32,158.29,0.050%,
63,2025-01-05 16:40:36,2025-01-05 16:43:28,171.855,0.055%,
64,2025-01-05 18:15:19,2025-01-05 18:18:24,185.445,0.059%,
65,2025-01-05 19:50:01,2025-01-05 19:52:47,165.97,0.053%,
66,2025-01-05 21:24:44,2025-01-05 21:27:43,179.219,0.057%,
67,2025-01-05 22:59:17,2025-01-05 23:02:07,169.791,0.054%,
68,2025-01-06 00:33:55,2025-01-06 00:34:19,23.521,0.008%,
69,2025-01-06 00:34:22,2025-01-06 00:37:03,160.663,0.051%,
70,2025-01-06 02:09:04,2025-01-06 02:11:59,174.417,0.055%,
71,2025-01-06 03:43:47,2025-01-06 03:46:22,155.389,0.049%,
72,2025-01-06 05:18:29,2025-01-06 05:21:18,168.682,0.054%,
73,2025-01-06 06:53:12,2025-01-06 06:56:14,182.113,0.058%,
74,2025-01-06 08:27:55,2025-01-06 08:30:37,162.638,0.052%,
75,2025-01-06 10:02:27,2025-01-06 10:05:33,186.182,0.059%,
76,2025-01-06 11:37:05,2025-01-06 11:37:22,16.849,0.005%,
77,2025-01-06 11:37:32,2025-01-06 11:40:29,176.888,0.056%,
78,2025-01-06 13:12:15,2025-01-06 13:14:53,157.815,0.050%,
79,2025-01-06 14:46:57,2025-01-06 14:49:49,171.334,0.054%,
80,2025-01-06 16:21:40,2025-01-06 16:24:45,184.899,0.059%,
81,2025-01-06 17:56:22,2025-01-06 17:59:08,165.416,0.053%,
82,2025-01-06 19:31:05,2025-01-06 19:34:04,178.624,0.057%,
83,2025-01-06 21:05:37,2025-01-06 21:08:30,173.18,0.055%,
84,2025-01-06 21:08:31,2025-01-06 21:09:00,29.161,0.009%,
85,2025-01-06 22:40:16,2025-01-06 22:40:26,10.053,0.003%,
86,2025-01-06 22:40:43,2025-01-06 22:43:23,160.198,0.051%,
87,2025-01-07 00:15:25,2025-01-07 00:18:19,173.912,0.055%,
88,2025-01-07 01:50:08,2025-01-07 01:52:43,154.902,0.049%,
89,2025-01-07 03:24:50,2025-01-07 03:27:38,168.144,0.053%,
90,2025-01-07 04:59:33,2025-01-07 05:02:35,181.538,0.058%,
91,2025-01-07 06:34:16,2025-01-07 06:36:58,162.073,0.051%,
92,2025-01-07 08:08:47,2025-01-07 08:11:54,186.639,0.059%,
93,2025-01-07 09:43:26,2025-01-07 09:43:29,3.149,0.001%,
94,2025-01-07 09:43:53,2025-01-07 09:46:50,176.406,0.056%,
95,2025-01-07 11:18:36,2025-01-07 11:21:13,157.333,0.050%,
96,2025-01-07 12:53:18,2025-01-07 12:56:09,170.808,0.054%,
97,2025-01-07 14:28:01,2025-01-07 14:31:05,184.348,0.059%,
98,2025-01-07 16:02:44,2025-01-07 16:05:28,164.861,0.052%,
99,2025-01-07 17:37:22,2025-01-07 17:40:24,182.406,0.058%,
100,2025-01-07 19:11:57,2025-01-07 19:15:20,203.323,0.065%,
101,2025-01-07 20:47:04,2025-01-07 20:49:44,159.724,0.051%,
102,2025-01-07 22:21:46,2025-01-07 22:24:40,173.404,0.055%,
103,2025-01-07 23:56:29,2025-01-07 23:59:03,154.416,0.049%,
104,2025-01-08 01:31:11,2025-01-08 01:33:59,167.6,0.053%,
105,2025-01-08 03:05:54,2025-01-08 03:08:55,180.96,0.057%,
106,2025-01-08 04:40:31,2025-01-08 04:43:18,167.273,0.053%,
107,2025-01-08 06:15:07,2025-01-08 06:18:14,186.998,0.059%,
108,2025-01-08 07:50:14,2025-01-08 07:53:10,175.916,0.056%,
109,2025-01-08 09:24:57,2025-01-08 09:27:34,156.852,0.050%,
110,2025-01-08 10:59:39,2025-01-08 11:02:30,170.28,0.054%,
111,2025-01-08 12:34:22,2025-01-08 12:37:26,183.792,0.058%,
112,2025-01-08 14:09:05,2025-01-08 14:11:49,164.304,0.052%,
113,2025-01-08 15:43:41,2025-01-08 15:46:45,184.232,0.058%,
114,2025-01-08 17:18:17,2025-01-08 17:21:41,203.635,0.065%,
115,2025-01-08 18:53:25,2025-01-08 18:56:04,159.252,0.051%,
116,2025-01-08 20:28:07,2025-01-08 20:31:00,172.892,0.055%,
117,2025-01-08 22:02:50,2025-01-08 22:05:24,153.921,0.049%,
118,2025-01-08 23:37:32,2025-01-08 23:40:19,167.054,0.053%,
119,2025-01-09 01:12:15,2025-01-09 01:15:16,180.375,0.057%,
120,2025-01-09 02:46:50,2025-01-09 02:49:39,168.613,0.054%,
121,2025-01-09 04:21:28,2025-01-09 04:24:35,187.28,0.059%,
122,2025-01-09 05:56:35,2025-01-09 05:59:31,175.424,0.056%,
123,2025-01-09 07:31:18,2025-01-09 07:33:54,156.368,0.050%,
124,2025-01-09 09:06:00,2025-01-09 09:08:50,169.748,0.054%,
125,2025-01-09 10:40:43,2025-01-09 10:43:46,183.232,0.058%,
126,2025-01-09 12:15:26,2025-01-09 12:18:09,163.743,0.052%,
127,2025-01-09 13:50:00,2025-01-09 13:53:05,185.262,0.059%,
128,2025-01-09 15:24:38,2025-01-09 15:28:02,203.875,0.065%,
129,2025-01-09 16:59:46,2025-01-09 17:02:25,158.781,0.050%,
130,2025-01-09 18:34:28,2025-01-09 18:37:21,172.377,0.055%,
131,2025-01-09 20:09:11,2025-01-09 20:11:44,153.429,0.049%,
132,2025-01-09 20:12:09,2025-01-09 20:12:17,7.594,0.002%,
133,2025-01-09 21:43:53,2025-01-09 21:46:40,166.506,0.053%,
134,2025-01-09 23:18:36,2025-01-09 23:21:36,179.787,0.057%,
135,2025-01-10 00:53:10,2025-01-10 00:56:01,170.725,0.054%,
136,2025-01-10 02:27:48,2025-01-10 02:30:55,187.501,0.060%,
137,2025-01-10 04:02:56,2025-01-10 04:05:51,174.926,0.056%,
138,2025-01-10 05:37:39,2025-01-10 05:40:15,155.882,0.049%,
139,2025-01-10 07:12:21,2025-01-10 07:15:11,169.214,0.054%,
140,2025-01-10 08:47:04,2025-01-10 08:50:07,182.665,0.058%,
141,2025-01-10 10:21:47,2025-01-10 10:24:30,163.182,0.052%,
142,2025-01-10 11:56:20,2025-01-10 11:59:26,185.986,0.059%,
143,2025-01-10 13:30:58,2025-01-10 13:34:22,204.064,0.065%,
144,2025-01-10 15:06:07,2025-01-10 15:08:45,158.301,0.050%,
145,2025-01-10 16:40:49,2025-01-10 16:43:41,171.856,0.055%,
146,2025-01-10 18:15:32,2025-01-10 18:18:37,185.437,0.059%,
147,2025-01-10 19:50:15,2025-01-10 19:53:01,165.956,0.053%,
148,2025-01-10 21:24:57,2025-01-10 21:27:57,179.195,0.057%,
149,2025-01-10 22:59:30,2025-01-10 23:02:20,170.169,0.054%,
150,2025-01-11 00:34:08,2025-01-11 00:37:16,187.669,0.060%,
151,2025-01-11 02:09:17,2025-01-11 02:12:12,174.424,0.055%,
152,2025-01-11 03:44:00,2025-01-11 03:46:35,155.393,0.049%,
153,2025-01-11 05:18:42,2025-01-11 05:21:31,168.674,0.054%,
154,2025-01-11 06:53:25,2025-01-11 06:56:27,182.096,0.058%,
155,2025-01-11 08:28:08,2025-01-11 08:30:51,162.617,0.052%,
156,2025-01-11 10:02:40,2025-01-11 10:05:46,186.533,0.059%,
157,2025-01-11 11:37:18,2025-01-11 11:40:43,204.197,0.065%,
158,2025-01-11 13:12:28,2025-01-11 13:15:06,157.822,0.050%,
159,2025-01-11 14:47:10,2025-01-11 14:50:02,171.333,0.054%,
160,2025-01-11 16:21:53,2025-01-11 16:24:58,184.89,0.059%,
161,2025-01-11 17:56:36,2025-01-11 17:59:21,165.401,0.052%,
162,2025-01-11 19:31:18,2025-01-11 19:34:17,178.598,0.057%,
163,2025-01-11 21:05:50,2025-01-11 21:08:44,173.588,0.055%,
164,2025-01-11 22:40:29,2025-01-11 22:43:36,187.795,0.060%,
165,2025-01-12 00:15:38,2025-01-12 00:18:32,173.917,0.055%,
166,2025-01-12 01:50:21,2025-01-12 01:52:56,154.905,0.049%,
167,2025-01-12 03:25:04,2025-01-12 03:27:52,168.134,0.053%,
168,2025-01-12 04:59:46,2025-01-12 05:02:48,181.52,0.058%,
169,2025-01-12 06:34:25,2025-01-12 06:37:11,165.83,0.053%,
170,2025-01-12 08:09:00,2025-01-12 08:12:07,186.952,0.059%,
171,2025-01-12 09:43:39,2025-01-12 09:47:03,204.291,0.065%,
172,2025-01-12 11:18:49,2025-01-12 11:21:26,157.341,0.050%,
173,2025-01-12 12:53:31,2025-01-12 12:56:22,170.806,0.054%,
174,2025-01-12 14:28:14,2025-01-12 14:31:18,184.337,0.059%,
175,2025-01-12 16:02:57,2025-01-12 16:05:42,164.845,0.052%,
176,2025-01-12 17:37:34,2025-01-12 17:40:38,183.383,0.058%,
177,2025-01-12 19:12:10,2025-01-12 19:15:01,171.096,0.054%,
178,2025-01-12 20:46:49,2025-01-12 20:49:57,187.886,0.060%,
179,2025-01-12 22:21:59,2025-01-12 22:24:53,173.408,0.055%,
180,2025-01-12 23:56:42,2025-01-12 23:59:16,154.418,0.049%,
181,2025-01-13 01:31:25,2025-01-13 01:34:12,167.59,0.053%,
182,2025-01-13 03:06:07,2025-01-13 03:09:08,180.94,0.057%,
183,2025-01-13 04:40:44,2025-01-13 04:43:32,167.986,0.053%,
184,2025-01-13 06:15:20,2025-01-13 06:18:27,187.28,0.059%,
185,2025-01-13 07:49:59,2025-01-13 07:53:24,204.348,0.065%,
186,2025-01-13 09:25:10,2025-01-13 09:27:47,156.86,0.050%,
187,2025-01-13 10:59:52,2025-01-13 11:02:43,170.277,0.054%,
188,2025-01-13 12:34:35,2025-01-13 12:37:39,183.78,0.058%,
189,2025-01-13 14:09:18,2025-01-13 14:12:02,164.287,0.052%,
190,2025-01-13 15:43:53,2025-01-13 15:46:58,184.817,0.059%,
191,2025-01-13 17:18:30,2025-01-13 17:21:54,203.904,0.065%,
192,2025-01-13 18:53:09,2025-01-13 18:56:17,187.945,0.060%,
193,2025-01-13 20:28:21,2025-01-13 20:31:13,172.895,0.055%,
194,2025-01-13 22:03:03,2025-01-13 22:05:37,153.923,0.049%,
195,2025-01-13 23:37:46,2025-01-13 23:40:33,167.045,0.053%,
196,2025-01-14 01:12:28,2025-01-14 01:15:29,180.353,0.057%,
197,2025-01-14 02:47:03,2025-01-14 02:49:52,169.127,0.054%,
198,2025-01-14 04:21:40,2025-01-14 04:24:48,187.541,0.060%,
199,2025-01-14 05:56:20,2025-01-14 05:59:44,204.37,0.065%,
200,2025-01-14 07:31:31,2025-01-14 07:34:07,156.375,0.050%,
201,2025-01-14 09:06:14,2025-01-14 09:09:03,169.743,0.054%,
202,2025-01-14 10:40:56,2025-01-14 10:43:59,183.219,0.058%,
203,2025-01-14 12:15:39,2025-01-14 12:18:23,163.725,0.052%,
204,2025-01-14 13:50:13,2025-01-14 13:53:19,185.719,0.059%,
205,2025-01-14 15:24:51,2025-01-14 15:28:15,204.13,0.065%,
206,2025-01-14 16:59:30,2025-01-14 17:02:38,187.977,0.060%,
207,2025-01-14 18:34:42,2025-01-14 18:37:34,172.378,0.055%,
208,2025-01-14 20:09:24,2025-01-14 20:11:57,153.43,0.049%,
209,2025-01-14 21:44:07,2025-01-14 21:46:53,166.494,0.053%,
210,2025-01-14 23:18:49,2025-01-14 23:21:49,179.764,0.057%,
211,2025-01-15 00:53:23,2025-01-15 00:56:14,171.221,0.054%,
212,2025-01-15 02:28:01,2025-01-15 02:31:08,187.744,0.060%,
213,2025-01-15 04:02:40,2025-01-15 04:06:05,204.363,0.065%,
214,2025-01-15 05:37:52,2025-01-15 05:40:28,155.888,0.049%,
215,2025-01-15 07:12:35,2025-01-15 07:15:24,169.208,0.054%,
216,2025-01-15 08:47:17,2025-01-15 08:50:20,182.65,0.058%,
217,2025-01-15 10:22:00,2025-01-15 10:24:43,163.162,0.052%,
218,2025-01-15 11:56:33,2025-01-15 11:59:39,186.37,0.059%,
219,2025-01-15 13:31:11,2025-01-15 13:34:35,204.297,0.065%,
220,2025-01-15 15:05:50,2025-01-15 15:08:58,187.982,0.060%,
221,2025-01-15 16:41:03,2025-01-15 16:43:54,171.857,0.055%,
222,2025-01-15 18:15:45,2025-01-15 18:18:18,152.936,0.049%,
223,2025-01-15 19:50:28,2025-01-15 19:53:14,165.943,0.053%,
224,2025-01-15 21:25:11,2025-01-15 21:28:10,179.17,0.057%,
225,2025-01-15 22:59:43,2025-01-15 23:02:33,170.532,0.054%,
226,2025-01-16 00:34:21,2025-01-16 00:37:29,187.896,0.060%,
227,2025-01-16 02:09:01,2025-01-16 02:12:25,204.334,0.065%,
228,2025-01-16 03:44:13,2025-01-16 03:46:48,155.398,0.049%,
229,2025-01-16 05:18:56,2025-01-16 05:21:44,168.667,0.054%,
230,2025-01-16 06:53:38,2025-01-16 06:56:40,182.079,0.058%,
231,2025-01-16 08:28:21,2025-01-16 08:31:04,162.596,0.052%,
232,2025-01-16 10:02:53,2025-01-16 10:06:00,186.871,0.059%,
233,2025-01-16 11:37:31,2025-01-16 11:40:56,204.416,0.065%,
234,2025-01-16 13:12:11,2025-01-16 13:15:19,187.96,0.060%,
235,2025-01-16 14:47:24,2025-01-16 14:50:15,171.332,0.054%,
236,2025-01-16 16:22:06,2025-01-16 16:25:11,184.881,0.059%,
237,2025-01-16 17:56:49,2025-01-16 17:59:34,165.387,0.052%,
238,2025-01-16 19:31:29,2025-01-16 19:31:31,2.685,0.001%,
239,2025-01-16 19:31:32,2025-01-16 19:34:30,178.572,0.057%,
240,2025-01-16 21:06:03,2025-01-16 21:08:57,173.982,0.055%,
241,2025-01-16 22:40:42,2025-01-16 22:43:50,188.011,0.060%,
242,2025-01-17 00:15:21,2025-01-17 00:15:42,21.078,0.007%,
243,2025-01-17 00:15:52,2025-01-17 00:18:46,173.923,0.055%,
244,2025-01-17 01:50:34,2025-01-17 01:53:09,154.909,0.049%,
245,2025-01-17 03:25:17,2025-01-17 03:28:05,168.125,0.053%,
246,2025-01-17 04:59:59,2025-01-17 05:03:01,181.502,0.058%,
247,2025-01-17 06:34:37,2025-01-17 06:37:24,167,0.053%,
248,2025-01-17 08:09:13,2025-01-17 08:12:20,187.256,0.059%,
249,2025-01-17 09:43:52,2025-01-17 09:47:16,204.497,0.065%,
250,2025-01-17 11:18:32,2025-01-17 11:18:43,11.219,0.004%,
251,2025-01-17 11:19:02,2025-01-17 11:21:40,157.351,0.050%,
252,2025-01-17 12:53:45,2025-01-17 12:56:35,170.804,0.054%,
253,2025-01-17 14:28:27,2025-01-17 14:31:32,184.326,0.058%,
254,2025-01-17 16:03:10,2025-01-17 16:05:55,164.829,0.052%,
255,2025-01-17 17:37:47,2025-01-17 17:40:51,184.163,0.058%,
256,2025-01-17 19:12:23,2025-01-17 19:15:14,171.392,0.054%,
257,2025-01-17 20:47:02,2025-01-17 20:50:10,188.088,0.060%,
258,2025-01-17 22:21:42,2025-01-17 22:21:43,1.216,0.000%,
259,2025-01-17 22:22:13,2025-01-17 22:25:06,173.413,0.055%,
260,2025-01-17 23:56:55,2025-01-17 23:59:30,154.421,0.049%,
261,2025-01-18 01:31:38,2025-01-18 01:34:25,167.58,0.053%,
262,2025-01-18 03:06:20,2025-01-18 03:09:21,180.92,0.057%,
263,2025-01-18 04:40:56,2025-01-18 04:43:45,168.615,0.054%,
264,2025-01-18 06:15:33,2025-01-18 06:18:41,187.558,0.060%,
265,2025-01-18 07:50:12,2025-01-18 07:53:37,204.542,0.065%,
266,2025-01-18 09:25:23,2025-01-18 09:28:00,156.868,0.050%,
267,2025-01-18 11:00:06,2025-01-18 11:02:56,170.273,0.054%,
268,2025-01-18 12:34:48,2025-01-18 12:37:52,183.767,0.058%,
269,2025-01-18 14:09:31,2025-01-18 14:12:15,164.27,0.052%,
270,2025-01-18 15:44:06,2025-01-18 15:47:11,185.349,0.059%,
271,2025-01-18 17:18:43,2025-01-18 17:21:40,176.341,0.056%,
272,2025-01-18 18:53:22,2025-01-18 18:56:31,188.136,0.060%,
273,2025-01-18 20:28:34,2025-01-18 20:31:27,172.898,0.055%,
274,2025-01-18 22:03:16,2025-01-18 22:05:50,153.925,0.049%,
275,2025-01-18 23:37:59,2025-01-18 23:40:46,167.034,0.053%,
276,2025-01-19 01:12:42,2025-01-19 01:15:42,180.332,0.057%,
277,2025-01-19 02:47:16,2025-01-19 02:50:05,169.608,0.054%,
278,2025-01-19 04:21:53,2025-01-19 04:25:01,187.799,0.060%,
279,2025-01-19 05:56:33,2025-01-19 05:59:57,204.551,0.065%,
280,2025-01-19 07:31:44,2025-01-19 07:34:21,156.382,0.050%,
281,2025-01-19 09:06:27,2025-01-19 09:09:16,169.738,0.054%,
282,2025-01-19 10:41:09,2025-01-19 10:44:13,183.205,0.058%,
283,2025-01-19 12:15:52,2025-01-19 12:18:36,163.706,0.052%,
284,2025-01-19 13:50:26,2025-01-19 13:53:32,186.15,0.059%,
285,2025-01-19 15:25:04,2025-01-19 15:28:28,204.37,0.065%,
286,2025-01-19 16:59:43,2025-01-19 17:02:51,188.156,0.060%,
287,2025-01-19 18:34:55,2025-01-19 18:37:47,172.38,0.055%,
288,2025-01-19 20:09:37,2025-01-19 20:12:11,153.431,0.049%,
289,2025-01-19 21:44:20,2025-01-19 21:47:06,166.482,0.053%,
290,2025-01-19 23:19:03,2025-01-19 23:22:02,179.74,0.057%,
291,2025-01-20 00:53:36,2025-01-20 00:56:27,171.69,0.054%,
292,2025-01-20 02:28:14,2025-01-20 02:31:22,187.978,0.060%,
293,2025-01-20 04:02:53,2025-01-20 04:06:18,204.536,0.065%,
294,2025-01-20 05:38:05,2025-01-20 05:40:41,155.893,0.049%,
295,2025-01-20 07:12:48,2025-01-20 07:15:37,169.201,0.054%,
296,2025-01-20 08:47:30,2025-01-20 08:50:33,182.634,0.058%,
297,2025-01-20 10:22:13,2025-01-20 10:24:56,163.142,0.052%,
298,2025-01-20 11:56:46,2025-01-20 11:59:52,186.737,0.059%,
299,2025-01-20 13:31:24,2025-01-20 13:34:48,204.524,0.065%,
300,2025-01-20 15:06:03,2025-01-20 15:09:12,188.155,0.060%,
301,2025-01-20 16:41:16,2025-01-20 16:44:08,171.86,0.055%,
302,2025-01-20 18:15:58,2025-01-20 18:18:31,152.935,0.049%,
303,2025-01-20 19:50:41,2025-01-20 19:53:27,165.929,0.053%,
304,2025-01-20 21:25:24,2025-01-20 21:28:23,179.145,0.057%,
305,2025-01-20 22:59:56,2025-01-20 23:02:46,170.882,0.054%,
306,2025-01-21 00:34:34,2025-01-21 00:37:42,188.118,0.060%,
307,2025-01-21 02:09:14,2025-01-21 02:12:38,204.499,0.065%,
308,2025-01-21 03:44:26,2025-01-21 03:47:02,155.403,0.049%,
309,2025-01-21 05:19:09,2025-01-21 05:21:58,168.659,0.054%,
310,2025-01-21 06:53:52,2025-01-21 06:56:54,182.062,0.058%,
311,2025-01-21 08:28:34,2025-01-21 08:31:17,162.574,0.052%,
312,2025-01-21 10:03:06,2025-01-21 10:06:13,187.19,0.059%,
313,2025-01-21 11:37:44,2025-01-21 11:41:09,204.629,0.065%,
314,2025-01-21 13:12:24,2025-01-21 13:15:32,188.124,0.060%,
315,2025-01-21 14:47:37,2025-01-21 14:50:28,171.33,0.054%,
316,2025-01-21 16:22:19,2025-01-21 16:24:52,152.434,0.048%,
317,2025-01-21 17:57:02,2025-01-21 17:59:47,165.371,0.052%,
318,2025-01-21 19:31:40,2025-01-21 19:34:43,183.044,0.058%,
319,2025-01-21 21:06:16,2025-01-21 21:09:10,174.365,0.055%,
320,2025-01-21 22:40:55,2025-01-21 22:44:03,188.219,0.060%,
321,2025-01-22 00:15:34,2025-01-22 00:18:59,204.434,0.065%,
322,2025-01-22 01:50:47,2025-01-22 01:53:22,154.912,0.049%,
323,2025-01-22 03:25:30,2025-01-22 03:28:18,168.115,0.053%,
324,2025-01-22 05:00:13,2025-01-22 05:03:14,181.482,0.058%,
325,2025-01-22 06:34:50,2025-01-22 06:37:37,167.851,0.053%,
326,2025-01-22 08:09:26,2025-01-22 08:12:33,187.547,0.060%,
327,2025-01-22 09:44:05,2025-01-22 09:47:29,204.693,0.065%,
328,2025-01-22 11:18:45,2025-01-22 11:21:53,188.078,0.060%,
329,2025-01-22 12:53:58,2025-01-22 12:56:49,170.801,0.054%,
330,2025-01-22 14:28:40,2025-01-22 14:31:45,184.315,0.058%,
331,2025-01-22 16:03:23,2025-01-22 16:06:08,164.812,0.052%,
332,2025-01-22 17:37:59,2025-01-22 17:41:04,184.814,0.059%,
333,2025-01-22 19:12:36,2025-01-22 19:15:28,171.677,0.054%,
334,2025-01-22 20:47:15,2025-01-22 20:50:23,188.287,0.060%,
335,2025-01-22 22:21:55,2025-01-22 22:25:19,204.349,0.065%,
336,2025-01-22 23:57:08,2025-01-22 23:59:43,154.422,0.049%,
337,2025-01-23 01:31:51,2025-01-23 01:34:39,167.57,0.053%,
338,2025-01-23 03:06:34,2025-01-23 03:09:35,180.899,0.057%,
339,2025-01-23 04:41:09,2025-01-23 04:43:58,169.172,0.054%,
340,2025-01-23 06:15:46,2025-01-23 06:18:54,187.824,0.060%,
341,2025-01-23 07:50:25,2025-01-23 07:53:50,204.729,0.065%,
342,2025-01-23 09:25:05,2025-01-23 09:28:13,188.012,0.060%,
343,2025-01-23 11:00:19,2025-01-23 11:03:09,170.268,0.054%,
344,2025-01-23 12:35:02,2025-01-23 12:38:05,183.754,0.058%,
345,2025-01-23 14:09:44,2025-01-23 14:12:29,164.251,0.052%,
346,2025-01-23 15:44:19,2025-01-23 15:47:24,185.835,0.059%,
347,2025-01-23 17:18:56,2025-01-23 17:21:53,176.676,0.056%,
348,2025-01-23 18:53:35,2025-01-23 18:56:44,188.321,0.060%,
349,2025-01-23 20:28:16,2025-01-23 20:31:40,204.241,0.065%,
350,2025-01-23 22:03:29,2025-01-23 22:06:03,153.925,0.049%,
351,2025-01-23 23:38:12,2025-01-23 23:40:59,167.021,0.053%,
352,2025-01-24 01:12:55,2025-01-24 01:15:55,180.309,0.057%,
353,2025-01-24 02:47:28,2025-01-24 02:50:19,170.051,0.054%,
354,2025-01-24 04:22:06,2025-01-24 04:25:14,188.042,0.060%,
355,2025-01-24 05:56:46,2025-01-24 06:00:10,204.731,0.065%,
356,2025-01-24 07:31:26,2025-01-24 07:34:34,187.927,0.060%,
357,2025-01-24 09:06:40,2025-01-24 09:09:30,169.732,0.054%,
358,2025-01-24 10:41:23,2025-01-24 10:44:26,183.189,0.058%,
359,2025-01-24 12:16:05,2025-01-24 12:18:49,163.686,0.052%,
360,2025-01-24 13:50:38,2025-01-24 13:53:45,186.549,0.059%,
361,2025-01-24 15:25:16,2025-01-24 15:28:09,172.202,0.055%,
362,2025-01-24 16:59:56,2025-01-24 17:03:04,188.332,0.060%,
363,2025-01-24 18:34:36,2025-01-24 18:35:02,26.039,0.008%,
364,2025-01-24 18:35:08,2025-01-24 18:38:00,172.378,0.055%,
365,2025-01-24 20:09:50,2025-01-24 20:12:24,153.428,0.049%,
366,2025-01-24 21:44:33,2025-01-24 21:47:20,166.468,0.053%,
367,2025-01-24 23:19:16,2025-01-24 23:22:16,179.716,0.057%,
368,2025-01-25 00:53:48,2025-01-25 00:56:41,172.139,0.055%,
369,2025-01-25 02:28:27,2025-01-25 02:31:35,188.212,0.060%,
370,2025-01-25 04:03:06,2025-01-25 04:06:31,204.704,0.065%,
371,2025-01-25 05:37:46,2025-01-25 05:38:00,13.499,0.004%,
372,2025-01-25 05:38:18,2025-01-25 05:40:54,155.898,0.049%,
373,2025-01-25 07:13:01,2025-01-25 07:15:50,169.194,0.054%,
374,2025-01-25 08:47:44,2025-01-25 08:50:46,182.617,0.058%,
375,2025-01-25 10:22:26,2025-01-25 10:25:10,163.121,0.052%,
376,2025-01-25 11:56:58,2025-01-25 12:00:05,187.085,0.059%,
377,2025-01-25 13:31:37,2025-01-25 13:35:02,204.744,0.065%,
378,2025-01-25 15:06:17,2025-01-25 15:09:25,188.317,0.060%,
379,2025-01-25 16:40:57,2025-01-25 16:40:58,0.79,0.000%,
380,2025-01-25 16:41:29,2025-01-25 16:44:21,171.859,0.055%,
381,2025-01-25 18:16:12,2025-01-25 18:18:44,152.932,0.049%,
382,2025-01-25 19:50:54,2025-01-25 19:53:40,165.911,0.053%,
383,2025-01-25 21:25:37,2025-01-25 21:28:36,179.118,0.057%,
384,2025-01-25 23:00:08,2025-01-25 23:03:00,171.214,0.054%,
385,2025-01-26 00:34:47,2025-01-26 00:37:55,188.332,0.060%,
386,2025-01-26 02:09:27,2025-01-26 02:12:51,204.658,0.065%,
387,2025-01-26 03:44:39,2025-01-26 03:47:15,155.408,0.049%,
388,2025-01-26 05:19:22,2025-01-26 05:22:11,168.65,0.054%,
389,2025-01-26 06:54:05,2025-01-26 06:57:07,182.043,0.058%,
390,2025-01-26 08:28:44,2025-01-26 08:31:30,166.472,0.053%,
391,2025-01-26 10:03:18,2025-01-26 10:06:26,187.499,0.060%,
392,2025-01-26 11:37:57,2025-01-26 11:41:22,204.833,0.065%,
393,2025-01-26 13:12:37,2025-01-26 13:15:45,188.287,0.060%,
394,2025-01-26 14:47:50,2025-01-26 14:50:41,171.328,0.054%,
395,2025-01-26 16:22:33,2025-01-26 16:25:05,152.43,0.048%,
396,2025-01-26 17:57:15,2025-01-26 18:00:01,165.355,0.052%,
397,2025-01-26 19:31:53,2025-01-26 19:34:57,183.989,0.058%,
398,2025-01-26 21:06:29,2025-01-26 21:09:23,174.738,0.055%,
399,2025-01-26 22:41:07,2025-01-26 22:44:16,188.421,0.060%,
400,2025-01-27 00:15:47,2025-01-27 00:19:12,204.586,0.065%,
401,2025-01-27 01:51:01,2025-01-27 01:53:35,154.914,0.049%,
402,2025-01-27 03:25:43,2025-01-27 03:28:31,168.107,0.053%,
403,2025-01-27 05:00:26,2025-01-27 05:03:27,181.462,0.058%,
404,2025-01-27 06:35:02,2025-01-27 06:37:51,168.552,0.053%,
405,2025-01-27 08:09:39,2025-01-27 08:12:47,187.825,0.060%,
406,2025-01-27 09:44:18,2025-01-27 09:47:43,204.887,0.065%,
407,2025-01-27 11:18:58,2025-01-27 11:22:06,188.23,0.060%,
408,2025-01-27 12:54:11,2025-01-27 12:57:02,170.796,0.054%,
409,2025-01-27 14:28:54,2025-01-27 14:31:26,151.927,0.048%,
410,2025-01-27 16:03:36,2025-01-27 16:06:21,164.794,0.052%,
411,2025-01-27 17:38:12,2025-01-27 17:41:17,185.391,0.059%,
412,2025-01-27 19:12:49,2025-01-27 19:15:41,171.95,0.055%,
413,2025-01-27 20:47:28,2025-01-27 20:50:36,188.478,0.060%,
414,2025-01-27 22:22:08,2025-01-27 22:25:32,204.494,0.065%,
415,2025-01-27 23:57:22,2025-01-27 23:59:56,154.421,0.049%,
416,2025-01-28 01:32:04,2025-01-28 01:34:52,167.558,0.053%,
417,2025-01-28 03:06:47,2025-01-28 03:09:48,180.877,0.057%,
418,2025-01-28 04:41:22,2025-01-28 04:44:11,169.676,0.054%,
419,2025-01-28 06:15:59,2025-01-28 06:19:07,188.081,0.060%,
420,2025-01-28 07:50:38,2025-01-28 07:54:03,204.913,0.065%,
421,2025-01-28 09:25:18,2025-01-28 09:28:26,188.156,0.060%,
422,2025-01-28 11:00:32,2025-01-28 11:03:22,170.263,0.054%,
423,2025-01-28 12:35:15,2025-01-28 12:38:18,183.74,0.058%,
424,2025-01-28 14:09:57,2025-01-28 14:12:42,164.232,0.052%,
425,2025-01-28 15:44:31,2025-01-28 15:47:38,186.284,0.059%,
426,2025-01-28 17:19:09,2025-01-28 17:22:06,177.001,0.056%,
427,2025-01-28 18:53:48,2025-01-28 18:56:57,188.503,0.060%,
428,2025-01-28 20:28:29,2025-01-28 20:31:53,204.38,0.065%,
429,2025-01-28 22:03:43,2025-01-28 22:06:17,153.925,0.049%,
430,2025-01-28 23:38:25,2025-01-28 23:41:12,167.008,0.053%,
431,2025-01-29 01:13:08,2025-01-29 01:16:08,180.286,0.057%,
432,2025-01-29 02:47:41,2025-01-29 02:50:32,170.465,0.054%,
433,2025-01-29 04:22:19,2025-01-29 04:25:28,188.284,0.060%,
434,2025-01-29 05:56:59,2025-01-29 06:00:24,204.905,0.065%,
435,2025-01-29 07:31:39,2025-01-29 07:34:47,188.068,0.060%,
436,2025-01-29 09:06:53,2025-01-29 09:09:43,169.725,0.054%,
437,2025-01-29 10:41:36,2025-01-29 10:44:39,183.174,0.058%,
438,2025-01-29 12:16:19,2025-01-29 12:19:02,163.666,0.052%,
439,2025-01-29 13:50:51,2025-01-29 13:53:58,186.927,0.059%,
440,2025-01-29 15:25:29,2025-01-29 15:28:22,172.439,0.055%,
441,2025-01-29 17:00:09,2025-01-29 17:03:17,188.505,0.060%,
442,2025-01-29 18:34:49,2025-01-29 18:38:13,204.253,0.065%,
443,2025-01-29 20:10:04,2025-01-29 20:12:37,153.428,0.049%,
444,2025-01-29 21:44:46,2025-01-29 21:47:33,166.454,0.053%,
445,2025-01-29 23:19:29,2025-01-29 23:22:29,179.691,0.057%,
446,2025-01-30 00:54:01,2025-01-30 00:56:54,172.569,0.055%,
447,2025-01-30 02:28:40,2025-01-30 02:31:48,188.436,0.060%,
448,2025-01-30 04:03:19,2025-01-30 04:06:44,204.87,0.065%,
449,2025-01-30 05:38:00,2025-01-30 05:41:08,187.963,0.060%,
450,2025-01-30 07:13:14,2025-01-30 07:16:03,169.186,0.054%,
451,2025-01-30 08:47:57,2025-01-30 08:50:59,182.6,0.058%,
452,2025-01-30 10:22:40,2025-01-30 10:25:23,163.1,0.052%,
453,2025-01-30 11:57:11,2025-01-30 12:00:19,187.419,0.059%,
454,2025-01-30 13:31:50,2025-01-30 13:34:49,179.052,0.057%,
455,2025-01-30 13:34:54,2025-01-30 13:35:15,20.323,0.006%,
456,2025-01-30 15:06:30,2025-01-30 15:09:38,188.484,0.060%,
457,2025-01-30 16:41:10,2025-01-30 16:44:34,204.104,0.065%,
458,2025-01-30 18:16:25,2025-01-30 18:18:58,152.93,0.049%,
459,2025-01-30 19:51:07,2025-01-30 19:53:53,165.896,0.053%,
460,2025-01-30 21:25:47,2025-01-30 21:25:50,3.085,0.001%,
461,2025-01-30 21:25:50,2025-01-30 21:28:49,179.092,0.057%,
462,2025-01-30 23:00:21,2025-01-30 23:03:13,171.537,0.054%,
463,2025-01-31 00:35:00,2025-01-31 00:38:09,188.544,0.060%,
464,2025-01-31 02:09:40,2025-01-31 02:13:05,204.817,0.065%,
465,2025-01-31 03:44:20,2025-01-31 03:44:50,29.33,0.009%,
466,2025-01-31 03:44:53,2025-01-31 03:47:28,155.411,0.049%,
467,2025-01-31 05:19:35,2025-01-31 05:22:24,168.641,0.054%,
468,2025-01-31 06:54:18,2025-01-31 06:57:20,182.024,0.058%,
469,2025-01-31 08:28:56,2025-01-31 08:31:43,167.591,0.053%,
470,2025-01-31 10:03:31,2025-01-31 10:06:39,187.802,0.060%,
471,2025-01-31 11:38:10,2025-01-31 11:41:35,205.038,0.065%,
472,2025-01-31 13:12:50,2025-01-31 13:15:59,188.445,0.060%,
473,2025-01-31 14:47:31,2025-01-31 14:47:45,14.405,0.005%,
474,2025-01-31 14:48:03,2025-01-31 14:50:55,171.328,0.054%,
475,2025-01-31 16:22:46,2025-01-31 16:25:18,152.427,0.048%,
476,2025-01-31 17:57:28,2025-01-31 18:00:14,165.338,0.052%,
477,2025-01-31 19:32:05,2025-01-31 19:35:10,184.748,0.059%,
478,2025-01-31 21:06:41,2025-01-31 21:09:37,175.1,0.056%,
479,2025-01-31 22:41:20,2025-01-31 22:44:29,188.621,0.060%,
480,2025-02-01 00:16:00,2025-02-01 00:19:25,204.736,0.065%,
481,2025-02-01 01:51:14,2025-02-01 01:53:49,154.916,0.049%,
482,2025-02-01 03:25:56,2025-02-01 03:28:44,168.096,0.053%,
483,2025-02-01 05:00:39,2025-02-01 05:03:40,181.442,0.058%,
484,2025-02-01 06:35:15,2025-02-01 06:38:04,169.168,0.054%,
485,2025-02-01 08:09:52,2025-02-01 08:13:00,188.101,0.060%,
486,2025-02-01 09:44:31,2025-02-01 09:47:56,205.081,0.065%,
487,2025-02-01 11:19:11,2025-02-01 11:22:19,188.382,0.060%,
488,2025-02-01 12:54:24,2025-02-01 12:57:15,170.792,0.054%,
489,2025-02-01 14:29:07,2025-02-01 14:31:39,151.922,0.048%,
490,2025-02-01 16:03:50,2025-02-01 16:06:34,164.777,0.052%,
491,2025-02-01 17:38:24,2025-02-01 17:41:30,185.919,0.059%,
492,2025-02-01 19:13:02,2025-02-01 19:15:54,172.222,0.055%,
493,2025-02-01 20:47:41,2025-02-01 20:50:50,188.667,0.060%,
494,2025-02-01 22:22:21,2025-02-01 22:25:46,204.639,0.065%,
495,2025-02-01 23:57:35,2025-02-02 00:00:09,154.424,0.049%,
496,2025-02-02 01:32:17,2025-02-02 01:35:05,167.546,0.053%,
497,2025-02-02 03:07:00,2025-02-02 03:10:01,180.855,0.057%,
498,2025-02-02 04:41:34,2025-02-02 04:44:24,170.148,0.054%,
499,2025-02-02 06:16:12,2025-02-02 06:19:20,188.336,0.060%,
500,2025-02-02 07:50:51,2025-02-02 07:54:16,205.095,0.065%,
501,2025-02-02 09:25:31,2025-02-02 09:28:40,188.302,0.060%,
502,2025-02-02 11:00:45,2025-02-02 11:03:36,170.258,0.054%,
503,2025-02-02 12:35:28,2025-02-02 12:38:32,183.726,0.058%,
504,2025-02-02 14:10:11,2025-02-02 14:12:55,164.213,0.052%,
505,2025-02-02 15:44:44,2025-02-02 15:47:51,186.709,0.059%,
506,2025-02-02 17:19:22,2025-02-02 17:22:19,177.32,0.056%,
507,2025-02-02 18:54:01,2025-02-02 18:57:10,188.683,0.060%,
508,2025-02-02 20:28:42,2025-02-02 20:32:06,204.518,0.065%,
509,2025-02-02 22:03:56,2025-02-02 22:06:30,153.924,0.049%,
510,2025-02-02 23:38:38,2025-02-02 23:41:25,166.995,0.053%,
511,2025-02-03 01:13:21,2025-02-03 01:16:21,180.262,0.057%,
512,2025-02-03 02:47:54,2025-02-03 02:50:45,170.86,0.054%,
513,2025-02-03 04:22:32,2025-02-03 04:25:41,188.521,0.060%,
514,2025-02-03 05:57:12,2025-02-03 06:00:37,205.077,0.065%,
515,2025-02-03 07:31:52,2025-02-03 07:35:00,188.207,0.060%,
516,2025-02-03 09:07:06,2025-02-03 09:09:56,169.718,0.054%,
517,2025-02-03 10:41:49,2025-02-03 10:44:52,183.158,0.058%,
518,2025-02-03 12:16:32,2025-02-03 12:19:15,163.646,0.052%,
519,2025-02-03 13:51:04,2025-02-03 13:54:11,187.294,0.059%,
520,2025-02-03 15:25:42,2025-02-03 15:28:35,172.674,0.055%,
521,2025-02-03 17:00:22,2025-02-03 17:03:31,188.675,0.060%,
522,2025-02-03 18:35:02,2025-02-03 18:38:27,204.385,0.065%,
523,2025-02-03 20:10:17,2025-02-03 20:12:50,153.428,0.049%,
524,2025-02-03 21:45:00,2025-02-03 21:47:46,166.439,0.053%,
525,2025-02-03 23:19:42,2025-02-03 23:22:42,179.666,0.057%,
526,2025-02-04 00:54:14,2025-02-04 00:57:07,172.986,0.055%,
527,2025-02-04 02:28:53,2025-02-04 02:32:01,188.656,0.060%,
528,2025-02-04 04:03:32,2025-02-04 04:06:57,205.034,0.065%,
529,2025-02-04 05:38:13,2025-02-04 05:41:21,188.097,0.060%,
530,2025-02-04 07:13:27,2025-02-04 07:16:17,169.178,0.054%,
531,2025-02-04 08:48:10,2025-02-04 08:51:13,182.582,0.058%,
532,2025-02-04 10:22:53,2025-02-04 10:25:36,163.078,0.052%,
533,2025-02-04 11:57:24,2025-02-04 12:00:32,187.74,0.060%,
534,2025-02-04 13:32:03,2025-02-04 13:35:02,179.341,0.057%,
535,2025-02-04 15:06:43,2025-02-04 15:09:51,188.647,0.060%,
536,2025-02-04 16:41:23,2025-02-04 16:44:47,204.23,0.065%,
537,2025-02-04 18:16:38,2025-02-04 18:19:11,152.927,0.049%,
538,2025-02-04 19:51:21,2025-02-04 19:54:06,165.88,0.053%,
539,2025-02-04 21:25:59,2025-02-04 21:29:03,183.664,0.058%,
540,2025-02-04 23:00:34,2025-02-04 23:03:26,171.846,0.055%,
541,2025-02-05 00:35:13,2025-02-05 00:38:22,188.751,0.060%,
542,2025-02-05 02:09:53,2025-02-05 02:13:18,204.972,0.065%,
543,2025-02-05 03:44:33,2025-02-05 03:47:41,187.972,0.060%,
544,2025-02-05 05:19:48,2025-02-05 05:22:37,168.631,0.054%,
545,2025-02-05 06:54:31,2025-02-05 06:57:33,182.004,0.058%,
546,2025-02-05 08:29:08,2025-02-05 08:31:57,168.422,0.053%,
547,2025-02-05 10:03:44,2025-02-05 10:06:52,188.091,0.060%,
548,2025-02-05 11:38:23,2025-02-05 11:41:48,205.236,0.065%,
549,2025-02-05 13:13:03,2025-02-05 13:16:12,188.599,0.060%,
550,2025-02-05 14:47:44,2025-02-05 14:51:08,204.063,0.065%,
551,2025-02-05 16:22:59,2025-02-05 16:25:31,152.422,0.048%,
552,2025-02-05 17:57:42,2025-02-05 18:00:27,165.321,0.052%,
553,2025-02-05 19:32:18,2025-02-05 19:35:23,185.39,0.059%,
554,2025-02-05 21:06:54,2025-02-05 21:09:50,175.453,0.056%,
555,2025-02-05 22:41:33,2025-02-05 22:44:42,188.815,0.060%,
556,2025-02-06 00:16:13,2025-02-06 00:19:38,204.883,0.065%,
557,2025-02-06 01:50:54,2025-02-06 01:51:10,16.307,0.005%,
558,2025-02-06 01:51:27,2025-02-06 01:54:02,154.917,0.049%,
559,2025-02-06 03:26:10,2025-02-06 03:28:58,168.084,0.053%,
560,2025-02-06 05:00:52,2025-02-06 05:03:54,181.42,0.058%,
561,2025-02-06 06:35:27,2025-02-06 06:38:17,169.715,0.054%,
562,2025-02-06 08:10:05,2025-02-06 08:13:13,188.364,0.060%,
563,2025-02-06 09:44:44,2025-02-06 09:48:09,205.269,0.065%,
564,2025-02-06 11:19:24,2025-02-06 11:22:32,188.53,0.060%,
565,2025-02-06 12:54:37,2025-02-06 12:57:28,170.787,0.054%,
566,2025-02-06 14:29:20,2025-02-06 14:31:52,151.916,0.048%,
567,2025-02-06 16:04:03,2025-02-06 16:06:48,164.758,0.052%,
568,2025-02-06 17:38:37,2025-02-06 17:41:44,186.397,0.059%,
569,2025-02-06 19:13:15,2025-02-06 19:16:07,172.48,0.055%,
570,2025-02-06 20:47:54,2025-02-06 20:51:03,188.851,0.060%,
571,2025-02-06 22:22:34,2025-02-06 22:25:59,204.779,0.065%,
572,2025-02-06 23:57:48,2025-02-07 00:00:22,154.422,0.049%,
573,2025-02-07 01:32:31,2025-02-07 01:35:18,167.533,0.053%,
574,2025-02-07 03:07:13,2025-02-07 03:10:14,180.832,0.057%,
575,2025-02-07 04:41:47,2025-02-07 04:44:38,170.588,0.054%,
576,2025-02-07 06:16:25,2025-02-07 06:19:33,188.579,0.060%,
577,2025-02-07 07:51:04,2025-02-07 07:54:30,205.271,0.065%,
578,2025-02-07 09:25:44,2025-02-07 09:28:53,188.444,0.060%,
579,2025-02-07 11:00:58,2025-02-07 11:03:49,170.251,0.054%,
580,2025-02-07 12:35:41,2025-02-07 12:38:45,183.71,0.058%,
581,2025-02-07 14:10:24,2025-02-07 14:13:08,164.193,0.052%,
582,2025-02-07 15:44:57,2025-02-07 15:48:04,187.103,0.059%,
583,2025-02-07 17:19:35,2025-02-07 17:22:33,177.636,0.056%,
584,2025-02-07 18:54:14,2025-02-07 18:57:23,188.859,0.060%,
585,2025-02-07 20:28:55,2025-02-07 20:32:19,204.652,0.065%,
586,2025-02-07 22:04:09,2025-02-07 22:06:43,153.923,0.049%,
587,2025-02-07 23:38:52,2025-02-07 23:41:39,166.981,0.053%,
588,2025-02-08 01:13:34,2025-02-08 01:16:35,180.237,0.057%,
589,2025-02-08 02:48:07,2025-02-08 02:50:58,171.234,0.054%,
590,2025-02-08 04:22:45,2025-02-08 04:25:54,188.747,0.060%,
591,2025-02-08 05:57:25,2025-02-08 06:00:50,205.243,0.065%,
592,2025-02-08 07:32:05,2025-02-08 07:35:13,188.342,0.060%,
593,2025-02-08 09:07:20,2025-02-08 09:10:09,169.71,0.054%,
594,2025-02-08 10:42:02,2025-02-08 10:45:05,183.14,0.058%,
595,2025-02-08 12:16:45,2025-02-08 12:19:29,163.624,0.052%,
596,2025-02-08 13:51:17,2025-02-08 13:54:25,187.637,0.060%,
597,2025-02-08 15:25:55,2025-02-08 15:28:48,172.897,0.055%,
598,2025-02-08 17:00:35,2025-02-08 17:03:44,188.842,0.060%,
599,2025-02-08 18:35:15,2025-02-08 18:38:40,204.512,0.065%,
600,2025-02-08 20:10:30,2025-02-08 20:13:03,153.423,0.049%,
601,2025-02-08 21:45:13,2025-02-08 21:47:59,166.424,0.053%,
602,2025-02-08 23:19:56,2025-02-08 23:22:55,179.639,0.057%,
603,2025-02-09 00:54:27,2025-02-09 00:57:20,173.392,0.055%,
604,2025-02-09 02:29:06,2025-02-09 02:32:14,188.868,0.060%,
605,2025-02-09 04:03:45,2025-02-09 04:07:11,205.192,0.065%,
606,2025-02-09 05:38:26,2025-02-09 05:41:34,188.227,0.060%,
607,2025-02-09 07:13:41,2025-02-09 07:16:30,169.168,0.054%,
608,2025-02-09 08:48:23,2025-02-09 08:51:26,182.564,0.058%,
609,2025-02-09 10:23:02,2025-02-09 10:25:49,167.088,0.053%,
610,2025-02-09 11:57:37,2025-02-09 12:00:45,188.046,0.060%,
611,2025-02-09 13:32:16,2025-02-09 13:35:15,179.626,0.057%,
612,2025-02-09 15:06:56,2025-02-09 15:10:04,188.806,0.060%,
613,2025-02-09 16:41:36,2025-02-09 16:45:00,204.35,0.065%,
614,2025-02-09 18:16:51,2025-02-09 18:19:24,152.923,0.049%,
615,2025-02-09 19:51:34,2025-02-09 19:54:20,165.863,0.053%,
616,2025-02-09 21:26:11,2025-02-09 21:29:16,184.579,0.059%,
617,2025-02-09 23:00:47,2025-02-09 23:03:39,172.141,0.055%,
618,2025-02-10 00:35:26,2025-02-10 00:38:35,188.951,0.060%,
619,2025-02-10 02:10:06,2025-02-10 02:13:31,205.123,0.065%,
620,2025-02-10 03:44:46,2025-02-10 03:47:54,188.097,0.060%,
621,2025-02-10 05:20:02,2025-02-10 05:22:50,168.62,0.054%,
622,2025-02-10 06:54:44,2025-02-10 06:57:46,181.984,0.058%,
623,2025-02-10 08:29:21,2025-02-10 08:32:10,169.11,0.054%,
624,2025-02-10 10:03:57,2025-02-10 10:07:06,188.369,0.060%,
625,2025-02-10 11:38:36,2025-02-10 11:42:02,205.428,0.065%,
626,2025-02-10 13:13:16,2025-02-10 13:16:25,188.75,0.060%,
627,2025-02-10 14:47:57,2025-02-10 14:48:28,31.723,0.010%,
628,2025-02-10 14:48:30,2025-02-10 14:51:21,171.318,0.054%,
629,2025-02-10 16:23:12,2025-02-10 16:25:45,152.417,0.048%,
630,2025-02-10 17:57:55,2025-02-10 18:00:40,165.302,0.052%,
631,2025-02-10 19:32:30,2025-02-10 19:35:36,185.957,0.059%,
632,2025-02-10 21:07:07,2025-02-10 21:10:03,175.795,0.056%,
633,2025-02-10 22:41:46,2025-02-10 22:44:55,189.004,0.060%,
634,2025-02-11 00:16:27,2025-02-11 00:19:52,205.026,0.065%,
635,2025-02-11 01:51:07,2025-02-11 01:51:20,12.867,0.004%,
636,2025-02-11 01:51:40,2025-02-11 01:54:15,154.917,0.049%,
637,2025-02-11 03:26:23,2025-02-11 03:29:11,168.074,0.053%,
638,2025-02-11 05:01:05,2025-02-11 05:04:07,181.398,0.058%,
639,2025-02-11 06:35:40,2025-02-11 06:38:30,170.217,0.054%,
640,2025-02-11 08:10:17,2025-02-11 08:13:26,188.622,0.060%,
641,2025-02-11 09:44:57,2025-02-11 09:48:22,205.451,0.065%,
642,2025-02-11 11:19:37,2025-02-11 11:22:45,188.675,0.060%,
643,2025-02-11 12:54:51,2025-02-11 12:57:41,170.781,0.054%,
644,2025-02-11 14:29:33,2025-02-11 14:32:05,151.91,0.048%,
645,2025-02-11 16:04:16,2025-02-11 16:07:01,164.738,0.052%,
646,2025-02-11 17:38:50,2025-02-11 17:41:57,186.839,0.059%,
647,2025-02-11 19:13:28,2025-02-11 19:16:20,172.735,0.055%,
648,2025-02-11 20:48:07,2025-02-11 20:51:16,189.032,0.060%,
649,2025-02-11 22:22:47,2025-02-11 22:26:12,204.917,0.065%,
650,2025-02-11 23:58:01,2025-02-12 00:00:36,154.421,0.049%,
651,2025-02-12 01:32:44,2025-02-12 01:35:31,167.52,0.053%,
652,2025-02-12 03:07:27,2025-02-12 03:10:27,180.808,0.057%,
653,2025-02-12 04:42:00,2025-02-12 04:44:51,171.037,0.054%,
654,2025-02-12 06:16:38,2025-02-12 06:19:47,188.822,0.060%,
655,2025-02-12 07:51:17,2025-02-12 07:54:43,205.445,0.065%,
656,2025-02-12 09:25:57,2025-02-12 09:29:06,188.584,0.060%,
657,2025-02-12 11:01:12,2025-02-12 11:04:02,170.244,0.054%,
658,2025-02-12 12:35:54,2025-02-12 12:38:58,183.695,0.058%,
659,2025-02-12 14:10:37,2025-02-12 14:13:21,164.172,0.052%,
660,2025-02-12 15:45:10,2025-02-12 15:48:17,187.48,0.059%,
661,2025-02-12 17:19:48,2025-02-12 17:22:46,177.943,0.056%,
662,2025-02-12 18:54:28,2025-02-12 18:57:37,189.033,0.060%,
663,2025-02-12 20:29:08,2025-02-12 20:32:33,204.782,0.065%,
664,2025-02-12 22:04:22,2025-02-12 22:06:56,153.921,0.049%,
665,2025-02-12 23:39:05,2025-02-12 23:41:52,166.966,0.053%,
666,2025-02-13 01:13:48,2025-02-13 01:16:48,180.212,0.057%,
667,2025-02-13 02:48:20,2025-02-13 02:51:11,171.593,0.054%,
668,2025-02-13 04:22:58,2025-02-13 04:26:07,188.971,0.060%,
669,2025-02-13 05:57:38,2025-02-13 06:01:03,205.409,0.065%,
670,2025-02-13 07:32:18,2025-02-13 07:35:27,188.477,0.060%,
671,2025-02-13 09:07:33,2025-02-13 09:10:22,169.702,0.054%,
672,2025-02-13 10:42:15,2025-02-13 10:45:19,183.123,0.058%,
673,2025-02-13 12:16:58,2025-02-13 12:19:42,163.602,0.052%,
674,2025-02-13 13:51:30,2025-02-13 13:54:38,187.969,0.060%,
675,2025-02-13 15:26:08,2025-02-13 15:29:01,173.121,0.055%,
676,2025-02-13 17:00:48,2025-02-13 17:03:57,189.007,0.060%,
677,2025-02-13 18:35:28,2025-02-13 18:38:53,204.639,0.065%,
678,2025-02-13 20:10:43,2025-02-13 20:13:17,153.418,0.049%,
679,2025-02-13 21:45:26,2025-02-13 21:48:12,166.408,0.053%,
680,2025-02-13 23:20:05,2025-02-13 23:23:08,182.936,0.058%,
681,2025-02-14 00:54:40,2025-02-14 00:57:34,173.779,0.055%,
682,2025-02-14 02:29:19,2025-02-14 02:32:28,189.077,0.060%,
683,2025-02-14 04:03:58,2025-02-14 04:07:24,205.35,0.065%,
684,2025-02-14 05:38:39,2025-02-14 05:41:47,188.357,0.060%,
685,2025-02-14 07:13:54,2025-02-14 07:16:43,169.159,0.054%,
686,2025-02-14 08:48:36,2025-02-14 08:51:39,182.545,0.058%,
687,2025-02-14 10:23:14,2025-02-14 10:26:02,168.17,0.053%,
688,2025-02-14 11:57:50,2025-02-14 12:00:58,188.345,0.060%,
689,2025-02-14 13:32:29,2025-02-14 13:35:29,179.902,0.057%,
690,2025-02-14 13:35:43,2025-02-14 13:35:54,11.755,0.004%,
691,2025-02-14 15:07:09,2025-02-14 15:10:18,188.965,0.060%,
692,2025-02-14 16:41:49,2025-02-14 16:45:14,204.473,0.065%,
693,2025-02-14 18:17:04,2025-02-14 18:19:37,152.919,0.049%,
694,2025-02-14 19:51:47,2025-02-14 19:54:33,165.846,0.053%,
695,2025-02-14 21:26:24,2025-02-14 21:29:29,185.324,0.059%,
696,2025-02-14 23:01:00,2025-02-14 23:03:52,172.434,0.055%,
697,2025-02-15 00:35:39,2025-02-15 00:38:48,189.15,0.060%,
698,2025-02-15 02:10:19,2025-02-15 02:13:44,205.274,0.065%,
699,2025-02-15 03:44:59,2025-02-15 03:45:31,31.191,0.010%,
700,2025-02-15 03:45:32,2025-02-15 03:48:08,155.416,0.049%,
701,2025-02-15 05:20:15,2025-02-15 05:23:03,168.61,0.054%,
702,2025-02-15 06:54:58,2025-02-15 06:58:00,181.963,0.058%,
703,2025-02-15 08:29:33,2025-02-15 08:32:23,169.718,0.054%,
704,2025-02-15 10:04:10,2025-02-15 10:07:19,188.641,0.060%,
705,2025-02-15 11:38:49,2025-02-15 11:42:15,205.62,0.065%,
706,2025-02-15 13:13:29,2025-02-15 13:16:38,188.9,0.060%,
707,2025-02-15 14:48:10,2025-02-15 14:48:21,10.789,0.003%,
708,2025-02-15 14:48:43,2025-02-15 14:51:34,171.313,0.054%,
709,2025-02-15 16:23:25,2025-02-15 16:25:58,152.412,0.048%,
710,2025-02-15 17:58:08,2025-02-15 18:00:53,165.284,0.052%,
711,2025-02-15 19:32:43,2025-02-15 19:35:49,186.478,0.059%,
712,2025-02-15 21:07:20,2025-02-15 21:10:16,176.132,0.056%,
713,2025-02-15 22:41:59,2025-02-15 22:45:09,189.193,0.060%,
714,2025-02-16 00:16:40,2025-02-16 00:20:05,205.169,0.065%,
715,2025-02-16 01:51:53,2025-02-16 01:54:28,154.918,0.049%,
716,2025-02-16 03:26:36,2025-02-16 03:29:24,168.062,0.053%,
717,2025-02-16 05:01:19,2025-02-16 05:04:20,181.376,0.058%,
718,2025-02-16 06:35:53,2025-02-16 06:38:43,170.688,0.054%,
719,2025-02-16 08:10:30,2025-02-16 08:13:39,188.876,0.060%,
720,2025-02-16 09:45:10,2025-02-16 09:48:35,205.632,0.065%,
721,2025-02-16 11:19:50,2025-02-16 11:22:59,188.82,0.060%,
722,2025-02-16 12:55:04,2025-02-16 12:57:55,170.775,0.054%,
723,2025-02-16 14:29:46,2025-02-16 14:32:18,151.904,0.048%,
724,2025-02-16 16:04:29,2025-02-16 16:07:14,164.719,0.052%,
725,2025-02-16 17:39:03,2025-02-16 17:42:10,187.262,0.059%,
726,2025-02-16 19:13:41,2025-02-16 19:16:34,172.985,0.055%,
727,2025-02-16 20:48:20,2025-02-16 20:51:29,189.208,0.060%,
728,2025-02-16 22:23:00,2025-02-16 22:26:25,205.054,0.065%,
729,2025-02-16 23:58:14,2025-02-17 00:00:49,154.421,0.049%,
730,2025-02-17 01:32:57,2025-02-17 01:35:45,167.507,0.053%,
731,2025-02-17 03:07:40,2025-02-17 03:10:41,180.784,0.057%,
732,2025-02-17 04:42:13,2025-02-17 04:45:04,171.499,0.054%,
733,2025-02-17 06:16:51,2025-02-17 06:20:00,189.056,0.060%,
734,2025-02-17 07:51:30,2025-02-17 07:54:56,205.616,0.065%,
735,2025-02-17 09:26:10,2025-02-17 09:29:19,188.723,0.060%,
736,2025-02-17 11:01:25,2025-02-17 11:04:15,170.237,0.054%,
737,2025-02-17 12:36:08,2025-02-17 12:39:11,183.678,0.058%,
738,2025-02-17 14:10:50,2025-02-17 14:13:34,164.151,0.052%,
739,2025-02-17 15:45:23,2025-02-17 15:48:30,187.841,0.060%,
740,2025-02-17 17:20:01,2025-02-17 17:22:59,178.244,0.057%,
741,2025-02-17 18:54:41,2025-02-17 18:57:50,189.203,0.060%,
742,2025-02-17 20:29:21,2025-02-17 20:32:46,204.913,0.065%,
743,2025-02-17 22:04:35,2025-02-17 22:07:09,153.919,0.049%,
744,2025-02-17 23:39:18,2025-02-17 23:42:05,166.951,0.053%,
745,2025-02-18 01:14:01,2025-02-18 01:17:01,180.187,0.057%,
746,2025-02-18 02:48:33,2025-02-18 02:51:25,171.936,0.055%,
747,2025-02-18 04:23:11,2025-02-18 04:26:20,189.19,0.060%,
748,2025-02-18 05:57:51,2025-02-18 06:01:16,205.571,0.065%,
749,2025-02-18 07:32:31,2025-02-18 07:35:40,188.609,0.060%,
750,2025-02-18 09:07:46,2025-02-18 09:10:36,169.693,0.054%,
751,2025-02-18 10:42:29,2025-02-18 10:45:32,183.105,0.058%,
752,2025-02-18 12:17:10,2025-02-18 12:17:10,0.242,0.000%,
753,2025-02-18 12:17:11,2025-02-18 12:19:55,163.579,0.052%,
754,2025-02-18 13:51:43,2025-02-18 13:54:51,188.285,0.060%,
755,2025-02-18 15:26:21,2025-02-18 15:29:15,173.339,0.055%,
756,2025-02-18 17:01:01,2025-02-18 17:04:10,189.172,0.060%,
757,2025-02-18 18:35:41,2025-02-18 18:39:06,204.764,0.065%,
758,2025-02-18 20:10:56,2025-02-18 20:13:30,153.416,0.049%,
759,2025-02-18 21:45:39,2025-02-18 21:48:26,166.392,0.053%,
760,2025-02-18 23:20:17,2025-02-18 23:23:22,184.266,0.058%,
761,2025-02-19 00:54:53,2025-02-19 00:57:47,174.159,0.055%,
762,2025-02-19 02:29:32,2025-02-19 02:32:41,189.282,0.060%,
763,2025-02-19 04:04:11,2025-02-19 04:07:37,205.504,0.065%,
764,2025-02-19 05:38:52,2025-02-19 05:42:00,188.483,0.060%,
765,2025-02-19 07:14:07,2025-02-19 07:16:56,169.148,0.054%,
766,2025-02-19 08:48:50,2025-02-19 08:51:52,182.525,0.058%,
767,2025-02-19 10:23:27,2025-02-19 10:26:16,168.984,0.054%,
768,2025-02-19 11:58:03,2025-02-19 12:01:11,188.632,0.060%,
769,2025-02-19 13:32:42,2025-02-19 13:36:08,205.773,0.065%,
770,2025-02-19 15:07:22,2025-02-19 15:10:31,189.12,0.060%,
771,2025-02-19 16:42:02,2025-02-19 16:42:18,15.989,0.005%,
772,2025-02-19 16:42:35,2025-02-19 16:45:27,171.844,0.055%,
773,2025-02-19 18:17:18,2025-02-19 18:19:50,152.914,0.049%,
774,2025-02-19 19:52:00,2025-02-19 19:54:46,165.829,0.053%,
775,2025-02-19 21:26:36,2025-02-19 21:29:42,185.962,0.059%,
776,2025-02-19 23:01:13,2025-02-19 23:04:06,172.713,0.055%,
777,2025-02-20 00:35:52,2025-02-20 00:39:01,189.343,0.060%,
778,2025-02-20 02:10:32,2025-02-20 02:13:57,205.42,0.065%,
779,2025-02-20 03:45:45,2025-02-20 03:48:21,155.417,0.049%,
780,2025-02-20 05:20:28,2025-02-20 05:23:17,168.598,0.054%,
781,2025-02-20 06:55:11,2025-02-20 06:58:13,181.942,0.058%,
782,2025-02-20 08:29:46,2025-02-20 08:32:36,170.262,0.054%,
783,2025-02-20 10:04:23,2025-02-20 10:07:32,188.904,0.060%,
784,2025-02-20 11:39:02,2025-02-20 11:42:28,205.807,0.065%,
785,2025-02-20 13:13:42,2025-02-20 13:16:51,189.046,0.060%,
786,2025-02-20 14:48:56,2025-02-20 14:51:47,171.307,0.054%,
787,2025-02-20 16:23:39,2025-02-20 16:26:11,152.406,0.048%,
788,2025-02-20 17:58:21,2025-02-20 18:01:07,165.265,0.052%,
789,2025-02-20 19:32:56,2025-02-20 19:36:03,186.952,0.059%,
790,2025-02-20 21:07:33,2025-02-20 21:10:30,176.462,0.056%,
791,2025-02-20 22:42:13,2025-02-20 22:45:22,189.376,0.060%,
792,2025-02-21 00:16:53,2025-02-21 00:20:18,205.31,0.065%,
793,2025-02-21 01:52:06,2025-02-21 01:54:41,154.917,0.049%,
794,2025-02-21 03:26:49,2025-02-21 03:29:37,168.048,0.053%,
795,2025-02-21 05:01:32,2025-02-21 05:04:33,181.353,0.058%,
796,2025-02-21 06:36:06,2025-02-21 06:38:57,171.122,0.054%,
797,2025-02-21 08:10:43,2025-02-21 08:13:52,189.12,0.060%,
798,2025-02-21 09:45:23,2025-02-21 09:48:49,205.807,0.065%,
799,2025-02-21 11:20:03,2025-02-21 11:23:12,188.96,0.060%,
800,2025-02-21 12:55:17,2025-02-21 12:58:08,170.768,0.054%,
801,2025-02-21 14:30:00,2025-02-21 14:32:32,151.896,0.048%,
802,2025-02-21 14:32:43,2025-02-21 14:33:04,20.929,0.007%,
803,2025-02-21 16:04:42,2025-02-21 16:07:27,164.698,0.052%,
804,2025-02-21 17:39:15,2025-02-21 17:42:23,187.655,0.060%,
805,2025-02-21 19:13:54,2025-02-21 19:16:47,173.224,0.055%,
806,2025-02-21 20:48:33,2025-02-21 20:51:42,189.383,0.060%,
807,2025-02-21 22:23:13,2025-02-21 22:26:38,205.187,0.065%,
808,2025-02-21 23:58:28,2025-02-22 00:01:02,154.42,0.049%,
809,2025-02-22 01:33:10,2025-02-22 01:35:58,167.492,0.053%,
810,2025-02-22 03:07:53,2025-02-22 03:10:54,180.76,0.057%,
811,2025-02-22 04:42:25,2025-02-22 04:45:17,171.943,0.055%,
812,2025-02-22 06:17:04,2025-02-22 06:20:13,189.282,0.060%,
813,2025-02-22 07:51:43,2025-02-22 07:55:09,205.783,0.065%,
814,2025-02-22 09:26:24,2025-02-22 09:29:32,188.855,0.060%,
815,2025-02-22 11:01:38,2025-02-22 11:04:28,170.228,0.054%,
816,2025-02-22 12:36:21,2025-02-22 12:39:24,183.661,0.058%,
817,2025-02-22 14:11:04,2025-02-22 14:13:48,164.129,0.052%,
818,2025-02-22 15:45:35,2025-02-22 15:48:44,188.182,0.060%,
819,2025-02-22 17:20:14,2025-02-22 17:23:12,178.541,0.057%,
820,2025-02-22 18:54:54,2025-02-22 18:58:03,189.368,0.060%,
821,2025-02-22 20:29:34,2025-02-22 20:32:59,205.041,0.065%,
822,2025-02-22 22:04:49,2025-02-22 22:07:23,153.915,0.049%,
823,2025-02-22 23:39:31,2025-02-22 23:42:18,166.935,0.053%,
824,2025-02-23 01:14:14,2025-02-23 01:17:14,180.16,0.057%,
825,2025-02-23 02:48:45,2025-02-23 02:51:38,172.259,0.055%,
826,2025-02-23 04:23:24,2025-02-23 04:26:34,189.401,0.060%,
827,2025-02-23 05:58:04,2025-02-23 06:01:30,205.728,0.065%,
828,2025-02-23 07:32:44,2025-02-23 07:35:53,188.738,0.060%,
829,2025-02-23 09:07:59,2025-02-23 09:10:49,169.684,0.054%,
830,2025-02-23 10:42:42,2025-02-23 10:45:45,183.086,0.058%,
831,2025-02-23 12:17:21,2025-02-23 12:20:08,167.694,0.053%,
832,2025-02-23 13:51:56,2025-02-23 13:55:04,188.59,0.060%,
833,2025-02-23 15:26:34,2025-02-23 15:29:28,173.552,0.055%,
834,2025-02-23 17:01:14,2025-02-23 17:04:23,189.328,0.060%,
835,2025-02-23 18:35:55,2025-02-23 18:36:05,10.466,0.003%,
836,2025-02-23 18:36:27,2025-02-23 18:39:19,172.369,0.055%,
837,2025-02-23 20:11:10,2025-02-23 20:13:43,153.41,0.049%,
838,2025-02-23 21:45:52,2025-02-23 21:48:39,166.375,0.053%,
839,2025-02-23 23:20:30,2025-02-23 23:23:35,185.162,0.059%,
840,2025-02-24 00:55:06,2025-02-24 00:58:00,174.528,0.055%,
841,2025-02-24 02:29:45,2025-02-24 02:32:54,189.484,0.060%,
842,2025-02-24 04:04:24,2025-02-24 04:07:50,205.655,0.065%,
843,2025-02-24 05:39:38,2025-02-24 05:42:14,155.913,0.049%,
844,2025-02-24 07:14:20,2025-02-24 07:17:09,169.137,0.054%,
845,2025-02-24 08:49:03,2025-02-24 08:52:05,182.504,0.058%,
846,2025-02-24 10:23:39,2025-02-24 10:26:29,169.659,0.054%,
847,2025-02-24 11:58:16,2025-02-24 12:01:25,188.909,0.060%,
848,2025-02-24 13:32:55,2025-02-24 13:36:21,205.966,0.065%,
849,2025-02-24 15:07:35,2025-02-24 15:10:44,189.27,0.060%,
850,2025-02-24 16:42:48,2025-02-24 16:45:40,171.837,0.055%,
851,2025-02-24 18:17:31,2025-02-24 18:20:04,152.909,0.049%,
852,2025-02-24 19:52:13,2025-02-24 19:54:59,165.81,0.053%,
853,2025-02-24 21:26:49,2025-02-24 21:29:55,186.52,0.059%,
854,2025-02-24 23:01:26,2025-02-24 23:04:19,172.983,0.055%,
855,2025-02-25 00:36:05,2025-02-25 00:39:15,189.532,0.060%,
856,2025-02-25 02:10:45,2025-02-25 02:14:11,205.561,0.065%,
857,2025-02-25 03:45:59,2025-02-25 03:48:34,155.416,0.049%,
858,2025-02-25 05:20:41,2025-02-25 05:23:30,168.586,0.054%,
859,2025-02-25 06:55:24,2025-02-25 06:58:26,181.919,0.058%,
860,2025-02-25 08:29:59,2025-02-25 08:32:49,170.756,0.054%,
861,2025-02-25 10:04:36,2025-02-25 10:07:45,189.162,0.060%,
862,2025-02-25 11:39:15,2025-02-25 11:42:41,205.989,0.065%,
863,2025-02-25 13:13:55,2025-02-25 13:17:05,189.194,0.060%,
864,2025-02-25 14:49:09,2025-02-25 14:52:00,171.3,0.054%,
865,2025-02-25 16:23:52,2025-02-25 16:26:24,152.399,0.048%,
866,2025-02-25 17:58:35,2025-02-25 18:01:20,165.245,0.052%,
867,2025-02-25 19:33:08,2025-02-25 19:36:16,187.396,0.059%,
868,2025-02-25 21:07:46,2025-02-25 21:10:43,176.785,0.056%,
869,2025-02-25 22:42:26,2025-02-25 22:45:35,189.555,0.060%,
870,2025-02-26 00:17:06,2025-02-26 00:20:31,205.447,0.065%,
871,2025-02-26 01:52:20,2025-02-26 01:54:55,154.915,0.049%,
872,2025-02-26 03:27:02,2025-02-26 03:29:50,168.034,0.053%,
873,2025-02-26 05:01:45,2025-02-26 05:04:46,181.329,0.058%,
874,2025-02-26 06:36:18,2025-02-26 06:39:10,171.529,0.054%,
875,2025-02-26 08:10:56,2025-02-26 08:14:06,189.355,0.060%,
876,2025-02-26 09:45:36,2025-02-26 09:49:02,205.977,0.065%,
877,2025-02-26 11:20:16,2025-02-26 11:23:25,189.099,0.060%,
878,2025-02-26 12:55:30,2025-02-26 12:58:21,170.761,0.054%,
879,2025-02-26 14:30:13,2025-02-26 14:33:17,184.216,0.058%,
880,2025-02-26 16:04:56,2025-02-26 16:07:40,164.677,0.052%,
881,2025-02-26 17:39:28,2025-02-26 17:42:36,188.028,0.060%,
882,2025-02-26 19:14:06,2025-02-26 19:17:00,173.459,0.055%,
883,2025-02-26 20:48:46,2025-02-26 20:51:56,189.553,0.060%,
884,2025-02-26 22:23:26,2025-02-26 22:26:52,205.319,0.065%,
885,2025-02-26 23:58:41,2025-02-27 00:01:15,154.415,0.049%,
886,2025-02-27 01:33:23,2025-02-27 01:36:11,167.477,0.053%,
887,2025-02-27 03:08:06,2025-02-27 03:11:07,180.734,0.057%,
888,2025-02-27 04:42:38,2025-02-27 04:45:31,172.369,0.055%,
889,2025-02-27 06:17:17,2025-02-27 06:20:26,189.503,0.060%,
890,2025-02-27 07:51:56,2025-02-27 07:55:22,205.947,0.065%,
891,2025-02-27 09:26:37,2025-02-27 09:26:56,19.093,0.006%,
892,2025-02-27 09:27:09,2025-02-27 09:29:46,156.906,0.050%,
893,2025-02-27 11:01:51,2025-02-27 11:04:41,170.22,0.054%,
894,2025-02-27 12:36:34,2025-02-27 12:39:38,183.644,0.058%,
895,2025-02-27 14:11:17,2025-02-27 14:14:01,164.106,0.052%,
896,2025-02-27 15:45:48,2025-02-27 15:48:57,188.511,0.060%,
897,2025-02-27 17:20:27,2025-02-27 17:23:26,178.832,0.057%,
898,2025-02-27 18:55:07,2025-02-27 18:58:16,189.531,0.060%,
899,2025-02-27 20:30:19,2025-02-27 20:33:12,172.899,0.055%,
900,2025-02-27 22:05:02,2025-02-27 22:07:36,153.912,0.049%,
901,2025-02-27 23:39:44,2025-02-27 23:42:31,166.919,0.053%,
902,2025-02-28 01:14:24,2025-02-28 01:17:27,183.59,0.058%,
903,2025-02-28 02:48:58,2025-02-28 02:51:51,172.579,0.055%,
904,2025-02-28 04:23:37,2025-02-28 04:26:47,189.61,0.060%,
905,2025-02-28 05:58:17,2025-02-28 06:01:43,205.886,0.065%,
906,2025-02-28 07:33:30,2025-02-28 07:36:06,156.411,0.050%,
907,2025-02-28 09:08:12,2025-02-28 09:11:02,169.674,0.054%,
908,2025-02-28 10:42:55,2025-02-28 10:45:58,183.067,0.058%,
909,2025-02-28 12:17:33,2025-02-28 12:20:21,168.743,0.054%,
910,2025-02-28 13:52:08,2025-02-28 13:55:17,188.889,0.060%,
911,2025-02-28 15:26:47,2025-02-28 15:30:13,206.114,0.065%,
912,2025-02-28 17:01:27,2025-02-28 17:04:37,189.484,0.060%,
913,2025-02-28 18:36:40,2025-02-28 18:39:33,172.366,0.055%,
914,2025-02-28 20:11:23,2025-02-28 20:13:56,153.408,0.049%,
915,2025-02-28 21:46:06,2025-02-28 21:48:52,166.357,0.053%,
916,2025-02-28 23:20:42,2025-02-28 23:23:48,185.897,0.059%,
917,2025-03-01 00:55:19,2025-03-01 00:58:13,174.887,0.056%,
918,2025-03-01 02:29:58,2025-03-01 02:33:07,189.682,0.060%,
919,2025-03-01 04:04:37,2025-03-01 04:08:03,205.804,0.065%,
920,2025-03-01 05:39:51,2025-03-01 05:42:27,155.914,0.049%,
921,2025-03-01 07:14:33,2025-03-01 07:17:23,169.126,0.054%,
922,2025-03-01 08:49:16,2025-03-01 08:52:19,182.483,0.058%,
923,2025-03-01 10:23:52,2025-03-01 10:26:42,170.262,0.054%,
924,2025-03-01 11:58:29,2025-03-01 12:01:38,189.18,0.060%,
925,2025-03-01 13:33:08,2025-03-01 13:36:34,206.159,0.065%,
926,2025-03-01 15:07:48,2025-03-01 15:10:57,189.42,0.060%,
927,2025-03-01 16:43:01,2025-03-01 16:45:53,171.835,0.055%,
928,2025-03-01 18:17:44,2025-03-01 18:20:17,152.9,0.049%,
929,2025-03-01 19:52:27,2025-03-01 19:55:12,165.791,0.053%,
930,2025-03-01 21:27:01,2025-03-01 21:30:08,187.035,0.059%,
931,2025-03-01 23:01:39,2025-03-01 23:04:32,173.252,0.055%,
932,2025-03-02 00:36:18,2025-03-02 00:39:28,189.72,0.060%,
933,2025-03-02 02:10:58,2025-03-02 02:14:24,205.702,0.065%,
934,2025-03-02 03:46:12,2025-03-02 03:48:47,155.416,0.049%,
935,2025-03-02 05:20:54,2025-03-02 05:23:43,168.573,0.054%,
936,2025-03-02 06:55:37,2025-03-02 06:58:39,181.897,0.058%,
937,2025-03-02 08:30:11,2025-03-02 08:33:02,171.223,0.054%,
938,2025-03-02 10:04:49,2025-03-02 10:07:58,189.409,0.060%,
939,2025-03-02 11:39:28,2025-03-02 11:42:54,206.166,0.065%,
940,2025-03-02 13:14:08,2025-03-02 13:17:18,189.335,0.060%,
941,2025-03-02 14:49:22,2025-03-02 14:52:14,171.298,0.054%,
942,2025-03-02 16:24:05,2025-03-02 16:27:10,184.77,0.059%,
943,2025-03-02 17:58:48,2025-03-02 18:01:33,165.225,0.052%,
944,2025-03-02 19:33:21,2025-03-02 19:36:29,187.815,0.060%,
945,2025-03-02 21:07:59,2025-03-02 21:10:56,177.101,0.056%,
946,2025-03-02 22:42:39,2025-03-02 22:45:48,189.733,0.060%,
947,2025-03-03 00:17:19,2025-03-03 00:17:39,20.714,0.007%,
948,2025-03-03 00:17:50,2025-03-03 00:20:44,173.945,0.055%,
949,2025-03-03 01:52:33,2025-03-03 01:55:08,154.914,0.049%,
950,2025-03-03 03:27:16,2025-03-03 03:30:04,168.021,0.053%,
951,2025-03-03 05:01:58,2025-03-03 05:05:00,181.305,0.058%,
952,2025-03-03 06:36:31,2025-03-03 06:39:23,171.918,0.055%,
953,2025-03-03 08:11:09,2025-03-03 08:14:19,189.589,0.060%,
954,2025-03-03 09:45:49,2025-03-03 09:49:15,206.149,0.065%,
955,2025-03-03 11:21:01,2025-03-03 11:23:38,157.403,0.050%,
956,2025-03-03 12:55:43,2025-03-03 12:58:34,170.756,0.054%,
957,2025-03-03 14:30:26,2025-03-03 14:33:30,184.2,0.058%,
958,2025-03-03 16:05:09,2025-03-03 16:07:54,164.656,0.052%,
959,2025-03-03 17:39:41,2025-03-03 17:42:49,188.386,0.060%,
960,2025-03-03 19:14:19,2025-03-03 19:17:13,173.69,0.055%,
961,2025-03-03 20:48:59,2025-03-03 20:52:09,189.723,0.060%,
962,2025-03-03 22:24:11,2025-03-03 22:27:05,173.421,0.055%,
963,2025-03-03 23:58:54,2025-03-04 00:01:28,154.413,0.049%,
964,2025-03-04 01:33:37,2025-03-04 01:36:24,167.462,0.053%,
965,2025-03-04 03:08:19,2025-03-04 03:11:20,180.708,0.057%,
966,2025-03-04 04:42:51,2025-03-04 04:45:44,172.781,0.055%,
967,2025-03-04 06:17:30,2025-03-04 06:20:39,189.721,0.060%,
968,2025-03-04 07:52:09,2025-03-04 07:55:35,206.109,0.065%,
969,2025-03-04 09:27:22,2025-03-04 09:29:59,156.909,0.050%,
970,2025-03-04 11:02:04,2025-03-04 11:04:55,170.211,0.054%,
971,2025-03-04 12:36:47,2025-03-04 12:39:51,183.625,0.058%,
972,2025-03-04 14:11:28,2025-03-04 14:11:29,1.347,0.000%,
973,2025-03-04 14:11:30,2025-03-04 14:14:14,164.083,0.052%,
974,2025-03-04 15:46:01,2025-03-04 15:49:10,188.828,0.060%,
975,2025-03-04 17:20:40,2025-03-04 17:24:06,206.248,0.065%,
976,2025-03-04 18:55:20,2025-03-04 18:58:29,189.692,0.060%,
977,2025-03-04 20:30:32,2025-03-04 20:33:25,172.897,0.055%,
978,2025-03-04 22:05:15,2025-03-04 22:07:49,153.908,0.049%,
979,2025-03-04 23:39:58,2025-03-04 23:42:45,166.902,0.053%,
980,2025-03-05 01:14:36,2025-03-05 01:17:41,184.861,0.059%,
981,2025-03-05 02:49:11,2025-03-05 02:52:04,172.885,0.055%,
982,2025-03-05 04:23:50,2025-03-05 04:27:00,189.814,0.060%,
983,2025-03-05 05:58:30,2025-03-05 06:01:56,206.039,0.065%,
984,2025-03-05 07:33:43,2025-03-05 07:36:19,156.413,0.050%,
985,2025-03-05 09:08:26,2025-03-05 09:11:15,169.663,0.054%,
986,2025-03-05 10:43:08,2025-03-05 10:46:11,183.047,0.058%,
987,2025-03-05 12:17:45,2025-03-05 12:20:35,169.542,0.054%,
988,2025-03-05 13:52:21,2025-03-05 13:55:31,189.175,0.060%,
989,2025-03-05 15:27:00,2025-03-05 15:30:27,206.31,0.065%,
990,2025-03-05 17:01:40,2025-03-05 17:04:50,189.637,0.060%,
991,2025-03-05 18:36:53,2025-03-05 18:39:46,172.362,0.055%,
992,2025-03-05 20:11:36,2025-03-05 20:14:09,153.402,0.049%,
993,2025-03-05 21:46:19,2025-03-05 21:49:05,166.339,0.053%,
994,2025-03-05 23:20:55,2025-03-05 23:24:01,186.521,0.059%,
995,2025-03-06 00:55:31,2025-03-06 00:58:27,175.238,0.056%,
996,2025-03-06 02:30:11,2025-03-06 02:33:20,189.874,0.060%,
997,2025-03-06 04:04:51,2025-03-06 04:08:16,205.95,0.065%,
998,2025-03-06 05:40:04,2025-03-06 05:42:40,155.914,0.049%,
999,2025-03-06 07:14:47,2025-03-06 07:17:36,169.114,0.054%,
1000,2025-03-06 08:49:29,2025-03-06 08:52:32,182.462,0.058%,
1001,2025-03-06 10:24:04,2025-03-06 10:26:55,170.8,0.054%,
1002,2025-03-06 11:58:42,2025-03-06 12:01:51,189.441,0.060%,
1003,2025-03-06 13:33:21,2025-03-06 13:36:47,206.343,0.065%,
