3UCubedIntegratedSim/Reports & Plots/North Cusp/NorthCusp CSV/NorthCusp_Sat4.csv

Number,Coverage Start (UTCG),Coverage End (UTCG),Duration (sec),Percent,
1,2025-01-01 16:20:00,2025-01-01 16:23:58,237.839,0.075%,
2,2025-01-01 17:54:41,2025-01-01 17:58:23,221.492,0.070%,
3,2025-01-01 19:29:10,2025-01-01 19:29:22,11.403,0.004%,
4,2025-01-01 19:29:23,2025-01-01 19:33:18,235.121,0.075%,
5,2025-01-01 21:03:45,2025-01-01 21:08:13,267.676,0.085%,
6,2025-01-01 22:39:09,2025-01-01 22:42:38,209.302,0.066%,
7,2025-01-02 00:13:49,2025-01-02 00:17:33,224.242,0.071%,
8,2025-01-02 01:48:29,2025-01-02 01:52:16,226.792,0.072%,
9,2025-01-02 03:23:10,2025-01-02 03:26:53,222.724,0.071%,
10,2025-01-02 04:57:52,2025-01-02 05:01:48,236.12,0.075%,
11,2025-01-02 06:32:20,2025-01-02 06:32:34,13.77,0.004%,
12,2025-01-02 06:32:34,2025-01-02 06:36:13,219.639,0.070%,
13,2025-01-02 08:06:55,2025-01-02 08:11:14,258.237,0.082%,
14,2025-01-02 09:42:19,2025-01-02 09:46:03,224.241,0.071%,
15,2025-01-02 11:16:59,2025-01-02 11:20:28,209.588,0.067%,
16,2025-01-02 12:51:40,2025-01-02 12:55:23,223.646,0.071%,
17,2025-01-02 14:26:21,2025-01-02 14:30:18,237.594,0.075%,
18,2025-01-02 16:01:02,2025-01-02 16:04:47,224.296,0.071%,
19,2025-01-02 17:35:29,2025-01-02 17:39:38,248.976,0.079%,
20,2025-01-02 19:10:05,2025-01-02 19:14:33,268.162,0.085%,
21,2025-01-02 20:45:29,2025-01-02 20:49:09,219.461,0.070%,
22,2025-01-02 22:20:09,2025-01-02 22:23:53,224.21,0.071%,
23,2025-01-02 23:54:50,2025-01-02 23:58:19,209.133,0.066%,
24,2025-01-03 01:29:31,2025-01-03 01:33:14,222.519,0.071%,
25,2025-01-03 03:04:13,2025-01-03 03:08:09,235.8,0.075%,
26,2025-01-03 04:38:39,2025-01-03 04:42:42,242.719,0.077%,
27,2025-01-03 06:13:15,2025-01-03 06:17:29,253.306,0.080%,
28,2025-01-03 07:48:39,2025-01-03 07:52:24,224.327,0.071%,
29,2025-01-03 09:23:20,2025-01-03 09:27:04,224.142,0.071%,
30,2025-01-03 10:58:00,2025-01-03 11:01:44,223.511,0.071%,
31,2025-01-03 12:32:42,2025-01-03 12:36:39,237.337,0.075%,
32,2025-01-03 14:07:23,2025-01-03 14:11:04,220.941,0.070%,
33,2025-01-03 15:41:49,2025-01-03 15:46:01,252.535,0.080%,
34,2025-01-03 17:16:25,2025-01-03 17:20:54,268.556,0.085%,
35,2025-01-03 18:51:50,2025-01-03 18:55:19,209.562,0.067%,
36,2025-01-03 20:26:30,2025-01-03 20:30:14,224.157,0.071%,
37,2025-01-03 22:01:11,2025-01-03 22:04:40,209.016,0.066%,
38,2025-01-03 22:04:48,2025-01-03 22:05:09,21.286,0.007%,
39,2025-01-03 23:35:52,2025-01-03 23:39:34,222.327,0.071%,
40,2025-01-04 01:10:34,2025-01-04 01:14:29,235.473,0.075%,
41,2025-01-04 02:44:58,2025-01-04 02:48:55,236.244,0.075%,
42,2025-01-04 04:19:36,2025-01-04 04:23:49,253.718,0.081%,
43,2025-01-04 04:23:52,2025-01-04 04:23:56,4.299,0.001%,
44,2025-01-04 05:55:00,2025-01-04 05:58:44,224.384,0.071%,
45,2025-01-04 07:29:40,2025-01-04 07:33:10,209.554,0.066%,
46,2025-01-04 09:04:21,2025-01-04 09:08:04,223.362,0.071%,
47,2025-01-04 10:39:02,2025-01-04 10:42:59,237.066,0.075%,
48,2025-01-04 12:13:44,2025-01-04 12:17:29,225.233,0.071%,
49,2025-01-04 13:48:08,2025-01-04 13:52:19,251.19,0.080%,
50,2025-01-04 15:22:46,2025-01-04 15:27:15,268.891,0.085%,
51,2025-01-04 16:58:10,2025-01-04 17:01:40,209.647,0.067%,
52,2025-01-04 18:32:50,2025-01-04 18:36:35,224.087,0.071%,
53,2025-01-04 20:07:31,2025-01-04 20:11:30,238.385,0.076%,
54,2025-01-04 21:42:13,2025-01-04 21:45:55,222.07,0.070%,
55,2025-01-04 23:16:55,2025-01-04 23:20:50,235.136,0.075%,
56,2025-01-05 00:51:18,2025-01-05 00:55:24,246.231,0.078%,
57,2025-01-05 02:25:56,2025-01-05 02:30:10,254.066,0.081%,
58,2025-01-05 04:01:20,2025-01-05 04:05:05,224.411,0.071%,
59,2025-01-05 05:36:01,2025-01-05 05:39:30,209.506,0.066%,
60,2025-01-05 07:10:42,2025-01-05 07:14:25,223.194,0.071%,
61,2025-01-05 08:45:23,2025-01-05 08:49:20,236.781,0.075%,
62,2025-01-05 10:20:05,2025-01-05 10:23:45,220.339,0.070%,
63,2025-01-05 11:54:28,2025-01-05 11:58:40,251.973,0.080%,
64,2025-01-05 13:29:06,2025-01-05 13:33:35,269.162,0.085%,
65,2025-01-05 15:04:31,2025-01-05 15:08:00,209.704,0.067%,
66,2025-01-05 16:39:11,2025-01-05 16:42:55,223.997,0.071%,
67,2025-01-05 18:13:52,2025-01-05 18:17:50,238.165,0.076%,
68,2025-01-05 19:48:34,2025-01-05 19:52:17,223.371,0.071%,
69,2025-01-05 21:23:05,2025-01-05 21:23:12,7.154,0.002%,
70,2025-01-05 21:23:16,2025-01-05 21:27:10,234.781,0.074%,
71,2025-01-05 22:57:38,2025-01-05 23:01:36,237.877,0.075%,
72,2025-01-06 00:32:16,2025-01-06 00:36:31,254.352,0.081%,
73,2025-01-06 02:07:41,2025-01-06 02:11:25,224.419,0.071%,
74,2025-01-06 03:42:22,2025-01-06 03:45:51,209.438,0.066%,
75,2025-01-06 05:17:03,2025-01-06 05:20:46,223.012,0.071%,
76,2025-01-06 06:51:44,2025-01-06 06:55:41,236.485,0.075%,
77,2025-01-06 08:26:14,2025-01-06 08:26:24,10.57,0.003%,
78,2025-01-06 08:26:26,2025-01-06 08:30:12,226.104,0.072%,
79,2025-01-06 10:00:48,2025-01-06 10:05:01,252.619,0.080%,
80,2025-01-06 11:35:26,2025-01-06 11:39:56,269.381,0.085%,
81,2025-01-06 13:10:51,2025-01-06 13:14:21,209.736,0.067%,
82,2025-01-06 14:45:32,2025-01-06 14:49:16,223.892,0.071%,
83,2025-01-06 16:20:13,2025-01-06 16:24:11,237.926,0.075%,
84,2025-01-06 17:54:55,2025-01-06 17:58:36,221.559,0.070%,
85,2025-01-06 19:29:23,2025-01-06 19:29:36,13.094,0.004%,
86,2025-01-06 19:29:36,2025-01-06 19:33:31,234.418,0.074%,
87,2025-01-06 21:03:58,2025-01-06 21:08:07,249.083,0.079%,
88,2025-01-06 22:38:37,2025-01-06 22:42:51,254.596,0.081%,
89,2025-01-07 00:14:02,2025-01-07 00:17:46,224.399,0.071%,
90,2025-01-07 01:48:42,2025-01-07 01:52:12,209.354,0.066%,
91,2025-01-07 03:23:23,2025-01-07 03:27:06,222.816,0.071%,
92,2025-01-07 04:58:05,2025-01-07 05:02:01,236.177,0.075%,
93,2025-01-07 06:32:32,2025-01-07 06:36:27,234.361,0.074%,
94,2025-01-07 08:07:08,2025-01-07 08:11:21,253.163,0.080%,
95,2025-01-07 09:41:47,2025-01-07 09:46:16,269.555,0.086%,
96,2025-01-07 11:17:12,2025-01-07 11:20:42,209.746,0.067%,
97,2025-01-07 12:51:53,2025-01-07 12:55:36,223.766,0.071%,
98,2025-01-07 14:26:34,2025-01-07 14:30:31,237.676,0.075%,
99,2025-01-07 16:01:15,2025-01-07 16:05:00,224.354,0.071%,
100,2025-01-07 17:35:42,2025-01-07 17:39:51,249.613,0.079%,
101,2025-01-07 19:10:18,2025-01-07 19:14:47,268.477,0.085%,
102,2025-01-07 20:44:57,2025-01-07 20:49:12,254.792,0.081%,
103,2025-01-07 22:20:22,2025-01-07 22:24:07,224.359,0.071%,
104,2025-01-07 23:55:03,2025-01-07 23:58:32,209.253,0.066%,
105,2025-01-08 01:29:44,2025-01-08 01:33:27,222.604,0.071%,
106,2025-01-08 03:04:26,2025-01-08 03:08:22,235.856,0.075%,
107,2025-01-08 04:38:52,2025-01-08 04:42:55,243.289,0.077%,
108,2025-01-08 06:13:28,2025-01-08 06:17:42,253.62,0.080%,
109,2025-01-08 07:48:07,2025-01-08 07:52:37,269.685,0.086%,
110,2025-01-08 09:23:33,2025-01-08 09:27:02,209.73,0.067%,
111,2025-01-08 10:58:13,2025-01-08 11:01:57,223.622,0.071%,
112,2025-01-08 12:32:55,2025-01-08 12:36:52,237.413,0.075%,
113,2025-01-08 14:07:36,2025-01-08 14:11:17,220.998,0.070%,
114,2025-01-08 15:42:01,2025-01-08 15:46:12,250.747,0.080%,
115,2025-01-08 17:16:38,2025-01-08 17:21:07,268.849,0.085%,
116,2025-01-08 18:51:17,2025-01-08 18:55:32,254.948,0.081%,
117,2025-01-08 20:26:43,2025-01-08 20:30:27,224.298,0.071%,
118,2025-01-08 22:01:24,2025-01-08 22:04:53,209.128,0.066%,
119,2025-01-08 23:36:05,2025-01-08 23:39:47,222.408,0.071%,
120,2025-01-09 01:10:47,2025-01-09 01:14:42,235.523,0.075%,
121,2025-01-09 02:45:11,2025-01-09 02:49:08,236.728,0.075%,
122,2025-01-09 04:19:49,2025-01-09 04:24:03,254.004,0.081%,
123,2025-01-09 05:54:28,2025-01-09 05:58:57,269.782,0.086%,
124,2025-01-09 07:29:53,2025-01-09 07:33:23,209.697,0.067%,
125,2025-01-09 09:04:34,2025-01-09 09:08:18,223.466,0.071%,
126,2025-01-09 10:39:15,2025-01-09 10:43:13,237.137,0.075%,
127,2025-01-09 12:13:57,2025-01-09 12:17:43,225.282,0.071%,
128,2025-01-09 13:48:21,2025-01-09 13:52:33,251.639,0.080%,
129,2025-01-09 15:22:59,2025-01-09 15:27:28,269.159,0.085%,
130,2025-01-09 16:57:38,2025-01-09 17:01:53,255.067,0.081%,
131,2025-01-09 18:33:04,2025-01-09 18:36:48,224.223,0.071%,
132,2025-01-09 20:07:45,2025-01-09 20:11:14,209.018,0.066%,
133,2025-01-09 21:42:26,2025-01-09 21:46:08,222.145,0.070%,
134,2025-01-09 23:17:08,2025-01-09 23:21:03,235.18,0.075%,
135,2025-01-10 00:51:31,2025-01-10 00:55:38,246.66,0.078%,
136,2025-01-10 02:26:09,2025-01-10 02:30:23,254.331,0.081%,
137,2025-01-10 04:00:48,2025-01-10 04:05:18,269.839,0.086%,
138,2025-01-10 05:36:14,2025-01-10 05:39:44,209.64,0.067%,
139,2025-01-10 07:10:55,2025-01-10 07:14:38,223.293,0.071%,
140,2025-01-10 08:45:36,2025-01-10 08:49:33,236.848,0.075%,
141,2025-01-10 10:20:08,2025-01-10 10:20:14,5.677,0.002%,
142,2025-01-10 10:20:18,2025-01-10 10:23:59,220.386,0.070%,
143,2025-01-10 11:54:41,2025-01-10 11:58:53,252.37,0.080%,
144,2025-01-10 13:29:19,2025-01-10 13:33:48,269.411,0.085%,
145,2025-01-10 15:03:58,2025-01-10 15:08:14,255.149,0.081%,
146,2025-01-10 16:39:24,2025-01-10 16:43:08,224.124,0.071%,
147,2025-01-10 18:14:05,2025-01-10 18:18:04,238.255,0.076%,
148,2025-01-10 19:48:47,2025-01-10 19:52:30,223.44,0.071%,
149,2025-01-10 21:23:17,2025-01-10 21:23:26,9.641,0.003%,
150,2025-01-10 21:23:29,2025-01-10 21:27:24,234.82,0.075%,
151,2025-01-10 22:57:51,2025-01-10 23:01:49,238.259,0.076%,
152,2025-01-11 00:32:29,2025-01-11 00:36:44,254.598,0.081%,
153,2025-01-11 02:07:09,2025-01-11 02:07:51,42.336,0.013%,
154,2025-01-11 02:07:54,2025-01-11 02:11:39,224.58,0.071%,
155,2025-01-11 03:42:35,2025-01-11 03:46:04,209.567,0.067%,
156,2025-01-11 05:17:16,2025-01-11 05:20:59,223.106,0.071%,
157,2025-01-11 06:51:57,2025-01-11 06:55:54,236.546,0.075%,
158,2025-01-11 08:26:26,2025-01-11 08:26:38,12.369,0.004%,
159,2025-01-11 08:26:39,2025-01-11 08:30:25,226.145,0.072%,
160,2025-01-11 10:01:01,2025-01-11 10:05:14,252.978,0.080%,
161,2025-01-11 11:35:39,2025-01-11 11:40:09,269.614,0.086%,
162,2025-01-11 13:10:19,2025-01-11 13:10:53,34.259,0.011%,
163,2025-01-11 13:11:04,2025-01-11 13:14:34,209.899,0.067%,
164,2025-01-11 14:45:45,2025-01-11 14:49:29,224.012,0.071%,
165,2025-01-11 16:20:26,2025-01-11 16:24:24,238.011,0.076%,
166,2025-01-11 17:55:08,2025-01-11 17:58:49,221.624,0.070%,
167,2025-01-11 19:29:35,2025-01-11 19:33:44,248.83,0.079%,
168,2025-01-11 21:04:11,2025-01-11 21:08:20,249.426,0.079%,
169,2025-01-11 22:38:50,2025-01-11 22:43:04,254.827,0.081%,
170,2025-01-12 00:13:29,2025-01-12 00:13:55,26.053,0.008%,
171,2025-01-12 00:14:15,2025-01-12 00:17:59,224.552,0.071%,
172,2025-01-12 01:48:55,2025-01-12 01:52:25,209.477,0.066%,
173,2025-01-12 03:23:37,2025-01-12 03:27:19,222.904,0.071%,
174,2025-01-12 04:58:18,2025-01-12 05:02:14,236.233,0.075%,
175,2025-01-12 06:32:45,2025-01-12 06:36:40,235.023,0.075%,
176,2025-01-12 08:07:21,2025-01-12 08:11:34,253.49,0.080%,
177,2025-01-12 09:42:00,2025-01-12 09:46:30,269.772,0.086%,
178,2025-01-12 11:16:40,2025-01-12 11:16:57,17.701,0.006%,
179,2025-01-12 11:17:25,2025-01-12 11:20:55,209.901,0.067%,
180,2025-01-12 12:52:06,2025-01-12 12:55:50,223.881,0.071%,
181,2025-01-12 14:26:47,2025-01-12 14:30:45,237.755,0.075%,
182,2025-01-12 16:01:29,2025-01-12 16:05:13,224.414,0.071%,
183,2025-01-12 17:35:54,2025-01-12 17:40:05,250.2,0.079%,
184,2025-01-12 19:10:31,2025-01-12 19:14:30,239.334,0.076%,
185,2025-01-12 20:45:10,2025-01-12 20:49:25,255.009,0.081%,
186,2025-01-12 22:19:50,2025-01-12 22:19:59,9.211,0.003%,
187,2025-01-12 22:20:35,2025-01-12 22:24:20,224.504,0.071%,
188,2025-01-12 23:55:16,2025-01-12 23:58:45,209.368,0.066%,
189,2025-01-13 01:29:57,2025-01-13 01:33:40,222.687,0.071%,
190,2025-01-13 03:04:39,2025-01-13 03:08:35,235.91,0.075%,
191,2025-01-13 04:39:04,2025-01-13 04:43:08,243.825,0.077%,
192,2025-01-13 06:13:41,2025-01-13 06:17:55,253.918,0.081%,
193,2025-01-13 07:48:20,2025-01-13 07:52:50,269.889,0.086%,
194,2025-01-13 09:23:00,2025-01-13 09:23:01,0.574,0.000%,
195,2025-01-13 09:23:46,2025-01-13 09:27:16,209.876,0.067%,
196,2025-01-13 10:58:26,2025-01-13 11:02:10,223.731,0.071%,
197,2025-01-13 12:33:08,2025-01-13 12:37:05,237.487,0.075%,
198,2025-01-13 14:07:49,2025-01-13 14:11:31,221.053,0.070%,
199,2025-01-13 15:42:14,2025-01-13 15:46:25,251.239,0.080%,
200,2025-01-13 17:16:51,2025-01-13 17:21:20,269.134,0.085%,
201,2025-01-13 18:51:30,2025-01-13 18:55:46,255.152,0.081%,
202,2025-01-13 20:26:56,2025-01-13 20:30:40,224.439,0.071%,
203,2025-01-13 22:01:37,2025-01-13 22:05:06,209.238,0.066%,
204,2025-01-13 23:36:18,2025-01-13 23:40:01,222.484,0.071%,
205,2025-01-14 01:11:00,2025-01-14 01:14:56,235.57,0.075%,
206,2025-01-14 02:45:24,2025-01-14 02:49:21,237.192,0.075%,
207,2025-01-14 04:20:01,2025-01-14 04:24:16,254.283,0.081%,
208,2025-01-14 05:54:41,2025-01-14 05:59:11,269.974,0.086%,
209,2025-01-14 07:30:06,2025-01-14 07:33:36,209.837,0.067%,
210,2025-01-14 09:04:47,2025-01-14 09:08:31,223.57,0.071%,
211,2025-01-14 10:39:29,2025-01-14 10:43:26,237.207,0.075%,
212,2025-01-14 12:14:10,2025-01-14 12:17:56,225.331,0.072%,
213,2025-01-14 13:48:34,2025-01-14 13:52:46,252.071,0.080%,
214,2025-01-14 15:23:12,2025-01-14 15:27:41,269.422,0.085%,
215,2025-01-14 16:57:51,2025-01-14 17:02:06,255.259,0.081%,
216,2025-01-14 18:33:17,2025-01-14 18:37:01,224.356,0.071%,
217,2025-01-14 20:07:58,2025-01-14 20:11:27,209.094,0.066%,
218,2025-01-14 21:42:39,2025-01-14 21:46:21,222.218,0.071%,
219,2025-01-14 23:17:12,2025-01-14 23:17:16,3.66,0.001%,
220,2025-01-14 23:17:21,2025-01-14 23:21:16,235.223,0.075%,
221,2025-01-15 00:51:44,2025-01-15 00:55:51,247.066,0.078%,
222,2025-01-15 02:26:22,2025-01-15 02:30:36,254.591,0.081%,
223,2025-01-15 04:01:01,2025-01-15 04:05:31,270.019,0.086%,
224,2025-01-15 05:36:27,2025-01-15 05:39:57,209.776,0.067%,
225,2025-01-15 07:11:08,2025-01-15 07:14:51,223.392,0.071%,
226,2025-01-15 08:45:49,2025-01-15 08:49:46,236.913,0.075%,
227,2025-01-15 10:20:20,2025-01-15 10:20:29,8.626,0.003%,
228,2025-01-15 10:20:31,2025-01-15 10:24:12,220.432,0.070%,
229,2025-01-15 11:54:54,2025-01-15 11:59:06,252.754,0.080%,
230,2025-01-15 13:29:32,2025-01-15 13:34:02,269.656,0.086%,
231,2025-01-15 15:04:12,2025-01-15 15:08:27,255.33,0.081%,
232,2025-01-15 16:39:37,2025-01-15 16:43:22,224.25,0.071%,
233,2025-01-15 18:14:18,2025-01-15 18:17:47,208.935,0.066%,
234,2025-01-15 19:49:00,2025-01-15 19:52:43,223.504,0.071%,
235,2025-01-15 21:23:29,2025-01-15 21:23:41,11.605,0.004%,
236,2025-01-15 21:23:42,2025-01-15 21:27:37,234.859,0.075%,
237,2025-01-15 22:58:04,2025-01-15 23:02:02,238.627,0.076%,
238,2025-01-16 00:32:42,2025-01-16 00:36:57,254.841,0.081%,
239,2025-01-16 02:07:22,2025-01-16 02:11:52,270.042,0.086%,
240,2025-01-16 03:42:48,2025-01-16 03:46:17,209.694,0.067%,
241,2025-01-16 05:17:29,2025-01-16 05:21:12,223.199,0.071%,
242,2025-01-16 06:52:10,2025-01-16 06:56:07,236.606,0.075%,
243,2025-01-16 08:26:38,2025-01-16 08:26:52,13.933,0.004%,
244,2025-01-16 08:26:52,2025-01-16 08:30:39,226.181,0.072%,
245,2025-01-16 10:01:14,2025-01-16 10:05:27,253.327,0.080%,
246,2025-01-16 11:35:52,2025-01-16 11:40:22,269.843,0.086%,
247,2025-01-16 13:10:32,2025-01-16 13:14:47,255.375,0.081%,
248,2025-01-16 14:45:58,2025-01-16 14:49:42,224.132,0.071%,
249,2025-01-16 16:20:39,2025-01-16 16:24:09,210.216,0.067%,
250,2025-01-16 16:24:17,2025-01-16 16:24:37,20.278,0.006%,
251,2025-01-16 17:55:21,2025-01-16 17:59:03,221.687,0.070%,
252,2025-01-16 19:29:48,2025-01-16 19:33:57,249.521,0.079%,
253,2025-01-16 21:04:24,2025-01-16 21:08:34,249.759,0.079%,
254,2025-01-16 22:39:03,2025-01-16 22:43:18,255.054,0.081%,
255,2025-01-17 00:13:42,2025-01-17 00:18:12,270.029,0.086%,
256,2025-01-17 01:49:08,2025-01-17 01:52:38,209.6,0.067%,
257,2025-01-17 03:23:50,2025-01-17 03:27:33,222.992,0.071%,
258,2025-01-17 04:58:31,2025-01-17 05:02:28,236.287,0.075%,
259,2025-01-17 06:32:57,2025-01-17 06:36:53,235.64,0.075%,
260,2025-01-17 08:07:34,2025-01-17 08:11:48,253.81,0.081%,
261,2025-01-17 09:42:13,2025-01-17 09:46:43,269.986,0.086%,
262,2025-01-17 11:16:53,2025-01-17 11:21:08,255.385,0.081%,
263,2025-01-17 12:52:19,2025-01-17 12:56:03,223.995,0.071%,
264,2025-01-17 14:27:00,2025-01-17 14:30:58,237.834,0.075%,
265,2025-01-17 16:01:42,2025-01-17 16:05:26,224.469,0.071%,
266,2025-01-17 17:36:07,2025-01-17 17:40:18,250.755,0.080%,
267,2025-01-17 19:10:44,2025-01-17 19:14:44,239.642,0.076%,
268,2025-01-17 20:45:23,2025-01-17 20:49:38,255.222,0.081%,
269,2025-01-17 22:20:03,2025-01-17 22:24:33,269.99,0.086%,
270,2025-01-17 23:55:29,2025-01-17 23:58:59,209.482,0.066%,
271,2025-01-18 01:30:10,2025-01-18 01:33:53,222.769,0.071%,
272,2025-01-18 03:04:52,2025-01-18 03:08:48,235.961,0.075%,
273,2025-01-18 04:39:17,2025-01-18 04:43:21,244.337,0.078%,
274,2025-01-18 06:13:54,2025-01-18 06:18:08,254.214,0.081%,
275,2025-01-18 07:48:33,2025-01-18 07:53:03,270.089,0.086%,
276,2025-01-18 09:23:13,2025-01-18 09:27:29,255.37,0.081%,
277,2025-01-18 10:58:40,2025-01-18 11:02:23,223.839,0.071%,
278,2025-01-18 12:33:21,2025-01-18 12:37:18,237.561,0.075%,
279,2025-01-18 14:08:03,2025-01-18 14:11:44,221.107,0.070%,
280,2025-01-18 15:42:27,2025-01-18 15:46:38,251.711,0.080%,
281,2025-01-18 17:17:04,2025-01-18 17:21:16,252.119,0.080%,
282,2025-01-18 18:51:43,2025-01-18 18:55:59,255.352,0.081%,
283,2025-01-18 20:26:24,2025-01-18 20:30:54,269.926,0.086%,
284,2025-01-18 22:01:50,2025-01-18 22:05:19,209.346,0.066%,
285,2025-01-18 23:36:31,2025-01-18 23:40:14,222.558,0.071%,
286,2025-01-19 01:11:13,2025-01-19 01:15:09,235.616,0.075%,
287,2025-01-19 02:45:37,2025-01-19 02:49:34,237.641,0.075%,
288,2025-01-19 04:20:14,2025-01-19 04:24:29,254.556,0.081%,
289,2025-01-19 05:54:54,2025-01-19 05:59:24,270.162,0.086%,
290,2025-01-19 07:29:34,2025-01-19 07:33:49,255.329,0.081%,
291,2025-01-19 09:05:00,2025-01-19 09:08:44,223.671,0.071%,
292,2025-01-19 10:39:42,2025-01-19 10:43:39,237.275,0.075%,
293,2025-01-19 12:14:24,2025-01-19 12:18:09,225.371,0.072%,
294,2025-01-19 13:48:47,2025-01-19 13:52:59,252.487,0.080%,
295,2025-01-19 15:23:25,2025-01-19 15:27:25,240.376,0.076%,
296,2025-01-19 15:27:37,2025-01-19 15:27:54,17.192,0.006%,
297,2025-01-19 16:58:04,2025-01-19 17:02:19,255.446,0.081%,
298,2025-01-19 18:32:44,2025-01-19 18:37:14,269.838,0.086%,
299,2025-01-19 20:08:11,2025-01-19 20:11:40,209.196,0.066%,
300,2025-01-19 21:42:52,2025-01-19 21:46:34,222.29,0.071%,
301,2025-01-19 23:17:23,2025-01-19 23:17:31,7.464,0.002%,
302,2025-01-19 23:17:34,2025-01-19 23:21:29,235.264,0.075%,
303,2025-01-20 00:51:57,2025-01-20 00:56:04,247.456,0.079%,
304,2025-01-20 02:26:35,2025-01-20 02:30:50,254.844,0.081%,
305,2025-01-20 04:01:14,2025-01-20 04:05:44,270.195,0.086%,
306,2025-01-20 05:35:55,2025-01-20 05:40:10,255.261,0.081%,
307,2025-01-20 07:11:21,2025-01-20 07:15:05,223.488,0.071%,
308,2025-01-20 08:46:03,2025-01-20 08:50:00,236.976,0.075%,
309,2025-01-20 10:20:32,2025-01-20 10:20:43,10.78,0.003%,
310,2025-01-20 10:20:45,2025-01-20 10:24:25,220.476,0.070%,
311,2025-01-20 11:55:07,2025-01-20 11:59:20,253.127,0.080%,
312,2025-01-20 13:29:45,2025-01-20 13:34:15,269.894,0.086%,
313,2025-01-20 15:04:25,2025-01-20 15:08:40,255.506,0.081%,
314,2025-01-20 16:39:05,2025-01-20 16:39:42,36.564,0.012%,
315,2025-01-20 16:39:50,2025-01-20 16:43:35,224.372,0.071%,
316,2025-01-20 18:14:32,2025-01-20 18:18:01,209.031,0.066%,
317,2025-01-20 19:49:13,2025-01-20 19:52:57,223.569,0.071%,
318,2025-01-20 21:23:41,2025-01-20 21:23:55,13.265,0.004%,
319,2025-01-20 21:23:55,2025-01-20 21:27:50,234.895,0.075%,
320,2025-01-20 22:58:17,2025-01-20 23:02:16,238.985,0.076%,
321,2025-01-21 00:32:55,2025-01-21 00:37:10,255.078,0.081%,
322,2025-01-21 02:07:35,2025-01-21 02:12:05,270.207,0.086%,
323,2025-01-21 03:42:15,2025-01-21 03:42:41,25.414,0.008%,
324,2025-01-21 03:43:01,2025-01-21 03:46:31,209.821,0.067%,
325,2025-01-21 05:17:42,2025-01-21 05:21:25,223.289,0.071%,
326,2025-01-21 06:52:24,2025-01-21 06:56:20,236.664,0.075%,
327,2025-01-21 08:26:51,2025-01-21 08:30:52,240.968,0.076%,
328,2025-01-21 10:01:27,2025-01-21 10:05:40,253.665,0.080%,
329,2025-01-21 11:36:05,2025-01-21 11:40:35,270.065,0.086%,
330,2025-01-21 13:10:45,2025-01-21 13:15:01,255.537,0.081%,
331,2025-01-21 14:45:26,2025-01-21 14:45:40,14.102,0.005%,
332,2025-01-21 14:46:11,2025-01-21 14:49:55,224.249,0.071%,
333,2025-01-21 16:20:52,2025-01-21 16:24:23,210.263,0.067%,
334,2025-01-21 17:55:34,2025-01-21 17:59:16,221.749,0.070%,
335,2025-01-21 19:30:00,2025-01-21 19:34:10,250.15,0.079%,
336,2025-01-21 21:04:37,2025-01-21 21:08:47,250.081,0.079%,
337,2025-01-21 22:39:15,2025-01-21 22:43:31,255.275,0.081%,
338,2025-01-22 00:13:55,2025-01-22 00:18:26,270.182,0.086%,
339,2025-01-22 01:48:36,2025-01-22 01:48:39,2.624,0.001%,
340,2025-01-22 01:49:22,2025-01-22 01:52:51,209.717,0.067%,
341,2025-01-22 03:24:03,2025-01-22 03:27:46,223.076,0.071%,
342,2025-01-22 04:58:44,2025-01-22 05:02:41,236.341,0.075%,
343,2025-01-22 06:33:10,2025-01-22 06:37:06,236.213,0.075%,
344,2025-01-22 08:07:47,2025-01-22 08:12:01,254.118,0.081%,
345,2025-01-22 09:42:26,2025-01-22 09:46:56,270.194,0.086%,
346,2025-01-22 11:17:06,2025-01-22 11:21:21,255.54,0.081%,
347,2025-01-22 12:52:32,2025-01-22 12:56:16,224.105,0.071%,
348,2025-01-22 14:27:13,2025-01-22 14:30:42,208.644,0.066%,
349,2025-01-22 14:30:51,2025-01-22 14:31:11,20.454,0.007%,
350,2025-01-22 16:01:55,2025-01-22 16:05:39,224.526,0.071%,
351,2025-01-22 17:36:20,2025-01-22 17:40:31,251.272,0.080%,
352,2025-01-22 19:10:57,2025-01-22 19:14:57,239.943,0.076%,
353,2025-01-22 20:45:36,2025-01-22 20:49:51,255.429,0.081%,
354,2025-01-22 22:20:16,2025-01-22 22:24:46,270.134,0.086%,
355,2025-01-22 23:55:42,2025-01-22 23:59:12,209.593,0.067%,
356,2025-01-23 01:30:24,2025-01-23 01:34:06,222.848,0.071%,
357,2025-01-23 03:05:05,2025-01-23 03:09:01,236.009,0.075%,
358,2025-01-23 04:39:30,2025-01-23 04:43:34,244.817,0.078%,
359,2025-01-23 06:14:07,2025-01-23 06:18:22,254.5,0.081%,
360,2025-01-23 07:48:46,2025-01-23 07:53:16,270.283,0.086%,
361,2025-01-23 09:23:26,2025-01-23 09:27:42,255.515,0.081%,
362,2025-01-23 10:58:53,2025-01-23 11:02:37,223.943,0.071%,
363,2025-01-23 12:33:34,2025-01-23 12:37:32,237.629,0.075%,
364,2025-01-23 14:08:16,2025-01-23 14:11:57,221.159,0.070%,
365,2025-01-23 15:42:40,2025-01-23 15:46:52,252.158,0.080%,
366,2025-01-23 17:17:17,2025-01-23 17:21:30,252.393,0.080%,
367,2025-01-23 18:51:56,2025-01-23 18:56:12,255.545,0.081%,
368,2025-01-23 20:26:37,2025-01-23 20:31:07,270.061,0.086%,
369,2025-01-23 22:02:03,2025-01-23 22:05:32,209.451,0.066%,
370,2025-01-23 23:36:44,2025-01-23 23:40:27,222.631,0.071%,
371,2025-01-24 01:11:26,2025-01-24 01:15:22,235.66,0.075%,
372,2025-01-24 02:45:49,2025-01-24 02:49:48,238.065,0.076%,
373,2025-01-24 04:20:27,2025-01-24 04:24:42,254.819,0.081%,
374,2025-01-24 05:55:07,2025-01-24 05:59:37,270.344,0.086%,
375,2025-01-24 07:29:47,2025-01-24 07:34:03,255.465,0.081%,
376,2025-01-24 09:05:13,2025-01-24 09:08:57,223.77,0.071%,
377,2025-01-24 10:39:55,2025-01-24 10:43:52,237.34,0.075%,
378,2025-01-24 12:14:27,2025-01-24 12:14:33,6.058,0.002%,
379,2025-01-24 12:14:37,2025-01-24 12:18:22,225.421,0.072%,
380,2025-01-24 13:48:59,2025-01-24 13:53:12,252.88,0.080%,
381,2025-01-24 15:23:37,2025-01-24 15:27:38,240.633,0.076%,
382,2025-01-24 16:58:17,2025-01-24 17:02:33,255.628,0.081%,
383,2025-01-24 18:32:57,2025-01-24 18:37:27,269.964,0.086%,
384,2025-01-24 20:08:24,2025-01-24 20:11:53,209.295,0.066%,
385,2025-01-24 21:43:05,2025-01-24 21:46:48,222.359,0.071%,
386,2025-01-24 23:17:35,2025-01-24 23:17:45,9.87,0.003%,
387,2025-01-24 23:17:47,2025-01-24 23:21:43,235.303,0.075%,
388,2025-01-25 00:52:09,2025-01-25 00:56:17,247.833,0.079%,
389,2025-01-25 02:26:48,2025-01-25 02:31:03,255.09,0.081%,
390,2025-01-25 04:01:27,2025-01-25 04:05:58,270.365,0.086%,
391,2025-01-25 05:36:08,2025-01-25 05:40:23,255.388,0.081%,
392,2025-01-25 07:11:34,2025-01-25 07:15:18,223.58,0.071%,
393,2025-01-25 08:46:16,2025-01-25 08:50:13,237.036,0.075%,
394,2025-01-25 10:20:44,2025-01-25 10:20:57,12.546,0.004%,
395,2025-01-25 10:20:58,2025-01-25 10:24:38,220.515,0.070%,
396,2025-01-25 11:55:19,2025-01-25 11:59:33,253.483,0.080%,
397,2025-01-25 13:29:58,2025-01-25 13:34:28,270.125,0.086%,
398,2025-01-25 15:04:38,2025-01-25 15:08:53,255.676,0.081%,
399,2025-01-25 16:39:18,2025-01-25 16:43:48,269.843,0.086%,
400,2025-01-25 18:14:45,2025-01-25 18:18:14,209.124,0.066%,
401,2025-01-25 19:49:26,2025-01-25 19:53:10,223.633,0.071%,
402,2025-01-25 21:23:54,2025-01-25 21:28:03,249.381,0.079%,
403,2025-01-25 22:58:29,2025-01-25 23:02:29,239.329,0.076%,
404,2025-01-26 00:33:08,2025-01-26 00:37:23,255.307,0.081%,
405,2025-01-26 02:07:48,2025-01-26 02:12:18,270.366,0.086%,
406,2025-01-26 03:42:29,2025-01-26 03:46:44,255.288,0.081%,
407,2025-01-26 05:17:55,2025-01-26 05:21:38,223.376,0.071%,
408,2025-01-26 06:52:37,2025-01-26 06:56:33,236.719,0.075%,
409,2025-01-26 08:27:03,2025-01-26 08:31:05,241.622,0.077%,
410,2025-01-26 10:01:40,2025-01-26 10:05:54,253.987,0.081%,
411,2025-01-26 11:36:18,2025-01-26 11:40:49,270.277,0.086%,
412,2025-01-26 13:10:58,2025-01-26 13:15:14,255.697,0.081%,
413,2025-01-26 14:45:39,2025-01-26 14:50:09,269.701,0.086%,
414,2025-01-26 16:21:05,2025-01-26 16:24:36,210.31,0.067%,
415,2025-01-26 17:55:47,2025-01-26 17:59:29,221.808,0.070%,
416,2025-01-26 19:30:13,2025-01-26 19:34:24,250.731,0.080%,
417,2025-01-26 21:04:50,2025-01-26 21:09:00,250.394,0.079%,
418,2025-01-26 22:39:28,2025-01-26 22:43:44,255.49,0.081%,
419,2025-01-27 00:14:08,2025-01-27 00:18:39,270.332,0.086%,
420,2025-01-27 01:48:49,2025-01-27 01:53:04,255.164,0.081%,
421,2025-01-27 03:24:16,2025-01-27 03:27:59,223.159,0.071%,
422,2025-01-27 04:58:58,2025-01-27 05:02:54,236.394,0.075%,
423,2025-01-27 06:33:23,2025-01-27 06:37:19,236.747,0.075%,
424,2025-01-27 08:08:00,2025-01-27 08:12:14,254.417,0.081%,
425,2025-01-27 09:42:39,2025-01-27 09:47:09,270.396,0.086%,
426,2025-01-27 11:17:19,2025-01-27 11:21:35,255.691,0.081%,
427,2025-01-27 12:52:00,2025-01-27 12:56:29,269.537,0.086%,
428,2025-01-27 14:27:26,2025-01-27 14:30:55,208.727,0.066%,
429,2025-01-27 16:02:08,2025-01-27 16:05:53,224.579,0.071%,
430,2025-01-27 17:36:33,2025-01-27 17:40:44,251.764,0.080%,
431,2025-01-27 19:11:10,2025-01-27 19:15:10,240.236,0.076%,
432,2025-01-27 20:45:49,2025-01-27 20:50:05,255.631,0.081%,
433,2025-01-27 22:20:29,2025-01-27 22:24:59,270.275,0.086%,
434,2025-01-27 23:55:10,2025-01-27 23:55:43,33.149,0.011%,
435,2025-01-27 23:55:55,2025-01-27 23:59:25,209.702,0.067%,
436,2025-01-28 01:30:37,2025-01-28 01:34:20,222.93,0.071%,
437,2025-01-28 03:05:18,2025-01-28 03:09:15,236.055,0.075%,
438,2025-01-28 04:39:42,2025-01-28 04:43:48,245.273,0.078%,
439,2025-01-28 06:14:20,2025-01-28 06:18:35,254.777,0.081%,
440,2025-01-28 07:48:59,2025-01-28 07:53:30,270.473,0.086%,
441,2025-01-28 09:23:39,2025-01-28 09:27:55,255.656,0.081%,
442,2025-01-28 10:58:20,2025-01-28 10:58:40,19.36,0.006%,
443,2025-01-28 10:59:06,2025-01-28 11:02:50,224.046,0.071%,
444,2025-01-28 12:33:47,2025-01-28 12:37:45,237.699,0.075%,
445,2025-01-28 14:08:29,2025-01-28 14:12:10,221.208,0.070%,
446,2025-01-28 15:42:52,2025-01-28 15:47:05,252.587,0.080%,
447,2025-01-28 17:17:30,2025-01-28 17:21:43,252.659,0.080%,
448,2025-01-28 18:52:09,2025-01-28 18:56:25,255.735,0.081%,
449,2025-01-28 20:26:50,2025-01-28 20:31:20,270.193,0.086%,
450,2025-01-28 22:01:31,2025-01-28 22:01:36,5.387,0.002%,
451,2025-01-28 22:02:16,2025-01-28 22:05:46,209.555,0.066%,
452,2025-01-28 23:36:58,2025-01-28 23:40:40,222.702,0.071%,
453,2025-01-29 01:11:30,2025-01-29 01:11:34,4.216,0.001%,
454,2025-01-29 01:11:39,2025-01-29 01:15:35,235.702,0.075%,
455,2025-01-29 02:46:02,2025-01-29 02:50:01,238.471,0.076%,
456,2025-01-29 04:20:40,2025-01-29 04:24:55,255.077,0.081%,
457,2025-01-29 05:55:20,2025-01-29 05:59:50,270.522,0.086%,
458,2025-01-29 07:30:00,2025-01-29 07:34:16,255.598,0.081%,
459,2025-01-29 09:05:27,2025-01-29 09:09:10,223.866,0.071%,
460,2025-01-29 10:40:08,2025-01-29 10:44:05,237.404,0.075%,
461,2025-01-29 12:14:38,2025-01-29 12:14:47,8.874,0.003%,
462,2025-01-29 12:14:50,2025-01-29 12:18:35,225.462,0.072%,
463,2025-01-29 13:49:12,2025-01-29 13:53:25,253.264,0.080%,
464,2025-01-29 15:23:50,2025-01-29 15:27:51,240.885,0.076%,
465,2025-01-29 16:58:30,2025-01-29 17:02:46,255.807,0.081%,
466,2025-01-29 18:33:11,2025-01-29 18:37:41,270.088,0.086%,
467,2025-01-29 20:08:37,2025-01-29 20:12:06,209.393,0.066%,
468,2025-01-29 21:43:18,2025-01-29 21:47:01,222.422,0.071%,
469,2025-01-29 23:17:47,2025-01-29 23:17:59,11.786,0.004%,
470,2025-01-29 23:18:00,2025-01-29 23:21:56,235.34,0.075%,
471,2025-01-30 00:52:22,2025-01-30 00:56:30,248.195,0.079%,
472,2025-01-30 02:27:01,2025-01-30 02:31:16,255.331,0.081%,
473,2025-01-30 04:01:40,2025-01-30 04:06:11,270.533,0.086%,
474,2025-01-30 05:36:21,2025-01-30 05:40:36,255.512,0.081%,
475,2025-01-30 07:11:47,2025-01-30 07:15:31,223.672,0.071%,
476,2025-01-30 08:46:29,2025-01-30 08:50:26,237.094,0.075%,
477,2025-01-30 10:20:57,2025-01-30 10:21:11,14.085,0.005%,
478,2025-01-30 10:21:11,2025-01-30 10:24:51,220.554,0.070%,
479,2025-01-30 11:55:32,2025-01-30 11:59:46,253.831,0.081%,
480,2025-01-30 13:30:11,2025-01-30 13:34:26,254.696,0.081%,
481,2025-01-30 15:04:51,2025-01-30 15:09:06,255.845,0.081%,
482,2025-01-30 16:39:31,2025-01-30 16:44:01,269.959,0.086%,
483,2025-01-30 18:14:58,2025-01-30 18:18:27,209.217,0.066%,
484,2025-01-30 19:49:39,2025-01-30 19:53:23,223.692,0.071%,
485,2025-01-30 21:24:06,2025-01-30 21:28:16,250.063,0.079%,
486,2025-01-30 22:58:42,2025-01-30 23:02:42,239.662,0.076%,
487,2025-01-31 00:33:21,2025-01-31 00:37:37,255.533,0.081%,
488,2025-01-31 02:08:01,2025-01-31 02:12:31,270.523,0.086%,
489,2025-01-31 03:42:42,2025-01-31 03:46:57,255.404,0.081%,
490,2025-01-31 05:18:08,2025-01-31 05:21:52,223.463,0.071%,
491,2025-01-31 06:52:50,2025-01-31 06:56:47,236.773,0.075%,
492,2025-01-31 08:27:16,2025-01-31 08:31:18,242.227,0.077%,
493,2025-01-31 10:01:52,2025-01-31 10:06:07,254.304,0.081%,
494,2025-01-31 11:36:31,2025-01-31 11:41:02,270.49,0.086%,
495,2025-01-31 13:11:11,2025-01-31 13:15:27,255.856,0.081%,
496,2025-01-31 14:45:52,2025-01-31 14:50:22,269.809,0.086%,
497,2025-01-31 16:21:19,2025-01-31 16:24:49,210.35,0.067%,
498,2025-01-31 17:56:00,2025-01-31 17:59:42,221.866,0.070%,
499,2025-01-31 19:30:26,2025-01-31 19:34:37,251.282,0.080%,
500,2025-01-31 21:05:02,2025-01-31 21:09:13,250.696,0.080%,
501,2025-01-31 22:39:41,2025-01-31 22:43:57,255.702,0.081%,
502,2025-02-01 00:14:22,2025-02-01 00:18:52,270.481,0.086%,
503,2025-02-01 01:49:02,2025-02-01 01:53:18,255.273,0.081%,
504,2025-02-01 03:24:29,2025-02-01 03:28:12,223.24,0.071%,
505,2025-02-01 04:59:11,2025-02-01 05:03:07,236.444,0.075%,
506,2025-02-01 06:33:35,2025-02-01 06:37:33,237.254,0.075%,
507,2025-02-01 08:08:13,2025-02-01 08:12:27,254.709,0.081%,
508,2025-02-01 09:42:52,2025-02-01 09:47:22,270.595,0.086%,
509,2025-02-01 11:17:32,2025-02-01 11:21:48,255.839,0.081%,
510,2025-02-01 12:52:13,2025-02-01 12:56:42,269.637,0.086%,
511,2025-02-01 14:27:39,2025-02-01 14:31:08,208.808,0.066%,
512,2025-02-01 16:02:21,2025-02-01 16:06:06,224.628,0.071%,
513,2025-02-01 17:36:45,2025-02-01 17:40:58,252.231,0.080%,
514,2025-02-01 19:11:23,2025-02-01 19:15:23,240.522,0.076%,
515,2025-02-01 20:46:02,2025-02-01 20:50:18,255.83,0.081%,
516,2025-02-01 22:20:42,2025-02-01 22:25:13,270.414,0.086%,
517,2025-02-01 23:55:23,2025-02-01 23:59:38,255.118,0.081%,
518,2025-02-02 01:30:50,2025-02-02 01:34:33,223.006,0.071%,
519,2025-02-02 03:05:32,2025-02-02 03:09:28,236.101,0.075%,
520,2025-02-02 04:39:55,2025-02-02 04:44:01,245.709,0.078%,
521,2025-02-02 06:14:33,2025-02-02 06:18:48,255.048,0.081%,
522,2025-02-02 07:49:12,2025-02-02 07:53:43,270.66,0.086%,
523,2025-02-02 09:23:53,2025-02-02 09:28:08,255.796,0.081%,
524,2025-02-02 10:58:34,2025-02-02 11:03:03,269.445,0.085%,
525,2025-02-02 12:34:00,2025-02-02 12:37:32,211.391,0.067%,
526,2025-02-02 12:37:42,2025-02-02 12:37:58,15.554,0.005%,
527,2025-02-02 14:08:42,2025-02-02 14:12:23,221.257,0.070%,
528,2025-02-02 15:43:05,2025-02-02 15:47:18,252.997,0.080%,
529,2025-02-02 17:17:43,2025-02-02 17:21:56,252.918,0.080%,
530,2025-02-02 18:52:22,2025-02-02 18:56:38,255.922,0.081%,
531,2025-02-02 20:27:03,2025-02-02 20:31:33,270.323,0.086%,
532,2025-02-02 22:01:44,2025-02-02 22:02:19,35.452,0.011%,
533,2025-02-02 22:02:29,2025-02-02 22:05:59,209.657,0.067%,
534,2025-02-02 23:37:11,2025-02-02 23:40:53,222.769,0.071%,
535,2025-02-03 01:11:42,2025-02-03 01:11:49,7.744,0.003%,
536,2025-02-03 01:11:53,2025-02-03 01:15:48,235.743,0.075%,
537,2025-02-03 02:46:15,2025-02-03 02:50:14,238.864,0.076%,
538,2025-02-03 04:20:53,2025-02-03 04:25:09,255.329,0.081%,
539,2025-02-03 05:55:33,2025-02-03 06:00:03,270.697,0.086%,
540,2025-02-03 07:30:13,2025-02-03 07:34:29,255.728,0.081%,
541,2025-02-03 09:04:54,2025-02-03 09:05:14,19.396,0.006%,
542,2025-02-03 09:05:40,2025-02-03 09:09:24,223.962,0.071%,
543,2025-02-03 10:40:21,2025-02-03 10:44:19,237.466,0.075%,
544,2025-02-03 12:14:50,2025-02-03 12:15:01,10.972,0.004%,
545,2025-02-03 12:15:03,2025-02-03 12:18:49,225.501,0.072%,
546,2025-02-03 13:49:25,2025-02-03 13:53:39,253.629,0.080%,
547,2025-02-03 15:24:03,2025-02-03 15:28:05,241.132,0.077%,
548,2025-02-03 16:58:43,2025-02-03 17:02:59,255.982,0.081%,
549,2025-02-03 18:33:24,2025-02-03 18:37:54,270.209,0.086%,
550,2025-02-03 20:08:05,2025-02-03 20:08:08,3.163,0.001%,
551,2025-02-03 20:08:50,2025-02-03 20:12:20,209.489,0.066%,
552,2025-02-03 21:43:32,2025-02-03 21:47:14,222.488,0.071%,
553,2025-02-03 23:18:00,2025-02-03 23:18:13,13.416,0.004%,
554,2025-02-03 23:18:14,2025-02-03 23:22:09,235.373,0.075%,
555,2025-02-04 00:52:35,2025-02-04 00:56:44,248.546,0.079%,
556,2025-02-04 02:27:14,2025-02-04 02:31:29,255.566,0.081%,
557,2025-02-04 04:01:53,2025-02-04 04:06:24,270.697,0.086%,
558,2025-02-04 05:36:34,2025-02-04 05:40:50,255.634,0.081%,
559,2025-02-04 07:12:00,2025-02-04 07:15:44,223.762,0.071%,
560,2025-02-04 08:46:42,2025-02-04 08:50:39,237.151,0.075%,
561,2025-02-04 10:21:09,2025-02-04 10:25:05,235.411,0.075%,
562,2025-02-04 11:55:45,2025-02-04 11:59:59,254.163,0.081%,
563,2025-02-04 13:30:24,2025-02-04 13:34:39,254.922,0.081%,
564,2025-02-04 15:05:04,2025-02-04 15:09:20,256.009,0.081%,
565,2025-02-04 16:39:44,2025-02-04 16:44:14,270.072,0.086%,
566,2025-02-04 18:15:11,2025-02-04 18:18:40,209.307,0.066%,
567,2025-02-04 19:49:53,2025-02-04 19:53:36,223.751,0.071%,
568,2025-02-04 21:24:19,2025-02-04 21:28:30,250.684,0.080%,
569,2025-02-04 22:58:55,2025-02-04 23:02:55,239.987,0.076%,
570,2025-02-05 00:33:34,2025-02-05 00:37:50,255.753,0.081%,
571,2025-02-05 02:08:14,2025-02-05 02:12:45,270.674,0.086%,
572,2025-02-05 03:42:55,2025-02-05 03:47:10,255.517,0.081%,
573,2025-02-05 05:18:21,2025-02-05 05:22:05,223.547,0.071%,
574,2025-02-05 06:53:03,2025-02-05 06:57:00,236.83,0.075%,
575,2025-02-05 08:27:29,2025-02-05 08:31:31,242.793,0.077%,
576,2025-02-05 10:02:05,2025-02-05 10:06:20,254.611,0.081%,
577,2025-02-05 11:36:44,2025-02-05 11:41:15,270.696,0.086%,
578,2025-02-05 13:11:24,2025-02-05 13:15:40,256.009,0.081%,
579,2025-02-05 14:46:05,2025-02-05 14:50:35,269.914,0.086%,
580,2025-02-05 16:21:32,2025-02-05 16:25:02,210.388,0.067%,
581,2025-02-05 17:56:13,2025-02-05 17:59:55,221.922,0.070%,
582,2025-02-05 19:30:38,2025-02-05 19:34:50,251.794,0.080%,
583,2025-02-05 21:05:15,2025-02-05 21:09:26,250.991,0.080%,
584,2025-02-05 22:39:54,2025-02-05 22:44:10,255.908,0.081%,
585,2025-02-06 00:14:35,2025-02-06 00:19:05,270.624,0.086%,
586,2025-02-06 01:49:15,2025-02-06 01:53:31,255.377,0.081%,
587,2025-02-06 03:24:42,2025-02-06 03:28:25,223.318,0.071%,
588,2025-02-06 04:59:24,2025-02-06 05:03:20,236.491,0.075%,
589,2025-02-06 06:33:48,2025-02-06 06:37:46,237.735,0.075%,
590,2025-02-06 08:08:26,2025-02-06 08:12:41,254.992,0.081%,
591,2025-02-06 09:43:05,2025-02-06 09:47:36,270.787,0.086%,
592,2025-02-06 11:17:45,2025-02-06 11:22:01,255.983,0.081%,
593,2025-02-06 12:52:26,2025-02-06 12:56:56,269.733,0.086%,
594,2025-02-06 14:27:53,2025-02-06 14:31:21,208.887,0.066%,
595,2025-02-06 16:02:34,2025-02-06 16:06:19,224.679,0.071%,
596,2025-02-06 17:36:58,2025-02-06 17:41:11,252.673,0.080%,
597,2025-02-06 19:11:36,2025-02-06 19:15:36,240.796,0.076%,
598,2025-02-06 20:46:15,2025-02-06 20:50:31,256.022,0.081%,
599,2025-02-06 22:20:55,2025-02-06 22:25:26,270.548,0.086%,
600,2025-02-06 23:55:36,2025-02-06 23:59:51,255.215,0.081%,
601,2025-02-07 01:31:03,2025-02-07 01:34:46,223.079,0.071%,
602,2025-02-07 03:05:45,2025-02-07 03:09:41,236.143,0.075%,
603,2025-02-07 04:40:08,2025-02-07 04:44:14,246.128,0.078%,
604,2025-02-07 06:14:46,2025-02-07 06:19:01,255.31,0.081%,
605,2025-02-07 07:49:25,2025-02-07 07:53:56,270.84,0.086%,
606,2025-02-07 09:24:06,2025-02-07 09:28:22,255.93,0.081%,
607,2025-02-07 10:58:47,2025-02-07 11:03:16,269.534,0.086%,
608,2025-02-07 12:34:13,2025-02-07 12:37:45,211.419,0.067%,
609,2025-02-07 12:38:07,2025-02-07 12:38:11,4.679,0.002%,
610,2025-02-07 14:08:45,2025-02-07 14:08:51,6.388,0.002%,
611,2025-02-07 14:08:55,2025-02-07 14:12:37,221.303,0.070%,
612,2025-02-07 15:43:18,2025-02-07 15:47:31,253.39,0.080%,
613,2025-02-07 17:17:56,2025-02-07 17:22:09,253.175,0.080%,
614,2025-02-07 18:52:36,2025-02-07 18:56:52,256.103,0.081%,
615,2025-02-07 20:27:16,2025-02-07 20:31:46,270.448,0.086%,
616,2025-02-07 22:01:57,2025-02-07 22:02:42,44.793,0.014%,
617,2025-02-07 22:02:42,2025-02-07 22:06:12,209.754,0.067%,
618,2025-02-07 23:37:24,2025-02-07 23:41:07,222.841,0.071%,
619,2025-02-08 01:11:54,2025-02-08 01:12:04,10.073,0.003%,
620,2025-02-08 01:12:06,2025-02-08 01:16:02,235.78,0.075%,
621,2025-02-08 02:46:28,2025-02-08 02:50:27,239.238,0.076%,
622,2025-02-08 04:21:06,2025-02-08 04:25:22,255.573,0.081%,
623,2025-02-08 05:55:46,2025-02-08 06:00:17,270.866,0.086%,
624,2025-02-08 07:30:26,2025-02-08 07:34:42,255.853,0.081%,
625,2025-02-08 09:05:08,2025-02-08 09:05:34,26.845,0.009%,
626,2025-02-08 09:05:53,2025-02-08 09:09:37,224.053,0.071%,
627,2025-02-08 10:40:34,2025-02-08 10:44:32,237.526,0.075%,
628,2025-02-08 12:15:03,2025-02-08 12:15:15,12.702,0.004%,
629,2025-02-08 12:15:16,2025-02-08 12:19:02,225.539,0.072%,
630,2025-02-08 13:49:38,2025-02-08 13:53:52,253.984,0.081%,
631,2025-02-08 15:24:16,2025-02-08 15:28:18,241.37,0.077%,
632,2025-02-08 16:58:56,2025-02-08 17:03:12,256.151,0.081%,
633,2025-02-08 18:33:37,2025-02-08 18:38:07,270.326,0.086%,
634,2025-02-08 20:08:06,2025-02-08 20:08:12,5.739,0.002%,
635,2025-02-08 20:08:18,2025-02-08 20:08:27,8.723,0.003%,
636,2025-02-08 20:09:03,2025-02-08 20:12:33,209.581,0.067%,
637,2025-02-08 21:43:45,2025-02-08 21:47:27,222.552,0.071%,
638,2025-02-08 23:18:12,2025-02-08 23:22:22,249.923,0.079%,
639,2025-02-09 00:52:48,2025-02-09 00:56:57,248.887,0.079%,
640,2025-02-09 02:27:27,2025-02-09 02:31:42,255.794,0.081%,
641,2025-02-09 04:02:06,2025-02-09 04:06:37,270.855,0.086%,
642,2025-02-09 05:36:47,2025-02-09 05:41:03,255.751,0.081%,
643,2025-02-09 07:11:15,2025-02-09 07:11:19,4.254,0.001%,
644,2025-02-09 07:12:14,2025-02-09 07:15:57,223.848,0.071%,
645,2025-02-09 08:46:55,2025-02-09 08:50:52,237.206,0.075%,
646,2025-02-09 10:21:22,2025-02-09 10:25:18,236.058,0.075%,
647,2025-02-09 11:55:58,2025-02-09 12:00:13,254.485,0.081%,
648,2025-02-09 13:30:37,2025-02-09 13:34:52,255.147,0.081%,
649,2025-02-09 15:05:17,2025-02-09 15:09:33,256.168,0.081%,
650,2025-02-09 16:39:57,2025-02-09 16:44:28,270.181,0.086%,
651,2025-02-09 18:15:24,2025-02-09 18:18:53,209.394,0.066%,
652,2025-02-09 19:50:06,2025-02-09 19:53:49,223.813,0.071%,
653,2025-02-09 21:24:31,2025-02-09 21:28:43,251.258,0.080%,
654,2025-02-09 22:59:08,2025-02-09 23:03:08,240.299,0.076%,
655,2025-02-10 00:33:47,2025-02-10 00:38:03,255.966,0.081%,
656,2025-02-10 02:08:27,2025-02-10 02:12:58,270.823,0.086%,
657,2025-02-10 03:43:08,2025-02-10 03:47:23,255.626,0.081%,
658,2025-02-10 05:18:34,2025-02-10 05:22:18,223.628,0.071%,
659,2025-02-10 06:53:16,2025-02-10 06:57:13,236.88,0.075%,
660,2025-02-10 08:27:41,2025-02-10 08:31:45,243.321,0.077%,
661,2025-02-10 10:02:18,2025-02-10 10:06:33,254.907,0.081%,
662,2025-02-10 11:36:57,2025-02-10 11:41:28,270.897,0.086%,
663,2025-02-10 13:11:37,2025-02-10 13:15:53,256.159,0.081%,
664,2025-02-10 14:46:18,2025-02-10 14:50:48,270.015,0.086%,
665,2025-02-10 16:21:45,2025-02-10 16:25:15,210.428,0.067%,
666,2025-02-10 17:56:27,2025-02-10 18:00:09,221.976,0.070%,
667,2025-02-10 19:30:51,2025-02-10 19:35:03,252.277,0.080%,
668,2025-02-10 21:05:28,2025-02-10 21:09:40,251.279,0.080%,
669,2025-02-10 22:40:07,2025-02-10 22:44:24,256.108,0.081%,
670,2025-02-11 00:14:48,2025-02-11 00:19:18,270.764,0.086%,
671,2025-02-11 01:49:29,2025-02-11 01:53:44,255.479,0.081%,
672,2025-02-11 03:24:55,2025-02-11 03:28:39,223.394,0.071%,
673,2025-02-11 04:59:37,2025-02-11 05:03:34,236.538,0.075%,
674,2025-02-11 06:34:01,2025-02-11 06:37:59,238.189,0.076%,
675,2025-02-11 08:08:38,2025-02-11 08:12:54,255.267,0.081%,
676,2025-02-11 09:43:18,2025-02-11 09:47:49,270.976,0.086%,
677,2025-02-11 11:17:58,2025-02-11 11:22:14,256.124,0.081%,
678,2025-02-11 12:52:39,2025-02-11 12:57:09,269.827,0.086%,
679,2025-02-11 14:28:06,2025-02-11 14:31:35,208.964,0.066%,
680,2025-02-11 16:02:47,2025-02-11 16:06:32,224.725,0.071%,
681,2025-02-11 17:37:11,2025-02-11 17:41:24,253.097,0.080%,
682,2025-02-11 19:11:49,2025-02-11 19:15:50,241.065,0.076%,
683,2025-02-11 20:46:28,2025-02-11 20:50:44,256.211,0.081%,
684,2025-02-11 22:21:08,2025-02-11 22:25:39,270.679,0.086%,
685,2025-02-11 23:55:49,2025-02-12 00:00:05,255.309,0.081%,
686,2025-02-12 01:31:16,2025-02-12 01:34:59,223.151,0.071%,
687,2025-02-12 03:05:48,2025-02-12 03:05:53,4.674,0.002%,
688,2025-02-12 03:05:58,2025-02-12 03:09:54,236.184,0.075%,
689,2025-02-12 04:40:21,2025-02-12 04:44:27,246.532,0.078%,
690,2025-02-12 06:14:59,2025-02-12 06:19:14,255.566,0.081%,
691,2025-02-12 07:49:38,2025-02-12 07:54:09,271.017,0.086%,
692,2025-02-12 09:24:19,2025-02-12 09:28:35,256.062,0.081%,
693,2025-02-12 10:59:00,2025-02-12 11:03:29,269.621,0.086%,
694,2025-02-12 12:34:27,2025-02-12 12:37:58,211.448,0.067%,
695,2025-02-12 12:38:10,2025-02-12 12:38:24,13.962,0.004%,
696,2025-02-12 14:08:57,2025-02-12 14:09:06,9.096,0.003%,
697,2025-02-12 14:09:08,2025-02-12 14:12:50,221.347,0.070%,
698,2025-02-12 15:43:31,2025-02-12 15:47:45,253.767,0.081%,
699,2025-02-12 17:18:09,2025-02-12 17:22:22,253.422,0.080%,
700,2025-02-12 18:52:49,2025-02-12 18:57:05,256.28,0.081%,
701,2025-02-12 20:27:29,2025-02-12 20:32:00,270.571,0.086%,
702,2025-02-12 22:02:10,2025-02-12 22:02:44,34.051,0.011%,
703,2025-02-12 22:02:55,2025-02-12 22:06:25,209.853,0.067%,
704,2025-02-12 23:37:37,2025-02-12 23:41:20,222.906,0.071%,
705,2025-02-13 01:12:06,2025-02-13 01:12:18,11.951,0.004%,
706,2025-02-13 01:12:19,2025-02-13 01:16:15,235.817,0.075%,
707,2025-02-13 02:46:41,2025-02-13 02:50:40,239.603,0.076%,
708,2025-02-13 04:21:19,2025-02-13 04:25:35,255.813,0.081%,
709,2025-02-13 05:55:59,2025-02-13 06:00:30,271.032,0.086%,
710,2025-02-13 07:30:39,2025-02-13 07:34:55,255.977,0.081%,
711,2025-02-13 09:05:10,2025-02-13 09:05:13,3.232,0.001%,
712,2025-02-13 09:05:21,2025-02-13 09:05:35,14.323,0.005%,
713,2025-02-13 09:06:06,2025-02-13 09:09:50,224.144,0.071%,
714,2025-02-13 10:40:47,2025-02-13 10:44:45,237.584,0.075%,
715,2025-02-13 12:15:15,2025-02-13 12:19:15,239.786,0.076%,
716,2025-02-13 13:49:51,2025-02-13 13:54:05,254.329,0.081%,
717,2025-02-13 15:24:29,2025-02-13 15:28:31,241.605,0.077%,
718,2025-02-13 16:59:09,2025-02-13 17:03:25,256.319,0.081%,
719,2025-02-13 18:33:50,2025-02-13 18:38:20,270.441,0.086%,
720,2025-02-13 20:08:18,2025-02-13 20:08:25,7.705,0.002%,
721,2025-02-13 20:09:16,2025-02-13 20:12:46,209.673,0.067%,
722,2025-02-13 21:43:58,2025-02-13 21:47:41,222.614,0.071%,
723,2025-02-13 23:18:25,2025-02-13 23:22:35,250.597,0.080%,
724,2025-02-14 00:53:01,2025-02-14 00:57:10,249.216,0.079%,
725,2025-02-14 02:27:40,2025-02-14 02:31:56,256.018,0.081%,
726,2025-02-14 04:02:19,2025-02-14 04:06:50,271.012,0.086%,
727,2025-02-14 05:37:00,2025-02-14 05:41:16,255.867,0.081%,
728,2025-02-14 07:12:27,2025-02-14 07:16:11,223.934,0.071%,
729,2025-02-14 08:47:08,2025-02-14 08:51:06,237.262,0.075%,
730,2025-02-14 10:21:34,2025-02-14 10:25:31,236.66,0.075%,
731,2025-02-14 11:56:11,2025-02-14 12:00:26,254.799,0.081%,
732,2025-02-14 13:30:50,2025-02-14 13:35:05,255.361,0.081%,
733,2025-02-14 15:05:30,2025-02-14 15:09:46,256.325,0.081%,
734,2025-02-14 16:40:11,2025-02-14 16:44:41,270.288,0.086%,
735,2025-02-14 18:15:37,2025-02-14 18:19:07,209.48,0.066%,
736,2025-02-14 19:50:19,2025-02-14 19:54:03,223.87,0.071%,
737,2025-02-14 21:24:44,2025-02-14 21:28:56,251.802,0.080%,
738,2025-02-14 22:59:21,2025-02-14 23:03:22,240.604,0.076%,
739,2025-02-15 00:34:00,2025-02-15 00:38:16,256.177,0.081%,
740,2025-02-15 02:08:40,2025-02-15 02:13:11,270.97,0.086%,
741,2025-02-15 03:43:21,2025-02-15 03:47:37,255.734,0.081%,
742,2025-02-15 05:18:48,2025-02-15 05:22:31,223.709,0.071%,
743,2025-02-15 06:53:29,2025-02-15 06:57:26,236.929,0.075%,
744,2025-02-15 08:27:54,2025-02-15 08:31:58,243.818,0.077%,
745,2025-02-15 10:02:31,2025-02-15 10:06:46,255.2,0.081%,
746,2025-02-15 11:37:10,2025-02-15 11:41:41,271.094,0.086%,
747,2025-02-15 13:11:50,2025-02-15 13:16:07,256.307,0.081%,
748,2025-02-15 14:46:31,2025-02-15 14:51:01,270.114,0.086%,
749,2025-02-15 16:21:58,2025-02-15 16:25:28,210.462,0.067%,
750,2025-02-15 17:56:40,2025-02-15 18:00:22,222.028,0.070%,
751,2025-02-15 19:31:04,2025-02-15 19:35:17,252.741,0.080%,
752,2025-02-15 21:05:41,2025-02-15 21:09:53,251.558,0.080%,
753,2025-02-15 22:40:20,2025-02-15 22:44:37,256.306,0.081%,
754,2025-02-16 00:15:01,2025-02-16 00:19:32,270.901,0.086%,
755,2025-02-16 01:49:42,2025-02-16 01:53:57,255.579,0.081%,
756,2025-02-16 03:25:08,2025-02-16 03:28:52,223.471,0.071%,
757,2025-02-16 04:59:50,2025-02-16 05:03:47,236.583,0.075%,
758,2025-02-16 06:34:14,2025-02-16 06:38:12,238.629,0.076%,
759,2025-02-16 08:08:51,2025-02-16 08:13:07,255.536,0.081%,
760,2025-02-16 09:43:31,2025-02-16 09:48:02,271.161,0.086%,
761,2025-02-16 11:18:11,2025-02-16 11:22:27,256.262,0.081%,
762,2025-02-16 12:52:52,2025-02-16 12:57:22,269.919,0.086%,
763,2025-02-16 14:28:19,2025-02-16 14:31:48,209.039,0.066%,
764,2025-02-16 16:02:53,2025-02-16 16:02:54,1.673,0.001%,
765,2025-02-16 16:03:01,2025-02-16 16:06:45,224.772,0.071%,
766,2025-02-16 17:37:24,2025-02-16 17:41:37,253.505,0.080%,
767,2025-02-16 19:12:02,2025-02-16 19:16:03,241.328,0.077%,
768,2025-02-16 20:46:41,2025-02-16 20:50:57,256.396,0.081%,
769,2025-02-16 22:21:21,2025-02-16 22:25:52,270.808,0.086%,
770,2025-02-16 23:56:03,2025-02-17 00:00:18,255.401,0.081%,
771,2025-02-17 01:31:29,2025-02-17 01:35:12,223.221,0.071%,
772,2025-02-17 03:06:00,2025-02-17 03:06:08,7.991,0.003%,
773,2025-02-17 03:06:11,2025-02-17 03:10:07,236.224,0.075%,
774,2025-02-17 04:40:34,2025-02-17 04:44:40,246.92,0.078%,
775,2025-02-17 06:15:12,2025-02-17 06:19:28,255.817,0.081%,
776,2025-02-17 07:49:51,2025-02-17 07:54:22,271.191,0.086%,
777,2025-02-17 09:24:32,2025-02-17 09:28:48,256.192,0.081%,
778,2025-02-17 10:59:13,2025-02-17 10:59:39,25.937,0.008%,
779,2025-02-17 10:59:58,2025-02-17 11:03:43,224.434,0.071%,
780,2025-02-17 12:34:40,2025-02-17 12:38:38,237.955,0.076%,
781,2025-02-17 14:09:09,2025-02-17 14:09:20,11.144,0.004%,
782,2025-02-17 14:09:22,2025-02-17 14:13:03,221.39,0.070%,
783,2025-02-17 15:43:44,2025-02-17 15:47:58,254.133,0.081%,
784,2025-02-17 17:18:22,2025-02-17 17:22:36,253.664,0.080%,
785,2025-02-17 18:53:02,2025-02-17 18:57:18,256.452,0.081%,
786,2025-02-17 20:27:42,2025-02-17 20:32:13,270.691,0.086%,
787,2025-02-17 22:02:23,2025-02-17 22:02:28,4.72,0.002%,
788,2025-02-17 22:03:09,2025-02-17 22:06:39,209.947,0.067%,
789,2025-02-17 23:37:50,2025-02-17 23:41:33,222.97,0.071%,
790,2025-02-18 01:12:18,2025-02-18 01:12:32,13.558,0.004%,
791,2025-02-18 01:12:32,2025-02-18 01:16:28,235.853,0.075%,
792,2025-02-18 02:46:54,2025-02-18 02:50:54,239.956,0.076%,
793,2025-02-18 04:21:32,2025-02-18 04:25:48,256.046,0.081%,
794,2025-02-18 05:56:12,2025-02-18 06:00:43,271.195,0.086%,
795,2025-02-18 07:30:52,2025-02-18 07:35:09,256.098,0.081%,
796,2025-02-18 09:06:19,2025-02-18 09:10:03,224.233,0.071%,
797,2025-02-18 10:41:01,2025-02-18 10:44:58,237.64,0.075%,
798,2025-02-18 12:15:28,2025-02-18 12:19:28,240.49,0.076%,
799,2025-02-18 13:50:04,2025-02-18 13:54:18,254.662,0.081%,
800,2025-02-18 15:24:42,2025-02-18 15:28:44,241.833,0.077%,
801,2025-02-18 16:59:22,2025-02-18 17:03:39,256.479,0.081%,
802,2025-02-18 18:34:03,2025-02-18 18:38:33,270.552,0.086%,
803,2025-02-18 20:09:29,2025-02-18 20:12:59,209.762,0.067%,
804,2025-02-18 21:44:11,2025-02-18 21:47:54,222.675,0.071%,
805,2025-02-18 23:18:37,2025-02-18 23:22:49,251.213,0.080%,
806,2025-02-19 00:53:14,2025-02-19 00:57:23,249.535,0.079%,
807,2025-02-19 02:27:53,2025-02-19 02:32:09,256.237,0.081%,
808,2025-02-19 04:02:32,2025-02-19 04:07:04,271.164,0.086%,
809,2025-02-19 05:37:13,2025-02-19 05:41:29,255.979,0.081%,
810,2025-02-19 07:12:40,2025-02-19 07:16:24,224.017,0.071%,
811,2025-02-19 08:47:21,2025-02-19 08:51:19,237.316,0.075%,
812,2025-02-19 10:21:47,2025-02-19 10:25:44,237.223,0.075%,
813,2025-02-19 11:56:24,2025-02-19 12:00:39,255.105,0.081%,
814,2025-02-19 13:31:03,2025-02-19 13:35:18,255.573,0.081%,
815,2025-02-19 13:35:21,2025-02-19 13:35:34,13.298,0.004%,
816,2025-02-19 15:05:43,2025-02-19 15:09:59,256.478,0.081%,
817,2025-02-19 16:40:24,2025-02-19 16:44:54,270.391,0.086%,
818,2025-02-19 18:15:50,2025-02-19 18:19:20,209.564,0.067%,
819,2025-02-19 19:50:32,2025-02-19 19:54:16,223.925,0.071%,
820,2025-02-19 21:24:57,2025-02-19 21:29:09,252.311,0.080%,
821,2025-02-19 22:59:34,2025-02-19 23:03:35,240.902,0.076%,
822,2025-02-20 00:34:13,2025-02-20 00:38:29,256.381,0.081%,
823,2025-02-20 02:08:53,2025-02-20 02:13:24,271.113,0.086%,
824,2025-02-20 03:43:34,2025-02-20 03:47:50,255.838,0.081%,
825,2025-02-20 05:19:01,2025-02-20 05:22:44,223.786,0.071%,
826,2025-02-20 06:53:42,2025-02-20 06:57:39,236.976,0.075%,
827,2025-02-20 08:28:07,2025-02-20 08:32:11,244.292,0.078%,
828,2025-02-20 10:02:44,2025-02-20 10:07:00,255.482,0.081%,
829,2025-02-20 11:37:23,2025-02-20 11:41:55,271.286,0.086%,
830,2025-02-20 13:12:03,2025-02-20 13:16:20,256.45,0.081%,
831,2025-02-20 14:46:44,2025-02-20 14:51:15,270.21,0.086%,
832,2025-02-20 16:22:11,2025-02-20 16:25:42,210.496,0.067%,
833,2025-02-20 17:56:53,2025-02-20 18:00:35,222.079,0.070%,
834,2025-02-20 19:31:17,2025-02-20 19:35:30,253.181,0.080%,
835,2025-02-20 21:05:54,2025-02-20 21:10:06,251.831,0.080%,
836,2025-02-20 22:40:34,2025-02-20 22:44:50,256.497,0.081%,
837,2025-02-21 00:15:14,2025-02-21 00:19:45,271.034,0.086%,
838,2025-02-21 01:49:55,2025-02-21 01:54:10,255.675,0.081%,
839,2025-02-21 03:25:22,2025-02-21 03:29:05,223.543,0.071%,
840,2025-02-21 05:00:03,2025-02-21 05:04:00,236.623,0.075%,
841,2025-02-21 06:34:26,2025-02-21 06:38:26,239.045,0.076%,
842,2025-02-21 08:09:04,2025-02-21 08:13:20,255.797,0.081%,
843,2025-02-21 09:43:44,2025-02-21 09:48:15,271.34,0.086%,
844,2025-02-21 11:18:24,2025-02-21 11:22:41,256.396,0.081%,
845,2025-02-21 12:53:05,2025-02-21 12:53:31,26.258,0.008%,
846,2025-02-21 12:53:50,2025-02-21 12:57:35,224.719,0.071%,
847,2025-02-21 14:28:32,2025-02-21 14:32:01,209.112,0.066%,
848,2025-02-21 16:03:03,2025-02-21 16:03:10,6.684,0.002%,
849,2025-02-21 16:03:14,2025-02-21 16:06:59,224.819,0.071%,
850,2025-02-21 17:37:36,2025-02-21 17:41:50,253.895,0.081%,
851,2025-02-21 19:12:15,2025-02-21 19:16:16,241.583,0.077%,
852,2025-02-21 20:46:54,2025-02-21 20:51:11,256.576,0.081%,
853,2025-02-21 22:21:34,2025-02-21 22:26:05,270.932,0.086%,
854,2025-02-21 23:56:16,2025-02-21 23:56:19,3.845,0.001%,
855,2025-02-21 23:57:01,2025-02-22 00:00:31,210.215,0.067%,
856,2025-02-22 01:31:42,2025-02-22 01:35:26,223.289,0.071%,
857,2025-02-22 03:06:12,2025-02-22 03:06:22,10.263,0.003%,
858,2025-02-22 03:06:24,2025-02-22 03:10:21,236.262,0.075%,
859,2025-02-22 04:40:46,2025-02-22 04:44:54,247.292,0.078%,
860,2025-02-22 06:15:25,2025-02-22 06:19:41,256.059,0.081%,
861,2025-02-22 07:50:04,2025-02-22 07:54:36,271.359,0.086%,
862,2025-02-22 09:24:45,2025-02-22 09:29:01,256.317,0.081%,
863,2025-02-22 11:00:11,2025-02-22 11:03:56,224.526,0.071%,
864,2025-02-22 12:34:53,2025-02-22 12:38:51,238.014,0.076%,
865,2025-02-22 14:09:21,2025-02-22 14:09:34,12.853,0.004%,
866,2025-02-22 14:09:35,2025-02-22 14:13:16,221.431,0.070%,
867,2025-02-22 15:43:56,2025-02-22 15:48:11,254.484,0.081%,
868,2025-02-22 17:18:35,2025-02-22 17:22:49,253.901,0.081%,
869,2025-02-22 18:53:15,2025-02-22 18:57:31,256.62,0.081%,
870,2025-02-22 20:27:55,2025-02-22 20:32:26,270.807,0.086%,
871,2025-02-22 22:03:22,2025-02-22 22:06:52,210.039,0.067%,
872,2025-02-22 23:38:03,2025-02-22 23:41:46,223.034,0.071%,
873,2025-02-23 01:12:31,2025-02-23 01:16:41,250.462,0.079%,
874,2025-02-23 02:47:06,2025-02-23 02:51:07,240.296,0.076%,
875,2025-02-23 04:21:45,2025-02-23 04:26:01,256.273,0.081%,
876,2025-02-23 05:56:25,2025-02-23 06:00:56,271.349,0.086%,
877,2025-02-23 07:31:06,2025-02-23 07:35:22,256.215,0.081%,
878,2025-02-23 09:06:32,2025-02-23 09:10:16,224.319,0.071%,
879,2025-02-23 10:41:14,2025-02-23 10:45:11,237.694,0.075%,
880,2025-02-23 12:15:40,2025-02-23 12:19:41,241.131,0.077%,
881,2025-02-23 13:50:17,2025-02-23 13:54:32,254.98,0.081%,
882,2025-02-23 15:24:55,2025-02-23 15:28:57,242.055,0.077%,
883,2025-02-23 16:59:35,2025-02-23 17:03:52,256.637,0.081%,
884,2025-02-23 18:34:16,2025-02-23 18:38:47,270.66,0.086%,
885,2025-02-23 20:09:43,2025-02-23 20:13:12,209.849,0.067%,
886,2025-02-23 21:44:24,2025-02-23 21:48:07,222.733,0.071%,
887,2025-02-23 23:18:50,2025-02-23 23:23:02,251.783,0.080%,
888,2025-02-24 00:53:27,2025-02-24 00:57:36,249.846,0.079%,
889,2025-02-24 02:28:06,2025-02-24 02:32:22,256.449,0.081%,
890,2025-02-24 04:02:46,2025-02-24 04:07:17,271.312,0.086%,
891,2025-02-24 05:37:26,2025-02-24 05:41:42,256.088,0.081%,
892,2025-02-24 07:12:53,2025-02-24 07:16:37,224.098,0.071%,
893,2025-02-24 08:47:35,2025-02-24 08:51:32,237.365,0.075%,
894,2025-02-24 10:22:00,2025-02-24 10:25:57,237.749,0.075%,
895,2025-02-24 11:56:37,2025-02-24 12:00:52,255.402,0.081%,
896,2025-02-24 13:31:16,2025-02-24 13:35:47,271.401,0.086%,
897,2025-02-24 15:05:56,2025-02-24 15:10:12,256.627,0.081%,
898,2025-02-24 16:40:37,2025-02-24 16:45:07,270.492,0.086%,
899,2025-02-24 18:16:03,2025-02-24 18:19:33,209.646,0.067%,
900,2025-02-24 19:50:45,2025-02-24 19:54:29,223.979,0.071%,
901,2025-02-24 21:25:10,2025-02-24 21:29:22,252.794,0.080%,
902,2025-02-24 22:59:47,2025-02-24 23:03:48,241.192,0.077%,
903,2025-02-25 00:34:26,2025-02-25 00:38:43,256.581,0.081%,
904,2025-02-25 02:09:06,2025-02-25 02:13:37,271.251,0.086%,
905,2025-02-25 03:43:47,2025-02-25 03:44:27,39.687,0.013%,
906,2025-02-25 03:44:32,2025-02-25 03:48:03,210.624,0.067%,
907,2025-02-25 05:19:14,2025-02-25 05:22:58,223.863,0.071%,
908,2025-02-25 06:53:56,2025-02-25 06:57:53,237.021,0.075%,
909,2025-02-25 08:28:19,2025-02-25 08:32:24,244.752,0.078%,
910,2025-02-25 10:02:57,2025-02-25 10:07:13,255.755,0.081%,
911,2025-02-25 11:37:36,2025-02-25 11:42:08,271.473,0.086%,
912,2025-02-25 13:12:17,2025-02-25 13:16:33,256.59,0.081%,
913,2025-02-25 14:46:58,2025-02-25 14:47:14,16.316,0.005%,
914,2025-02-25 14:47:43,2025-02-25 14:51:28,225,0.071%,
915,2025-02-25 16:22:24,2025-02-25 16:25:55,210.531,0.067%,
916,2025-02-25 17:57:06,2025-02-25 18:00:48,222.127,0.070%,
917,2025-02-25 19:31:29,2025-02-25 19:35:43,253.604,0.080%,
918,2025-02-25 21:06:07,2025-02-25 21:10:19,252.097,0.080%,
919,2025-02-25 22:40:47,2025-02-25 22:45:03,256.685,0.081%,
920,2025-02-26 00:15:27,2025-02-26 00:19:58,271.164,0.086%,
921,2025-02-26 01:50:53,2025-02-26 01:54:24,210.476,0.067%,
922,2025-02-26 03:25:35,2025-02-26 03:29:18,223.613,0.071%,
923,2025-02-26 05:00:07,2025-02-26 05:00:12,5.055,0.002%,
924,2025-02-26 05:00:17,2025-02-26 05:04:13,236.665,0.075%,
925,2025-02-26 06:34:39,2025-02-26 06:38:39,239.448,0.076%,
926,2025-02-26 08:09:17,2025-02-26 08:13:33,256.051,0.081%,
927,2025-02-26 09:43:57,2025-02-26 09:48:28,271.516,0.086%,
928,2025-02-26 11:18:37,2025-02-26 11:22:54,256.527,0.081%,
929,2025-02-26 12:54:04,2025-02-26 12:57:48,224.814,0.071%,
930,2025-02-26 14:28:45,2025-02-26 14:32:43,238.384,0.076%,
931,2025-02-26 16:03:15,2025-02-26 16:03:24,9.298,0.003%,
932,2025-02-26 16:03:27,2025-02-26 16:07:12,224.862,0.071%,
933,2025-02-26 17:37:49,2025-02-26 17:42:04,254.267,0.081%,
934,2025-02-26 19:12:27,2025-02-26 19:16:29,241.832,0.077%,
935,2025-02-26 20:47:07,2025-02-26 20:51:24,256.752,0.081%,
936,2025-02-26 22:21:48,2025-02-26 22:26:19,271.054,0.086%,
937,2025-02-26 23:57:14,2025-02-27 00:00:44,210.311,0.067%,
938,2025-02-27 01:31:56,2025-02-27 01:35:39,223.355,0.071%,
939,2025-02-27 03:06:24,2025-02-27 03:06:36,12.106,0.004%,
940,2025-02-27 03:06:37,2025-02-27 03:10:34,236.296,0.075%,
941,2025-02-27 04:40:59,2025-02-27 04:45:07,247.65,0.079%,
942,2025-02-27 06:15:38,2025-02-27 06:19:54,256.297,0.081%,
943,2025-02-27 07:50:17,2025-02-27 07:54:49,271.524,0.086%,
944,2025-02-27 09:24:58,2025-02-27 09:29:14,256.44,0.081%,
945,2025-02-27 11:00:24,2025-02-27 11:04:09,224.616,0.071%,
946,2025-02-27 12:35:06,2025-02-27 12:39:04,238.071,0.076%,
947,2025-02-27 14:09:34,2025-02-27 14:13:29,235.74,0.075%,
948,2025-02-27 15:44:09,2025-02-27 15:48:24,254.826,0.081%,
949,2025-02-27 17:18:48,2025-02-27 17:23:02,254.131,0.081%,
950,2025-02-27 18:53:28,2025-02-27 18:57:44,256.786,0.081%,
951,2025-02-27 20:28:08,2025-02-27 20:32:39,270.921,0.086%,
952,2025-02-27 22:03:35,2025-02-27 22:07:05,210.131,0.067%,
953,2025-02-27 23:38:16,2025-02-27 23:42:00,223.097,0.071%,
954,2025-02-28 01:12:43,2025-02-28 01:16:54,251.128,0.080%,
955,2025-02-28 02:47:19,2025-02-28 02:51:20,240.624,0.076%,
956,2025-02-28 04:21:58,2025-02-28 04:26:15,256.496,0.081%,
957,2025-02-28 05:56:38,2025-02-28 06:01:09,271.508,0.086%,
958,2025-02-28 07:31:19,2025-02-28 07:35:35,256.329,0.081%,
959,2025-02-28 09:06:45,2025-02-28 09:10:30,224.403,0.071%,
960,2025-02-28 10:41:27,2025-02-28 10:45:25,237.747,0.075%,
961,2025-02-28 12:15:53,2025-02-28 12:19:55,241.727,0.077%,
962,2025-02-28 13:50:29,2025-02-28 13:54:45,255.293,0.081%,
963,2025-02-28 15:25:08,2025-02-28 15:29:11,242.274,0.077%,
964,2025-02-28 15:29:13,2025-02-28 15:29:40,26.983,0.009%,
965,2025-02-28 16:59:48,2025-02-28 17:04:05,256.794,0.081%,
966,2025-02-28 18:34:29,2025-02-28 18:39:00,270.766,0.086%,
967,2025-02-28 20:09:56,2025-02-28 20:13:26,209.935,0.067%,
968,2025-02-28 21:44:37,2025-02-28 21:48:20,222.79,0.071%,
969,2025-02-28 23:19:03,2025-02-28 23:23:15,252.324,0.080%,
970,2025-03-01 00:53:40,2025-03-01 00:57:50,250.145,0.079%,
971,2025-03-01 02:28:19,2025-03-01 02:32:35,256.658,0.081%,
972,2025-03-01 04:02:59,2025-03-01 04:07:30,271.458,0.086%,
973,2025-03-01 05:37:39,2025-03-01 05:38:01,21.452,0.007%,
974,2025-03-01 05:38:25,2025-03-01 05:41:56,210.868,0.067%,
975,2025-03-01 07:13:06,2025-03-01 07:16:50,224.178,0.071%,
976,2025-03-01 08:47:48,2025-03-01 08:51:45,237.413,0.075%,
977,2025-03-01 10:22:12,2025-03-01 10:26:11,238.248,0.076%,
978,2025-03-01 11:56:50,2025-03-01 12:01:05,255.691,0.081%,
979,2025-03-01 13:31:29,2025-03-01 13:36:00,271.598,0.086%,
980,2025-03-01 15:06:09,2025-03-01 15:10:26,256.774,0.081%,
981,2025-03-01 16:41:35,2025-03-01 16:45:20,225.272,0.071%,
982,2025-03-01 18:16:16,2025-03-01 18:19:46,209.726,0.067%,
983,2025-03-01 19:50:58,2025-03-01 19:54:42,224.028,0.071%,
984,2025-03-01 21:25:22,2025-03-01 21:29:36,253.253,0.080%,
985,2025-03-01 23:00:00,2025-03-01 23:04:01,241.474,0.077%,
986,2025-03-02 00:34:39,2025-03-02 00:38:56,256.777,0.081%,
987,2025-03-02 02:09:19,2025-03-02 02:13:51,271.388,0.086%,
988,2025-03-02 03:44:46,2025-03-02 03:48:16,210.73,0.067%,
989,2025-03-02 05:19:27,2025-03-02 05:23:11,223.937,0.071%,
990,2025-03-02 06:54:09,2025-03-02 06:58:06,237.065,0.075%,
991,2025-03-02 08:28:32,2025-03-02 08:32:37,245.183,0.078%,
992,2025-03-02 10:03:10,2025-03-02 10:07:26,256.023,0.081%,
993,2025-03-02 11:37:49,2025-03-02 11:42:21,271.657,0.086%,
994,2025-03-02 13:12:30,2025-03-02 13:16:46,256.727,0.081%,
995,2025-03-02 14:47:56,2025-03-02 14:51:41,225.099,0.071%,
996,2025-03-02 16:22:37,2025-03-02 16:26:08,210.557,0.067%,
997,2025-03-02 16:26:25,2025-03-02 16:26:36,11.461,0.004%,
998,2025-03-02 17:57:11,2025-03-02 17:57:13,2.55,0.001%,
999,2025-03-02 17:57:19,2025-03-02 18:01:01,222.175,0.071%,
1000,2025-03-02 19:31:42,2025-03-02 19:35:56,254.009,0.081%,
1001,2025-03-02 21:06:20,2025-03-02 21:10:32,252.357,0.080%,
1002,2025-03-02 22:41:00,2025-03-02 22:45:16,256.869,0.082%,
1003,2025-03-03 00:15:40,2025-03-03 00:20:11,271.292,0.086%,
1004,2025-03-03 01:51:06,2025-03-03 01:54:37,210.576,0.067%,
