3UCubedIntegratedSim/Reports & Plots/North Cusp/NorthCusp CSV/NorthCusp_Sat2.csv

Number,Coverage Start (UTCG),Coverage End (UTCG),Duration (sec),Percent,
1,2025-01-01 16:15:55,2025-01-01 16:22:56,421.417,0.134%,
2,2025-01-01 17:50:36,2025-01-01 17:57:13,397.295,0.126%,
3,2025-01-01 19:25:19,2025-01-01 19:32:14,415.142,0.132%,
4,2025-01-01 21:00:04,2025-01-01 21:07:11,427.397,0.136%,
5,2025-01-01 22:34:51,2025-01-01 22:35:32,41.146,0.013%,
6,2025-01-01 22:35:35,2025-01-01 22:41:30,355.751,0.113%,
7,2025-01-02 00:09:42,2025-01-02 00:16:30,408.131,0.129%,
8,2025-01-02 01:44:25,2025-01-02 01:46:20,114.844,0.036%,
9,2025-01-02 01:46:20,2025-01-02 01:50:52,271.59,0.086%,
10,2025-01-02 03:19:05,2025-01-02 03:25:47,401.809,0.127%,
11,2025-01-02 04:53:47,2025-01-02 05:00:46,418.923,0.133%,
12,2025-01-02 06:28:30,2025-01-02 06:35:08,398.102,0.126%,
13,2025-01-02 08:03:15,2025-01-02 08:10:03,408.165,0.129%,
14,2025-01-02 09:38:02,2025-01-02 09:38:44,41.923,0.013%,
15,2025-01-02 09:38:45,2025-01-02 09:45:01,376.276,0.119%,
16,2025-01-02 11:12:54,2025-01-02 11:19:19,385.338,0.122%,
17,2025-01-02 12:47:35,2025-01-02 12:49:31,115.607,0.037%,
18,2025-01-02 12:49:31,2025-01-02 12:54:19,288.058,0.091%,
19,2025-01-02 14:22:15,2025-01-02 14:29:16,421.169,0.134%,
20,2025-01-02 15:56:57,2025-01-02 16:03:35,397.388,0.126%,
21,2025-01-02 17:31:41,2025-01-02 17:38:35,414.154,0.131%,
22,2025-01-02 19:06:26,2025-01-02 19:07:11,44.937,0.014%,
23,2025-01-02 19:07:11,2025-01-02 19:13:32,380.609,0.121%,
24,2025-01-02 20:41:13,2025-01-02 20:47:50,397.267,0.126%,
25,2025-01-02 22:16:06,2025-01-02 22:22:50,404.272,0.128%,
26,2025-01-02 23:50:45,2025-01-02 23:57:13,388.038,0.123%,
27,2025-01-03 01:25:26,2025-01-03 01:32:07,401.127,0.127%,
28,2025-01-03 03:00:08,2025-01-03 03:01:31,83.342,0.026%,
29,2025-01-03 03:01:32,2025-01-03 03:07:06,334.27,0.106%,
30,2025-01-03 04:34:51,2025-01-03 04:41:29,398.066,0.126%,
31,2025-01-03 06:09:36,2025-01-03 06:10:21,44.266,0.014%,
32,2025-01-03 06:10:23,2025-01-03 06:16:23,360.283,0.114%,
33,2025-01-03 07:44:24,2025-01-03 07:51:22,417.375,0.132%,
34,2025-01-03 09:19:17,2025-01-03 09:25:40,383.623,0.122%,
35,2025-01-03 10:53:55,2025-01-03 11:00:39,403.661,0.128%,
36,2025-01-03 12:28:36,2025-01-03 12:35:37,420.855,0.134%,
37,2025-01-03 14:03:18,2025-01-03 14:04:41,83.044,0.026%,
38,2025-01-03 14:04:43,2025-01-03 14:09:56,312.673,0.099%,
39,2025-01-03 15:38:02,2025-01-03 15:44:55,413.088,0.131%,
40,2025-01-03 17:12:47,2025-01-03 17:13:31,43.56,0.014%,
41,2025-01-03 17:13:35,2025-01-03 17:19:52,377.777,0.120%,
42,2025-01-03 18:47:35,2025-01-03 18:54:10,394.732,0.125%,
43,2025-01-03 20:22:27,2025-01-03 20:29:11,403.935,0.128%,
44,2025-01-03 21:57:06,2025-01-03 22:03:34,388.751,0.123%,
45,2025-01-03 23:31:47,2025-01-03 23:38:27,400.335,0.127%,
46,2025-01-04 01:06:29,2025-01-04 01:07:52,82.718,0.026%,
47,2025-01-04 01:07:54,2025-01-04 01:13:26,331.935,0.105%,
48,2025-01-04 02:41:13,2025-01-04 02:47:51,397.96,0.126%,
49,2025-01-04 04:15:58,2025-01-04 04:16:41,42.803,0.014%,
50,2025-01-04 04:16:46,2025-01-04 04:22:43,356.897,0.113%,
51,2025-01-04 05:50:47,2025-01-04 05:57:42,415.319,0.132%,
52,2025-01-04 07:25:37,2025-01-04 07:32:02,384.752,0.122%,
53,2025-01-04 09:00:16,2025-01-04 09:06:59,403.355,0.128%,
54,2025-01-04 10:34:57,2025-01-04 10:41:57,420.47,0.133%,
55,2025-01-04 12:09:39,2025-01-04 12:11:02,82.357,0.026%,
56,2025-01-04 12:11:05,2025-01-04 12:16:17,312.54,0.099%,
57,2025-01-04 13:44:23,2025-01-04 13:51:15,411.933,0.131%,
58,2025-01-04 15:19:09,2025-01-04 15:19:51,42.001,0.013%,
59,2025-01-04 15:19:57,2025-01-04 15:26:13,376.323,0.119%,
60,2025-01-04 16:53:58,2025-01-04 17:00:30,391.888,0.124%,
61,2025-01-04 18:28:47,2025-01-04 18:35:31,404.125,0.128%,
62,2025-01-04 20:03:26,2025-01-04 20:09:56,389.391,0.124%,
63,2025-01-04 20:10:01,2025-01-04 20:10:28,27.267,0.009%,
64,2025-01-04 21:38:07,2025-01-04 21:44:47,399.421,0.127%,
65,2025-01-04 23:12:50,2025-01-04 23:14:12,81.964,0.026%,
66,2025-01-04 23:14:15,2025-01-04 23:19:47,331.782,0.105%,
67,2025-01-05 00:47:34,2025-01-05 00:54:12,397.773,0.126%,
68,2025-01-05 02:22:20,2025-01-05 02:23:01,41.151,0.013%,
69,2025-01-05 02:23:07,2025-01-05 02:29:03,356.674,0.113%,
70,2025-01-05 03:57:09,2025-01-05 04:04:02,413.016,0.131%,
71,2025-01-05 05:31:57,2025-01-05 05:38:23,385.767,0.122%,
72,2025-01-05 07:06:37,2025-01-05 07:13:20,402.952,0.128%,
73,2025-01-05 08:41:18,2025-01-05 08:48:18,420.017,0.133%,
74,2025-01-05 10:16:01,2025-01-05 10:17:24,82.955,0.026%,
75,2025-01-05 10:17:25,2025-01-05 10:22:39,313.313,0.099%,
76,2025-01-05 11:50:45,2025-01-05 11:57:36,410.687,0.130%,
77,2025-01-05 13:25:31,2025-01-05 13:26:11,40.244,0.013%,
78,2025-01-05 13:26:17,2025-01-05 13:32:33,376.44,0.119%,
79,2025-01-05 15:00:21,2025-01-05 15:06:50,389.121,0.123%,
80,2025-01-05 16:35:07,2025-01-05 16:41:51,404.198,0.128%,
81,2025-01-05 18:09:47,2025-01-05 18:16:49,421.722,0.134%,
82,2025-01-05 19:44:28,2025-01-05 19:51:07,398.382,0.126%,
83,2025-01-05 21:19:11,2025-01-05 21:20:35,84.049,0.027%,
84,2025-01-05 21:20:36,2025-01-05 21:26:07,331.565,0.105%,
85,2025-01-05 22:53:56,2025-01-05 23:00:33,397.521,0.126%,
86,2025-01-06 00:28:42,2025-01-06 00:29:22,39.598,0.013%,
87,2025-01-06 00:29:27,2025-01-06 00:35:23,356.33,0.113%,
88,2025-01-06 02:03:32,2025-01-06 02:10:23,410.35,0.130%,
89,2025-01-06 03:38:17,2025-01-06 03:44:44,386.694,0.123%,
90,2025-01-06 05:12:57,2025-01-06 05:19:40,402.453,0.128%,
91,2025-01-06 06:47:39,2025-01-06 06:54:38,419.496,0.133%,
92,2025-01-06 08:22:22,2025-01-06 08:29:00,398.088,0.126%,
93,2025-01-06 09:57:06,2025-01-06 10:03:56,409.343,0.130%,
94,2025-01-06 11:31:53,2025-01-06 11:32:34,40.849,0.013%,
95,2025-01-06 11:32:37,2025-01-06 11:38:54,376.48,0.119%,
96,2025-01-06 13:06:44,2025-01-06 13:13:11,387.052,0.123%,
97,2025-01-06 14:41:28,2025-01-06 14:43:22,114.807,0.036%,
98,2025-01-06 14:43:23,2025-01-06 14:48:12,288.555,0.092%,
99,2025-01-06 16:16:08,2025-01-06 16:23:09,421.524,0.134%,
100,2025-01-06 17:50:49,2025-01-06 17:57:27,397.195,0.126%,
101,2025-01-06 19:25:33,2025-01-06 19:32:28,415.024,0.132%,
102,2025-01-06 21:00:17,2025-01-06 21:06:55,397.181,0.126%,
103,2025-01-06 22:35:04,2025-01-06 22:35:46,41.713,0.013%,
104,2025-01-06 22:35:48,2025-01-06 22:41:43,355.861,0.113%,
105,2025-01-07 00:09:56,2025-01-07 00:16:43,407.134,0.129%,
106,2025-01-07 01:44:38,2025-01-07 01:46:33,115.181,0.037%,
107,2025-01-07 01:46:34,2025-01-07 01:51:05,271.773,0.086%,
108,2025-01-07 03:19:18,2025-01-07 03:26:00,401.849,0.127%,
109,2025-01-07 04:54:00,2025-01-07 05:00:59,418.908,0.133%,
110,2025-01-07 06:28:43,2025-01-07 06:35:21,398.098,0.126%,
111,2025-01-07 08:03:28,2025-01-07 08:04:13,45.135,0.014%,
112,2025-01-07 08:04:14,2025-01-07 08:10:16,362.476,0.115%,
113,2025-01-07 09:38:15,2025-01-07 09:38:58,42.33,0.013%,
114,2025-01-07 09:38:58,2025-01-07 09:45:14,376.442,0.119%,
115,2025-01-07 11:13:08,2025-01-07 11:19:32,384.232,0.122%,
116,2025-01-07 12:47:48,2025-01-07 12:54:32,404.033,0.128%,
117,2025-01-07 14:22:28,2025-01-07 14:29:30,421.254,0.134%,
118,2025-01-07 15:57:10,2025-01-07 15:58:34,83.428,0.027%,
119,2025-01-07 15:58:34,2025-01-07 16:03:48,313.755,0.100%,
120,2025-01-07 17:31:54,2025-01-07 17:38:48,414.013,0.131%,
121,2025-01-07 19:06:39,2025-01-07 19:07:24,44.481,0.014%,
122,2025-01-07 19:07:25,2025-01-07 19:13:16,350.647,0.111%,
123,2025-01-07 19:13:42,2025-01-07 19:13:45,2.552,0.001%,
124,2025-01-07 20:41:27,2025-01-07 20:48:03,396.728,0.126%,
125,2025-01-07 22:16:20,2025-01-07 22:23:04,403.946,0.128%,
126,2025-01-07 23:50:58,2025-01-07 23:57:27,388.294,0.123%,
127,2025-01-08 01:25:39,2025-01-08 01:32:20,401.14,0.127%,
128,2025-01-08 03:00:21,2025-01-08 03:01:44,83.141,0.026%,
129,2025-01-08 03:01:46,2025-01-08 03:07:19,333.569,0.106%,
130,2025-01-08 04:35:05,2025-01-08 04:41:43,398.038,0.126%,
131,2025-01-08 06:09:50,2025-01-08 06:10:34,43.782,0.014%,
132,2025-01-08 06:10:37,2025-01-08 06:16:36,359.404,0.114%,
133,2025-01-08 07:44:38,2025-01-08 07:51:35,416.883,0.132%,
134,2025-01-08 09:19:30,2025-01-08 09:25:54,384.026,0.122%,
135,2025-01-08 10:54:08,2025-01-08 11:00:52,403.8,0.128%,
136,2025-01-08 12:28:49,2025-01-08 12:35:50,420.918,0.134%,
137,2025-01-08 14:03:31,2025-01-08 14:04:54,82.823,0.026%,
138,2025-01-08 14:04:57,2025-01-08 14:10:09,312.017,0.099%,
139,2025-01-08 15:38:15,2025-01-08 15:45:08,412.922,0.131%,
140,2025-01-08 17:13:01,2025-01-08 17:13:44,43.042,0.014%,
141,2025-01-08 17:13:49,2025-01-08 17:20:06,376.82,0.120%,
142,2025-01-08 18:47:49,2025-01-08 18:54:23,394.113,0.125%,
143,2025-01-08 20:22:40,2025-01-08 20:29:24,404.228,0.128%,
144,2025-01-08 21:57:19,2025-01-08 22:03:48,388.98,0.123%,
145,2025-01-08 23:32:00,2025-01-08 23:38:40,400.32,0.127%,
146,2025-01-09 01:06:42,2025-01-09 01:08:05,82.471,0.026%,
147,2025-01-09 01:08:07,2025-01-09 01:13:40,332.094,0.105%,
148,2025-01-09 02:41:26,2025-01-09 02:48:04,397.905,0.126%,
149,2025-01-09 04:16:12,2025-01-09 04:16:54,42.252,0.013%,
150,2025-01-09 04:16:59,2025-01-09 04:22:56,357.095,0.113%,
151,2025-01-09 05:51:00,2025-01-09 05:57:55,414.752,0.132%,
152,2025-01-09 07:25:50,2025-01-09 07:32:15,385.118,0.122%,
153,2025-01-09 09:00:29,2025-01-09 09:07:13,403.468,0.128%,
154,2025-01-09 10:35:10,2025-01-09 10:42:11,420.512,0.133%,
155,2025-01-09 12:09:53,2025-01-09 12:11:15,82.088,0.026%,
156,2025-01-09 12:11:18,2025-01-09 12:16:31,312.813,0.099%,
157,2025-01-09 13:44:37,2025-01-09 13:51:28,411.739,0.131%,
158,2025-01-09 15:19:23,2025-01-09 15:20:04,41.418,0.013%,
159,2025-01-09 15:20:09,2025-01-09 15:26:26,376.558,0.119%,
160,2025-01-09 16:54:12,2025-01-09 17:00:43,391.167,0.124%,
161,2025-01-09 18:29:00,2025-01-09 18:35:44,404.379,0.128%,
162,2025-01-09 20:03:39,2025-01-09 20:10:09,389.595,0.124%,
163,2025-01-09 21:38:21,2025-01-09 21:45:00,399.378,0.127%,
164,2025-01-09 23:13:03,2025-01-09 23:14:26,82.577,0.026%,
165,2025-01-09 23:14:28,2025-01-09 23:20:00,331.922,0.105%,
166,2025-01-10 00:47:48,2025-01-10 00:54:25,397.694,0.126%,
167,2025-01-10 02:22:34,2025-01-10 02:23:14,40.531,0.013%,
168,2025-01-10 02:23:20,2025-01-10 02:29:16,356.842,0.113%,
169,2025-01-10 03:57:23,2025-01-10 04:04:16,412.34,0.131%,
170,2025-01-10 05:32:10,2025-01-10 05:38:36,386.098,0.122%,
171,2025-01-10 07:06:50,2025-01-10 07:13:33,403.04,0.128%,
172,2025-01-10 08:41:31,2025-01-10 08:48:31,420.038,0.133%,
173,2025-01-10 10:16:14,2025-01-10 10:17:38,83.735,0.027%,
174,2025-01-10 10:17:38,2025-01-10 10:22:52,313.566,0.099%,
175,2025-01-10 11:50:58,2025-01-10 11:57:49,410.467,0.130%,
176,2025-01-10 13:25:45,2025-01-10 13:26:24,39.582,0.013%,
177,2025-01-10 13:26:30,2025-01-10 13:32:46,376.652,0.119%,
178,2025-01-10 15:00:35,2025-01-10 15:07:03,388.465,0.123%,
179,2025-01-10 16:35:20,2025-01-10 16:42:05,404.42,0.128%,
180,2025-01-10 18:10:00,2025-01-10 18:16:30,390.148,0.124%,
181,2025-01-10 19:44:42,2025-01-10 19:51:20,398.307,0.126%,
182,2025-01-10 21:19:24,2025-01-10 21:26:20,415.848,0.132%,
183,2025-01-10 22:54:09,2025-01-10 23:00:46,397.415,0.126%,
184,2025-01-11 00:28:56,2025-01-11 00:29:36,40.513,0.013%,
185,2025-01-11 00:29:40,2025-01-11 00:35:37,356.464,0.113%,
186,2025-01-11 02:03:46,2025-01-11 02:10:36,409.523,0.130%,
187,2025-01-11 03:38:30,2025-01-11 03:40:25,114.772,0.036%,
188,2025-01-11 03:40:26,2025-01-11 03:44:57,271.759,0.086%,
189,2025-01-11 05:13:10,2025-01-11 05:19:53,402.513,0.128%,
190,2025-01-11 06:47:52,2025-01-11 06:54:52,419.496,0.133%,
191,2025-01-11 08:22:35,2025-01-11 08:29:13,398.099,0.126%,
192,2025-01-11 09:57:20,2025-01-11 10:04:09,409.093,0.130%,
193,2025-01-11 11:32:07,2025-01-11 11:32:48,41.476,0.013%,
194,2025-01-11 11:32:50,2025-01-11 11:39:07,376.664,0.119%,
195,2025-01-11 13:06:58,2025-01-11 13:13:24,386.192,0.123%,
196,2025-01-11 14:41:41,2025-01-11 14:43:35,114.879,0.036%,
197,2025-01-11 14:43:36,2025-01-11 14:48:25,288.641,0.092%,
198,2025-01-11 16:16:21,2025-01-11 16:23:22,421.623,0.134%,
199,2025-01-11 17:51:03,2025-01-11 17:57:40,397.296,0.126%,
200,2025-01-11 19:25:46,2025-01-11 19:32:41,414.899,0.132%,
201,2025-01-11 21:00:31,2025-01-11 21:07:08,397.047,0.126%,
202,2025-01-11 22:35:18,2025-01-11 22:36:00,42.161,0.013%,
203,2025-01-11 22:36:01,2025-01-11 22:41:57,355.957,0.113%,
204,2025-01-12 00:10:10,2025-01-12 00:16:56,406.014,0.129%,
205,2025-01-12 01:44:51,2025-01-12 01:51:19,387.806,0.123%,
206,2025-01-12 03:19:31,2025-01-12 03:26:13,401.881,0.127%,
207,2025-01-12 04:54:13,2025-01-12 05:01:12,418.887,0.133%,
208,2025-01-12 06:28:56,2025-01-12 06:35:35,398.086,0.126%,
209,2025-01-12 08:03:42,2025-01-12 08:04:26,44.685,0.014%,
210,2025-01-12 08:04:27,2025-01-12 08:10:29,361.719,0.115%,
211,2025-01-12 09:38:29,2025-01-12 09:45:27,418.349,0.133%,
212,2025-01-12 11:13:22,2025-01-12 11:19:46,383.256,0.122%,
213,2025-01-12 12:48:01,2025-01-12 12:54:45,404.195,0.128%,
214,2025-01-12 14:22:42,2025-01-12 14:29:43,421.331,0.134%,
215,2025-01-12 15:57:24,2025-01-12 15:58:47,83.231,0.026%,
216,2025-01-12 15:58:48,2025-01-12 16:04:01,313.204,0.099%,
217,2025-01-12 17:32:07,2025-01-12 17:39:01,413.864,0.131%,
218,2025-01-12 19:06:52,2025-01-12 19:07:36,44.001,0.014%,
219,2025-01-12 19:07:39,2025-01-12 19:13:29,349.937,0.111%,
220,2025-01-12 20:41:40,2025-01-12 20:48:16,396.164,0.126%,
221,2025-01-12 22:16:32,2025-01-12 22:23:17,404.264,0.128%,
222,2025-01-12 23:51:11,2025-01-12 23:57:40,388.54,0.123%,
223,2025-01-13 01:25:52,2025-01-13 01:32:33,401.145,0.127%,
224,2025-01-13 03:00:34,2025-01-13 03:01:57,82.923,0.026%,
225,2025-01-13 03:02:00,2025-01-13 03:07:32,332.813,0.106%,
226,2025-01-13 04:35:18,2025-01-13 04:41:56,398.002,0.126%,
227,2025-01-13 06:10:03,2025-01-13 06:10:47,43.273,0.014%,
228,2025-01-13 06:10:51,2025-01-13 06:16:49,358.441,0.114%,
229,2025-01-13 07:44:52,2025-01-13 07:51:48,416.368,0.132%,
230,2025-01-13 09:19:43,2025-01-13 09:26:07,384.415,0.122%,
231,2025-01-13 10:54:22,2025-01-13 11:01:05,403.931,0.128%,
232,2025-01-13 12:29:02,2025-01-13 12:36:03,420.974,0.134%,
233,2025-01-13 14:03:45,2025-01-13 14:05:07,82.583,0.026%,
234,2025-01-13 14:05:10,2025-01-13 14:10:23,312.292,0.099%,
235,2025-01-13 15:38:29,2025-01-13 15:45:21,412.745,0.131%,
236,2025-01-13 17:13:14,2025-01-13 17:13:57,42.502,0.014%,
237,2025-01-13 17:14:02,2025-01-13 17:19:50,348.275,0.110%,
238,2025-01-13 18:48:03,2025-01-13 18:54:36,393.463,0.125%,
239,2025-01-13 20:22:53,2025-01-13 20:29:37,404.505,0.128%,
240,2025-01-13 21:57:32,2025-01-13 22:04:01,389.201,0.123%,
241,2025-01-13 23:32:13,2025-01-13 23:38:53,400.295,0.127%,
242,2025-01-14 01:06:55,2025-01-14 01:08:18,82.209,0.026%,
243,2025-01-14 01:08:21,2025-01-14 01:13:53,332.247,0.105%,
244,2025-01-14 02:41:39,2025-01-14 02:48:17,397.841,0.126%,
245,2025-01-14 04:16:25,2025-01-14 04:17:07,41.679,0.013%,
246,2025-01-14 04:17:12,2025-01-14 04:23:10,357.28,0.113%,
247,2025-01-14 05:51:14,2025-01-14 05:58:08,414.147,0.131%,
248,2025-01-14 07:26:03,2025-01-14 07:32:28,385.47,0.122%,
249,2025-01-14 09:00:42,2025-01-14 09:07:26,403.573,0.128%,
250,2025-01-14 10:35:23,2025-01-14 10:42:24,420.546,0.133%,
251,2025-01-14 12:10:06,2025-01-14 12:11:28,82.173,0.026%,
252,2025-01-14 12:11:31,2025-01-14 12:16:44,313.081,0.099%,
253,2025-01-14 13:44:50,2025-01-14 13:51:42,411.537,0.131%,
254,2025-01-14 15:19:36,2025-01-14 15:20:17,40.805,0.013%,
255,2025-01-14 15:20:22,2025-01-14 15:26:39,376.789,0.120%,
256,2025-01-14 16:54:26,2025-01-14 17:00:56,390.398,0.124%,
257,2025-01-14 18:29:13,2025-01-14 18:35:57,404.622,0.128%,
258,2025-01-14 20:03:52,2025-01-14 20:10:22,389.794,0.124%,
259,2025-01-14 21:38:34,2025-01-14 21:45:13,399.324,0.127%,
260,2025-01-14 23:13:17,2025-01-14 23:14:40,83.4,0.026%,
261,2025-01-14 23:14:41,2025-01-14 23:20:13,332.056,0.105%,
262,2025-01-15 00:48:01,2025-01-15 00:54:38,397.607,0.126%,
263,2025-01-15 02:22:47,2025-01-15 02:23:27,39.883,0.013%,
264,2025-01-15 02:23:33,2025-01-15 02:29:30,356.993,0.113%,
265,2025-01-15 03:57:37,2025-01-15 04:04:29,411.618,0.131%,
266,2025-01-15 05:32:23,2025-01-15 05:38:49,386.422,0.123%,
267,2025-01-15 07:07:03,2025-01-15 07:13:46,403.119,0.128%,
268,2025-01-15 08:41:44,2025-01-15 08:48:44,420.051,0.133%,
269,2025-01-15 10:16:27,2025-01-15 10:23:05,398.077,0.126%,
270,2025-01-15 11:51:12,2025-01-15 11:58:02,410.236,0.130%,
271,2025-01-15 13:25:58,2025-01-15 13:26:38,40.141,0.013%,
272,2025-01-15 13:26:43,2025-01-15 13:33:00,376.854,0.120%,
273,2025-01-15 15:00:49,2025-01-15 15:07:17,387.749,0.123%,
274,2025-01-15 16:35:33,2025-01-15 16:37:28,114.727,0.036%,
275,2025-01-15 16:37:28,2025-01-15 16:42:18,289.764,0.092%,
276,2025-01-15 18:10:13,2025-01-15 18:16:43,390.323,0.124%,
277,2025-01-15 19:44:55,2025-01-15 19:51:33,398.222,0.126%,
278,2025-01-15 21:19:38,2025-01-15 21:26:34,415.739,0.132%,
279,2025-01-15 22:54:22,2025-01-15 23:01:00,397.297,0.126%,
280,2025-01-16 00:29:09,2025-01-16 00:29:51,41.22,0.013%,
281,2025-01-16 00:29:53,2025-01-16 00:35:50,356.585,0.113%,
282,2025-01-16 02:04:01,2025-01-16 02:10:49,408.613,0.130%,
283,2025-01-16 03:38:43,2025-01-16 03:40:38,114.848,0.036%,
284,2025-01-16 03:40:39,2025-01-16 03:45:11,271.616,0.086%,
285,2025-01-16 05:13:23,2025-01-16 05:20:06,402.562,0.128%,
286,2025-01-16 06:48:05,2025-01-16 06:55:05,419.488,0.133%,
287,2025-01-16 08:22:48,2025-01-16 08:29:27,398.103,0.126%,
288,2025-01-16 09:57:33,2025-01-16 10:04:22,408.829,0.130%,
289,2025-01-16 11:32:20,2025-01-16 11:33:02,41.975,0.013%,
290,2025-01-16 11:33:03,2025-01-16 11:39:20,376.842,0.120%,
291,2025-01-16 13:07:13,2025-01-16 13:13:38,385.218,0.122%,
292,2025-01-16 14:41:54,2025-01-16 14:43:49,115.712,0.037%,
293,2025-01-16 14:43:49,2025-01-16 14:48:38,288.721,0.092%,
294,2025-01-16 16:16:34,2025-01-16 16:23:05,390.78,0.124%,
295,2025-01-16 17:51:16,2025-01-16 17:57:53,396.965,0.126%,
296,2025-01-16 19:25:59,2025-01-16 19:32:54,414.761,0.132%,
297,2025-01-16 21:00:44,2025-01-16 21:01:29,44.886,0.014%,
298,2025-01-16 21:01:30,2025-01-16 21:07:21,351.228,0.111%,
299,2025-01-16 22:35:32,2025-01-16 22:42:10,398.069,0.126%,
300,2025-01-17 00:10:25,2025-01-17 00:17:10,404.706,0.128%,
301,2025-01-17 01:45:04,2025-01-17 01:51:32,388.069,0.123%,
302,2025-01-17 03:19:44,2025-01-17 03:26:26,401.905,0.127%,
303,2025-01-17 04:54:26,2025-01-17 04:55:50,83.323,0.026%,
304,2025-01-17 04:55:50,2025-01-17 05:01:25,334.771,0.106%,
305,2025-01-17 06:29:10,2025-01-17 06:35:48,398.066,0.126%,
306,2025-01-17 08:03:55,2025-01-17 08:04:39,44.212,0.014%,
307,2025-01-17 08:04:41,2025-01-17 08:10:42,360.901,0.114%,
308,2025-01-17 09:38:43,2025-01-17 09:45:41,417.877,0.133%,
309,2025-01-17 11:13:35,2025-01-17 11:19:59,383.674,0.122%,
310,2025-01-17 12:48:14,2025-01-17 12:54:58,404.346,0.128%,
311,2025-01-17 14:22:55,2025-01-17 14:29:56,421.404,0.134%,
312,2025-01-17 15:57:37,2025-01-17 15:59:00,83.02,0.026%,
313,2025-01-17 15:59:02,2025-01-17 16:04:12,310.452,0.098%,
314,2025-01-17 17:32:20,2025-01-17 17:39:14,413.704,0.131%,
315,2025-01-17 19:07:06,2025-01-17 19:07:49,43.505,0.014%,
316,2025-01-17 19:07:53,2025-01-17 19:13:42,349.152,0.111%,
317,2025-01-17 20:41:54,2025-01-17 20:48:30,395.577,0.125%,
318,2025-01-17 22:16:45,2025-01-17 22:23:30,404.572,0.128%,
319,2025-01-17 23:51:24,2025-01-17 23:57:53,388.779,0.123%,
320,2025-01-18 01:26:05,2025-01-18 01:32:46,401.141,0.127%,
321,2025-01-18 03:00:47,2025-01-18 03:02:10,82.687,0.026%,
322,2025-01-18 03:02:13,2025-01-18 03:07:46,332.537,0.105%,
323,2025-01-18 04:35:31,2025-01-18 04:42:09,397.957,0.126%,
324,2025-01-18 06:10:17,2025-01-18 06:11:00,42.739,0.014%,
325,2025-01-18 06:11:05,2025-01-18 06:17:03,357.658,0.113%,
326,2025-01-18 07:45:05,2025-01-18 07:52:01,415.821,0.132%,
327,2025-01-18 09:19:55,2025-01-18 09:26:20,384.794,0.122%,
328,2025-01-18 10:54:35,2025-01-18 11:01:19,404.051,0.128%,
329,2025-01-18 12:29:15,2025-01-18 12:36:17,421.022,0.134%,
330,2025-01-18 14:03:58,2025-01-18 14:05:20,82.327,0.026%,
331,2025-01-18 14:05:23,2025-01-18 14:10:36,312.577,0.099%,
332,2025-01-18 15:38:42,2025-01-18 15:45:35,412.56,0.131%,
333,2025-01-18 17:13:28,2025-01-18 17:14:10,41.936,0.013%,
334,2025-01-18 17:14:15,2025-01-18 17:20:04,348.608,0.111%,
335,2025-01-18 18:48:17,2025-01-18 18:54:49,392.781,0.125%,
336,2025-01-18 20:23:06,2025-01-18 20:29:50,404.774,0.128%,
337,2025-01-18 21:57:45,2025-01-18 22:04:14,389.415,0.124%,
338,2025-01-18 23:32:26,2025-01-18 23:39:06,400.262,0.127%,
339,2025-01-19 01:07:09,2025-01-19 01:08:30,81.932,0.026%,
340,2025-01-19 01:08:34,2025-01-19 01:14:06,332.393,0.105%,
341,2025-01-19 02:41:53,2025-01-19 02:48:30,397.771,0.126%,
342,2025-01-19 04:16:39,2025-01-19 04:17:20,41.079,0.013%,
343,2025-01-19 04:17:25,2025-01-19 04:23:23,357.457,0.113%,
344,2025-01-19 05:51:28,2025-01-19 05:58:21,413.512,0.131%,
345,2025-01-19 07:26:16,2025-01-19 07:32:41,385.811,0.122%,
346,2025-01-19 09:00:55,2025-01-19 09:07:39,403.668,0.128%,
347,2025-01-19 10:35:36,2025-01-19 10:42:37,420.574,0.133%,
348,2025-01-19 12:10:19,2025-01-19 12:11:42,83.048,0.026%,
349,2025-01-19 12:11:44,2025-01-19 12:16:57,313.341,0.099%,
350,2025-01-19 13:45:03,2025-01-19 13:51:55,411.326,0.130%,
351,2025-01-19 15:19:50,2025-01-19 15:20:30,40.174,0.013%,
352,2025-01-19 15:20:35,2025-01-19 15:26:25,349.506,0.111%,
353,2025-01-19 16:54:39,2025-01-19 17:01:09,389.59,0.124%,
354,2025-01-19 18:29:26,2025-01-19 18:36:11,404.853,0.128%,
355,2025-01-19 20:04:05,2025-01-19 20:10:35,389.985,0.124%,
356,2025-01-19 21:38:47,2025-01-19 21:45:26,399.263,0.127%,
357,2025-01-19 23:13:30,2025-01-19 23:14:54,84.129,0.027%,
358,2025-01-19 23:14:54,2025-01-19 23:20:26,332.185,0.105%,
359,2025-01-20 00:48:14,2025-01-20 00:54:52,397.509,0.126%,
360,2025-01-20 02:23:01,2025-01-20 02:23:40,39.716,0.013%,
361,2025-01-20 02:23:46,2025-01-20 02:29:43,357.138,0.113%,
362,2025-01-20 03:57:51,2025-01-20 04:04:42,410.84,0.130%,
363,2025-01-20 05:32:36,2025-01-20 05:39:03,386.732,0.123%,
364,2025-01-20 07:07:16,2025-01-20 07:13:59,403.188,0.128%,
365,2025-01-20 08:41:57,2025-01-20 08:48:57,420.058,0.133%,
366,2025-01-20 10:16:40,2025-01-20 10:23:19,398.095,0.126%,
367,2025-01-20 11:51:25,2025-01-20 11:58:15,409.997,0.130%,
368,2025-01-20 13:26:12,2025-01-20 13:26:53,40.925,0.013%,
369,2025-01-20 13:26:56,2025-01-20 13:33:13,377.047,0.120%,
370,2025-01-20 15:01:03,2025-01-20 15:07:30,386.963,0.123%,
371,2025-01-20 16:35:46,2025-01-20 16:37:41,114.812,0.036%,
372,2025-01-20 16:37:42,2025-01-20 16:42:31,289.208,0.092%,
373,2025-01-20 18:10:26,2025-01-20 18:16:57,390.49,0.124%,
374,2025-01-20 19:45:08,2025-01-20 19:51:46,398.127,0.126%,
375,2025-01-20 21:19:51,2025-01-20 21:26:47,415.624,0.132%,
376,2025-01-20 22:54:36,2025-01-20 23:01:13,397.172,0.126%,
377,2025-01-21 00:29:23,2025-01-21 00:30:05,41.769,0.013%,
378,2025-01-21 00:30:06,2025-01-21 00:36:03,356.701,0.113%,
379,2025-01-21 02:04:15,2025-01-21 02:11:02,407.606,0.129%,
380,2025-01-21 03:38:56,2025-01-21 03:40:52,115.291,0.037%,
381,2025-01-21 03:40:52,2025-01-21 03:45:24,271.794,0.086%,
382,2025-01-21 05:13:37,2025-01-21 05:20:19,402.606,0.128%,
383,2025-01-21 06:48:18,2025-01-21 06:55:18,419.474,0.133%,
384,2025-01-21 08:23:02,2025-01-21 08:29:40,398.098,0.126%,
385,2025-01-21 09:57:47,2025-01-21 09:58:32,45.084,0.014%,
386,2025-01-21 09:58:32,2025-01-21 10:04:35,363.093,0.115%,
387,2025-01-21 11:32:34,2025-01-21 11:39:33,419.303,0.133%,
388,2025-01-21 13:07:27,2025-01-21 13:13:51,384.096,0.122%,
389,2025-01-21 14:42:07,2025-01-21 14:48:51,404.708,0.128%,
390,2025-01-21 16:16:47,2025-01-21 16:23:18,390.926,0.124%,
391,2025-01-21 17:51:29,2025-01-21 17:52:52,83.409,0.026%,
392,2025-01-21 17:52:53,2025-01-21 17:58:06,313.03,0.099%,
393,2025-01-21 19:26:12,2025-01-21 19:33:07,414.621,0.132%,
394,2025-01-21 21:00:58,2025-01-21 21:01:42,44.429,0.014%,
395,2025-01-21 21:01:44,2025-01-21 21:07:34,350.572,0.111%,
396,2025-01-21 22:35:45,2025-01-21 22:42:23,397.535,0.126%,
397,2025-01-22 00:10:38,2025-01-22 00:17:23,404.58,0.128%,
398,2025-01-22 01:45:17,2025-01-22 01:51:45,388.324,0.123%,
399,2025-01-22 03:19:57,2025-01-22 03:26:39,401.921,0.127%,
400,2025-01-22 04:54:39,2025-01-22 04:56:03,83.116,0.026%,
401,2025-01-22 04:56:04,2025-01-22 05:01:38,334.064,0.106%,
402,2025-01-22 06:29:23,2025-01-22 06:36:01,398.036,0.126%,
403,2025-01-22 08:04:08,2025-01-22 08:04:52,43.727,0.014%,
404,2025-01-22 08:04:55,2025-01-22 08:10:55,360.02,0.114%,
405,2025-01-22 09:38:56,2025-01-22 09:45:54,417.386,0.132%,
406,2025-01-22 11:13:48,2025-01-22 11:20:12,384.074,0.122%,
407,2025-01-22 12:48:27,2025-01-22 12:55:12,404.489,0.128%,
408,2025-01-22 14:23:08,2025-01-22 14:29:39,391.305,0.124%,
409,2025-01-22 15:57:50,2025-01-22 15:59:13,82.796,0.026%,
410,2025-01-22 15:59:16,2025-01-22 16:04:25,309.641,0.098%,
411,2025-01-22 17:32:34,2025-01-22 17:39:27,413.54,0.131%,
412,2025-01-22 19:07:19,2025-01-22 19:08:02,42.98,0.014%,
413,2025-01-22 19:08:07,2025-01-22 19:13:56,348.267,0.110%,
414,2025-01-22 20:42:08,2025-01-22 20:48:43,394.963,0.125%,
415,2025-01-22 22:16:58,2025-01-22 22:23:43,404.866,0.128%,
416,2025-01-22 23:51:37,2025-01-22 23:58:06,389.006,0.123%,
417,2025-01-23 01:26:18,2025-01-23 01:32:59,401.131,0.127%,
418,2025-01-23 03:01:01,2025-01-23 03:02:23,82.441,0.026%,
419,2025-01-23 03:02:26,2025-01-23 03:07:59,332.697,0.106%,
420,2025-01-23 04:35:45,2025-01-23 04:42:22,397.901,0.126%,
421,2025-01-23 06:10:30,2025-01-23 06:11:13,42.189,0.013%,
422,2025-01-23 06:11:18,2025-01-23 06:17:16,357.858,0.114%,
423,2025-01-23 07:45:19,2025-01-23 07:52:14,415.251,0.132%,
424,2025-01-23 09:20:08,2025-01-23 09:26:33,385.157,0.122%,
425,2025-01-23 10:54:48,2025-01-23 11:01:32,404.171,0.128%,
426,2025-01-23 12:29:29,2025-01-23 12:36:30,421.064,0.134%,
427,2025-01-23 14:04:11,2025-01-23 14:05:33,82.057,0.026%,
428,2025-01-23 14:05:36,2025-01-23 14:10:45,308.55,0.098%,
429,2025-01-23 15:38:55,2025-01-23 15:45:48,412.368,0.131%,
430,2025-01-23 17:13:41,2025-01-23 17:14:23,41.35,0.013%,
431,2025-01-23 17:14:28,2025-01-23 17:20:17,348.927,0.111%,
432,2025-01-23 18:48:30,2025-01-23 18:55:02,392.066,0.124%,
433,2025-01-23 20:23:18,2025-01-23 20:30:03,405.029,0.128%,
434,2025-01-23 21:57:58,2025-01-23 22:04:28,389.618,0.124%,
435,2025-01-23 23:32:39,2025-01-23 23:39:19,400.222,0.127%,
436,2025-01-24 01:07:22,2025-01-24 01:08:44,82.672,0.026%,
437,2025-01-24 01:08:47,2025-01-24 01:14:19,332.533,0.105%,
438,2025-01-24 02:42:06,2025-01-24 02:48:44,397.69,0.126%,
439,2025-01-24 04:16:52,2025-01-24 04:17:33,40.461,0.013%,
440,2025-01-24 04:17:38,2025-01-24 04:23:36,357.629,0.113%,
441,2025-01-24 05:51:42,2025-01-24 05:58:35,412.836,0.131%,
442,2025-01-24 07:26:29,2025-01-24 07:32:55,386.139,0.122%,
443,2025-01-24 09:01:08,2025-01-24 09:07:52,403.761,0.128%,
444,2025-01-24 10:35:50,2025-01-24 10:42:50,420.595,0.133%,
445,2025-01-24 12:10:32,2025-01-24 12:11:56,83.816,0.027%,
446,2025-01-24 12:11:57,2025-01-24 12:17:05,307.812,0.098%,
447,2025-01-24 13:45:17,2025-01-24 13:52:08,411.108,0.130%,
448,2025-01-24 15:20:03,2025-01-24 15:20:43,39.51,0.013%,
449,2025-01-24 15:20:48,2025-01-24 15:26:38,349.8,0.111%,
450,2025-01-24 16:54:53,2025-01-24 17:01:22,388.732,0.123%,
451,2025-01-24 18:29:39,2025-01-24 18:36:24,405.076,0.128%,
452,2025-01-24 20:04:19,2025-01-24 20:10:49,390.165,0.124%,
453,2025-01-24 21:39:00,2025-01-24 21:45:39,399.195,0.127%,
454,2025-01-24 23:13:43,2025-01-24 23:20:39,416.444,0.132%,
455,2025-01-25 00:48:28,2025-01-25 00:55:05,397.401,0.126%,
456,2025-01-25 02:23:14,2025-01-25 02:23:55,40.6,0.013%,
457,2025-01-25 02:23:59,2025-01-25 02:29:56,357.276,0.113%,
458,2025-01-25 03:58:05,2025-01-25 04:04:55,410.009,0.130%,
459,2025-01-25 05:32:49,2025-01-25 05:34:44,114.781,0.036%,
460,2025-01-25 05:34:44,2025-01-25 05:39:16,271.7,0.086%,
461,2025-01-25 07:07:29,2025-01-25 07:14:12,403.25,0.128%,
462,2025-01-25 08:42:11,2025-01-25 08:49:11,420.058,0.133%,
463,2025-01-25 10:16:54,2025-01-25 10:23:26,392.166,0.124%,
464,2025-01-25 11:51:38,2025-01-25 11:58:28,409.746,0.130%,
465,2025-01-25 13:26:25,2025-01-25 13:27:07,41.536,0.013%,
466,2025-01-25 13:27:09,2025-01-25 13:32:59,350.603,0.111%,
467,2025-01-25 15:01:17,2025-01-25 15:07:43,386.093,0.122%,
468,2025-01-25 16:35:59,2025-01-25 16:37:54,114.884,0.036%,
469,2025-01-25 16:37:55,2025-01-25 16:42:44,289.296,0.092%,
470,2025-01-25 18:10:39,2025-01-25 18:17:10,390.648,0.124%,
471,2025-01-25 19:45:21,2025-01-25 19:51:59,398.028,0.126%,
472,2025-01-25 21:20:04,2025-01-25 21:27:00,415.5,0.132%,
473,2025-01-25 22:54:49,2025-01-25 23:01:26,397.036,0.126%,
474,2025-01-26 00:29:37,2025-01-26 00:30:19,42.204,0.013%,
475,2025-01-26 00:30:19,2025-01-26 00:36:16,356.808,0.113%,
476,2025-01-26 02:04:29,2025-01-26 02:11:15,406.471,0.129%,
477,2025-01-26 03:39:09,2025-01-26 03:45:37,387.837,0.123%,
478,2025-01-26 05:13:50,2025-01-26 05:20:32,402.641,0.128%,
479,2025-01-26 06:48:32,2025-01-26 06:49:55,83.491,0.027%,
480,2025-01-26 06:49:55,2025-01-26 06:55:31,335.926,0.107%,
481,2025-01-26 08:23:15,2025-01-26 08:29:53,398.083,0.126%,
482,2025-01-26 09:58:00,2025-01-26 09:58:45,44.633,0.014%,
483,2025-01-26 09:58:46,2025-01-26 10:04:48,362.334,0.115%,
484,2025-01-26 11:32:48,2025-01-26 11:39:47,418.851,0.133%,
485,2025-01-26 13:07:41,2025-01-26 13:14:04,383.303,0.122%,
486,2025-01-26 14:42:20,2025-01-26 14:49:04,404.872,0.128%,
487,2025-01-26 16:17:00,2025-01-26 16:23:31,391.065,0.124%,
488,2025-01-26 17:51:42,2025-01-26 17:53:05,83.209,0.026%,
489,2025-01-26 17:53:07,2025-01-26 17:58:19,312.247,0.099%,
490,2025-01-26 19:26:26,2025-01-26 19:33:20,414.474,0.131%,
491,2025-01-26 21:01:11,2025-01-26 21:01:55,43.947,0.014%,
492,2025-01-26 21:01:58,2025-01-26 21:07:48,349.855,0.111%,
493,2025-01-26 22:35:59,2025-01-26 22:42:36,396.977,0.126%,
494,2025-01-27 00:10:51,2025-01-27 00:17:36,404.898,0.128%,
495,2025-01-27 01:45:30,2025-01-27 01:51:58,388.568,0.123%,
496,2025-01-27 03:20:10,2025-01-27 03:26:52,401.93,0.128%,
497,2025-01-27 04:54:53,2025-01-27 04:56:16,82.899,0.026%,
498,2025-01-27 04:56:18,2025-01-27 05:01:51,333.305,0.106%,
499,2025-01-27 06:29:36,2025-01-27 06:36:14,397.998,0.126%,
500,2025-01-27 08:04:22,2025-01-27 08:05:05,43.213,0.014%,
501,2025-01-27 08:05:10,2025-01-27 08:11:09,359.052,0.114%,
502,2025-01-27 09:39:10,2025-01-27 09:46:07,416.87,0.132%,
503,2025-01-27 11:14:01,2025-01-27 11:20:25,384.46,0.122%,
504,2025-01-27 12:48:40,2025-01-27 12:55:25,404.623,0.128%,
505,2025-01-27 14:23:21,2025-01-27 14:29:52,391.422,0.124%,
506,2025-01-27 15:58:03,2025-01-27 15:59:26,82.555,0.026%,
507,2025-01-27 15:59:29,2025-01-27 16:04:38,309.678,0.098%,
508,2025-01-27 17:32:47,2025-01-27 17:39:41,413.366,0.131%,
509,2025-01-27 19:07:33,2025-01-27 19:08:15,42.436,0.014%,
510,2025-01-27 19:08:21,2025-01-27 19:14:09,348.313,0.110%,
511,2025-01-27 20:42:21,2025-01-27 20:48:56,394.321,0.125%,
512,2025-01-27 22:17:11,2025-01-27 22:23:56,405.145,0.129%,
513,2025-01-27 23:51:50,2025-01-27 23:58:20,389.225,0.123%,
514,2025-01-28 01:26:31,2025-01-28 01:33:12,401.112,0.127%,
515,2025-01-28 03:01:14,2025-01-28 03:02:36,82.179,0.026%,
516,2025-01-28 03:02:39,2025-01-28 03:08:12,332.85,0.106%,
517,2025-01-28 04:35:58,2025-01-28 04:42:36,397.836,0.126%,
518,2025-01-28 06:10:44,2025-01-28 06:11:25,41.615,0.013%,
519,2025-01-28 06:11:31,2025-01-28 06:17:29,358.046,0.114%,
520,2025-01-28 07:45:33,2025-01-28 07:52:27,414.646,0.132%,
521,2025-01-28 09:20:21,2025-01-28 09:26:47,385.505,0.122%,
522,2025-01-28 10:55:01,2025-01-28 11:01:45,404.278,0.128%,
523,2025-01-28 12:29:42,2025-01-28 12:36:13,391.714,0.124%,
524,2025-01-28 14:04:24,2025-01-28 14:05:47,82.278,0.026%,
525,2025-01-28 14:05:49,2025-01-28 14:10:58,308.536,0.098%,
526,2025-01-28 15:39:09,2025-01-28 15:46:01,412.168,0.131%,
527,2025-01-28 17:13:55,2025-01-28 17:14:36,40.737,0.013%,
528,2025-01-28 17:14:41,2025-01-28 17:20:30,349.24,0.111%,
529,2025-01-28 18:48:44,2025-01-28 18:55:16,391.311,0.124%,
530,2025-01-28 20:23:31,2025-01-28 20:30:17,405.276,0.129%,
531,2025-01-28 21:58:11,2025-01-28 22:04:41,389.817,0.124%,
532,2025-01-28 23:32:52,2025-01-28 23:39:32,400.175,0.127%,
533,2025-01-29 01:07:35,2025-01-29 01:08:59,83.483,0.027%,
534,2025-01-29 01:09:00,2025-01-29 01:14:32,332.666,0.106%,
535,2025-01-29 02:42:19,2025-01-29 02:48:57,397.601,0.126%,
536,2025-01-29 04:17:06,2025-01-29 04:17:46,39.809,0.013%,
537,2025-01-29 04:17:51,2025-01-29 04:23:49,357.783,0.114%,
538,2025-01-29 05:51:56,2025-01-29 05:58:48,412.111,0.131%,
539,2025-01-29 07:26:41,2025-01-29 07:33:08,386.458,0.123%,
540,2025-01-29 09:01:21,2025-01-29 09:08:05,403.841,0.128%,
541,2025-01-29 10:36:03,2025-01-29 10:43:03,420.609,0.133%,
542,2025-01-29 12:10:46,2025-01-29 12:17:18,392.242,0.124%,
543,2025-01-29 13:45:30,2025-01-29 13:52:21,410.879,0.130%,
544,2025-01-29 15:20:17,2025-01-29 15:20:57,40.236,0.013%,
545,2025-01-29 15:21:01,2025-01-29 15:26:51,350.09,0.111%,
546,2025-01-29 16:55:07,2025-01-29 17:01:35,387.805,0.123%,
547,2025-01-29 18:29:52,2025-01-29 18:31:46,114.742,0.036%,
548,2025-01-29 18:31:47,2025-01-29 18:36:37,290.33,0.092%,
549,2025-01-29 20:04:32,2025-01-29 20:11:02,390.338,0.124%,
550,2025-01-29 21:39:13,2025-01-29 21:45:52,399.117,0.127%,
551,2025-01-29 23:13:56,2025-01-29 23:20:53,416.331,0.132%,
552,2025-01-30 00:48:41,2025-01-30 00:55:18,397.282,0.126%,
553,2025-01-30 02:23:28,2025-01-30 02:24:09,41.285,0.013%,
554,2025-01-30 02:24:12,2025-01-30 02:30:09,357.402,0.113%,
555,2025-01-30 03:58:19,2025-01-30 04:05:08,409.091,0.130%,
556,2025-01-30 05:33:02,2025-01-30 05:34:57,114.856,0.036%,
557,2025-01-30 05:34:58,2025-01-30 05:39:29,271.638,0.086%,
558,2025-01-30 07:07:42,2025-01-30 07:14:25,403.304,0.128%,
559,2025-01-30 08:42:24,2025-01-30 08:49:24,420.051,0.133%,
560,2025-01-30 10:17:07,2025-01-30 10:23:39,392.115,0.124%,
561,2025-01-30 11:51:52,2025-01-30 11:58:41,409.486,0.130%,
562,2025-01-30 13:26:39,2025-01-30 13:27:21,42.023,0.013%,
563,2025-01-30 13:27:22,2025-01-30 13:33:13,350.865,0.111%,
564,2025-01-30 15:01:31,2025-01-30 15:07:56,385.107,0.122%,
565,2025-01-30 16:36:12,2025-01-30 16:38:08,115.814,0.037%,
566,2025-01-30 16:38:08,2025-01-30 16:42:57,289.378,0.092%,
567,2025-01-30 18:10:52,2025-01-30 18:17:23,390.8,0.124%,
568,2025-01-30 19:45:34,2025-01-30 19:52:12,397.917,0.126%,
569,2025-01-30 21:20:18,2025-01-30 21:27:13,415.368,0.132%,
570,2025-01-30 22:55:03,2025-01-30 22:55:48,44.835,0.014%,
571,2025-01-30 22:55:48,2025-01-30 23:01:40,351.162,0.111%,
572,2025-01-31 00:29:50,2025-01-31 00:36:29,398.855,0.127%,
573,2025-01-31 02:04:44,2025-01-31 02:11:29,405.142,0.129%,
574,2025-01-31 03:39:22,2025-01-31 03:45:50,388.099,0.123%,
575,2025-01-31 05:14:03,2025-01-31 05:20:45,402.668,0.128%,
576,2025-01-31 06:48:45,2025-01-31 06:50:08,83.298,0.026%,
577,2025-01-31 06:50:09,2025-01-31 06:55:44,335.262,0.106%,
578,2025-01-31 08:23:28,2025-01-31 08:30:00,391.919,0.124%,
579,2025-01-31 09:58:14,2025-01-31 09:58:58,44.165,0.014%,
580,2025-01-31 09:59:00,2025-01-31 10:05:02,361.514,0.115%,
581,2025-01-31 11:33:01,2025-01-31 11:39:34,392.627,0.125%,
582,2025-01-31 11:39:51,2025-01-31 11:40:00,8.99,0.003%,
583,2025-01-31 13:07:54,2025-01-31 13:14:18,383.713,0.122%,
584,2025-01-31 14:42:33,2025-01-31 14:49:18,405.024,0.128%,
585,2025-01-31 16:17:13,2025-01-31 16:23:44,391.194,0.124%,
586,2025-01-31 17:51:55,2025-01-31 17:53:18,82.996,0.026%,
587,2025-01-31 17:53:21,2025-01-31 17:58:32,311.402,0.099%,
588,2025-01-31 19:26:39,2025-01-31 19:33:33,414.318,0.131%,
589,2025-01-31 21:01:24,2025-01-31 21:02:08,43.447,0.014%,
590,2025-01-31 21:02:12,2025-01-31 21:08:01,349.058,0.111%,
591,2025-01-31 22:36:13,2025-01-31 22:42:49,396.396,0.126%,
592,2025-02-01 00:11:04,2025-02-01 00:17:49,405.207,0.129%,
593,2025-02-01 01:45:43,2025-02-01 01:52:12,388.804,0.123%,
594,2025-02-01 03:20:24,2025-02-01 03:27:06,401.93,0.128%,
595,2025-02-01 04:55:06,2025-02-01 04:56:29,82.664,0.026%,
596,2025-02-01 04:56:32,2025-02-01 05:02:05,333.134,0.106%,
597,2025-02-01 06:29:50,2025-02-01 06:36:21,391.662,0.124%,
598,2025-02-01 06:36:25,2025-02-01 06:36:28,3.056,0.001%,
599,2025-02-01 08:04:35,2025-02-01 08:05:18,42.68,0.014%,
600,2025-02-01 08:05:23,2025-02-01 08:11:22,358.406,0.114%,
601,2025-02-01 09:39:24,2025-02-01 09:46:20,416.322,0.132%,
602,2025-02-01 11:14:14,2025-02-01 11:20:39,384.835,0.122%,
603,2025-02-01 12:48:53,2025-02-01 12:55:38,404.748,0.128%,
604,2025-02-01 14:23:34,2025-02-01 14:30:06,391.532,0.124%,
605,2025-02-01 15:58:16,2025-02-01 15:59:39,82.298,0.026%,
606,2025-02-01 15:59:42,2025-02-01 16:04:51,309.709,0.098%,
607,2025-02-01 17:33:01,2025-02-01 17:39:54,413.184,0.131%,
608,2025-02-01 19:07:46,2025-02-01 19:08:28,41.874,0.013%,
609,2025-02-01 19:08:34,2025-02-01 19:14:22,348.642,0.111%,
610,2025-02-01 20:42:35,2025-02-01 20:49:09,393.644,0.125%,
611,2025-02-01 22:17:24,2025-02-01 22:24:09,405.416,0.129%,
612,2025-02-01 23:52:03,2025-02-01 23:58:33,389.437,0.124%,
613,2025-02-02 01:26:44,2025-02-02 01:33:26,401.085,0.127%,
614,2025-02-02 03:01:27,2025-02-02 03:02:49,81.903,0.026%,
615,2025-02-02 03:02:52,2025-02-02 03:08:25,332.999,0.106%,
616,2025-02-02 04:36:11,2025-02-02 04:42:49,397.764,0.126%,
617,2025-02-02 06:10:57,2025-02-02 06:11:38,41.012,0.013%,
618,2025-02-02 06:11:44,2025-02-02 06:17:42,358.226,0.114%,
619,2025-02-02 07:45:47,2025-02-02 07:52:41,414.009,0.131%,
620,2025-02-02 09:20:34,2025-02-02 09:27:00,385.848,0.122%,
621,2025-02-02 10:55:14,2025-02-02 11:01:58,404.375,0.128%,
622,2025-02-02 12:29:55,2025-02-02 12:36:27,391.803,0.124%,
623,2025-02-02 14:04:38,2025-02-02 14:06:01,83.137,0.026%,
624,2025-02-02 14:06:02,2025-02-02 14:11:11,308.508,0.098%,
625,2025-02-02 15:39:22,2025-02-02 15:46:14,411.958,0.131%,
626,2025-02-02 17:14:08,2025-02-02 17:14:48,40.104,0.013%,
627,2025-02-02 17:14:54,2025-02-02 17:20:43,349.541,0.111%,
628,2025-02-02 18:48:58,2025-02-02 18:55:29,390.507,0.124%,
629,2025-02-02 20:23:44,2025-02-02 20:30:30,405.502,0.129%,
630,2025-02-02 21:58:24,2025-02-02 22:04:54,390.007,0.124%,
631,2025-02-02 23:33:05,2025-02-02 23:39:46,400.119,0.127%,
632,2025-02-03 01:07:48,2025-02-03 01:09:13,84.205,0.027%,
633,2025-02-03 01:09:13,2025-02-03 01:14:45,332.794,0.106%,
634,2025-02-03 02:42:33,2025-02-03 02:49:10,397.502,0.126%,
635,2025-02-03 04:17:19,2025-02-03 04:17:59,39.825,0.013%,
636,2025-02-03 04:18:04,2025-02-03 04:24:02,357.931,0.114%,
637,2025-02-03 05:52:10,2025-02-03 05:59:01,411.332,0.130%,
638,2025-02-03 07:26:54,2025-02-03 07:33:21,386.766,0.123%,
639,2025-02-03 09:01:34,2025-02-03 09:08:18,403.913,0.128%,
640,2025-02-03 10:36:16,2025-02-03 10:43:17,420.616,0.133%,
641,2025-02-03 12:10:59,2025-02-03 12:17:31,392.204,0.124%,
642,2025-02-03 13:45:44,2025-02-03 13:52:34,410.642,0.130%,
643,2025-02-03 15:20:30,2025-02-03 15:21:11,41.001,0.013%,
644,2025-02-03 15:21:14,2025-02-03 15:27:05,350.364,0.111%,
645,2025-02-03 16:55:21,2025-02-03 17:01:48,386.874,0.123%,
646,2025-02-03 18:30:05,2025-02-03 18:31:59,114.823,0.036%,
647,2025-02-03 18:32:00,2025-02-03 18:36:50,289.854,0.092%,
648,2025-02-03 20:04:45,2025-02-03 20:11:15,390.503,0.124%,
649,2025-02-03 21:39:26,2025-02-03 21:46:05,399.032,0.127%,
650,2025-02-03 23:14:10,2025-02-03 23:21:06,416.217,0.132%,
651,2025-02-04 00:48:54,2025-02-04 00:55:32,397.156,0.126%,
652,2025-02-04 02:23:41,2025-02-04 02:24:23,41.82,0.013%,
653,2025-02-04 02:24:25,2025-02-04 02:30:22,357.522,0.113%,
654,2025-02-04 03:58:33,2025-02-04 04:05:21,408.075,0.129%,
655,2025-02-04 05:33:15,2025-02-04 05:35:10,115.397,0.037%,
656,2025-02-04 05:35:11,2025-02-04 05:39:42,271.815,0.086%,
657,2025-02-04 07:07:55,2025-02-04 07:14:38,403.35,0.128%,
658,2025-02-04 08:42:37,2025-02-04 08:49:37,420.038,0.133%,
659,2025-02-04 10:17:20,2025-02-04 10:23:52,392.056,0.124%,
660,2025-02-04 11:52:05,2025-02-04 11:52:50,45.038,0.014%,
661,2025-02-04 11:52:51,2025-02-04 11:58:55,363.697,0.115%,
662,2025-02-04 13:26:53,2025-02-04 13:33:26,393.344,0.125%,
663,2025-02-04 15:01:46,2025-02-04 15:08:10,383.964,0.122%,
664,2025-02-04 16:36:25,2025-02-04 16:43:10,405.377,0.129%,
665,2025-02-04 18:11:05,2025-02-04 18:17:36,390.944,0.124%,
666,2025-02-04 19:45:47,2025-02-04 19:47:11,83.386,0.026%,
667,2025-02-04 19:47:11,2025-02-04 19:52:25,313.925,0.100%,
668,2025-02-04 21:20:31,2025-02-04 21:27:26,415.229,0.132%,
669,2025-02-04 22:55:16,2025-02-04 22:56:01,44.375,0.014%,
670,2025-02-04 22:56:02,2025-02-04 23:01:53,350.501,0.111%,
671,2025-02-05 00:30:04,2025-02-05 00:36:42,398.327,0.126%,
672,2025-02-05 02:04:57,2025-02-05 02:11:42,405.209,0.129%,
673,2025-02-05 03:39:35,2025-02-05 03:46:04,388.353,0.123%,
674,2025-02-05 05:14:16,2025-02-05 05:20:59,402.689,0.128%,
675,2025-02-05 06:48:58,2025-02-05 06:50:21,83.093,0.026%,
676,2025-02-05 06:50:23,2025-02-05 06:55:57,334.554,0.106%,
677,2025-02-05 08:23:42,2025-02-05 08:30:14,391.84,0.124%,
678,2025-02-05 09:58:27,2025-02-05 09:59:11,43.668,0.014%,
679,2025-02-05 09:59:14,2025-02-05 10:05:15,360.628,0.114%,
680,2025-02-05 11:33:15,2025-02-05 11:39:47,392.218,0.124%,
681,2025-02-05 13:08:07,2025-02-05 13:14:31,384.112,0.122%,
682,2025-02-05 14:42:46,2025-02-05 14:49:31,405.168,0.129%,
683,2025-02-05 16:17:26,2025-02-05 16:23:58,391.316,0.124%,
684,2025-02-05 17:52:09,2025-02-05 17:53:31,82.771,0.026%,
685,2025-02-05 17:53:34,2025-02-05 17:58:45,310.707,0.099%,
686,2025-02-05 19:26:52,2025-02-05 19:33:47,414.155,0.131%,
687,2025-02-05 21:01:38,2025-02-05 21:02:21,42.923,0.014%,
688,2025-02-05 21:02:26,2025-02-05 21:08:14,348.166,0.110%,
689,2025-02-05 22:36:26,2025-02-05 22:43:02,395.785,0.126%,
690,2025-02-06 00:11:17,2025-02-06 00:18:02,405.502,0.129%,
691,2025-02-06 01:45:56,2025-02-06 01:52:25,389.029,0.123%,
692,2025-02-06 03:20:37,2025-02-06 03:27:19,401.925,0.127%,
693,2025-02-06 04:55:19,2025-02-06 04:56:42,82.415,0.026%,
694,2025-02-06 04:56:45,2025-02-06 05:02:18,333.297,0.106%,
695,2025-02-06 06:30:03,2025-02-06 06:36:35,391.557,0.124%,
696,2025-02-06 08:04:49,2025-02-06 08:05:31,42.128,0.013%,
697,2025-02-06 08:05:36,2025-02-06 08:11:35,358.61,0.114%,
698,2025-02-06 09:39:38,2025-02-06 09:46:33,415.753,0.132%,
699,2025-02-06 11:14:27,2025-02-06 11:20:52,385.198,0.122%,
700,2025-02-06 12:49:06,2025-02-06 12:55:51,404.864,0.128%,
701,2025-02-06 14:23:47,2025-02-06 14:30:19,391.633,0.124%,
702,2025-02-06 15:58:30,2025-02-06 15:59:52,82.027,0.026%,
703,2025-02-06 15:59:55,2025-02-06 16:05:05,309.728,0.098%,
704,2025-02-06 17:33:14,2025-02-06 17:40:07,412.992,0.131%,
705,2025-02-06 19:08:00,2025-02-06 19:08:41,41.283,0.013%,
706,2025-02-06 19:08:46,2025-02-06 19:14:35,348.962,0.111%,
707,2025-02-06 20:42:49,2025-02-06 20:49:22,392.936,0.125%,
708,2025-02-06 22:17:37,2025-02-06 22:24:23,405.671,0.129%,
709,2025-02-06 23:52:16,2025-02-06 23:58:46,389.642,0.124%,
710,2025-02-07 01:26:58,2025-02-07 01:33:39,401.052,0.127%,
711,2025-02-07 03:01:40,2025-02-07 03:03:03,82.764,0.026%,
712,2025-02-07 03:03:05,2025-02-07 03:08:38,333.137,0.106%,
713,2025-02-07 04:36:25,2025-02-07 04:43:02,397.681,0.126%,
714,2025-02-07 06:11:11,2025-02-07 06:11:51,40.393,0.013%,
715,2025-02-07 06:11:57,2025-02-07 06:17:55,358.397,0.114%,
716,2025-02-07 07:46:00,2025-02-07 07:52:54,413.331,0.131%,
717,2025-02-07 09:20:47,2025-02-07 09:27:13,386.174,0.123%,
718,2025-02-07 10:55:27,2025-02-07 11:02:11,404.47,0.128%,
719,2025-02-07 12:30:08,2025-02-07 12:36:40,391.889,0.124%,
720,2025-02-07 14:04:51,2025-02-07 14:06:15,83.893,0.027%,
721,2025-02-07 14:06:15,2025-02-07 14:11:24,308.47,0.098%,
722,2025-02-07 15:39:35,2025-02-07 15:46:27,411.742,0.131%,
723,2025-02-07 17:14:22,2025-02-07 17:15:01,39.438,0.013%,
724,2025-02-07 17:15:07,2025-02-07 17:20:57,349.832,0.111%,
725,2025-02-07 18:49:12,2025-02-07 18:55:42,389.652,0.124%,
726,2025-02-07 20:23:57,2025-02-07 20:30:43,405.725,0.129%,
727,2025-02-07 21:58:37,2025-02-07 22:05:07,390.185,0.124%,
728,2025-02-07 23:33:19,2025-02-07 23:39:59,400.058,0.127%,
729,2025-02-08 01:08:02,2025-02-08 01:14:59,417.029,0.132%,
730,2025-02-08 02:42:46,2025-02-08 02:49:24,397.393,0.126%,
731,2025-02-08 04:17:33,2025-02-08 04:18:14,40.681,0.013%,
732,2025-02-08 04:18:17,2025-02-08 04:24:15,358.073,0.114%,
733,2025-02-08 05:52:24,2025-02-08 05:59:14,410.495,0.130%,
734,2025-02-08 07:27:07,2025-02-08 07:29:02,114.788,0.036%,
735,2025-02-08 07:29:03,2025-02-08 07:33:34,271.642,0.086%,
736,2025-02-08 09:01:47,2025-02-08 09:08:31,403.977,0.128%,
737,2025-02-08 10:36:29,2025-02-08 10:43:30,420.617,0.133%,
738,2025-02-08 12:11:12,2025-02-08 12:17:44,392.158,0.124%,
739,2025-02-08 13:45:57,2025-02-08 13:52:47,410.394,0.130%,
740,2025-02-08 15:20:44,2025-02-08 15:21:26,41.596,0.013%,
741,2025-02-08 15:21:27,2025-02-08 15:27:18,350.629,0.111%,
742,2025-02-08 16:55:36,2025-02-08 17:02:02,385.993,0.122%,
743,2025-02-08 18:30:18,2025-02-08 18:32:13,114.959,0.037%,
744,2025-02-08 18:32:13,2025-02-08 18:37:03,289.944,0.092%,
745,2025-02-08 20:04:58,2025-02-08 20:11:28,390.662,0.124%,
746,2025-02-08 21:39:40,2025-02-08 21:46:19,398.941,0.127%,
747,2025-02-08 23:14:23,2025-02-08 23:21:19,416.095,0.132%,
748,2025-02-09 00:49:08,2025-02-09 00:49:53,45.234,0.014%,
749,2025-02-09 00:49:53,2025-02-09 00:55:45,351.705,0.112%,
750,2025-02-09 02:23:55,2025-02-09 02:24:37,42.245,0.013%,
751,2025-02-09 02:24:38,2025-02-09 02:30:35,357.633,0.113%,
752,2025-02-09 03:58:48,2025-02-09 04:05:35,406.929,0.129%,
753,2025-02-09 05:33:28,2025-02-09 05:39:56,387.866,0.123%,
754,2025-02-09 07:08:08,2025-02-09 07:14:52,403.389,0.128%,
755,2025-02-09 08:42:50,2025-02-09 08:44:14,83.471,0.027%,
756,2025-02-09 08:44:14,2025-02-09 08:49:50,336.424,0.107%,
757,2025-02-09 10:17:34,2025-02-09 10:24:06,391.989,0.124%,
758,2025-02-09 11:52:19,2025-02-09 11:53:03,44.585,0.014%,
759,2025-02-09 11:53:05,2025-02-09 11:59:08,362.942,0.115%,
760,2025-02-09 13:27:06,2025-02-09 13:33:39,392.976,0.125%,
761,2025-02-09 15:01:59,2025-02-09 15:08:23,383.346,0.122%,
762,2025-02-09 16:36:38,2025-02-09 16:43:24,405.54,0.129%,
763,2025-02-09 18:11:19,2025-02-09 18:17:50,391.08,0.124%,
764,2025-02-09 19:46:01,2025-02-09 19:47:24,83.189,0.026%,
765,2025-02-09 19:47:25,2025-02-09 19:52:38,313.142,0.099%,
766,2025-02-09 21:20:44,2025-02-09 21:27:39,415.083,0.132%,
767,2025-02-09 22:55:30,2025-02-09 22:56:14,43.895,0.014%,
768,2025-02-09 22:56:16,2025-02-09 23:02:06,349.777,0.111%,
769,2025-02-10 00:30:17,2025-02-10 00:36:55,397.769,0.126%,
770,2025-02-10 02:05:09,2025-02-10 02:11:55,405.529,0.129%,
771,2025-02-10 03:39:48,2025-02-10 03:46:17,388.595,0.123%,
772,2025-02-10 05:14:29,2025-02-10 05:21:12,402.701,0.128%,
773,2025-02-10 06:49:11,2025-02-10 06:50:34,82.875,0.026%,
774,2025-02-10 06:50:37,2025-02-10 06:56:11,333.794,0.106%,
775,2025-02-10 08:23:55,2025-02-10 08:30:27,391.751,0.124%,
776,2025-02-10 09:58:41,2025-02-10 09:59:24,43.159,0.014%,
777,2025-02-10 09:59:28,2025-02-10 10:05:28,359.655,0.114%,
778,2025-02-10 11:33:29,2025-02-10 11:40:00,391.784,0.124%,
779,2025-02-10 13:08:20,2025-02-10 13:14:44,384.495,0.122%,
780,2025-02-10 14:42:59,2025-02-10 14:49:44,405.304,0.129%,
781,2025-02-10 16:17:39,2025-02-10 16:24:11,391.431,0.124%,
782,2025-02-10 17:52:22,2025-02-10 17:53:44,82.528,0.026%,
783,2025-02-10 17:53:47,2025-02-10 17:58:58,310.758,0.099%,
784,2025-02-10 19:27:06,2025-02-10 19:34:00,413.98,0.131%,
785,2025-02-10 21:01:51,2025-02-10 21:02:34,42.378,0.013%,
786,2025-02-10 21:02:39,2025-02-10 21:08:27,348.348,0.111%,
787,2025-02-10 22:36:40,2025-02-10 22:43:15,395.151,0.125%,
788,2025-02-11 00:11:30,2025-02-11 00:18:15,405.781,0.129%,
789,2025-02-11 01:46:09,2025-02-11 01:52:38,389.247,0.123%,
790,2025-02-11 03:20:50,2025-02-11 03:27:32,401.911,0.127%,
791,2025-02-11 04:55:32,2025-02-11 04:56:55,82.151,0.026%,
792,2025-02-11 04:56:58,2025-02-11 05:02:31,333.45,0.106%,
793,2025-02-11 06:30:16,2025-02-11 06:36:48,391.444,0.124%,
794,2025-02-11 08:05:02,2025-02-11 08:05:44,41.552,0.013%,
795,2025-02-11 08:05:49,2025-02-11 08:11:48,358.801,0.114%,
796,2025-02-11 09:39:51,2025-02-11 09:46:47,415.144,0.132%,
797,2025-02-11 11:14:40,2025-02-11 11:21:05,385.546,0.122%,
798,2025-02-11 12:49:19,2025-02-11 12:56:04,404.971,0.128%,
799,2025-02-11 14:24:00,2025-02-11 14:30:32,391.728,0.124%,
800,2025-02-11 15:58:43,2025-02-11 16:00:05,82.373,0.026%,
801,2025-02-11 16:00:08,2025-02-11 16:05:18,309.734,0.098%,
802,2025-02-11 17:33:27,2025-02-11 17:40:20,412.793,0.131%,
803,2025-02-11 19:08:13,2025-02-11 19:08:54,40.67,0.013%,
804,2025-02-11 19:08:59,2025-02-11 19:14:49,349.274,0.111%,
805,2025-02-11 20:43:03,2025-02-11 20:49:35,392.185,0.124%,
806,2025-02-11 22:17:50,2025-02-11 22:24:36,405.915,0.129%,
807,2025-02-11 23:52:29,2025-02-11 23:58:59,389.839,0.124%,
808,2025-02-12 01:27:11,2025-02-12 01:33:52,401.01,0.127%,
809,2025-02-12 03:01:54,2025-02-12 03:03:17,83.565,0.027%,
810,2025-02-12 03:03:18,2025-02-12 03:08:51,333.271,0.106%,
811,2025-02-12 04:36:38,2025-02-12 04:43:16,397.591,0.126%,
812,2025-02-12 06:11:24,2025-02-12 06:12:04,39.739,0.013%,
813,2025-02-12 06:12:10,2025-02-12 06:18:08,358.559,0.114%,
814,2025-02-12 07:46:14,2025-02-12 07:53:07,412.603,0.131%,
815,2025-02-12 09:21:00,2025-02-12 09:27:26,386.492,0.123%,
816,2025-02-12 10:55:40,2025-02-12 11:02:24,404.552,0.128%,
817,2025-02-12 12:30:21,2025-02-12 12:36:53,391.963,0.124%,
818,2025-02-12 14:05:04,2025-02-12 14:11:37,392.635,0.125%,
819,2025-02-12 15:39:49,2025-02-12 15:46:40,411.515,0.131%,
820,2025-02-12 17:14:35,2025-02-12 17:15:16,40.328,0.013%,
821,2025-02-12 17:15:20,2025-02-12 17:21:10,350.119,0.111%,
822,2025-02-12 18:49:26,2025-02-12 18:55:55,388.738,0.123%,
823,2025-02-12 20:24:10,2025-02-12 20:26:05,114.749,0.036%,
824,2025-02-12 20:26:05,2025-02-12 20:30:56,290.892,0.092%,
825,2025-02-12 21:58:50,2025-02-12 22:05:21,390.358,0.124%,
826,2025-02-12 23:33:32,2025-02-12 23:40:12,399.987,0.127%,
827,2025-02-13 01:08:15,2025-02-13 01:15:12,416.923,0.132%,
828,2025-02-13 02:43:00,2025-02-13 02:49:37,397.272,0.126%,
829,2025-02-13 04:17:46,2025-02-13 04:18:28,41.347,0.013%,
830,2025-02-13 04:18:30,2025-02-13 04:24:28,358.203,0.114%,
831,2025-02-13 05:52:38,2025-02-13 05:59:27,409.569,0.130%,
832,2025-02-13 07:27:20,2025-02-13 07:29:15,114.863,0.036%,
833,2025-02-13 07:29:16,2025-02-13 07:33:48,271.658,0.086%,
834,2025-02-13 09:02:01,2025-02-13 09:08:45,404.033,0.128%,
835,2025-02-13 10:36:42,2025-02-13 10:43:43,420.611,0.133%,
836,2025-02-13 12:11:26,2025-02-13 12:17:58,392.107,0.124%,
837,2025-02-13 13:46:10,2025-02-13 13:53:01,410.137,0.130%,
838,2025-02-13 15:20:58,2025-02-13 15:21:40,42.067,0.013%,
839,2025-02-13 15:21:40,2025-02-13 15:27:31,350.892,0.111%,
840,2025-02-13 16:55:50,2025-02-13 17:02:15,384.993,0.122%,
841,2025-02-13 18:30:31,2025-02-13 18:37:16,405.864,0.129%,
842,2025-02-13 20:05:11,2025-02-13 20:11:42,390.813,0.124%,
843,2025-02-13 21:39:53,2025-02-13 21:46:32,398.838,0.127%,
844,2025-02-13 23:14:36,2025-02-13 23:21:32,415.966,0.132%,
845,2025-02-14 00:49:21,2025-02-14 00:50:06,44.789,0.014%,
846,2025-02-14 00:50:07,2025-02-14 00:55:58,351.091,0.111%,
847,2025-02-14 02:24:09,2025-02-14 02:30:48,399.621,0.127%,
848,2025-02-14 03:59:02,2025-02-14 04:05:48,405.577,0.129%,
849,2025-02-14 05:33:41,2025-02-14 05:40:09,388.126,0.123%,
850,2025-02-14 07:08:21,2025-02-14 07:15:05,403.419,0.128%,
851,2025-02-14 08:43:03,2025-02-14 08:44:27,83.277,0.026%,
852,2025-02-14 08:44:28,2025-02-14 08:50:03,335.759,0.107%,
853,2025-02-14 10:17:47,2025-02-14 10:24:19,391.914,0.124%,
854,2025-02-14 11:52:32,2025-02-14 11:53:16,44.109,0.014%,
855,2025-02-14 11:53:19,2025-02-14 11:59:21,362.12,0.115%,
856,2025-02-14 13:27:20,2025-02-14 13:33:52,392.584,0.125%,
857,2025-02-14 15:02:12,2025-02-14 15:08:36,383.758,0.122%,
858,2025-02-14 16:36:51,2025-02-14 16:43:37,405.694,0.129%,
859,2025-02-14 18:11:32,2025-02-14 18:18:03,391.209,0.124%,
860,2025-02-14 19:46:14,2025-02-14 19:47:37,82.972,0.026%,
861,2025-02-14 19:47:39,2025-02-14 19:52:51,312.307,0.099%,
862,2025-02-14 21:20:58,2025-02-14 21:27:53,414.928,0.132%,
863,2025-02-14 22:55:43,2025-02-14 22:56:26,43.396,0.014%,
864,2025-02-14 22:56:30,2025-02-14 23:02:19,348.973,0.111%,
865,2025-02-15 00:30:31,2025-02-15 00:37:08,397.194,0.126%,
866,2025-02-15 02:05:22,2025-02-15 02:12:08,405.838,0.129%,
867,2025-02-15 03:40:01,2025-02-15 03:46:30,388.83,0.123%,
868,2025-02-15 05:14:42,2025-02-15 05:21:25,402.706,0.128%,
869,2025-02-15 06:49:24,2025-02-15 06:50:47,82.639,0.026%,
870,2025-02-15 06:50:50,2025-02-15 06:56:24,333.73,0.106%,
871,2025-02-15 08:24:08,2025-02-15 08:30:40,391.653,0.124%,
872,2025-02-15 09:58:54,2025-02-15 09:59:37,42.625,0.014%,
873,2025-02-15 09:59:42,2025-02-15 10:05:41,359.144,0.114%,
874,2025-02-15 11:33:42,2025-02-15 11:40:14,391.318,0.124%,
875,2025-02-15 11:40:28,2025-02-15 11:40:39,11.39,0.004%,
876,2025-02-15 13:08:32,2025-02-15 13:14:57,384.871,0.122%,
877,2025-02-15 14:43:12,2025-02-15 14:49:57,405.43,0.129%,
878,2025-02-15 16:17:53,2025-02-15 16:24:24,391.539,0.124%,
879,2025-02-15 17:52:35,2025-02-15 17:53:57,82.271,0.026%,
880,2025-02-15 17:54:00,2025-02-15 17:59:11,310.801,0.099%,
881,2025-02-15 19:27:19,2025-02-15 19:34:13,413.798,0.131%,
882,2025-02-15 21:02:05,2025-02-15 21:02:47,41.813,0.013%,
883,2025-02-15 21:02:52,2025-02-15 21:08:41,348.675,0.111%,
884,2025-02-15 22:36:54,2025-02-15 22:43:28,394.481,0.125%,
885,2025-02-16 00:11:43,2025-02-16 00:18:29,406.051,0.129%,
886,2025-02-16 01:46:22,2025-02-16 01:52:51,389.457,0.124%,
887,2025-02-16 03:21:03,2025-02-16 03:27:45,401.888,0.127%,
888,2025-02-16 04:55:46,2025-02-16 04:57:08,81.954,0.026%,
889,2025-02-16 04:57:11,2025-02-16 05:02:44,333.598,0.106%,
890,2025-02-16 06:30:30,2025-02-16 06:37:08,397.757,0.126%,
891,2025-02-16 08:05:16,2025-02-16 08:05:57,40.948,0.013%,
892,2025-02-16 08:06:02,2025-02-16 08:12:01,358.983,0.114%,
893,2025-02-16 09:40:05,2025-02-16 09:47:00,414.505,0.131%,
894,2025-02-16 11:14:53,2025-02-16 11:21:19,385.882,0.122%,
895,2025-02-16 12:49:32,2025-02-16 12:56:17,405.074,0.128%,
896,2025-02-16 14:24:13,2025-02-16 14:30:45,391.816,0.124%,
897,2025-02-16 15:58:56,2025-02-16 16:00:19,83.22,0.026%,
898,2025-02-16 16:00:21,2025-02-16 16:05:31,309.73,0.098%,
899,2025-02-16 17:33:41,2025-02-16 17:40:33,412.586,0.131%,
900,2025-02-16 19:08:27,2025-02-16 19:09:07,40.034,0.013%,
901,2025-02-16 19:09:12,2025-02-16 19:15:02,349.572,0.111%,
902,2025-02-16 20:43:17,2025-02-16 20:49:48,391.39,0.124%,
903,2025-02-16 22:18:03,2025-02-16 22:24:49,406.149,0.129%,
904,2025-02-16 23:52:43,2025-02-16 23:59:13,390.025,0.124%,
905,2025-02-17 01:27:24,2025-02-17 01:34:05,400.961,0.127%,
906,2025-02-17 03:02:07,2025-02-17 03:03:31,84.273,0.027%,
907,2025-02-17 03:03:31,2025-02-17 03:09:05,333.399,0.106%,
908,2025-02-17 04:36:51,2025-02-17 04:43:29,397.49,0.126%,
909,2025-02-17 06:11:38,2025-02-17 06:12:18,39.925,0.013%,
910,2025-02-17 06:12:23,2025-02-17 06:18:21,358.709,0.114%,
911,2025-02-17 07:46:28,2025-02-17 07:53:20,411.817,0.131%,
912,2025-02-17 09:21:13,2025-02-17 09:27:40,386.793,0.123%,
913,2025-02-17 10:55:53,2025-02-17 11:02:38,404.627,0.128%,
914,2025-02-17 12:30:34,2025-02-17 12:37:06,392.03,0.124%,
915,2025-02-17 14:05:18,2025-02-17 14:11:50,392.348,0.124%,
916,2025-02-17 15:40:02,2025-02-17 15:46:53,411.28,0.130%,
917,2025-02-17 17:14:49,2025-02-17 17:15:30,41.069,0.013%,
918,2025-02-17 17:15:33,2025-02-17 17:21:23,350.391,0.111%,
919,2025-02-17 18:49:40,2025-02-17 18:56:08,387.751,0.123%,
920,2025-02-17 20:24:23,2025-02-17 20:26:18,114.831,0.036%,
921,2025-02-17 20:26:19,2025-02-17 20:31:09,290.496,0.092%,
922,2025-02-17 21:59:03,2025-02-17 22:05:34,390.522,0.124%,
923,2025-02-17 23:33:45,2025-02-17 23:40:25,399.909,0.127%,
924,2025-02-18 01:08:28,2025-02-18 01:15:25,416.808,0.132%,
925,2025-02-18 02:43:13,2025-02-18 02:49:50,397.144,0.126%,
926,2025-02-18 04:18:00,2025-02-18 04:18:42,41.868,0.013%,
927,2025-02-18 04:18:43,2025-02-18 04:24:41,358.327,0.114%,
928,2025-02-18 05:52:52,2025-02-18 05:59:41,408.544,0.130%,
929,2025-02-18 07:27:33,2025-02-18 07:29:29,115.495,0.037%,
930,2025-02-18 07:29:29,2025-02-18 07:34:01,271.834,0.086%,
931,2025-02-18 09:02:14,2025-02-18 09:08:58,404.083,0.128%,
932,2025-02-18 10:36:55,2025-02-18 10:43:56,420.598,0.133%,
933,2025-02-18 12:11:39,2025-02-18 12:18:11,392.046,0.124%,
934,2025-02-18 13:46:24,2025-02-18 13:47:09,44.99,0.014%,
935,2025-02-18 13:47:09,2025-02-18 13:53:14,364.307,0.116%,
936,2025-02-18 15:21:11,2025-02-18 15:27:45,393.305,0.125%,
937,2025-02-18 16:56:04,2025-02-18 17:02:28,383.832,0.122%,
938,2025-02-18 18:30:44,2025-02-18 18:37:30,406.037,0.129%,
939,2025-02-18 20:05:24,2025-02-18 20:11:55,390.955,0.124%,
940,2025-02-18 21:40:06,2025-02-18 21:41:29,83.366,0.026%,
941,2025-02-18 21:41:30,2025-02-18 21:46:45,314.789,0.100%,
942,2025-02-18 23:14:50,2025-02-18 23:21:45,415.828,0.132%,
943,2025-02-19 00:49:35,2025-02-19 00:50:19,44.328,0.014%,
944,2025-02-19 00:50:21,2025-02-19 00:56:11,350.425,0.111%,
945,2025-02-19 02:24:22,2025-02-19 02:31:01,399.097,0.127%,
946,2025-02-19 03:59:15,2025-02-19 04:06:01,405.834,0.129%,
947,2025-02-19 05:33:54,2025-02-19 05:40:22,388.378,0.123%,
948,2025-02-19 07:08:34,2025-02-19 07:15:18,403.443,0.128%,
949,2025-02-19 08:43:17,2025-02-19 08:44:40,83.071,0.026%,
950,2025-02-19 08:44:41,2025-02-19 08:50:17,335.047,0.106%,
951,2025-02-19 10:18:00,2025-02-19 10:24:32,391.829,0.124%,
952,2025-02-19 11:52:46,2025-02-19 11:53:29,43.621,0.014%,
953,2025-02-19 11:53:33,2025-02-19 11:59:34,361.231,0.115%,
954,2025-02-19 13:27:34,2025-02-19 13:34:06,392.173,0.124%,
955,2025-02-19 15:02:25,2025-02-19 15:08:49,384.154,0.122%,
956,2025-02-19 16:37:04,2025-02-19 16:43:50,405.843,0.129%,
957,2025-02-19 18:11:45,2025-02-19 18:18:16,391.33,0.124%,
958,2025-02-19 19:46:27,2025-02-19 19:47:50,82.747,0.026%,
959,2025-02-19 19:47:53,2025-02-19 19:53:05,311.725,0.099%,
960,2025-02-19 21:21:11,2025-02-19 21:28:06,414.762,0.132%,
961,2025-02-19 22:55:57,2025-02-19 22:56:39,42.868,0.014%,
962,2025-02-19 22:56:45,2025-02-19 23:02:33,348.068,0.110%,
963,2025-02-20 00:30:45,2025-02-20 00:37:21,396.588,0.126%,
964,2025-02-20 02:05:35,2025-02-20 02:12:21,406.13,0.129%,
965,2025-02-20 03:40:14,2025-02-20 03:46:43,389.055,0.123%,
966,2025-02-20 05:14:55,2025-02-20 05:21:38,402.704,0.128%,
967,2025-02-20 06:49:38,2025-02-20 06:51:00,82.389,0.026%,
968,2025-02-20 06:51:03,2025-02-20 06:56:37,333.893,0.106%,
969,2025-02-20 08:24:22,2025-02-20 08:31:00,397.882,0.126%,
970,2025-02-20 09:59:07,2025-02-20 09:59:50,42.07,0.013%,
971,2025-02-20 09:59:55,2025-02-20 10:05:54,359.349,0.114%,
972,2025-02-20 11:33:56,2025-02-20 11:40:52,416.249,0.132%,
973,2025-02-20 13:08:45,2025-02-20 13:15:11,385.229,0.122%,
974,2025-02-20 14:43:25,2025-02-20 14:50:10,405.55,0.129%,
975,2025-02-20 16:18:06,2025-02-20 16:24:37,391.64,0.124%,
976,2025-02-20 17:52:48,2025-02-20 17:54:10,81.999,0.026%,
977,2025-02-20 17:54:13,2025-02-20 17:59:24,310.835,0.099%,
978,2025-02-20 19:27:32,2025-02-20 19:34:26,413.611,0.131%,
979,2025-02-20 21:02:18,2025-02-20 21:03:00,41.226,0.013%,
980,2025-02-20 21:03:05,2025-02-20 21:08:54,348.991,0.111%,
981,2025-02-20 22:37:08,2025-02-20 22:43:41,393.779,0.125%,
982,2025-02-21 00:11:55,2025-02-21 00:18:42,406.306,0.129%,
983,2025-02-21 01:46:35,2025-02-21 01:53:05,389.657,0.124%,
984,2025-02-21 03:21:16,2025-02-21 03:27:58,401.861,0.127%,
985,2025-02-21 04:55:59,2025-02-21 04:57:22,82.852,0.026%,
986,2025-02-21 04:57:24,2025-02-21 05:02:57,333.739,0.106%,
987,2025-02-21 06:30:43,2025-02-21 06:37:21,397.671,0.126%,
988,2025-02-21 08:05:29,2025-02-21 08:06:10,40.327,0.013%,
989,2025-02-21 08:06:15,2025-02-21 08:12:14,359.156,0.114%,
990,2025-02-21 09:40:19,2025-02-21 09:47:13,413.824,0.131%,
991,2025-02-21 11:15:06,2025-02-21 11:21:32,386.21,0.123%,
992,2025-02-21 12:49:45,2025-02-21 12:56:30,405.17,0.129%,
993,2025-02-21 14:24:27,2025-02-21 14:30:59,391.896,0.124%,
994,2025-02-21 15:59:10,2025-02-21 16:00:33,83.966,0.027%,
995,2025-02-21 16:00:34,2025-02-21 16:05:44,309.719,0.098%,
996,2025-02-21 17:33:54,2025-02-21 17:40:46,412.371,0.131%,
997,2025-02-21 19:08:40,2025-02-21 19:09:20,39.466,0.013%,
998,2025-02-21 19:09:25,2025-02-21 19:15:15,349.861,0.111%,
999,2025-02-21 20:43:31,2025-02-21 20:50:01,390.542,0.124%,
1000,2025-02-21 22:18:16,2025-02-21 22:25:02,406.377,0.129%,
1001,2025-02-21 23:52:56,2025-02-21 23:59:26,390.203,0.124%,
1002,2025-02-22 01:27:37,2025-02-22 01:34:18,400.906,0.127%,
1003,2025-02-22 03:02:20,2025-02-22 03:09:18,417.615,0.132%,
1004,2025-02-22 04:37:05,2025-02-22 04:43:42,397.38,0.126%,
1005,2025-02-22 06:11:51,2025-02-22 06:12:32,40.758,0.013%,
