3UCubedIntegratedSim/Reports & Plots/North Cusp/NorthCusp CSV/NorthCusp_Sat6.csv

Number,Coverage Start (UTCG),Coverage End (UTCG),Duration (sec),Percent,
1,2025-01-01 16:22:15,2025-01-01 16:25:03,167.972,0.000533,
2,2025-01-01 17:57:09,2025-01-01 17:59:29,139.908,0.000444,
3,2025-01-01 19:31:42,2025-01-01 19:31:56,14.237,0.000045,
4,2025-01-01 19:32:04,2025-01-01 19:34:24,140.154,0.000444,
5,2025-01-01 21:06:22,2025-01-01 21:09:18,176.415,0.000559,
6,2025-01-01 22:41:24,2025-01-01 22:43:44,140.1,0.000444,
7,2025-01-02 00:16:19,2025-01-02 00:18:39,139.988,0.000444,
8,2025-01-02 01:50:45,2025-01-02 01:53:03,138.739,0.00044,
9,2025-01-02 03:25:39,2025-01-02 03:27:59,140.225,0.000445,
10,2025-01-02 05:00:16,2025-01-02 05:00:19,3.658,0.000012,
11,2025-01-02 05:00:34,2025-01-02 05:02:54,139.754,0.000443,
12,2025-01-02 06:34:52,2025-01-02 06:37:19,146.44,0.000464,
13,2025-01-02 08:09:32,2025-01-02 08:09:47,15.313,0.000049,
14,2025-01-02 08:09:54,2025-01-02 08:12:14,140.284,0.000445,
15,2025-01-02 09:44:21,2025-01-02 09:47:09,167.628,0.000532,
16,2025-01-02 11:19:14,2025-01-02 11:21:34,139.522,0.000442,
17,2025-01-02 12:54:09,2025-01-02 12:56:29,140.277,0.000445,
18,2025-01-02 14:28:36,2025-01-02 14:31:24,167.902,0.000532,
19,2025-01-02 16:03:25,2025-01-02 16:05:49,144.293,0.000458,
20,2025-01-02 17:38:02,2025-01-02 17:38:18,15.581,0.000049,
21,2025-01-02 17:38:24,2025-01-02 17:40:45,140.204,0.000445,
22,2025-01-02 19:12:42,2025-01-02 19:15:39,176.595,0.00056,
23,2025-01-02 20:47:44,2025-01-02 20:50:05,140.029,0.000444,
24,2025-01-02 22:22:40,2025-01-02 22:25:00,140.064,0.000444,
25,2025-01-02 23:57:05,2025-01-02 23:59:24,138.542,0.000439,
26,2025-01-02 23:59:35,2025-01-02 23:59:53,18.853,0.00006,
27,2025-01-03 01:32:00,2025-01-03 01:34:20,140.181,0.000445,
28,2025-01-03 03:06:35,2025-01-03 03:06:42,7.374,0.000023,
29,2025-01-03 03:06:55,2025-01-03 03:09:15,139.858,0.000443,
30,2025-01-03 04:41:13,2025-01-03 04:43:39,146.597,0.000465,
31,2025-01-03 06:15:52,2025-01-03 06:15:56,3.185,0.00001,
32,2025-01-03 06:16:15,2025-01-03 06:18:35,140.268,0.000445,
33,2025-01-03 07:51:10,2025-01-03 07:53:30,139.584,0.000443,
34,2025-01-03 09:25:35,2025-01-03 09:27:55,139.384,0.000442,
35,2025-01-03 11:00:30,2025-01-03 11:02:50,140.288,0.000445,
36,2025-01-03 12:34:57,2025-01-03 12:37:45,167.803,0.000532,
37,2025-01-03 14:09:45,2025-01-03 14:12:10,145.232,0.000461,
38,2025-01-03 15:44:23,2025-01-03 15:44:40,16.813,0.000053,
39,2025-01-03 15:44:45,2025-01-03 15:47:05,140.242,0.000445,
40,2025-01-03 17:19:11,2025-01-03 17:21:59,167.999,0.000533,
41,2025-01-03 18:54:05,2025-01-03 18:56:25,139.947,0.000444,
42,2025-01-03 20:29:00,2025-01-03 20:31:20,140.13,0.000444,
43,2025-01-03 22:03:26,2025-01-03 22:06:14,168.064,0.000533,
44,2025-01-03 23:38:20,2025-01-03 23:40:40,140.127,0.000444,
45,2025-01-04 01:12:55,2025-01-04 01:13:04,9.759,0.000031,
46,2025-01-04 01:13:15,2025-01-04 01:15:35,139.951,0.000444,
47,2025-01-04 02:47:33,2025-01-04 02:50:00,146.698,0.000465,
48,2025-01-04 04:22:35,2025-01-04 04:24:55,140.24,0.000445,
49,2025-01-04 05:57:31,2025-01-04 05:59:50,139.705,0.000443,
50,2025-01-04 07:31:56,2025-01-04 07:34:15,139.234,0.000442,
51,2025-01-04 09:06:50,2025-01-04 09:09:11,140.287,0.000445,
52,2025-01-04 10:41:18,2025-01-04 10:44:05,167.685,0.000532,
53,2025-01-04 12:16:05,2025-01-04 12:18:30,145.809,0.000462,
54,2025-01-04 13:50:43,2025-01-04 13:51:01,17.959,0.000057,
55,2025-01-04 13:51:05,2025-01-04 13:53:26,140.269,0.000445,
56,2025-01-04 15:25:32,2025-01-04 15:28:20,167.935,0.000533,
57,2025-01-04 17:00:26,2025-01-04 17:02:46,139.853,0.000443,
58,2025-01-04 18:35:21,2025-01-04 18:37:41,140.184,0.000445,
59,2025-01-04 20:09:47,2025-01-04 20:12:35,168.053,0.000533,
60,2025-01-04 21:44:41,2025-01-04 21:47:01,140.061,0.000444,
61,2025-01-04 23:19:15,2025-01-04 23:19:26,11.652,0.000037,
62,2025-01-04 23:19:36,2025-01-04 23:21:56,140.033,0.000444,
63,2025-01-05 00:53:54,2025-01-05 00:56:20,146.755,0.000465,
64,2025-01-05 02:28:56,2025-01-05 02:31:16,140.201,0.000445,
65,2025-01-05 04:03:51,2025-01-05 04:06:11,139.815,0.000443,
66,2025-01-05 05:38:17,2025-01-05 05:40:36,139.072,0.000441,
67,2025-01-05 07:13:11,2025-01-05 07:15:31,140.276,0.000445,
68,2025-01-05 08:47:38,2025-01-05 08:50:26,167.544,0.000531,
69,2025-01-05 10:22:25,2025-01-05 10:24:51,146.202,0.000464,
70,2025-01-05 11:57:04,2025-01-05 11:57:23,19.028,0.00006,
71,2025-01-05 11:57:26,2025-01-05 11:59:46,140.284,0.000445,
72,2025-01-05 13:31:53,2025-01-05 13:34:41,167.846,0.000532,
73,2025-01-05 15:06:46,2025-01-05 15:09:06,139.748,0.000443,
74,2025-01-05 16:41:41,2025-01-05 16:44:01,140.227,0.000445,
75,2025-01-05 18:16:08,2025-01-05 18:18:56,168.019,0.000533,
76,2025-01-05 19:51:01,2025-01-05 19:53:21,139.983,0.000444,
77,2025-01-05 21:25:35,2025-01-05 21:25:48,13.283,0.000042,
78,2025-01-05 21:25:56,2025-01-05 21:28:17,140.103,0.000444,
79,2025-01-05 23:00:14,2025-01-05 23:02:41,146.777,0.000465,
80,2025-01-06 00:35:16,2025-01-06 00:37:37,140.152,0.000444,
81,2025-01-06 02:10:12,2025-01-06 02:12:32,139.913,0.000444,
82,2025-01-06 03:44:37,2025-01-06 03:46:56,138.898,0.00044,
83,2025-01-06 05:19:32,2025-01-06 05:21:52,140.253,0.000445,
84,2025-01-06 06:54:27,2025-01-06 06:56:47,139.655,0.000443,
85,2025-01-06 08:28:45,2025-01-06 08:31:11,146.482,0.000464,
86,2025-01-06 10:03:24,2025-01-06 10:03:44,20.034,0.000064,
87,2025-01-06 10:03:47,2025-01-06 10:06:07,140.289,0.000445,
88,2025-01-06 11:38:14,2025-01-06 11:41:01,167.738,0.000532,
89,2025-01-06 13:13:07,2025-01-06 13:15:27,139.632,0.000443,
90,2025-01-06 14:48:02,2025-01-06 14:50:22,140.259,0.000445,
91,2025-01-06 16:22:28,2025-01-06 16:25:16,167.962,0.000533,
92,2025-01-06 17:57:19,2025-01-06 17:57:21,2.666,0.000008,
93,2025-01-06 17:57:22,2025-01-06 17:59:42,139.895,0.000444,
94,2025-01-06 19:31:55,2025-01-06 19:32:10,14.721,0.000047,
95,2025-01-06 19:32:17,2025-01-06 19:34:37,140.162,0.000444,
96,2025-01-06 21:06:35,2025-01-06 21:09:31,176.618,0.00056,
97,2025-01-06 22:41:37,2025-01-06 22:43:57,140.09,0.000444,
98,2025-01-07 00:16:32,2025-01-07 00:18:52,139.999,0.000444,
99,2025-01-07 01:50:58,2025-01-07 01:53:17,138.711,0.00044,
100,2025-01-07 03:25:52,2025-01-07 03:28:12,140.219,0.000445,
101,2025-01-07 05:00:28,2025-01-07 05:00:33,5.251,0.000017,
102,2025-01-07 05:00:47,2025-01-07 05:03:07,139.769,0.000443,
103,2025-01-07 06:35:05,2025-01-07 06:37:32,146.679,0.000465,
104,2025-01-07 08:09:45,2025-01-07 08:10:06,20.987,0.000067,
105,2025-01-07 08:10:07,2025-01-07 08:12:28,140.282,0.000445,
106,2025-01-07 09:44:35,2025-01-07 09:47:22,167.607,0.000531,
107,2025-01-07 11:19:28,2025-01-07 11:21:47,139.503,0.000442,
108,2025-01-07 12:54:22,2025-01-07 12:56:43,140.279,0.000445,
109,2025-01-07 14:28:49,2025-01-07 14:31:37,167.89,0.000532,
110,2025-01-07 16:03:38,2025-01-07 16:06:02,144.858,0.000459,
111,2025-01-07 17:38:15,2025-01-07 17:38:31,16.022,0.000051,
112,2025-01-07 17:38:38,2025-01-07 17:40:58,140.21,0.000445,
113,2025-01-07 19:12:55,2025-01-07 19:15:52,176.788,0.000561,
114,2025-01-07 20:47:58,2025-01-07 20:50:18,140.018,0.000444,
115,2025-01-07 22:22:53,2025-01-07 22:25:13,140.074,0.000444,
116,2025-01-07 23:57:19,2025-01-07 23:59:37,138.513,0.000439,
117,2025-01-08 01:32:13,2025-01-08 01:34:33,140.174,0.000444,
118,2025-01-08 03:06:47,2025-01-08 03:06:56,8.279,0.000026,
119,2025-01-08 03:07:08,2025-01-08 03:09:28,139.872,0.000444,
120,2025-01-08 04:41:26,2025-01-08 04:43:52,146.816,0.000466,
121,2025-01-08 06:16:05,2025-01-08 06:16:27,21.896,0.000069,
122,2025-01-08 06:16:28,2025-01-08 06:18:48,140.264,0.000445,
123,2025-01-08 07:50:55,2025-01-08 07:53:43,167.454,0.000531,
124,2025-01-08 09:25:48,2025-01-08 09:28:08,139.363,0.000442,
125,2025-01-08 11:00:43,2025-01-08 11:03:03,140.288,0.000445,
126,2025-01-08 12:35:10,2025-01-08 12:37:58,167.787,0.000532,
127,2025-01-08 14:09:57,2025-01-08 14:12:23,145.633,0.000462,
128,2025-01-08 15:44:36,2025-01-08 15:44:53,17.218,0.000055,
129,2025-01-08 15:44:58,2025-01-08 15:47:18,140.246,0.000445,
130,2025-01-08 17:19:16,2025-01-08 17:22:13,176.925,0.000561,
131,2025-01-08 18:54:18,2025-01-08 18:56:38,139.934,0.000444,
132,2025-01-08 20:29:13,2025-01-08 20:31:33,140.138,0.000444,
133,2025-01-08 22:03:39,2025-01-08 22:05:58,138.301,0.000439,
134,2025-01-08 23:38:33,2025-01-08 23:40:53,140.118,0.000444,
135,2025-01-09 01:13:07,2025-01-09 01:13:18,10.45,0.000033,
136,2025-01-09 01:13:29,2025-01-09 01:15:48,139.964,0.000444,
137,2025-01-09 02:47:46,2025-01-09 02:50:13,146.899,0.000466,
138,2025-01-09 04:22:26,2025-01-09 04:25:09,162.658,0.000516,
139,2025-01-09 05:57:16,2025-01-09 05:57:31,14.501,0.000046,
140,2025-01-09 05:57:44,2025-01-09 06:00:03,139.722,0.000443,
141,2025-01-09 07:32:09,2025-01-09 07:34:28,139.211,0.000441,
142,2025-01-09 09:07:04,2025-01-09 09:09:24,140.286,0.000445,
143,2025-01-09 10:41:31,2025-01-09 10:44:18,167.666,0.000532,
144,2025-01-09 12:16:17,2025-01-09 12:18:44,146.136,0.000463,
145,2025-01-09 13:50:56,2025-01-09 13:51:15,18.332,0.000058,
146,2025-01-09 13:51:19,2025-01-09 13:53:39,140.272,0.000445,
147,2025-01-09 15:25:36,2025-01-09 15:28:33,177.028,0.000561,
148,2025-01-09 17:00:39,2025-01-09 17:02:59,139.839,0.000443,
149,2025-01-09 18:35:34,2025-01-09 18:37:54,140.191,0.000445,
150,2025-01-09 20:10:00,2025-01-09 20:12:48,168.05,0.000533,
151,2025-01-09 21:44:54,2025-01-09 21:47:14,140.05,0.000444,
152,2025-01-09 23:19:27,2025-01-09 23:19:40,12.239,0.000039,
153,2025-01-09 23:19:49,2025-01-09 23:22:09,140.044,0.000444,
154,2025-01-10 00:54:07,2025-01-10 00:56:34,146.943,0.000466,
155,2025-01-10 02:28:47,2025-01-10 02:31:29,162.62,0.000516,
156,2025-01-10 04:04:04,2025-01-10 04:06:24,139.829,0.000443,
157,2025-01-10 05:38:30,2025-01-10 05:40:49,139.048,0.000441,
158,2025-01-10 07:13:24,2025-01-10 07:15:44,140.273,0.000445,
159,2025-01-10 08:47:52,2025-01-10 08:50:39,167.523,0.000531,
160,2025-01-10 10:22:38,2025-01-10 10:25:04,146.483,0.000464,
161,2025-01-10 11:57:17,2025-01-10 11:57:36,19.377,0.000061,
162,2025-01-10 11:57:39,2025-01-10 12:00:00,140.286,0.000445,
163,2025-01-10 13:31:57,2025-01-10 13:34:54,177.11,0.000562,
164,2025-01-10 15:07:00,2025-01-10 15:09:19,139.732,0.000443,
165,2025-01-10 16:41:54,2025-01-10 16:44:15,140.232,0.000445,
166,2025-01-10 18:16:21,2025-01-10 18:19:09,168.014,0.000533,
167,2025-01-10 19:51:15,2025-01-10 19:53:35,139.971,0.000444,
168,2025-01-10 21:25:48,2025-01-10 21:26:02,13.787,0.000044,
169,2025-01-10 21:26:10,2025-01-10 21:28:30,140.112,0.000444,
170,2025-01-10 23:00:27,2025-01-10 23:02:54,146.952,0.000466,
171,2025-01-11 00:35:07,2025-01-11 00:37:50,162.562,0.000515,
172,2025-01-11 02:10:25,2025-01-11 02:12:45,139.926,0.000444,
173,2025-01-11 03:44:50,2025-01-11 03:47:09,138.872,0.00044,
174,2025-01-11 05:19:45,2025-01-11 05:22:05,140.249,0.000445,
175,2025-01-11 06:54:12,2025-01-11 06:57:00,167.357,0.000531,
176,2025-01-11 08:28:58,2025-01-11 08:31:25,146.728,0.000465,
177,2025-01-11 10:03:37,2025-01-11 10:03:58,20.363,0.000065,
178,2025-01-11 10:04:00,2025-01-11 10:06:20,140.288,0.000445,
179,2025-01-11 11:38:18,2025-01-11 11:41:15,177.162,0.000562,
180,2025-01-11 13:13:20,2025-01-11 13:15:40,139.614,0.000443,
181,2025-01-11 14:48:15,2025-01-11 14:50:35,140.262,0.000445,
182,2025-01-11 16:22:42,2025-01-11 16:25:30,167.953,0.000533,
183,2025-01-11 17:57:31,2025-01-11 17:59:55,144.163,0.000457,
184,2025-01-11 19:32:08,2025-01-11 19:32:23,15.176,0.000048,
185,2025-01-11 19:32:30,2025-01-11 19:34:50,140.169,0.000444,
186,2025-01-11 21:06:48,2025-01-11 21:09:15,146.931,0.000466,
187,2025-01-11 22:41:28,2025-01-11 22:44:10,162.479,0.000515,
188,2025-01-12 00:16:45,2025-01-12 00:19:05,140.011,0.000444,
189,2025-01-12 01:51:11,2025-01-12 01:53:30,138.684,0.00044,
190,2025-01-12 03:26:05,2025-01-12 03:28:26,140.213,0.000445,
191,2025-01-12 05:00:33,2025-01-12 05:03:20,167.168,0.00053,
192,2025-01-12 06:35:18,2025-01-12 06:37:45,146.905,0.000466,
193,2025-01-12 08:09:58,2025-01-12 08:10:19,21.299,0.000068,
194,2025-01-12 08:10:20,2025-01-12 08:12:41,140.28,0.000445,
195,2025-01-12 09:44:38,2025-01-12 09:47:35,177.19,0.000562,
196,2025-01-12 11:19:41,2025-01-12 11:22:00,139.484,0.000442,
197,2025-01-12 12:54:36,2025-01-12 12:56:56,140.281,0.000445,
198,2025-01-12 14:29:02,2025-01-12 14:31:50,167.874,0.000532,
199,2025-01-12 16:03:50,2025-01-12 16:06:16,145.337,0.000461,
200,2025-01-12 17:38:28,2025-01-12 17:38:45,16.438,0.000052,
201,2025-01-12 17:38:51,2025-01-12 17:41:11,140.216,0.000445,
202,2025-01-12 19:13:08,2025-01-12 19:15:35,146.886,0.000466,
203,2025-01-12 19:15:43,2025-01-12 19:16:05,22.563,0.000072,
204,2025-01-12 20:47:49,2025-01-12 20:50:31,162.378,0.000515,
205,2025-01-12 22:23:06,2025-01-12 22:25:26,140.084,0.000444,
206,2025-01-12 23:57:32,2025-01-12 23:59:50,138.483,0.000439,
207,2025-01-13 01:32:26,2025-01-13 01:34:46,140.167,0.000444,
208,2025-01-13 03:07:00,2025-01-13 03:07:09,9.074,0.000029,
209,2025-01-13 03:07:21,2025-01-13 03:09:41,139.886,0.000444,
210,2025-01-13 04:41:39,2025-01-13 04:44:06,147.021,0.000466,
211,2025-01-13 06:16:18,2025-01-13 06:16:41,22.193,0.00007,
212,2025-01-13 06:16:41,2025-01-13 06:19:01,140.261,0.000445,
213,2025-01-13 07:50:59,2025-01-13 07:53:56,177.192,0.000562,
214,2025-01-13 09:26:02,2025-01-13 09:28:21,139.342,0.000442,
215,2025-01-13 11:00:56,2025-01-13 11:03:16,140.289,0.000445,
216,2025-01-13 12:35:23,2025-01-13 12:38:11,167.772,0.000532,
217,2025-01-13 14:10:10,2025-01-13 14:12:36,145.996,0.000463,
218,2025-01-13 15:44:49,2025-01-13 15:45:06,17.605,0.000056,
219,2025-01-13 15:45:11,2025-01-13 15:47:32,140.25,0.000445,
220,2025-01-13 17:19:29,2025-01-13 17:22:26,177.104,0.000562,
221,2025-01-13 18:54:09,2025-01-13 18:56:51,162.264,0.000515,
222,2025-01-13 20:29:27,2025-01-13 20:31:47,140.146,0.000444,
223,2025-01-13 22:03:53,2025-01-13 22:06:11,138.27,0.000438,
224,2025-01-13 23:38:47,2025-01-13 23:41:07,140.109,0.000444,
225,2025-01-14 01:13:20,2025-01-14 01:13:31,11.09,0.000035,
226,2025-01-14 01:13:42,2025-01-14 01:16:02,139.976,0.000444,
227,2025-01-14 02:47:59,2025-01-14 02:50:26,147.094,0.000466,
228,2025-01-14 04:22:39,2025-01-14 04:25:22,162.815,0.000516,
229,2025-01-14 05:57:20,2025-01-14 06:00:17,177.178,0.000562,
230,2025-01-14 07:32:22,2025-01-14 07:34:41,139.189,0.000441,
231,2025-01-14 09:07:17,2025-01-14 09:09:37,140.285,0.000445,
232,2025-01-14 10:41:44,2025-01-14 10:44:32,167.648,0.000532,
233,2025-01-14 12:16:30,2025-01-14 12:18:57,146.441,0.000464,
234,2025-01-14 13:51:09,2025-01-14 13:51:28,18.696,0.000059,
235,2025-01-14 13:51:32,2025-01-14 13:53:52,140.274,0.000445,
236,2025-01-14 15:25:49,2025-01-14 15:28:47,177.201,0.000562,
237,2025-01-14 17:00:30,2025-01-14 17:00:38,8.176,0.000026,
238,2025-01-14 17:00:52,2025-01-14 17:03:12,139.824,0.000443,
239,2025-01-14 18:35:47,2025-01-14 18:38:07,140.197,0.000445,
240,2025-01-14 20:10:13,2025-01-14 20:12:31,138.044,0.000438,
241,2025-01-14 21:45:07,2025-01-14 21:47:27,140.04,0.000444,
242,2025-01-14 23:19:40,2025-01-14 23:19:53,12.791,0.000041,
243,2025-01-14 23:20:02,2025-01-14 23:22:22,140.054,0.000444,
244,2025-01-15 00:54:20,2025-01-15 00:56:47,147.127,0.000467,
245,2025-01-15 02:29:00,2025-01-15 02:31:42,162.77,0.000516,
246,2025-01-15 04:03:50,2025-01-15 04:06:37,167.05,0.00053,
247,2025-01-15 05:38:43,2025-01-15 05:41:02,139.023,0.000441,
248,2025-01-15 07:13:37,2025-01-15 07:15:58,140.27,0.000445,
249,2025-01-15 08:48:05,2025-01-15 08:50:52,167.501,0.000531,
250,2025-01-15 10:22:51,2025-01-15 10:25:17,146.753,0.000465,
251,2025-01-15 11:57:30,2025-01-15 11:57:50,19.723,0.000063,
252,2025-01-15 11:57:52,2025-01-15 12:00:13,140.287,0.000445,
253,2025-01-15 13:32:10,2025-01-15 13:35:07,177.275,0.000562,
254,2025-01-15 15:07:13,2025-01-15 15:09:33,139.716,0.000443,
255,2025-01-15 16:42:08,2025-01-15 16:44:28,140.237,0.000445,
256,2025-01-15 18:16:34,2025-01-15 18:18:52,137.805,0.000437,
257,2025-01-15 18:19:10,2025-01-15 18:19:22,11.72,0.000037,
258,2025-01-15 19:51:28,2025-01-15 19:53:48,139.959,0.000444,
259,2025-01-15 21:26:01,2025-01-15 21:26:15,14.279,0.000045,
260,2025-01-15 21:26:23,2025-01-15 21:28:43,140.121,0.000444,
261,2025-01-15 23:00:40,2025-01-15 23:03:07,147.13,0.000467,
262,2025-01-16 00:35:20,2025-01-16 00:38:03,162.707,0.000516,
263,2025-01-16 02:10:38,2025-01-16 02:12:58,139.938,0.000444,
264,2025-01-16 03:45:04,2025-01-16 03:47:23,138.846,0.00044,
265,2025-01-16 05:19:58,2025-01-16 05:22:18,140.245,0.000445,
266,2025-01-16 06:54:26,2025-01-16 06:57:13,167.332,0.000531,
267,2025-01-16 08:29:11,2025-01-16 08:31:38,146.974,0.000466,
268,2025-01-16 10:03:50,2025-01-16 10:04:11,20.691,0.000066,
269,2025-01-16 10:04:13,2025-01-16 10:06:33,140.288,0.000445,
270,2025-01-16 11:38:31,2025-01-16 11:41:28,177.321,0.000562,
271,2025-01-16 13:13:33,2025-01-16 13:15:53,139.596,0.000443,
272,2025-01-16 14:48:28,2025-01-16 14:50:48,140.265,0.000445,
273,2025-01-16 16:22:55,2025-01-16 16:25:43,167.944,0.000533,
274,2025-01-16 17:57:43,2025-01-16 18:00:08,144.849,0.000459,
275,2025-01-16 19:32:21,2025-01-16 19:32:37,15.623,0.00005,
276,2025-01-16 19:32:43,2025-01-16 19:35:04,140.177,0.000444,
277,2025-01-16 21:07:01,2025-01-16 21:09:28,147.1,0.000466,
278,2025-01-16 22:41:41,2025-01-16 22:44:24,162.616,0.000516,
279,2025-01-17 00:16:59,2025-01-17 00:19:19,140.022,0.000444,
280,2025-01-17 01:51:24,2025-01-17 01:53:43,138.656,0.00044,
281,2025-01-17 03:26:19,2025-01-17 03:28:39,140.207,0.000445,
282,2025-01-17 05:00:46,2025-01-17 05:03:34,167.14,0.00053,
283,2025-01-17 06:35:31,2025-01-17 06:37:58,147.129,0.000467,
284,2025-01-17 08:10:11,2025-01-17 08:10:33,21.614,0.000069,
285,2025-01-17 08:10:34,2025-01-17 08:12:54,140.278,0.000445,
286,2025-01-17 09:44:51,2025-01-17 09:47:49,177.341,0.000562,
287,2025-01-17 11:19:54,2025-01-17 11:22:14,139.464,0.000442,
288,2025-01-17 12:54:49,2025-01-17 12:57:09,140.283,0.000445,
289,2025-01-17 14:29:16,2025-01-17 14:32:04,167.861,0.000532,
290,2025-01-17 16:04:03,2025-01-17 16:06:29,145.777,0.000462,
291,2025-01-17 17:38:41,2025-01-17 17:38:58,16.852,0.000053,
292,2025-01-17 17:39:04,2025-01-17 17:41:24,140.221,0.000445,
293,2025-01-17 19:13:21,2025-01-17 19:15:48,147.046,0.000466,
294,2025-01-17 20:48:02,2025-01-17 20:50:44,162.512,0.000515,
295,2025-01-17 22:23:19,2025-01-17 22:25:39,140.094,0.000444,
296,2025-01-17 23:57:45,2025-01-18 00:00:04,138.453,0.000439,
297,2025-01-18 01:32:39,2025-01-18 01:34:59,140.159,0.000444,
298,2025-01-18 03:07:07,2025-01-18 03:09:54,166.924,0.000529,
299,2025-01-18 04:41:52,2025-01-18 04:44:19,147.233,0.000467,
300,2025-01-18 06:16:31,2025-01-18 06:16:54,22.491,0.000071,
301,2025-01-18 06:16:54,2025-01-18 06:19:14,140.257,0.000445,
302,2025-01-18 07:51:12,2025-01-18 07:54:09,177.34,0.000562,
303,2025-01-18 09:26:15,2025-01-18 09:28:34,139.321,0.000442,
304,2025-01-18 11:01:09,2025-01-18 11:03:30,140.289,0.000445,
305,2025-01-18 12:35:36,2025-01-18 12:38:24,167.756,0.000532,
306,2025-01-18 14:10:23,2025-01-18 14:12:49,146.345,0.000464,
307,2025-01-18 15:45:02,2025-01-18 15:45:20,17.99,0.000057,
308,2025-01-18 15:45:25,2025-01-18 15:47:45,140.255,0.000445,
309,2025-01-18 17:19:42,2025-01-18 17:22:09,146.972,0.000466,
310,2025-01-18 17:22:32,2025-01-18 17:22:39,6.793,0.000022,
311,2025-01-18 18:54:22,2025-01-18 18:57:05,162.394,0.000515,
312,2025-01-18 20:29:40,2025-01-18 20:32:00,140.154,0.000444,
313,2025-01-18 22:04:06,2025-01-18 22:06:24,138.239,0.000438,
314,2025-01-18 23:39:00,2025-01-18 23:41:20,140.1,0.000444,
315,2025-01-19 01:13:33,2025-01-19 01:13:45,11.704,0.000037,
316,2025-01-19 01:13:55,2025-01-19 01:16:15,139.987,0.000444,
317,2025-01-19 02:48:12,2025-01-19 02:50:39,147.291,0.000467,
318,2025-01-19 04:22:52,2025-01-19 04:25:35,162.971,0.000517,
319,2025-01-19 05:57:33,2025-01-19 06:00:30,177.321,0.000562,
320,2025-01-19 07:32:35,2025-01-19 07:34:55,139.166,0.000441,
321,2025-01-19 09:07:30,2025-01-19 09:09:50,140.284,0.000445,
322,2025-01-19 10:41:57,2025-01-19 10:44:45,167.628,0.000532,
323,2025-01-19 12:16:43,2025-01-19 12:19:10,146.737,0.000465,
324,2025-01-19 13:51:22,2025-01-19 13:51:41,19.057,0.00006,
325,2025-01-19 13:51:45,2025-01-19 13:54:05,140.277,0.000445,
326,2025-01-19 15:26:02,2025-01-19 15:29:00,177.376,0.000562,
327,2025-01-19 17:00:43,2025-01-19 17:03:25,162.257,0.000515,
328,2025-01-19 18:36:00,2025-01-19 18:38:20,140.204,0.000445,
329,2025-01-19 20:10:27,2025-01-19 20:12:45,138.011,0.000438,
330,2025-01-19 21:45:20,2025-01-19 21:47:40,140.029,0.000444,
331,2025-01-19 23:19:53,2025-01-19 23:20:07,13.325,0.000042,
332,2025-01-19 23:20:15,2025-01-19 23:22:36,140.064,0.000444,
333,2025-01-20 00:54:33,2025-01-20 00:57:00,147.31,0.000467,
334,2025-01-20 02:29:13,2025-01-20 02:31:56,162.92,0.000517,
335,2025-01-20 04:03:53,2025-01-20 04:06:51,177.281,0.000562,
336,2025-01-20 05:38:56,2025-01-20 05:41:15,138.999,0.000441,
337,2025-01-20 07:13:51,2025-01-20 07:16:11,140.267,0.000445,
338,2025-01-20 08:48:18,2025-01-20 08:51:06,167.478,0.000531,
339,2025-01-20 10:23:03,2025-01-20 10:25:30,147.016,0.000466,
340,2025-01-20 11:57:43,2025-01-20 11:58:03,20.063,0.000064,
341,2025-01-20 11:58:06,2025-01-20 12:00:26,140.287,0.000445,
342,2025-01-20 13:32:23,2025-01-20 13:35:20,177.44,0.000563,
343,2025-01-20 15:07:04,2025-01-20 15:09:46,162.106,0.000514,
344,2025-01-20 16:42:21,2025-01-20 16:44:41,140.242,0.000445,
345,2025-01-20 18:16:47,2025-01-20 18:19:05,137.768,0.000437,
346,2025-01-20 19:51:37,2025-01-20 19:51:40,2.874,0.000009,
347,2025-01-20 19:51:41,2025-01-20 19:54:01,139.947,0.000444,
348,2025-01-20 21:26:14,2025-01-20 21:26:28,14.756,0.000047,
349,2025-01-20 21:26:36,2025-01-20 21:28:56,140.13,0.000444,
350,2025-01-20 23:00:53,2025-01-20 23:03:20,147.302,0.000467,
351,2025-01-21 00:35:33,2025-01-21 00:38:16,162.85,0.000516,
352,2025-01-21 02:10:14,2025-01-21 02:13:11,177.221,0.000562,
353,2025-01-21 03:45:17,2025-01-21 03:47:36,138.819,0.00044,
354,2025-01-21 05:20:11,2025-01-21 05:22:31,140.24,0.000445,
355,2025-01-21 06:54:39,2025-01-21 06:57:26,167.306,0.000531,
356,2025-01-21 08:29:24,2025-01-21 08:31:51,147.211,0.000467,
357,2025-01-21 10:04:03,2025-01-21 10:04:24,21.013,0.000067,
358,2025-01-21 10:04:26,2025-01-21 10:06:47,140.287,0.000445,
359,2025-01-21 11:38:44,2025-01-21 11:41:41,177.479,0.000563,
360,2025-01-21 13:13:24,2025-01-21 13:16:06,161.936,0.000513,
361,2025-01-21 14:48:41,2025-01-21 14:51:02,140.268,0.000445,
362,2025-01-21 16:23:08,2025-01-21 16:25:26,137.514,0.000436,
363,2025-01-21 16:25:48,2025-01-21 16:25:56,8.132,0.000026,
364,2025-01-21 17:57:56,2025-01-21 18:00:22,145.403,0.000461,
365,2025-01-21 19:32:34,2025-01-21 19:32:50,16.058,0.000051,
366,2025-01-21 19:32:57,2025-01-21 19:35:17,140.184,0.000445,
367,2025-01-21 21:07:14,2025-01-21 21:09:41,147.265,0.000467,
368,2025-01-21 22:41:54,2025-01-21 22:44:37,162.754,0.000516,
369,2025-01-22 00:16:35,2025-01-22 00:17:04,29.131,0.000092,
370,2025-01-22 00:17:12,2025-01-22 00:19:32,140.033,0.000444,
371,2025-01-22 01:51:38,2025-01-22 01:53:56,138.628,0.00044,
372,2025-01-22 03:26:32,2025-01-22 03:28:52,140.201,0.000445,
373,2025-01-22 05:01:00,2025-01-22 05:03:47,167.111,0.00053,
374,2025-01-22 06:35:44,2025-01-22 06:38:12,147.346,0.000467,
375,2025-01-22 08:10:24,2025-01-22 08:10:46,21.92,0.00007,
376,2025-01-22 08:10:47,2025-01-22 08:13:07,140.276,0.000445,
377,2025-01-22 09:45:04,2025-01-22 09:48:02,177.494,0.000563,
378,2025-01-22 11:19:45,2025-01-22 11:22:27,161.757,0.000513,
379,2025-01-22 12:55:02,2025-01-22 12:57:22,140.284,0.000445,
380,2025-01-22 14:29:29,2025-01-22 14:32:17,167.848,0.000532,
381,2025-01-22 16:04:16,2025-01-22 16:06:42,146.17,0.000464,
382,2025-01-22 17:38:54,2025-01-22 17:39:12,17.251,0.000055,
383,2025-01-22 17:39:17,2025-01-22 17:41:37,140.227,0.000445,
384,2025-01-22 19:13:34,2025-01-22 19:16:01,147.2,0.000467,
385,2025-01-22 20:48:15,2025-01-22 20:50:57,162.648,0.000516,
386,2025-01-22 22:22:55,2025-01-22 22:23:09,14.024,0.000044,
387,2025-01-22 22:23:32,2025-01-22 22:25:52,140.103,0.000444,
388,2025-01-22 23:57:58,2025-01-23 00:00:17,138.424,0.000439,
389,2025-01-23 01:32:52,2025-01-23 01:35:13,140.151,0.000444,
390,2025-01-23 03:07:21,2025-01-23 03:10:07,166.892,0.000529,
391,2025-01-23 04:42:05,2025-01-23 04:44:32,147.433,0.000468,
392,2025-01-23 06:16:45,2025-01-23 06:17:07,22.783,0.000072,
393,2025-01-23 06:17:07,2025-01-23 06:19:28,140.253,0.000445,
394,2025-01-23 07:51:25,2025-01-23 07:54:22,177.485,0.000563,
395,2025-01-23 09:26:06,2025-01-23 09:26:08,2.11,0.000007,
396,2025-01-23 09:26:28,2025-01-23 09:28:47,139.3,0.000442,
397,2025-01-23 11:01:23,2025-01-23 11:03:43,140.289,0.000445,
398,2025-01-23 12:35:50,2025-01-23 12:38:37,167.739,0.000532,
399,2025-01-23 14:10:36,2025-01-23 14:13:03,146.667,0.000465,
400,2025-01-23 15:45:15,2025-01-23 15:45:33,18.364,0.000058,
401,2025-01-23 15:45:38,2025-01-23 15:47:58,140.258,0.000445,
402,2025-01-23 17:19:55,2025-01-23 17:22:22,147.119,0.000467,
403,2025-01-23 18:54:35,2025-01-23 18:57:18,162.52,0.000515,
404,2025-01-23 20:29:53,2025-01-23 20:32:13,140.162,0.000444,
405,2025-01-23 22:04:19,2025-01-23 22:06:37,138.207,0.000438,
406,2025-01-23 23:39:13,2025-01-23 23:41:33,140.09,0.000444,
407,2025-01-24 01:13:41,2025-01-24 01:16:28,166.652,0.000528,
408,2025-01-24 02:48:25,2025-01-24 02:50:53,147.478,0.000468,
409,2025-01-24 04:23:05,2025-01-24 04:25:48,163.123,0.000517,
410,2025-01-24 05:57:46,2025-01-24 06:00:43,177.46,0.000563,
411,2025-01-24 07:32:49,2025-01-24 07:35:08,139.143,0.000441,
412,2025-01-24 09:07:43,2025-01-24 09:10:03,140.282,0.000445,
413,2025-01-24 10:42:10,2025-01-24 10:44:58,167.609,0.000531,
414,2025-01-24 12:16:56,2025-01-24 12:19:23,147.014,0.000466,
415,2025-01-24 13:51:35,2025-01-24 13:51:55,19.405,0.000062,
416,2025-01-24 13:51:58,2025-01-24 13:54:19,140.279,0.000445,
417,2025-01-24 15:26:15,2025-01-24 15:28:42,147.018,0.000466,
418,2025-01-24 15:28:57,2025-01-24 15:29:13,16.014,0.000051,
419,2025-01-24 17:00:56,2025-01-24 17:03:38,162.378,0.000515,
420,2025-01-24 18:36:13,2025-01-24 18:38:34,140.209,0.000445,
421,2025-01-24 20:10:40,2025-01-24 20:12:58,137.977,0.000438,
422,2025-01-24 21:45:34,2025-01-24 21:47:54,140.018,0.000444,
423,2025-01-24 23:20:06,2025-01-24 23:20:20,13.825,0.000044,
424,2025-01-24 23:20:29,2025-01-24 23:22:49,140.074,0.000444,
425,2025-01-25 00:54:46,2025-01-25 00:57:13,147.485,0.000468,
426,2025-01-25 02:29:26,2025-01-25 02:32:09,163.067,0.000517,
427,2025-01-25 04:04:06,2025-01-25 04:07:04,177.417,0.000563,
428,2025-01-25 05:39:09,2025-01-25 05:41:28,138.974,0.000441,
429,2025-01-25 07:14:04,2025-01-25 07:16:24,140.264,0.000445,
430,2025-01-25 08:48:31,2025-01-25 08:51:19,167.456,0.000531,
431,2025-01-25 10:23:16,2025-01-25 10:25:44,147.264,0.000467,
432,2025-01-25 11:57:56,2025-01-25 11:58:16,20.389,0.000065,
433,2025-01-25 11:58:19,2025-01-25 12:00:39,140.288,0.000445,
434,2025-01-25 13:32:36,2025-01-25 13:35:34,177.599,0.000563,
435,2025-01-25 15:07:17,2025-01-25 15:09:59,162.222,0.000514,
436,2025-01-25 16:42:34,2025-01-25 16:44:54,140.246,0.000445,
437,2025-01-25 18:17:01,2025-01-25 18:19:18,137.732,0.000437,
438,2025-01-25 19:51:49,2025-01-25 19:51:54,4.703,0.000015,
439,2025-01-25 19:51:54,2025-01-25 19:54:14,139.934,0.000444,
440,2025-01-25 21:26:27,2025-01-25 21:26:42,15.208,0.000048,
441,2025-01-25 21:26:49,2025-01-25 21:29:09,140.138,0.000444,
442,2025-01-25 23:01:06,2025-01-25 23:03:34,147.466,0.000468,
443,2025-01-26 00:35:46,2025-01-26 00:38:29,162.989,0.000517,
444,2025-01-26 02:10:27,2025-01-26 02:13:24,177.35,0.000562,
445,2025-01-26 03:45:30,2025-01-26 03:47:49,138.792,0.00044,
446,2025-01-26 05:20:24,2025-01-26 05:22:45,140.235,0.000445,
447,2025-01-26 06:54:52,2025-01-26 06:57:39,167.28,0.00053,
448,2025-01-26 08:29:37,2025-01-26 08:32:04,147.435,0.000468,
449,2025-01-26 10:04:16,2025-01-26 10:04:38,21.323,0.000068,
450,2025-01-26 10:04:39,2025-01-26 10:07:00,140.286,0.000445,
451,2025-01-26 11:38:57,2025-01-26 11:41:54,177.632,0.000563,
452,2025-01-26 13:13:37,2025-01-26 13:16:19,162.049,0.000514,
453,2025-01-26 14:48:55,2025-01-26 14:51:15,140.271,0.000445,
454,2025-01-26 16:23:21,2025-01-26 16:25:39,137.477,0.000436,
455,2025-01-26 17:58:09,2025-01-26 18:00:35,145.878,0.000463,
456,2025-01-26 19:32:47,2025-01-26 19:33:03,16.471,0.000052,
457,2025-01-26 19:33:10,2025-01-26 19:35:30,140.19,0.000445,
458,2025-01-26 21:07:27,2025-01-26 21:09:54,147.423,0.000467,
459,2025-01-26 22:42:07,2025-01-26 22:44:50,162.888,0.000517,
460,2025-01-27 00:16:48,2025-01-27 00:19:45,177.267,0.000562,
461,2025-01-27 01:51:51,2025-01-27 01:54:09,138.599,0.000439,
462,2025-01-27 03:26:45,2025-01-27 03:29:05,140.195,0.000445,
463,2025-01-27 05:01:13,2025-01-27 05:04:00,167.082,0.00053,
464,2025-01-27 06:35:57,2025-01-27 06:38:25,147.553,0.000468,
465,2025-01-27 08:10:37,2025-01-27 08:10:59,22.215,0.00007,
466,2025-01-27 08:11:00,2025-01-27 08:13:20,140.273,0.000445,
467,2025-01-27 09:45:17,2025-01-27 09:48:15,177.643,0.000563,
468,2025-01-27 11:19:58,2025-01-27 11:22:40,161.866,0.000513,
469,2025-01-27 12:55:15,2025-01-27 12:57:35,140.285,0.000445,
470,2025-01-27 14:29:42,2025-01-27 14:32:30,167.834,0.000532,
471,2025-01-27 16:04:29,2025-01-27 16:06:55,146.533,0.000465,
472,2025-01-27 17:39:07,2025-01-27 17:39:25,17.635,0.000056,
473,2025-01-27 17:39:30,2025-01-27 17:41:51,140.232,0.000445,
474,2025-01-27 19:13:47,2025-01-27 19:16:15,147.349,0.000467,
475,2025-01-27 20:48:28,2025-01-27 20:51:10,162.774,0.000516,
476,2025-01-27 22:23:08,2025-01-27 22:23:38,29.945,0.000095,
477,2025-01-27 22:23:46,2025-01-27 22:26:06,140.112,0.000444,
478,2025-01-27 23:58:12,2025-01-28 00:00:30,138.393,0.000439,
479,2025-01-28 01:33:06,2025-01-28 01:35:26,140.143,0.000444,
480,2025-01-28 03:07:34,2025-01-28 03:10:21,166.86,0.000529,
481,2025-01-28 04:42:18,2025-01-28 04:44:45,147.624,0.000468,
482,2025-01-28 06:16:58,2025-01-28 06:17:21,23.069,0.000073,
483,2025-01-28 06:17:21,2025-01-28 06:19:41,140.249,0.000445,
484,2025-01-28 07:51:38,2025-01-28 07:54:36,177.627,0.000563,
485,2025-01-28 09:26:19,2025-01-28 09:29:01,161.673,0.000513,
486,2025-01-28 11:01:36,2025-01-28 11:03:56,140.288,0.000445,
487,2025-01-28 12:36:03,2025-01-28 12:38:51,167.723,0.000532,
488,2025-01-28 14:10:49,2025-01-28 14:13:16,146.968,0.000466,
489,2025-01-28 15:45:28,2025-01-28 15:45:47,18.723,0.000059,
490,2025-01-28 15:45:51,2025-01-28 15:48:11,140.262,0.000445,
491,2025-01-28 17:20:08,2025-01-28 17:22:35,147.263,0.000467,
492,2025-01-28 18:54:48,2025-01-28 18:57:31,162.645,0.000516,
493,2025-01-28 20:29:29,2025-01-28 20:30:00,30.535,0.000097,
494,2025-01-28 20:30:06,2025-01-28 20:32:26,140.169,0.000444,
495,2025-01-28 22:04:32,2025-01-28 22:06:50,138.175,0.000438,
496,2025-01-28 23:39:26,2025-01-28 23:41:46,140.08,0.000444,
497,2025-01-29 01:13:55,2025-01-29 01:16:41,166.616,0.000528,
498,2025-01-29 02:48:38,2025-01-29 02:51:06,147.66,0.000468,
499,2025-01-29 04:23:18,2025-01-29 04:26:01,163.273,0.000518,
500,2025-01-29 05:57:59,2025-01-29 06:00:56,177.597,0.000563,
501,2025-01-29 07:32:40,2025-01-29 07:35:21,161.462,0.000512,
502,2025-01-29 09:07:56,2025-01-29 09:10:17,140.28,0.000445,
503,2025-01-29 10:42:24,2025-01-29 10:45:11,167.589,0.000531,
504,2025-01-29 12:17:09,2025-01-29 12:19:36,147.284,0.000467,
505,2025-01-29 13:51:48,2025-01-29 13:52:08,19.747,0.000063,
506,2025-01-29 13:52:11,2025-01-29 13:54:32,140.28,0.000445,
507,2025-01-29 15:26:29,2025-01-29 15:28:56,147.152,0.000467,
508,2025-01-29 17:01:09,2025-01-29 17:03:52,162.498,0.000515,
509,2025-01-29 18:35:50,2025-01-29 18:36:02,12.296,0.000039,
510,2025-01-29 18:36:27,2025-01-29 18:38:47,140.215,0.000445,
511,2025-01-29 20:10:53,2025-01-29 20:13:11,137.943,0.000437,
512,2025-01-29 21:45:47,2025-01-29 21:48:07,140.006,0.000444,
513,2025-01-29 23:20:16,2025-01-29 23:20:33,17.893,0.000057,
514,2025-01-29 23:20:42,2025-01-29 23:23:02,140.084,0.000444,
515,2025-01-30 00:54:59,2025-01-30 00:57:26,147.658,0.000468,
516,2025-01-30 02:29:39,2025-01-30 02:32:22,163.211,0.000518,
517,2025-01-30 04:04:19,2025-01-30 04:07:17,177.547,0.000563,
518,2025-01-30 05:39:23,2025-01-30 05:41:42,138.948,0.000441,
519,2025-01-30 07:14:17,2025-01-30 07:16:37,140.26,0.000445,
520,2025-01-30 08:48:45,2025-01-30 08:51:32,167.433,0.000531,
521,2025-01-30 10:23:29,2025-01-30 10:25:57,147.501,0.000468,
522,2025-01-30 11:58:09,2025-01-30 11:58:30,20.713,0.000066,
523,2025-01-30 11:58:32,2025-01-30 12:00:52,140.288,0.000445,
524,2025-01-30 13:32:49,2025-01-30 13:35:47,177.758,0.000564,
525,2025-01-30 15:07:30,2025-01-30 15:10:12,162.339,0.000515,
526,2025-01-30 16:42:47,2025-01-30 16:45:07,140.25,0.000445,
527,2025-01-30 18:17:14,2025-01-30 18:19:31,137.697,0.000437,
528,2025-01-30 19:52:02,2025-01-30 19:54:27,145.394,0.000461,
529,2025-01-30 21:26:40,2025-01-30 21:26:55,15.65,0.00005,
530,2025-01-30 21:27:02,2025-01-30 21:29:23,140.146,0.000444,
531,2025-01-30 23:01:19,2025-01-30 23:03:47,147.63,0.000468,
532,2025-01-31 00:35:59,2025-01-31 00:38:43,163.127,0.000517,
533,2025-01-31 02:10:40,2025-01-31 02:13:38,177.478,0.000563,
534,2025-01-31 03:45:43,2025-01-31 03:48:02,138.766,0.00044,
535,2025-01-31 05:20:38,2025-01-31 05:22:58,140.23,0.000445,
536,2025-01-31 06:55:05,2025-01-31 06:57:53,167.254,0.00053,
537,2025-01-31 08:29:50,2025-01-31 08:32:17,147.657,0.000468,
538,2025-01-31 10:04:29,2025-01-31 10:04:51,21.635,0.000069,
539,2025-01-31 10:04:53,2025-01-31 10:07:13,140.285,0.000445,
540,2025-01-31 11:39:10,2025-01-31 11:42:08,177.785,0.000564,
541,2025-01-31 13:13:50,2025-01-31 13:16:33,162.165,0.000514,
542,2025-01-31 14:49:08,2025-01-31 14:51:28,140.274,0.000445,
543,2025-01-31 16:23:35,2025-01-31 16:25:52,137.44,0.000436,
544,2025-01-31 17:58:22,2025-01-31 18:00:48,146.31,0.000464,
545,2025-01-31 19:33:00,2025-01-31 19:33:17,16.88,0.000054,
546,2025-01-31 19:33:23,2025-01-31 19:35:43,140.197,0.000445,
547,2025-01-31 21:07:40,2025-01-31 21:10:07,147.58,0.000468,
548,2025-01-31 22:42:20,2025-01-31 22:45:03,163.021,0.000517,
549,2025-02-01 00:17:01,2025-02-01 00:19:58,177.392,0.000563,
550,2025-02-01 01:52:04,2025-02-01 01:54:23,138.57,0.000439,
551,2025-02-01 03:26:58,2025-02-01 03:29:18,140.188,0.000445,
552,2025-02-01 05:01:26,2025-02-01 05:04:13,167.052,0.00053,
553,2025-02-01 06:36:10,2025-02-01 06:38:38,147.759,0.000469,
554,2025-02-01 08:10:50,2025-02-01 08:11:13,22.512,0.000071,
555,2025-02-01 08:11:13,2025-02-01 08:13:34,140.27,0.000445,
556,2025-02-01 09:45:30,2025-02-01 09:48:28,177.79,0.000564,
557,2025-02-01 11:20:11,2025-02-01 11:22:53,161.975,0.000514,
558,2025-02-01 12:55:28,2025-02-01 12:57:49,140.286,0.000445,
559,2025-02-01 14:29:55,2025-02-01 14:32:13,137.168,0.000435,
560,2025-02-01 16:04:42,2025-02-01 16:07:08,146.874,0.000466,
561,2025-02-01 17:39:20,2025-02-01 17:39:38,18.017,0.000057,
562,2025-02-01 17:39:44,2025-02-01 17:42:04,140.236,0.000445,
563,2025-02-01 19:14:00,2025-02-01 19:16:28,147.502,0.000468,
564,2025-02-01 20:48:41,2025-02-01 20:51:24,162.903,0.000517,
565,2025-02-01 22:23:22,2025-02-01 22:23:52,30.15,0.000096,
566,2025-02-01 22:23:59,2025-02-01 22:26:19,140.121,0.000444,
567,2025-02-01 23:58:25,2025-02-02 00:00:43,138.363,0.000439,
568,2025-02-02 01:33:19,2025-02-02 01:35:39,140.135,0.000444,
569,2025-02-02 03:07:47,2025-02-02 03:10:34,166.826,0.000529,
570,2025-02-02 04:42:31,2025-02-02 04:44:58,147.817,0.000469,
571,2025-02-02 06:17:11,2025-02-02 06:19:54,163.471,0.000518,
572,2025-02-02 07:51:51,2025-02-02 07:54:49,177.77,0.000564,
573,2025-02-02 09:26:32,2025-02-02 09:29:14,161.779,0.000513,
574,2025-02-02 11:01:49,2025-02-02 11:04:09,140.287,0.000445,
575,2025-02-02 12:36:16,2025-02-02 12:39:04,167.705,0.000532,
576,2025-02-02 14:11:02,2025-02-02 14:13:29,147.263,0.000467,
577,2025-02-02 15:45:41,2025-02-02 15:46:00,19.082,0.000061,
578,2025-02-02 15:46:04,2025-02-02 15:48:24,140.265,0.000445,
579,2025-02-02 17:20:21,2025-02-02 17:22:48,147.407,0.000467,
580,2025-02-02 18:55:01,2025-02-02 18:57:44,162.77,0.000516,
581,2025-02-02 20:29:42,2025-02-02 20:30:13,30.734,0.000097,
582,2025-02-02 20:30:19,2025-02-02 20:32:39,140.176,0.000444,
583,2025-02-02 22:04:46,2025-02-02 22:07:04,138.143,0.000438,
584,2025-02-02 23:39:39,2025-02-02 23:41:59,140.07,0.000444,
585,2025-02-03 01:14:08,2025-02-03 01:16:55,166.578,0.000528,
586,2025-02-03 02:48:51,2025-02-03 02:51:19,147.841,0.000469,
587,2025-02-03 04:23:31,2025-02-03 04:26:15,163.422,0.000518,
588,2025-02-03 05:58:12,2025-02-03 06:01:10,177.734,0.000564,
589,2025-02-03 07:32:53,2025-02-03 07:35:34,161.565,0.000512,
590,2025-02-03 09:08:10,2025-02-03 09:10:30,140.278,0.000445,
591,2025-02-03 10:42:37,2025-02-03 10:45:25,167.568,0.000531,
592,2025-02-03 12:17:22,2025-02-03 12:19:50,147.543,0.000468,
593,2025-02-03 13:52:01,2025-02-03 13:52:21,20.085,0.000064,
594,2025-02-03 13:52:25,2025-02-03 13:54:45,140.282,0.000445,
595,2025-02-03 15:26:42,2025-02-03 15:29:09,147.294,0.000467,
596,2025-02-03 17:01:22,2025-02-03 17:04:05,162.617,0.000516,
597,2025-02-03 18:36:03,2025-02-03 18:36:34,31.301,0.000099,
598,2025-02-03 18:36:40,2025-02-03 18:39:00,140.221,0.000445,
599,2025-02-03 20:11:06,2025-02-03 20:13:24,137.909,0.000437,
600,2025-02-03 21:45:56,2025-02-03 21:45:59,3.018,0.00001,
601,2025-02-03 21:46:00,2025-02-03 21:48:20,139.995,0.000444,
602,2025-02-03 23:20:29,2025-02-03 23:23:15,166.305,0.000527,
603,2025-02-04 00:55:12,2025-02-04 00:57:39,147.829,0.000469,
604,2025-02-04 02:29:52,2025-02-04 02:32:35,163.354,0.000518,
605,2025-02-04 04:04:33,2025-02-04 04:07:30,177.679,0.000563,
606,2025-02-04 05:39:13,2025-02-04 05:41:55,161.347,0.000512,
607,2025-02-04 07:14:30,2025-02-04 07:16:50,140.257,0.000445,
608,2025-02-04 08:48:58,2025-02-04 08:51:45,167.409,0.000531,
609,2025-02-04 10:23:42,2025-02-04 10:26:10,147.737,0.000468,
610,2025-02-04 11:58:22,2025-02-04 11:58:43,21.035,0.000067,
611,2025-02-04 11:58:45,2025-02-04 12:01:06,140.288,0.000445,
612,2025-02-04 13:33:02,2025-02-04 13:35:29,147.165,0.000467,
613,2025-02-04 13:35:31,2025-02-04 13:36:00,29.291,0.000093,
614,2025-02-04 15:07:43,2025-02-04 15:10:25,162.45,0.000515,
615,2025-02-04 16:42:24,2025-02-04 16:42:30,5.971,0.000019,
616,2025-02-04 16:43:00,2025-02-04 16:45:21,140.254,0.000445,
617,2025-02-04 18:17:27,2025-02-04 18:19:45,137.661,0.000437,
618,2025-02-04 19:52:15,2025-02-04 19:54:41,145.939,0.000463,
619,2025-02-04 21:26:52,2025-02-04 21:27:09,16.08,0.000051,
620,2025-02-04 21:27:16,2025-02-04 21:29:36,140.154,0.000444,
621,2025-02-04 23:01:32,2025-02-04 23:04:00,147.792,0.000469,
622,2025-02-05 00:36:13,2025-02-05 00:38:56,163.263,0.000518,
623,2025-02-05 02:10:53,2025-02-05 02:13:51,177.606,0.000563,
624,2025-02-05 03:45:57,2025-02-05 03:48:15,138.738,0.00044,
625,2025-02-05 05:20:51,2025-02-05 05:23:11,140.224,0.000445,
626,2025-02-05 06:55:19,2025-02-05 06:58:06,167.227,0.00053,
627,2025-02-05 08:30:03,2025-02-05 08:32:31,147.873,0.000469,
628,2025-02-05 10:04:42,2025-02-05 10:05:04,21.939,0.00007,
629,2025-02-05 10:05:06,2025-02-05 10:07:26,140.283,0.000445,
630,2025-02-05 11:39:23,2025-02-05 11:42:21,177.936,0.000564,
631,2025-02-05 13:14:04,2025-02-05 13:16:46,162.276,0.000515,
632,2025-02-05 14:49:21,2025-02-05 14:51:41,140.276,0.000445,
633,2025-02-05 16:23:48,2025-02-05 16:26:05,137.402,0.000436,
634,2025-02-05 17:58:34,2025-02-05 18:01:01,146.697,0.000465,
635,2025-02-05 19:33:13,2025-02-05 19:33:30,17.276,0.000055,
636,2025-02-05 19:33:36,2025-02-05 19:35:56,140.203,0.000445,
637,2025-02-05 21:07:53,2025-02-05 21:10:21,147.733,0.000468,
638,2025-02-05 22:42:33,2025-02-05 22:45:16,163.152,0.000517,
639,2025-02-06 00:17:14,2025-02-06 00:20:11,177.516,0.000563,
640,2025-02-06 01:52:17,2025-02-06 01:54:36,138.541,0.000439,
641,2025-02-06 03:27:11,2025-02-06 03:29:32,140.181,0.000445,
642,2025-02-06 05:01:39,2025-02-06 05:04:26,167.022,0.00053,
643,2025-02-06 06:36:23,2025-02-06 06:38:51,147.957,0.000469,
644,2025-02-06 08:11:03,2025-02-06 08:11:26,22.804,0.000072,
645,2025-02-06 08:11:26,2025-02-06 08:13:47,140.267,0.000445,
646,2025-02-06 09:45:44,2025-02-06 09:48:41,177.932,0.000564,
647,2025-02-06 11:20:24,2025-02-06 11:23:06,162.082,0.000514,
648,2025-02-06 12:55:42,2025-02-06 12:58:02,140.287,0.000445,
649,2025-02-06 14:30:09,2025-02-06 14:32:26,137.128,0.000435,
650,2025-02-06 16:04:54,2025-02-06 16:07:22,147.192,0.000467,
651,2025-02-06 17:39:33,2025-02-06 17:39:52,18.386,0.000058,
652,2025-02-06 17:39:57,2025-02-06 17:42:17,140.241,0.000445,
653,2025-02-06 19:14:13,2025-02-06 19:16:41,147.65,0.000468,
654,2025-02-06 20:48:54,2025-02-06 20:51:37,163.028,0.000517,
655,2025-02-06 22:23:35,2025-02-06 22:24:05,30.35,0.000096,
656,2025-02-06 22:24:12,2025-02-06 22:26:32,140.129,0.000444,
657,2025-02-06 23:58:38,2025-02-07 00:00:56,138.332,0.000439,
658,2025-02-07 01:33:32,2025-02-07 01:35:52,140.126,0.000444,
659,2025-02-07 03:08:00,2025-02-07 03:10:47,166.797,0.000529,
660,2025-02-07 04:42:44,2025-02-07 04:45:12,148.004,0.000469,
661,2025-02-07 06:17:24,2025-02-07 06:20:07,163.622,0.000519,
662,2025-02-07 07:52:04,2025-02-07 07:55:02,177.909,0.000564,
663,2025-02-07 09:26:45,2025-02-07 09:29:27,161.88,0.000513,
664,2025-02-07 11:02:02,2025-02-07 11:04:22,140.286,0.000445,
665,2025-02-07 12:36:29,2025-02-07 12:39:17,167.688,0.000532,
666,2025-02-07 14:11:15,2025-02-07 14:13:42,147.538,0.000468,
667,2025-02-07 15:45:54,2025-02-07 15:46:13,19.424,0.000062,
668,2025-02-07 15:46:17,2025-02-07 15:48:38,140.268,0.000445,
669,2025-02-07 17:20:34,2025-02-07 17:23:02,147.546,0.000468,
670,2025-02-07 18:55:15,2025-02-07 18:57:57,162.887,0.000517,
671,2025-02-07 20:29:55,2025-02-07 20:30:26,30.927,0.000098,
672,2025-02-07 20:30:33,2025-02-07 20:32:53,140.183,0.000445,
673,2025-02-07 22:04:59,2025-02-07 22:07:17,138.11,0.000438,
674,2025-02-07 23:39:53,2025-02-07 23:42:13,140.06,0.000444,
675,2025-02-08 01:14:21,2025-02-08 01:17:08,166.542,0.000528,
676,2025-02-08 02:49:04,2025-02-08 02:51:32,148.014,0.000469,
677,2025-02-08 04:23:44,2025-02-08 04:26:28,163.566,0.000519,
678,2025-02-08 05:58:25,2025-02-08 06:01:23,177.868,0.000564,
679,2025-02-08 07:33:06,2025-02-08 07:35:47,161.664,0.000513,
680,2025-02-08 09:08:23,2025-02-08 09:10:43,140.275,0.000445,
681,2025-02-08 10:42:50,2025-02-08 10:45:38,167.548,0.000531,
682,2025-02-08 12:17:35,2025-02-08 12:20:03,147.785,0.000469,
683,2025-02-08 13:52:14,2025-02-08 13:52:35,20.413,0.000065,
684,2025-02-08 13:52:38,2025-02-08 13:54:58,140.283,0.000445,
685,2025-02-08 15:26:55,2025-02-08 15:29:22,147.425,0.000467,
686,2025-02-08 17:01:35,2025-02-08 17:04:18,162.733,0.000516,
687,2025-02-08 18:36:16,2025-02-08 18:36:48,31.487,0.0001,
688,2025-02-08 18:36:53,2025-02-08 18:39:13,140.226,0.000445,
689,2025-02-08 20:11:19,2025-02-08 20:13:37,137.875,0.000437,
690,2025-02-08 21:46:08,2025-02-08 21:46:13,4.782,0.000015,
691,2025-02-08 21:46:13,2025-02-08 21:48:33,139.983,0.000444,
692,2025-02-08 23:20:42,2025-02-08 23:23:28,166.265,0.000527,
693,2025-02-09 00:55:25,2025-02-09 00:57:53,147.994,0.000469,
694,2025-02-09 02:30:05,2025-02-09 02:32:48,163.491,0.000518,
695,2025-02-09 04:04:46,2025-02-09 04:07:43,177.808,0.000564,
696,2025-02-09 05:39:27,2025-02-09 05:42:08,161.443,0.000512,
697,2025-02-09 07:14:43,2025-02-09 07:17:04,140.252,0.000445,
698,2025-02-09 08:49:11,2025-02-09 08:51:58,167.385,0.000531,
699,2025-02-09 10:23:55,2025-02-09 10:26:23,147.96,0.000469,
700,2025-02-09 11:58:35,2025-02-09 11:58:56,21.343,0.000068,
701,2025-02-09 11:58:58,2025-02-09 12:01:19,140.288,0.000445,
702,2025-02-09 13:33:15,2025-02-09 13:35:43,147.293,0.000467,
703,2025-02-09 13:35:47,2025-02-09 13:36:13,26.784,0.000085,
704,2025-02-09 15:07:56,2025-02-09 15:10:39,162.564,0.000515,
705,2025-02-09 16:42:37,2025-02-09 16:42:45,8.059,0.000026,
706,2025-02-09 16:43:14,2025-02-09 16:45:34,140.257,0.000445,
707,2025-02-09 18:17:40,2025-02-09 18:19:58,137.624,0.000436,
708,2025-02-09 19:52:27,2025-02-09 19:54:54,146.407,0.000464,
709,2025-02-09 21:27:05,2025-02-09 21:27:22,16.491,0.000052,
710,2025-02-09 21:27:29,2025-02-09 21:29:49,140.161,0.000444,
711,2025-02-09 23:01:45,2025-02-09 23:04:13,147.951,0.000469,
712,2025-02-10 00:36:26,2025-02-10 00:39:09,163.395,0.000518,
713,2025-02-10 02:11:06,2025-02-10 02:14:04,177.73,0.000564,
714,2025-02-10 03:46:10,2025-02-10 03:48:28,138.711,0.00044,
715,2025-02-10 05:21:04,2025-02-10 05:23:24,140.218,0.000445,
716,2025-02-10 06:55:32,2025-02-10 06:58:19,167.2,0.00053,
717,2025-02-10 08:30:16,2025-02-10 08:32:44,148.079,0.00047,
718,2025-02-10 10:04:56,2025-02-10 10:05:18,22.236,0.000071,
719,2025-02-10 10:05:19,2025-02-10 10:07:39,140.281,0.000445,
720,2025-02-10 11:39:36,2025-02-10 11:42:34,178.084,0.000565,
721,2025-02-10 13:14:17,2025-02-10 13:16:59,162.385,0.000515,
722,2025-02-10 14:49:34,2025-02-10 14:51:54,140.278,0.000445,
723,2025-02-10 16:24:01,2025-02-10 16:26:18,137.363,0.000436,
724,2025-02-10 17:58:47,2025-02-10 18:01:14,147.056,0.000466,
725,2025-02-10 19:33:26,2025-02-10 19:33:44,17.657,0.000056,
726,2025-02-10 19:33:49,2025-02-10 19:36:10,140.209,0.000445,
727,2025-02-10 21:08:06,2025-02-10 21:10:34,147.883,0.000469,
728,2025-02-10 22:42:46,2025-02-10 22:45:30,163.279,0.000518,
729,2025-02-11 00:17:27,2025-02-11 00:20:25,177.637,0.000563,
730,2025-02-11 01:52:30,2025-02-11 01:54:49,138.512,0.000439,
731,2025-02-11 03:27:25,2025-02-11 03:29:45,140.173,0.000444,
732,2025-02-11 05:01:53,2025-02-11 05:04:40,166.992,0.00053,
733,2025-02-11 06:36:36,2025-02-11 06:39:04,148.15,0.00047,
734,2025-02-11 08:11:16,2025-02-11 08:11:39,23.086,0.000073,
735,2025-02-11 08:11:40,2025-02-11 08:14:00,140.263,0.000445,
736,2025-02-11 09:45:57,2025-02-11 09:48:55,178.074,0.000565,
737,2025-02-11 11:20:37,2025-02-11 11:23:20,162.187,0.000514,
738,2025-02-11 12:55:55,2025-02-11 12:58:15,140.287,0.000445,
739,2025-02-11 14:30:22,2025-02-11 14:32:39,137.088,0.000435,
740,2025-02-11 16:05:07,2025-02-11 16:07:35,147.493,0.000468,
741,2025-02-11 17:39:46,2025-02-11 17:40:05,18.745,0.000059,
742,2025-02-11 17:40:10,2025-02-11 17:42:30,140.245,0.000445,
743,2025-02-11 19:14:26,2025-02-11 19:16:54,147.794,0.000469,
744,2025-02-11 20:49:07,2025-02-11 20:51:50,163.152,0.000517,
745,2025-02-11 22:23:48,2025-02-11 22:24:18,30.548,0.000097,
746,2025-02-11 22:24:25,2025-02-11 22:26:45,140.137,0.000444,
747,2025-02-11 23:58:51,2025-02-12 00:01:10,138.301,0.000439,
748,2025-02-12 01:33:45,2025-02-12 01:36:05,140.117,0.000444,
749,2025-02-12 03:08:14,2025-02-12 03:11:00,166.763,0.000529,
750,2025-02-12 04:42:57,2025-02-12 04:45:25,148.186,0.00047,
751,2025-02-12 06:17:37,2025-02-12 06:20:20,163.77,0.000519,
752,2025-02-12 07:52:17,2025-02-12 07:55:15,178.046,0.000565,
753,2025-02-12 09:26:58,2025-02-12 09:29:40,161.983,0.000514,
754,2025-02-12 11:02:15,2025-02-12 11:04:36,140.285,0.000445,
755,2025-02-12 12:36:43,2025-02-12 12:39:30,167.67,0.000532,
756,2025-02-12 14:11:28,2025-02-12 14:13:55,147.803,0.000469,
757,2025-02-12 15:46:07,2025-02-12 15:46:27,19.766,0.000063,
758,2025-02-12 15:46:31,2025-02-12 15:48:51,140.27,0.000445,
759,2025-02-12 17:20:47,2025-02-12 17:23:15,147.684,0.000468,
760,2025-02-12 18:55:28,2025-02-12 18:58:11,163.007,0.000517,
761,2025-02-12 20:30:08,2025-02-12 20:30:40,31.119,0.000099,
762,2025-02-12 20:30:46,2025-02-12 20:33:06,140.19,0.000445,
763,2025-02-12 22:05:12,2025-02-12 22:07:30,138.077,0.000438,
764,2025-02-12 23:40:06,2025-02-12 23:42:26,140.049,0.000444,
765,2025-02-13 01:14:34,2025-02-13 01:17:21,166.504,0.000528,
766,2025-02-13 02:49:17,2025-02-13 02:51:45,148.186,0.00047,
767,2025-02-13 04:23:57,2025-02-13 04:26:41,163.71,0.000519,
768,2025-02-13 05:58:38,2025-02-13 06:01:36,178.001,0.000564,
769,2025-02-13 07:33:19,2025-02-13 07:36:01,161.764,0.000513,
770,2025-02-13 09:08:36,2025-02-13 09:10:56,140.272,0.000445,
771,2025-02-13 10:43:03,2025-02-13 10:45:51,167.527,0.000531,
772,2025-02-13 12:17:48,2025-02-13 12:20:16,148.025,0.000469,
773,2025-02-13 13:52:27,2025-02-13 13:52:48,20.736,0.000066,
774,2025-02-13 13:52:51,2025-02-13 13:55:11,140.285,0.000445,
775,2025-02-13 15:27:08,2025-02-13 15:29:35,147.558,0.000468,
776,2025-02-13 17:01:48,2025-02-13 17:04:31,162.849,0.000516,
777,2025-02-13 18:36:29,2025-02-13 18:37:00,30.661,0.000097,
778,2025-02-13 18:37:06,2025-02-13 18:39:26,140.231,0.000445,
779,2025-02-13 20:11:33,2025-02-13 20:13:51,137.84,0.000437,
780,2025-02-13 21:46:20,2025-02-13 21:48:46,145.925,0.000463,
781,2025-02-13 23:20:55,2025-02-13 23:21:20,24.692,0.000078,
782,2025-02-13 23:21:21,2025-02-13 23:23:42,140.111,0.000444,
783,2025-02-14 00:55:38,2025-02-14 00:58:06,148.158,0.00047,
784,2025-02-14 02:30:18,2025-02-14 02:33:02,163.63,0.000519,
785,2025-02-14 04:04:59,2025-02-14 04:07:57,177.937,0.000564,
786,2025-02-14 05:39:40,2025-02-14 05:39:50,10.684,0.000034,
787,2025-02-14 05:40:02,2025-02-14 05:42:21,138.871,0.00044,
788,2025-02-14 07:14:57,2025-02-14 07:17:17,140.248,0.000445,
789,2025-02-14 08:49:24,2025-02-14 08:52:12,167.361,0.000531,
790,2025-02-14 10:24:08,2025-02-14 10:26:36,148.181,0.00047,
791,2025-02-14 11:58:48,2025-02-14 11:59:10,21.65,0.000069,
792,2025-02-14 11:59:12,2025-02-14 12:01:32,140.287,0.000445,
793,2025-02-14 13:33:28,2025-02-14 13:36:27,178.222,0.000565,
794,2025-02-14 15:08:09,2025-02-14 15:10:52,162.675,0.000516,
795,2025-02-14 16:43:27,2025-02-14 16:45:47,140.261,0.000445,
796,2025-02-14 18:17:53,2025-02-14 18:20:11,137.588,0.000436,
797,2025-02-14 19:52:40,2025-02-14 19:55:07,146.831,0.000466,
798,2025-02-14 21:27:18,2025-02-14 21:27:35,16.897,0.000054,
799,2025-02-14 21:27:42,2025-02-14 21:30:02,140.168,0.000444,
800,2025-02-14 23:01:58,2025-02-14 23:04:26,148.107,0.00047,
801,2025-02-15 00:36:39,2025-02-15 00:39:22,163.529,0.000519,
802,2025-02-15 02:11:19,2025-02-15 02:14:17,177.855,0.000564,
803,2025-02-15 03:46:23,2025-02-15 03:48:42,138.683,0.00044,
804,2025-02-15 05:21:17,2025-02-15 05:23:37,140.213,0.000445,
805,2025-02-15 06:55:45,2025-02-15 06:58:32,167.172,0.00053,
806,2025-02-15 08:30:29,2025-02-15 08:32:57,148.285,0.00047,
807,2025-02-15 10:05:09,2025-02-15 10:05:31,22.529,0.000071,
808,2025-02-15 10:05:32,2025-02-15 10:07:53,140.279,0.000445,
809,2025-02-15 11:39:49,2025-02-15 11:42:47,178.232,0.000565,
810,2025-02-15 13:14:30,2025-02-15 13:17:12,162.494,0.000515,
811,2025-02-15 14:49:47,2025-02-15 14:52:08,140.28,0.000445,
812,2025-02-15 16:24:14,2025-02-15 16:26:32,137.325,0.000435,
813,2025-02-15 17:59:00,2025-02-15 18:01:27,147.396,0.000467,
814,2025-02-15 19:33:39,2025-02-15 19:33:57,18.039,0.000057,
815,2025-02-15 19:34:03,2025-02-15 19:36:23,140.215,0.000445,
816,2025-02-15 21:08:19,2025-02-15 21:10:47,148.033,0.000469,
817,2025-02-15 22:42:59,2025-02-15 22:45:43,163.41,0.000518,
818,2025-02-16 00:17:40,2025-02-16 00:20:38,177.758,0.000564,
819,2025-02-16 01:52:44,2025-02-16 01:55:02,138.483,0.000439,
820,2025-02-16 03:27:38,2025-02-16 03:29:58,140.166,0.000444,
821,2025-02-16 05:02:06,2025-02-16 05:04:53,166.96,0.000529,
822,2025-02-16 06:36:49,2025-02-16 06:39:17,148.342,0.00047,
823,2025-02-16 08:11:29,2025-02-16 08:11:53,23.366,0.000074,
824,2025-02-16 08:11:53,2025-02-16 08:14:13,140.26,0.000445,
825,2025-02-16 09:46:10,2025-02-16 09:49:08,178.215,0.000565,
826,2025-02-16 11:20:50,2025-02-16 11:23:33,162.293,0.000515,
827,2025-02-16 12:56:08,2025-02-16 12:58:28,140.288,0.000445,
828,2025-02-16 14:30:35,2025-02-16 14:32:52,137.048,0.000435,
829,2025-02-16 14:33:12,2025-02-16 14:33:23,11.086,0.000035,
830,2025-02-16 16:05:20,2025-02-16 16:07:48,147.784,0.000469,
831,2025-02-16 17:39:59,2025-02-16 17:40:18,19.102,0.000061,
832,2025-02-16 17:40:23,2025-02-16 17:42:43,140.249,0.000445,
833,2025-02-16 19:14:39,2025-02-16 19:17:07,147.938,0.000469,
834,2025-02-16 20:49:20,2025-02-16 20:52:03,163.276,0.000518,
835,2025-02-16 22:24:01,2025-02-16 22:24:32,30.746,0.000097,
836,2025-02-16 22:24:38,2025-02-16 22:26:58,140.145,0.000444,
837,2025-02-16 23:59:04,2025-02-17 00:01:23,138.27,0.000438,
838,2025-02-17 01:33:58,2025-02-17 01:36:18,140.108,0.000444,
839,2025-02-17 03:08:27,2025-02-17 03:11:14,166.728,0.000529,
840,2025-02-17 04:43:10,2025-02-17 04:45:38,148.367,0.00047,
841,2025-02-17 06:17:50,2025-02-17 06:20:34,163.919,0.00052,
842,2025-02-17 07:52:30,2025-02-17 07:55:29,178.184,0.000565,
843,2025-02-17 09:27:11,2025-02-17 09:29:53,162.085,0.000514,
844,2025-02-17 11:02:29,2025-02-17 11:04:49,140.284,0.000445,
845,2025-02-17 12:36:56,2025-02-17 12:39:43,167.651,0.000532,
846,2025-02-17 14:11:41,2025-02-17 14:14:09,148.062,0.00047,
847,2025-02-17 15:46:20,2025-02-17 15:46:40,20.103,0.000064,
848,2025-02-17 15:46:44,2025-02-17 15:49:04,140.273,0.000445,
849,2025-02-17 17:21:00,2025-02-17 17:23:28,147.821,0.000469,
850,2025-02-17 18:55:41,2025-02-17 18:58:24,163.127,0.000517,
851,2025-02-17 20:30:22,2025-02-17 20:30:53,31.312,0.000099,
852,2025-02-17 20:30:59,2025-02-17 20:33:19,140.196,0.000445,
853,2025-02-17 22:05:25,2025-02-17 22:07:43,138.044,0.000438,
854,2025-02-17 23:40:14,2025-02-17 23:40:17,3.133,0.00001,
855,2025-02-17 23:40:19,2025-02-17 23:42:39,140.039,0.000444,
856,2025-02-18 01:14:48,2025-02-18 01:17:34,166.465,0.000528,
857,2025-02-18 02:49:30,2025-02-18 02:51:59,148.357,0.00047,
858,2025-02-18 04:24:10,2025-02-18 04:26:54,163.852,0.00052,
859,2025-02-18 05:58:51,2025-02-18 06:01:49,178.134,0.000565,
860,2025-02-18 07:33:32,2025-02-18 07:33:52,19.777,0.000063,
861,2025-02-18 07:33:55,2025-02-18 07:36:14,139.023,0.000441,
862,2025-02-18 09:08:49,2025-02-18 09:11:09,140.269,0.000445,
863,2025-02-18 10:43:17,2025-02-18 10:46:04,167.505,0.000531,
864,2025-02-18 12:18:01,2025-02-18 12:20:29,148.259,0.00047,
865,2025-02-18 13:52:40,2025-02-18 13:53:01,21.053,0.000067,
866,2025-02-18 13:53:04,2025-02-18 13:55:25,140.285,0.000445,
867,2025-02-18 15:27:21,2025-02-18 15:29:48,147.691,0.000468,
868,2025-02-18 17:02:01,2025-02-18 17:04:44,162.964,0.000517,
869,2025-02-18 18:37:19,2025-02-18 18:39:40,140.236,0.000445,
870,2025-02-18 20:11:46,2025-02-18 20:14:04,137.803,0.000437,
871,2025-02-18 21:46:33,2025-02-18 21:49:00,146.466,0.000464,
872,2025-02-18 23:21:11,2025-02-18 23:21:27,16.104,0.000051,
873,2025-02-18 23:21:35,2025-02-18 23:23:55,140.12,0.000444,
874,2025-02-19 00:55:51,2025-02-19 00:58:19,148.317,0.00047,
875,2025-02-19 02:30:31,2025-02-19 02:33:15,163.766,0.000519,
876,2025-02-19 04:05:12,2025-02-19 04:08:10,178.064,0.000565,
877,2025-02-19 05:40:16,2025-02-19 05:42:34,138.845,0.00044,
878,2025-02-19 07:15:10,2025-02-19 07:17:30,140.243,0.000445,
879,2025-02-19 08:49:37,2025-02-19 08:52:25,167.336,0.000531,
880,2025-02-19 10:24:21,2025-02-19 10:26:50,148.396,0.000471,
881,2025-02-19 11:59:01,2025-02-19 11:59:23,21.954,0.00007,
882,2025-02-19 11:59:25,2025-02-19 12:01:45,140.287,0.000445,
883,2025-02-19 13:33:41,2025-02-19 13:36:40,178.374,0.000566,
884,2025-02-19 15:08:22,2025-02-19 15:11:05,162.786,0.000516,
885,2025-02-19 16:43:40,2025-02-19 16:46:00,140.264,0.000445,
886,2025-02-19 18:18:07,2025-02-19 18:20:24,137.551,0.000436,
887,2025-02-19 19:52:53,2025-02-19 19:55:20,147.22,0.000467,
888,2025-02-19 21:27:31,2025-02-19 21:27:49,17.294,0.000055,
889,2025-02-19 21:27:55,2025-02-19 21:30:15,140.176,0.000444,
890,2025-02-19 23:02:11,2025-02-19 23:04:40,148.26,0.00047,
891,2025-02-20 00:36:52,2025-02-20 00:39:35,163.659,0.000519,
892,2025-02-20 02:11:32,2025-02-20 02:14:30,177.978,0.000564,
893,2025-02-20 03:46:36,2025-02-20 03:48:55,138.655,0.00044,
894,2025-02-20 05:21:30,2025-02-20 05:23:51,140.206,0.000445,
895,2025-02-20 06:55:58,2025-02-20 06:58:45,167.144,0.00053,
896,2025-02-20 08:30:42,2025-02-20 08:33:10,148.483,0.000471,
897,2025-02-20 10:05:22,2025-02-20 10:05:44,22.817,0.000072,
898,2025-02-20 10:05:45,2025-02-20 10:08:06,140.277,0.000445,
899,2025-02-20 11:40:02,2025-02-20 11:43:00,178.377,0.000566,
900,2025-02-20 13:14:43,2025-02-20 13:17:25,162.601,0.000516,
901,2025-02-20 14:50:01,2025-02-20 14:52:21,140.281,0.000445,
902,2025-02-20 16:24:27,2025-02-20 16:26:45,137.286,0.000435,
903,2025-02-20 17:59:13,2025-02-20 18:01:41,147.717,0.000468,
904,2025-02-20 19:33:52,2025-02-20 19:34:10,18.405,0.000058,
905,2025-02-20 19:34:16,2025-02-20 19:36:36,140.22,0.000445,
906,2025-02-20 21:08:32,2025-02-20 21:11:00,148.179,0.00047,
907,2025-02-20 22:43:12,2025-02-20 22:45:56,163.536,0.000519,
908,2025-02-21 00:17:53,2025-02-21 00:18:24,30.362,0.000096,
909,2025-02-21 00:18:31,2025-02-21 00:20:51,140.092,0.000444,
910,2025-02-21 01:52:57,2025-02-21 01:55:15,138.453,0.000439,
911,2025-02-21 03:27:51,2025-02-21 03:30:11,140.158,0.000444,
912,2025-02-21 05:02:19,2025-02-21 05:05:06,166.929,0.000529,
913,2025-02-21 06:37:02,2025-02-21 06:39:31,148.527,0.000471,
914,2025-02-21 08:11:42,2025-02-21 08:12:06,23.64,0.000075,
915,2025-02-21 08:12:06,2025-02-21 08:14:26,140.256,0.000445,
916,2025-02-21 09:46:23,2025-02-21 09:49:21,178.357,0.000566,
917,2025-02-21 11:21:04,2025-02-21 11:23:46,162.396,0.000515,
918,2025-02-21 12:56:21,2025-02-21 12:58:41,140.287,0.000445,
919,2025-02-21 14:30:48,2025-02-21 14:33:36,167.76,0.000532,
920,2025-02-21 16:05:33,2025-02-21 16:08:01,148.061,0.000469,
921,2025-02-21 17:40:12,2025-02-21 17:40:32,19.446,0.000062,
922,2025-02-21 17:40:36,2025-02-21 17:42:57,140.253,0.000445,
923,2025-02-21 19:14:53,2025-02-21 19:17:21,148.074,0.00047,
924,2025-02-21 20:49:33,2025-02-21 20:52:16,163.397,0.000518,
925,2025-02-21 22:24:14,2025-02-21 22:24:45,30.94,0.000098,
926,2025-02-21 22:24:52,2025-02-21 22:27:12,140.153,0.000444,
927,2025-02-21 23:59:18,2025-02-22 00:01:36,138.238,0.000438,
928,2025-02-22 01:34:12,2025-02-22 01:36:32,140.099,0.000444,
929,2025-02-22 03:08:40,2025-02-22 03:11:27,166.693,0.000529,
930,2025-02-22 04:43:23,2025-02-22 04:45:51,148.539,0.000471,
931,2025-02-22 06:18:03,2025-02-22 06:20:47,164.063,0.00052,
932,2025-02-22 07:52:43,2025-02-22 07:55:42,178.318,0.000565,
933,2025-02-22 09:27:24,2025-02-22 09:27:42,17.812,0.000056,
934,2025-02-22 09:27:47,2025-02-22 09:30:06,139.165,0.000441,
935,2025-02-22 11:02:42,2025-02-22 11:05:02,140.282,0.000445,
936,2025-02-22 12:37:09,2025-02-22 12:39:57,167.633,0.000532,
937,2025-02-22 14:11:53,2025-02-22 14:14:22,148.307,0.00047,
938,2025-02-22 15:46:33,2025-02-22 15:46:53,20.426,0.000065,
939,2025-02-22 15:46:57,2025-02-22 15:49:17,140.275,0.000445,
940,2025-02-22 17:21:13,2025-02-22 17:23:41,147.955,0.000469,
941,2025-02-22 18:55:54,2025-02-22 18:58:37,163.244,0.000518,
942,2025-02-22 20:31:12,2025-02-22 20:33:32,140.202,0.000445,
943,2025-02-22 22:05:38,2025-02-22 22:07:56,138.011,0.000438,
944,2025-02-22 23:40:26,2025-02-22 23:40:31,4.852,0.000015,
945,2025-02-22 23:40:32,2025-02-22 23:42:52,140.028,0.000444,
946,2025-02-23 01:15:01,2025-02-23 01:17:47,166.427,0.000528,
947,2025-02-23 02:49:43,2025-02-23 02:52:12,148.522,0.000471,
948,2025-02-23 04:24:23,2025-02-23 04:27:07,163.989,0.00052,
949,2025-02-23 05:59:04,2025-02-23 06:02:02,178.263,0.000565,
950,2025-02-23 07:34:08,2025-02-23 07:36:27,138.998,0.000441,
951,2025-02-23 09:09:02,2025-02-23 09:11:23,140.266,0.000445,
952,2025-02-23 10:43:30,2025-02-23 10:46:17,167.483,0.000531,
953,2025-02-23 12:18:14,2025-02-23 12:20:42,148.482,0.000471,
954,2025-02-23 13:52:53,2025-02-23 13:53:15,21.36,0.000068,
955,2025-02-23 13:53:18,2025-02-23 13:55:38,140.286,0.000445,
956,2025-02-23 15:27:34,2025-02-23 15:30:02,147.821,0.000469,
957,2025-02-23 15:30:03,2025-02-23 15:30:32,29.59,0.000094,
958,2025-02-23 17:02:14,2025-02-23 17:04:58,163.076,0.000517,
959,2025-02-23 18:37:33,2025-02-23 18:39:53,140.24,0.000445,
960,2025-02-23 20:11:59,2025-02-23 20:14:17,137.768,0.000437,
961,2025-02-23 21:46:46,2025-02-23 21:49:13,146.928,0.000466,
962,2025-02-23 23:21:24,2025-02-23 23:21:41,16.513,0.000052,
963,2025-02-23 23:21:48,2025-02-23 23:24:08,140.128,0.000444,
964,2025-02-24 00:56:04,2025-02-24 00:58:32,148.474,0.000471,
965,2025-02-24 02:30:44,2025-02-24 02:33:28,163.899,0.00052,
966,2025-02-24 04:05:25,2025-02-24 04:08:23,178.189,0.000565,
967,2025-02-24 05:40:29,2025-02-24 05:42:48,138.819,0.00044,
968,2025-02-24 07:15:23,2025-02-24 07:17:43,140.239,0.000445,
969,2025-02-24 08:49:51,2025-02-24 08:52:38,167.311,0.000531,
970,2025-02-24 10:24:34,2025-02-24 10:27:03,148.602,0.000471,
971,2025-02-24 11:59:14,2025-02-24 11:59:36,22.25,0.000071,
972,2025-02-24 11:59:38,2025-02-24 12:01:58,140.286,0.000445,
973,2025-02-24 13:33:54,2025-02-24 13:36:53,178.522,0.000566,
