3UCubedIntegratedSim/Reports & Plots/North Cusp/NorthCusp CSV/NorthCusp_Sat23.csv

Number,Coverage Start (UTCG),Coverage End (UTCG),Duration (sec),Percent,
1,2025-01-01 17:52:22,2025-01-01 17:52:33,10.724,0.003%,
2,2025-01-01 19:25:20,2025-01-01 19:27:10,109.255,0.035%,
3,2025-01-01 21:00:04,2025-01-01 21:01:23,79.644,0.025%,
4,2025-01-01 22:34:48,2025-01-01 22:35:59,70.854,0.023%,
5,2025-01-02 00:09:36,2025-01-02 00:10:12,36.341,0.012%,
6,2025-01-02 01:44:28,2025-01-02 01:44:45,17.01,0.005%,
7,2025-01-02 04:55:26,2025-01-02 04:55:43,16.48,0.005%,
8,2025-01-02 06:28:31,2025-01-02 06:30:19,108.444,0.034%,
9,2025-01-02 08:03:14,2025-01-02 08:04:33,79.039,0.025%,
10,2025-01-02 09:37:59,2025-01-02 09:38:44,44.665,0.014%,
11,2025-01-02 09:38:45,2025-01-02 09:39:09,23.654,0.008%,
12,2025-01-02 11:12:47,2025-01-02 11:13:22,35.125,0.011%,
13,2025-01-02 12:47:41,2025-01-02 12:47:54,13.156,0.004%,
14,2025-01-02 15:58:31,2025-01-02 15:58:53,22.301,0.007%,
15,2025-01-02 17:31:41,2025-01-02 17:33:05,83.223,0.026%,
16,2025-01-02 17:33:06,2025-01-02 17:33:29,23.134,0.007%,
17,2025-01-02 19:06:25,2025-01-02 19:07:43,78.395,0.025%,
18,2025-01-02 20:41:10,2025-01-02 20:41:54,43.983,0.014%,
19,2025-01-02 20:41:57,2025-01-02 20:42:18,21.454,0.007%,
20,2025-01-02 22:15:58,2025-01-02 22:16:32,33.827,0.011%,
21,2025-01-02 23:50:54,2025-01-02 23:51:01,7.357,0.002%,
22,2025-01-03 03:01:35,2025-01-03 03:02:03,28.171,0.009%,
23,2025-01-03 04:34:52,2025-01-03 04:36:15,82.915,0.026%,
24,2025-01-03 04:36:17,2025-01-03 04:36:38,21.097,0.007%,
25,2025-01-03 06:09:36,2025-01-03 06:10:53,77.706,0.025%,
26,2025-01-03 07:44:21,2025-01-03 07:45:04,43.249,0.014%,
27,2025-01-03 07:45:09,2025-01-03 07:45:28,18.936,0.006%,
28,2025-01-03 09:19:09,2025-01-03 09:19:42,32.428,0.010%,
29,2025-01-03 14:04:39,2025-01-03 14:05:13,34.105,0.011%,
30,2025-01-03 15:38:02,2025-01-03 15:39:25,82.573,0.026%,
31,2025-01-03 15:39:29,2025-01-03 15:39:48,18.793,0.006%,
32,2025-01-03 17:12:46,2025-01-03 17:14:03,76.968,0.024%,
33,2025-01-03 18:47:32,2025-01-03 18:48:15,42.476,0.014%,
34,2025-01-03 18:48:21,2025-01-03 18:48:37,15.949,0.005%,
35,2025-01-03 20:22:21,2025-01-03 20:22:51,30.922,0.010%,
36,2025-01-04 01:07:43,2025-01-04 01:08:23,40.09,0.013%,
37,2025-01-04 02:41:13,2025-01-04 02:42:35,82.198,0.026%,
38,2025-01-04 02:42:41,2025-01-04 02:42:57,16.102,0.005%,
39,2025-01-04 04:15:57,2025-01-04 04:17:13,76.174,0.024%,
40,2025-01-04 05:50:43,2025-01-04 05:51:25,41.655,0.013%,
41,2025-01-04 05:51:33,2025-01-04 05:51:45,12.159,0.004%,
42,2025-01-04 07:25:32,2025-01-04 07:26:01,29.29,0.009%,
43,2025-01-04 12:10:47,2025-01-04 12:11:33,46.129,0.015%,
44,2025-01-04 13:44:24,2025-01-04 13:45:45,81.794,0.026%,
45,2025-01-04 13:45:53,2025-01-04 13:46:06,12.781,0.004%,
46,2025-01-04 15:19:08,2025-01-04 15:20:23,75.326,0.024%,
47,2025-01-04 16:53:54,2025-01-04 16:54:35,40.78,0.013%,
48,2025-01-04 16:54:47,2025-01-04 16:54:53,6.231,0.002%,
49,2025-01-04 18:28:43,2025-01-04 18:29:11,27.515,0.009%,
50,2025-01-04 23:13:51,2025-01-04 23:14:43,52.24,0.017%,
51,2025-01-05 00:47:34,2025-01-05 00:48:56,81.353,0.026%,
52,2025-01-05 00:49:06,2025-01-05 00:49:14,8.075,0.003%,
53,2025-01-05 02:22:19,2025-01-05 02:23:33,74.416,0.024%,
54,2025-01-05 03:57:05,2025-01-05 03:57:45,39.857,0.013%,
55,2025-01-05 05:31:55,2025-01-05 05:32:20,25.556,0.008%,
56,2025-01-05 10:16:54,2025-01-05 10:17:53,58.398,0.019%,
57,2025-01-05 11:50:45,2025-01-05 11:52:06,80.879,0.026%,
58,2025-01-05 13:25:29,2025-01-05 13:26:43,73.437,0.023%,
59,2025-01-05 15:00:16,2025-01-05 15:00:55,38.866,0.012%,
60,2025-01-05 16:35:07,2025-01-05 16:35:30,23.376,0.007%,
61,2025-01-05 21:19:58,2025-01-05 21:21:03,64.612,0.021%,
62,2025-01-05 22:53:56,2025-01-05 22:55:16,80.366,0.026%,
63,2025-01-06 00:28:40,2025-01-06 00:29:53,72.377,0.023%,
64,2025-01-06 02:03:27,2025-01-06 02:04:05,37.818,0.012%,
65,2025-01-06 03:38:18,2025-01-06 03:38:39,20.899,0.007%,
66,2025-01-06 08:23:02,2025-01-06 08:24:12,70.881,0.023%,
67,2025-01-06 09:57:06,2025-01-06 09:58:26,79.82,0.025%,
68,2025-01-06 11:31:51,2025-01-06 11:33:02,71.226,0.023%,
69,2025-01-06 13:06:38,2025-01-06 13:07:15,36.699,0.012%,
70,2025-01-06 14:41:30,2025-01-06 14:41:48,18.008,0.006%,
71,2025-01-06 19:26:05,2025-01-06 19:27:22,77.183,0.025%,
72,2025-01-06 21:00:17,2025-01-06 21:01:36,79.229,0.025%,
73,2025-01-06 22:35:02,2025-01-06 22:35:47,44.868,0.014%,
74,2025-01-06 22:35:48,2025-01-06 22:36:12,24.279,0.008%,
75,2025-01-07 00:09:49,2025-01-07 00:10:25,35.508,0.011%,
76,2025-01-07 01:44:43,2025-01-07 01:44:57,14.464,0.005%,
77,2025-01-07 06:29:08,2025-01-07 06:30:07,58.997,0.019%,
78,2025-01-07 06:30:08,2025-01-07 06:30:32,23.715,0.008%,
79,2025-01-07 08:03:28,2025-01-07 08:04:46,78.597,0.025%,
80,2025-01-07 09:38:13,2025-01-07 09:38:57,44.194,0.014%,
81,2025-01-07 09:38:59,2025-01-07 09:39:21,22.159,0.007%,
82,2025-01-07 11:13:00,2025-01-07 11:13:35,34.235,0.011%,
83,2025-01-07 12:47:56,2025-01-07 12:48:05,9.538,0.003%,
84,2025-01-07 17:32:12,2025-01-07 17:33:18,66.037,0.021%,
85,2025-01-07 17:33:20,2025-01-07 17:33:41,21.749,0.007%,
86,2025-01-07 19:06:38,2025-01-07 19:07:56,77.923,0.025%,
87,2025-01-07 20:41:24,2025-01-07 20:42:07,43.478,0.014%,
88,2025-01-07 20:42:11,2025-01-07 20:42:31,19.752,0.006%,
89,2025-01-07 22:16:12,2025-01-07 22:16:45,32.87,0.010%,
90,2025-01-08 04:35:15,2025-01-08 04:36:28,73.16,0.023%,
91,2025-01-08 04:36:31,2025-01-08 04:36:51,19.538,0.006%,
92,2025-01-08 06:09:49,2025-01-08 06:11:06,77.202,0.025%,
93,2025-01-08 07:44:35,2025-01-08 07:45:17,42.718,0.014%,
94,2025-01-08 07:45:23,2025-01-08 07:45:40,16.93,0.005%,
95,2025-01-08 09:19:23,2025-01-08 09:19:54,31.397,0.010%,
96,2025-01-08 15:38:18,2025-01-08 15:39:38,80.391,0.026%,
97,2025-01-08 15:39:43,2025-01-08 15:40:00,16.98,0.005%,
98,2025-01-08 17:13:00,2025-01-08 17:14:16,76.426,0.024%,
99,2025-01-08 18:47:46,2025-01-08 18:48:27,41.913,0.013%,
100,2025-01-08 18:48:35,2025-01-08 18:48:49,13.446,0.004%,
101,2025-01-08 20:22:34,2025-01-08 20:23:04,29.81,0.010%,
102,2025-01-09 02:41:26,2025-01-09 02:42:48,81.92,0.026%,
103,2025-01-09 02:42:55,2025-01-09 02:43:09,13.894,0.004%,
104,2025-01-09 04:16:10,2025-01-09 04:17:26,75.593,0.024%,
105,2025-01-09 05:50:57,2025-01-09 05:51:38,41.053,0.013%,
106,2025-01-09 05:51:48,2025-01-09 05:51:57,8.517,0.003%,
107,2025-01-09 07:25:46,2025-01-09 07:26:14,28.081,0.009%,
108,2025-01-09 13:44:37,2025-01-09 13:45:58,81.491,0.026%,
109,2025-01-09 13:46:08,2025-01-09 13:46:18,9.769,0.003%,
110,2025-01-09 15:19:21,2025-01-09 15:20:36,74.703,0.024%,
111,2025-01-09 16:54:08,2025-01-09 16:54:48,40.148,0.013%,
112,2025-01-09 18:28:57,2025-01-09 18:29:23,26.178,0.008%,
113,2025-01-10 00:47:48,2025-01-10 00:49:09,81.028,0.026%,
114,2025-01-10 02:22:32,2025-01-10 02:23:46,73.745,0.023%,
115,2025-01-10 03:57:19,2025-01-10 03:57:58,39.173,0.012%,
116,2025-01-10 05:32:09,2025-01-10 05:32:33,24.068,0.008%,
117,2025-01-10 11:50:58,2025-01-10 11:52:19,80.527,0.026%,
118,2025-01-10 13:25:43,2025-01-10 13:26:56,72.712,0.023%,
119,2025-01-10 15:00:30,2025-01-10 15:01:08,38.149,0.012%,
120,2025-01-10 16:35:21,2025-01-10 16:35:42,21.693,0.007%,
121,2025-01-10 22:54:09,2025-01-10 22:55:29,79.989,0.025%,
122,2025-01-11 00:28:54,2025-01-11 00:30:05,71.588,0.023%,
123,2025-01-11 02:03:41,2025-01-11 02:04:18,37.05,0.012%,
124,2025-01-11 03:38:33,2025-01-11 03:38:51,18.952,0.006%,
125,2025-01-11 09:57:19,2025-01-11 09:58:39,79.412,0.025%,
126,2025-01-11 11:32:04,2025-01-11 11:32:50,45.067,0.014%,
127,2025-01-11 11:32:50,2025-01-11 11:33:15,24.884,0.008%,
128,2025-01-11 13:06:52,2025-01-11 13:07:28,35.882,0.011%,
129,2025-01-11 14:41:45,2025-01-11 14:42:00,15.645,0.005%,
130,2025-01-11 21:00:30,2025-01-11 21:01:49,78.795,0.025%,
131,2025-01-11 22:35:15,2025-01-11 22:36:00,44.409,0.014%,
132,2025-01-11 22:36:02,2025-01-11 22:36:24,22.835,0.007%,
133,2025-01-12 00:10:03,2025-01-12 00:10:38,34.634,0.011%,
134,2025-01-12 01:44:57,2025-01-12 01:45:09,11.287,0.004%,
135,2025-01-12 08:03:41,2025-01-12 08:04:59,78.133,0.025%,
136,2025-01-12 09:38:26,2025-01-12 09:39:10,43.705,0.014%,
137,2025-01-12 09:39:13,2025-01-12 09:39:34,20.524,0.007%,
138,2025-01-12 11:13:14,2025-01-12 11:13:47,33.298,0.011%,
139,2025-01-12 12:48:12,2025-01-12 12:48:15,2.708,0.001%,
140,2025-01-12 19:06:52,2025-01-12 19:08:09,77.427,0.025%,
141,2025-01-12 20:41:37,2025-01-12 20:42:20,42.956,0.014%,
142,2025-01-12 20:42:25,2025-01-12 20:42:43,17.845,0.006%,
143,2025-01-12 22:16:25,2025-01-12 22:16:57,31.858,0.010%,
144,2025-01-13 06:10:02,2025-01-13 06:11:19,76.669,0.024%,
145,2025-01-13 07:44:48,2025-01-13 07:45:30,42.163,0.013%,
146,2025-01-13 07:45:37,2025-01-13 07:45:52,14.606,0.005%,
147,2025-01-13 09:19:37,2025-01-13 09:20:07,30.306,0.010%,
148,2025-01-13 17:13:13,2025-01-13 17:14:29,75.856,0.024%,
149,2025-01-13 18:47:59,2025-01-13 18:48:40,41.322,0.013%,
150,2025-01-13 18:48:50,2025-01-13 18:49:00,10.287,0.003%,
151,2025-01-13 20:22:48,2025-01-13 20:23:17,28.623,0.009%,
152,2025-01-14 02:43:17,2025-01-14 02:43:21,4.319,0.001%,
153,2025-01-14 04:16:24,2025-01-14 04:17:39,74.981,0.024%,
154,2025-01-14 05:51:10,2025-01-14 05:51:50,40.431,0.013%,
155,2025-01-14 07:26:00,2025-01-14 07:26:26,26.777,0.009%,
156,2025-01-14 13:46:23,2025-01-14 13:46:29,5.15,0.002%,
157,2025-01-14 15:19:35,2025-01-14 15:20:49,74.044,0.024%,
158,2025-01-14 16:54:21,2025-01-14 16:55:01,39.478,0.013%,
159,2025-01-14 18:29:11,2025-01-14 18:29:36,24.735,0.008%,
160,2025-01-15 00:49:19,2025-01-15 00:49:21,2.257,0.001%,
161,2025-01-15 02:22:45,2025-01-15 02:23:58,73.035,0.023%,
162,2025-01-15 03:57:32,2025-01-15 03:58:11,38.466,0.012%,
163,2025-01-15 05:32:23,2025-01-15 05:32:45,22.457,0.007%,
164,2025-01-15 11:52:20,2025-01-15 11:52:32,11.328,0.004%,
165,2025-01-15 13:25:56,2025-01-15 13:27:08,71.938,0.023%,
166,2025-01-15 15:00:43,2025-01-15 15:01:21,37.392,0.012%,
167,2025-01-15 16:35:35,2025-01-15 16:35:55,19.837,0.006%,
168,2025-01-15 22:55:21,2025-01-15 22:55:42,20.513,0.007%,
169,2025-01-16 00:29:07,2025-01-16 00:29:52,45.259,0.014%,
170,2025-01-16 00:29:52,2025-01-16 00:30:18,25.465,0.008%,
171,2025-01-16 02:03:54,2025-01-16 02:04:31,36.245,0.012%,
172,2025-01-16 03:38:47,2025-01-16 03:39:04,16.734,0.005%,
173,2025-01-16 09:58:22,2025-01-16 09:58:52,29.819,0.010%,
174,2025-01-16 11:32:18,2025-01-16 11:33:03,44.613,0.014%,
175,2025-01-16 11:33:04,2025-01-16 11:33:27,23.484,0.007%,
176,2025-01-16 13:07:05,2025-01-16 13:07:40,35.025,0.011%,
177,2025-01-16 14:41:59,2025-01-16 14:42:12,12.79,0.004%,
178,2025-01-16 21:01:23,2025-01-16 21:02:02,39.235,0.012%,
179,2025-01-16 22:35:29,2025-01-16 22:36:13,43.924,0.014%,
180,2025-01-16 22:36:16,2025-01-16 22:36:37,21.261,0.007%,
181,2025-01-17 00:10:17,2025-01-17 00:10:50,33.716,0.011%,
182,2025-01-17 01:45:13,2025-01-17 01:45:20,6.657,0.002%,
183,2025-01-17 08:04:23,2025-01-17 08:05:12,48.775,0.016%,
184,2025-01-17 09:38:40,2025-01-17 09:39:23,43.188,0.014%,
185,2025-01-17 09:39:27,2025-01-17 09:39:46,18.711,0.006%,
186,2025-01-17 11:13:28,2025-01-17 11:14:00,32.313,0.010%,
187,2025-01-17 19:07:23,2025-01-17 19:08:22,58.433,0.019%,
188,2025-01-17 20:41:51,2025-01-17 20:42:33,42.411,0.013%,
189,2025-01-17 20:42:39,2025-01-17 20:42:55,15.677,0.005%,
190,2025-01-17 22:16:39,2025-01-17 22:17:10,30.795,0.010%,
191,2025-01-18 06:10:24,2025-01-18 06:11:32,68.202,0.022%,
192,2025-01-18 07:45:02,2025-01-18 07:45:43,41.587,0.013%,
193,2025-01-18 07:45:52,2025-01-18 07:46:04,11.789,0.004%,
194,2025-01-18 09:19:51,2025-01-18 09:20:20,29.151,0.009%,
195,2025-01-18 17:13:26,2025-01-18 17:14:42,75.256,0.024%,
196,2025-01-18 18:48:13,2025-01-18 18:48:53,40.707,0.013%,
197,2025-01-18 18:49:06,2025-01-18 18:49:11,5.458,0.002%,
198,2025-01-18 20:23:02,2025-01-18 20:23:29,27.362,0.009%,
199,2025-01-19 04:16:37,2025-01-19 04:17:52,74.339,0.024%,
200,2025-01-19 05:51:24,2025-01-19 05:52:03,39.779,0.013%,
201,2025-01-19 07:26:14,2025-01-19 07:26:39,25.388,0.008%,
202,2025-01-19 15:19:48,2025-01-19 15:21:01,73.353,0.023%,
203,2025-01-19 16:54:35,2025-01-19 16:55:13,38.783,0.012%,
204,2025-01-19 18:29:25,2025-01-19 18:29:48,23.188,0.007%,
205,2025-01-20 02:22:59,2025-01-20 02:24:11,72.286,0.023%,
206,2025-01-20 03:57:46,2025-01-20 03:58:23,37.729,0.012%,
207,2025-01-20 05:32:37,2025-01-20 05:32:58,20.684,0.007%,
208,2025-01-20 13:26:10,2025-01-20 13:27:21,71.128,0.023%,
209,2025-01-20 15:00:57,2025-01-20 15:01:33,36.605,0.012%,
210,2025-01-20 16:35:49,2025-01-20 16:36:07,17.752,0.006%,
211,2025-01-21 00:29:20,2025-01-21 00:30:05,44.814,0.014%,
212,2025-01-21 00:30:06,2025-01-21 00:30:30,24.115,0.008%,
213,2025-01-21 02:04:08,2025-01-21 02:04:43,35.408,0.011%,
214,2025-01-21 03:39:01,2025-01-21 03:39:15,14.131,0.005%,
215,2025-01-21 11:32:31,2025-01-21 11:33:15,44.137,0.014%,
216,2025-01-21 11:33:18,2025-01-21 11:33:40,21.972,0.007%,
217,2025-01-21 13:07:19,2025-01-21 13:07:53,34.127,0.011%,
218,2025-01-21 14:42:14,2025-01-21 14:42:23,9.016,0.003%,
219,2025-01-21 22:35:42,2025-01-21 22:36:26,43.425,0.014%,
220,2025-01-21 22:36:30,2025-01-21 22:36:49,19.536,0.006%,
221,2025-01-22 00:10:30,2025-01-22 00:11:03,32.755,0.010%,
222,2025-01-22 09:38:53,2025-01-22 09:39:36,42.655,0.014%,
223,2025-01-22 09:39:42,2025-01-22 09:39:58,16.676,0.005%,
224,2025-01-22 11:13:42,2025-01-22 11:14:13,31.274,0.010%,
225,2025-01-22 20:42:04,2025-01-22 20:42:46,41.845,0.013%,
226,2025-01-22 20:42:54,2025-01-22 20:43:07,13.121,0.004%,
227,2025-01-22 22:16:53,2025-01-22 22:17:23,29.673,0.009%,
228,2025-01-23 07:45:15,2025-01-23 07:45:56,40.982,0.013%,
229,2025-01-23 07:46:07,2025-01-23 07:46:15,7.976,0.003%,
230,2025-01-23 09:20:04,2025-01-23 09:20:32,27.934,0.009%,
231,2025-01-23 17:14:47,2025-01-23 17:14:54,7.394,0.002%,
232,2025-01-23 18:48:26,2025-01-23 18:49:06,40.07,0.013%,
233,2025-01-23 20:23:16,2025-01-23 20:23:42,26.017,0.008%,
234,2025-01-24 04:17:45,2025-01-24 04:18:04,19.052,0.006%,
235,2025-01-24 05:51:37,2025-01-24 05:52:16,39.093,0.012%,
236,2025-01-24 07:26:27,2025-01-24 07:26:51,23.891,0.008%,
237,2025-01-24 15:20:43,2025-01-24 15:21:14,30.821,0.010%,
238,2025-01-24 16:54:48,2025-01-24 16:55:26,38.06,0.012%,
239,2025-01-24 18:29:39,2025-01-24 18:30:01,21.489,0.007%,
240,2025-01-25 02:23:41,2025-01-25 02:24:24,42.684,0.014%,
241,2025-01-25 03:57:59,2025-01-25 03:58:36,36.959,0.012%,
242,2025-01-25 05:32:51,2025-01-25 05:33:10,18.712,0.006%,
243,2025-01-25 13:26:39,2025-01-25 13:27:08,29.387,0.009%,
244,2025-01-25 13:27:09,2025-01-25 13:27:33,24.724,0.008%,
245,2025-01-25 15:01:10,2025-01-25 15:01:46,35.785,0.011%,
246,2025-01-25 16:36:03,2025-01-25 16:36:19,15.346,0.005%,
247,2025-01-26 00:29:36,2025-01-26 00:30:18,42.085,0.013%,
248,2025-01-26 00:30:20,2025-01-26 00:30:43,22.659,0.007%,
249,2025-01-26 02:04:22,2025-01-26 02:04:56,34.531,0.011%,
250,2025-01-26 03:39:16,2025-01-26 03:39:27,10.858,0.003%,
251,2025-01-26 11:32:45,2025-01-26 11:33:28,43.651,0.014%,
252,2025-01-26 11:33:32,2025-01-26 11:33:52,20.322,0.006%,
253,2025-01-26 13:07:33,2025-01-26 13:08:06,33.188,0.011%,
254,2025-01-26 22:35:56,2025-01-26 22:36:39,42.895,0.014%,
255,2025-01-26 22:36:44,2025-01-26 22:37:01,17.61,0.006%,
256,2025-01-27 00:10:44,2025-01-27 00:11:16,31.737,0.010%,
257,2025-01-27 09:39:07,2025-01-27 09:39:49,42.098,0.013%,
258,2025-01-27 09:39:56,2025-01-27 09:40:10,14.308,0.005%,
259,2025-01-27 11:13:55,2025-01-27 11:14:26,30.178,0.010%,
260,2025-01-27 20:42:18,2025-01-27 20:42:59,41.253,0.013%,
261,2025-01-27 20:43:09,2025-01-27 20:43:19,9.851,0.003%,
262,2025-01-27 22:17:07,2025-01-27 22:17:35,28.481,0.009%,
263,2025-01-28 07:45:29,2025-01-28 07:46:09,40.358,0.013%,
264,2025-01-28 09:20:18,2025-01-28 09:20:45,26.623,0.008%,
265,2025-01-28 18:48:40,2025-01-28 18:49:19,39.4,0.013%,
266,2025-01-28 20:23:30,2025-01-28 20:23:54,24.563,0.008%,
267,2025-01-29 05:51:51,2025-01-29 05:52:29,38.384,0.012%,
268,2025-01-29 07:26:42,2025-01-29 07:27:04,22.26,0.007%,
269,2025-01-29 16:55:02,2025-01-29 16:55:39,37.302,0.012%,
270,2025-01-29 18:29:53,2025-01-29 18:30:13,19.611,0.006%,
271,2025-01-30 03:58:13,2025-01-30 03:58:49,36.152,0.012%,
272,2025-01-30 05:33:06,2025-01-30 05:33:22,16.458,0.005%,
273,2025-01-30 13:27:36,2025-01-30 13:27:46,10.261,0.003%,
274,2025-01-30 15:01:24,2025-01-30 15:01:59,34.924,0.011%,
275,2025-01-30 16:36:18,2025-01-30 16:36:30,12.413,0.004%,
276,2025-01-31 00:30:31,2025-01-31 00:30:31,0.027,0.000%,
277,2025-01-31 00:30:34,2025-01-31 00:30:55,21.07,0.007%,
278,2025-01-31 02:04:35,2025-01-31 02:05:09,33.606,0.011%,
279,2025-01-31 03:39:32,2025-01-31 03:39:38,5.888,0.002%,
280,2025-01-31 11:33:27,2025-01-31 11:33:41,14.723,0.005%,
281,2025-01-31 11:33:46,2025-01-31 11:34:05,18.487,0.006%,
282,2025-01-31 13:07:46,2025-01-31 13:08:19,32.192,0.010%,
283,2025-01-31 22:36:22,2025-01-31 22:36:52,29.576,0.009%,
284,2025-01-31 22:36:58,2025-01-31 22:37:14,15.403,0.005%,
285,2025-02-01 00:10:58,2025-02-01 00:11:28,30.668,0.010%,
286,2025-02-01 09:39:20,2025-02-01 09:40:02,41.517,0.013%,
287,2025-02-01 09:40:11,2025-02-01 09:40:22,11.414,0.004%,
288,2025-02-01 11:14:09,2025-02-01 11:14:38,29.016,0.009%,
289,2025-02-01 20:42:31,2025-02-01 20:43:12,40.639,0.013%,
290,2025-02-01 20:43:25,2025-02-01 20:43:29,4.574,0.002%,
291,2025-02-01 22:17:21,2025-02-01 22:17:48,27.211,0.009%,
292,2025-02-02 07:45:42,2025-02-02 07:46:22,39.698,0.013%,
293,2025-02-02 09:20:32,2025-02-02 09:20:57,25.222,0.008%,
294,2025-02-02 18:48:53,2025-02-02 18:49:32,38.702,0.012%,
295,2025-02-02 20:23:44,2025-02-02 20:24:07,23.001,0.007%,
296,2025-02-03 05:52:04,2025-02-03 05:52:42,37.642,0.012%,
297,2025-02-03 07:26:56,2025-02-03 07:27:16,20.466,0.007%,
298,2025-02-03 16:55:15,2025-02-03 16:55:52,36.513,0.012%,
299,2025-02-03 18:30:08,2025-02-03 18:30:25,17.493,0.006%,
300,2025-02-04 03:58:27,2025-02-04 03:59:02,35.309,0.011%,
301,2025-02-04 05:33:20,2025-02-04 05:33:34,13.801,0.004%,
302,2025-02-04 15:01:38,2025-02-04 15:02:12,34.022,0.011%,
303,2025-02-04 16:36:33,2025-02-04 16:36:42,8.477,0.003%,
304,2025-02-05 00:31:06,2025-02-05 00:31:08,1.93,0.001%,
305,2025-02-05 02:04:49,2025-02-05 02:05:22,32.641,0.010%,
306,2025-02-05 11:34:00,2025-02-05 11:34:17,16.423,0.005%,
307,2025-02-05 13:08:00,2025-02-05 13:08:31,31.152,0.010%,
308,2025-02-05 22:36:53,2025-02-05 22:37:04,11.859,0.004%,
309,2025-02-05 22:37:13,2025-02-05 22:37:25,12.786,0.004%,
310,2025-02-06 00:11:12,2025-02-06 00:11:41,29.54,0.009%,
311,2025-02-06 09:39:46,2025-02-06 09:40:15,28.762,0.009%,
312,2025-02-06 09:40:26,2025-02-06 09:40:33,7.408,0.002%,
313,2025-02-06 11:14:23,2025-02-06 11:14:51,27.788,0.009%,
314,2025-02-06 20:42:45,2025-02-06 20:43:25,39.997,0.013%,
315,2025-02-06 22:17:34,2025-02-06 22:18:00,25.857,0.008%,
316,2025-02-07 07:45:56,2025-02-07 07:46:35,39.014,0.012%,
317,2025-02-07 09:20:46,2025-02-07 09:21:10,23.712,0.008%,
318,2025-02-07 18:49:07,2025-02-07 18:49:45,37.975,0.012%,
319,2025-02-07 20:23:58,2025-02-07 20:24:19,21.285,0.007%,
320,2025-02-08 05:52:18,2025-02-08 05:52:55,36.866,0.012%,
321,2025-02-08 07:27:10,2025-02-08 07:27:28,18.472,0.006%,
322,2025-02-08 16:55:29,2025-02-08 16:56:05,35.689,0.011%,
323,2025-02-08 18:30:22,2025-02-08 18:30:37,15.045,0.005%,
324,2025-02-09 03:58:40,2025-02-09 03:59:15,34.428,0.011%,
325,2025-02-09 05:33:35,2025-02-09 05:33:45,10.416,0.003%,
326,2025-02-09 15:01:51,2025-02-09 15:02:24,33.076,0.011%,
327,2025-02-10 00:31:20,2025-02-10 00:31:20,0.299,0.000%,
328,2025-02-10 02:05:03,2025-02-10 02:05:34,31.617,0.010%,
329,2025-02-10 11:34:15,2025-02-10 11:34:29,14.011,0.004%,
330,2025-02-10 13:08:14,2025-02-10 13:08:44,30.047,0.010%,
331,2025-02-10 22:37:03,2025-02-10 22:37:17,14.592,0.005%,
332,2025-02-10 22:37:28,2025-02-10 22:37:37,9.404,0.003%,
333,2025-02-11 00:11:25,2025-02-11 00:11:54,28.342,0.009%,
334,2025-02-11 09:39:54,2025-02-11 09:40:27,33.312,0.011%,
335,2025-02-11 11:14:37,2025-02-11 11:15:03,26.469,0.008%,
336,2025-02-11 20:42:58,2025-02-11 20:43:38,39.322,0.013%,
337,2025-02-11 22:17:48,2025-02-11 22:18:13,24.392,0.008%,
338,2025-02-12 07:46:09,2025-02-12 07:46:48,38.303,0.012%,
339,2025-02-12 09:21:00,2025-02-12 09:21:22,22.067,0.007%,
340,2025-02-12 18:49:20,2025-02-12 18:49:58,37.216,0.012%,
341,2025-02-12 20:24:12,2025-02-12 20:24:31,19.386,0.006%,
342,2025-02-13 05:52:31,2025-02-13 05:53:08,36.059,0.011%,
343,2025-02-13 07:27:24,2025-02-13 07:27:40,16.179,0.005%,
344,2025-02-13 16:55:43,2025-02-13 16:56:17,34.824,0.011%,
345,2025-02-13 18:30:37,2025-02-13 18:30:49,12.038,0.004%,
346,2025-02-14 03:58:54,2025-02-14 03:59:27,33.502,0.011%,
347,2025-02-14 05:33:51,2025-02-14 05:33:56,5.028,0.002%,
348,2025-02-14 15:02:05,2025-02-14 15:02:37,32.078,0.010%,
349,2025-02-15 00:31:17,2025-02-15 00:31:32,15.13,0.005%,
350,2025-02-15 02:05:16,2025-02-15 02:05:47,30.545,0.010%,
351,2025-02-15 11:34:04,2025-02-15 11:34:20,16.3,0.005%,
352,2025-02-15 11:34:29,2025-02-15 11:34:40,11.037,0.004%,
353,2025-02-15 13:08:28,2025-02-15 13:08:57,28.883,0.009%,
354,2025-02-15 22:36:54,2025-02-15 22:37:30,36.558,0.012%,
355,2025-02-15 22:37:44,2025-02-15 22:37:47,3.511,0.001%,
356,2025-02-16 00:11:39,2025-02-16 00:12:06,27.064,0.009%,
357,2025-02-16 09:40:01,2025-02-16 09:40:40,39.623,0.013%,
358,2025-02-16 11:14:51,2025-02-16 11:15:16,25.059,0.008%,
359,2025-02-16 20:43:12,2025-02-16 20:43:50,38.622,0.012%,
360,2025-02-16 22:18:02,2025-02-16 22:18:25,22.819,0.007%,
361,2025-02-17 07:46:23,2025-02-17 07:47:00,37.559,0.012%,
362,2025-02-17 09:21:14,2025-02-17 09:21:35,20.256,0.006%,
363,2025-02-17 18:49:34,2025-02-17 18:50:10,36.423,0.012%,
364,2025-02-17 20:24:26,2025-02-17 20:24:44,17.241,0.006%,
365,2025-02-18 05:52:45,2025-02-18 05:53:20,35.213,0.011%,
366,2025-02-18 07:27:39,2025-02-18 07:27:52,13.464,0.004%,
367,2025-02-18 16:55:56,2025-02-18 16:56:30,33.919,0.011%,
368,2025-02-18 18:30:52,2025-02-18 18:31:00,7.915,0.003%,
369,2025-02-19 02:25:13,2025-02-19 02:25:26,12.912,0.004%,
370,2025-02-19 03:59:08,2025-02-19 03:59:40,32.531,0.010%,
371,2025-02-19 13:28:02,2025-02-19 13:28:13,11.009,0.004%,
372,2025-02-19 13:28:19,2025-02-19 13:28:35,16.175,0.005%,
373,2025-02-19 15:02:19,2025-02-19 15:02:50,31.031,0.010%,
374,2025-02-20 00:30:50,2025-02-20 00:31:23,32.568,0.010%,
375,2025-02-20 00:31:31,2025-02-20 00:31:44,12.458,0.004%,
376,2025-02-20 02:05:30,2025-02-20 02:06:00,29.409,0.009%,
377,2025-02-20 11:33:52,2025-02-20 11:34:33,40.844,0.013%,
378,2025-02-20 11:34:45,2025-02-20 11:34:52,6.816,0.002%,
379,2025-02-20 13:08:42,2025-02-20 13:09:09,27.649,0.009%,
380,2025-02-20 22:37:03,2025-02-20 22:37:43,39.924,0.013%,
381,2025-02-21 00:11:53,2025-02-21 00:12:19,25.704,0.008%,
382,2025-02-21 09:40:14,2025-02-21 09:40:53,38.938,0.012%,
383,2025-02-21 11:15:05,2025-02-21 11:15:28,23.539,0.008%,
384,2025-02-21 20:43:25,2025-02-21 20:44:03,37.894,0.012%,
385,2025-02-21 22:18:17,2025-02-21 22:18:38,21.088,0.007%,
386,2025-02-22 07:46:36,2025-02-22 07:47:13,36.781,0.012%,
387,2025-02-22 09:21:28,2025-02-22 09:21:47,18.232,0.006%,
388,2025-02-22 18:49:48,2025-02-22 18:50:23,35.596,0.011%,
389,2025-02-22 20:24:41,2025-02-22 20:24:56,14.75,0.005%,
390,2025-02-23 04:19:02,2025-02-23 04:19:20,18.25,0.006%,
391,2025-02-23 05:52:59,2025-02-23 05:53:33,34.329,0.011%,
392,2025-02-23 07:27:54,2025-02-23 07:28:04,9.976,0.003%,
393,2025-02-23 15:21:49,2025-02-23 15:22:05,16.439,0.005%,
394,2025-02-23 15:22:09,2025-02-23 15:22:29,19.928,0.006%,
395,2025-02-23 16:56:10,2025-02-23 16:56:43,32.97,0.011%,
396,2025-02-24 02:24:36,2025-02-24 02:25:16,39.177,0.012%,
397,2025-02-24 02:25:21,2025-02-24 02:25:38,17.147,0.005%,
398,2025-02-24 03:59:21,2025-02-24 03:59:53,31.504,0.010%,
399,2025-02-24 13:27:44,2025-02-24 13:28:26,41.973,0.013%,
400,2025-02-24 13:28:33,2025-02-24 13:28:47,13.722,0.004%,
401,2025-02-24 15:02:33,2025-02-24 15:03:03,29.925,0.010%,
402,2025-02-25 00:30:55,2025-02-25 00:31:36,41.121,0.013%,
403,2025-02-25 00:31:46,2025-02-25 00:31:55,8.957,0.003%,
404,2025-02-25 02:05:44,2025-02-25 02:06:12,28.207,0.009%,
405,2025-02-25 11:34:06,2025-02-25 11:34:46,40.215,0.013%,
406,2025-02-25 13:08:55,2025-02-25 13:09:22,26.321,0.008%,
407,2025-02-25 22:37:17,2025-02-25 22:37:56,39.244,0.012%,
408,2025-02-26 00:12:07,2025-02-26 00:12:31,24.23,0.008%,
409,2025-02-26 09:40:28,2025-02-26 09:41:06,38.223,0.012%,
410,2025-02-26 11:15:19,2025-02-26 11:15:41,21.875,0.007%,
411,2025-02-26 19:09:53,2025-02-26 19:10:04,10.181,0.003%,
412,2025-02-26 20:43:39,2025-02-26 20:44:16,37.132,0.012%,
413,2025-02-26 22:18:31,2025-02-26 22:18:50,19.165,0.006%,
414,2025-02-27 06:12:40,2025-02-27 06:12:48,7.854,0.003%,
415,2025-02-27 06:12:48,2025-02-27 06:13:13,25.021,0.008%,
416,2025-02-27 07:46:50,2025-02-27 07:47:26,35.969,0.011%,
417,2025-02-27 09:21:43,2025-02-27 09:21:59,15.911,0.005%,
418,2025-02-27 17:15:27,2025-02-27 17:15:58,31.565,0.010%,
419,2025-02-27 17:16:00,2025-02-27 17:16:23,22.99,0.007%,
420,2025-02-27 18:50:01,2025-02-27 18:50:36,34.728,0.011%,
421,2025-02-27 20:24:56,2025-02-27 20:25:07,11.664,0.004%,
422,2025-02-28 04:18:25,2025-02-28 04:19:08,43.757,0.014%,
423,2025-02-28 04:19:11,2025-02-28 04:19:32,20.7,0.007%,
424,2025-02-28 05:53:12,2025-02-28 05:53:46,33.401,0.011%,
425,2025-02-28 07:28:10,2025-02-28 07:28:14,4.033,0.001%,
426,2025-02-28 15:21:35,2025-02-28 15:22:18,43.012,0.014%,
427,2025-02-28 15:22:23,2025-02-28 15:22:41,18.054,0.006%,
428,2025-02-28 16:56:24,2025-02-28 16:56:56,31.968,0.010%,
429,2025-03-01 02:24:46,2025-03-01 02:25:29,42.224,0.013%,
430,2025-03-01 02:25:35,2025-03-01 02:25:50,14.867,0.005%,
431,2025-03-01 03:59:35,2025-03-01 04:00:05,30.424,0.010%,
432,2025-03-01 13:27:57,2025-03-01 13:28:39,41.389,0.013%,
433,2025-03-01 13:28:48,2025-03-01 13:28:59,10.663,0.003%,
434,2025-03-01 15:02:46,2025-03-01 15:03:15,28.753,0.009%,
435,2025-03-02 00:31:08,2025-03-02 00:31:49,40.5,0.013%,
436,2025-03-02 00:32:03,2025-03-02 00:32:05,2.02,0.001%,
437,2025-03-02 02:05:58,2025-03-02 02:06:25,26.922,0.009%,
438,2025-03-02 10:00:38,2025-03-02 10:00:47,8.769,0.003%,
439,2025-03-02 11:34:19,2025-03-02 11:34:59,39.551,0.013%,
440,2025-03-02 13:09:09,2025-03-02 13:09:34,24.902,0.008%,
441,2025-03-02 21:03:24,2025-03-02 21:03:57,32.813,0.010%,
442,2025-03-02 22:37:30,2025-03-02 22:38:09,38.545,0.012%,
443,2025-03-03 00:12:21,2025-03-03 00:12:44,22.641,0.007%,
444,2025-03-03 08:06:10,2025-03-03 08:07:07,56.892,0.018%,
445,2025-03-03 09:40:41,2025-03-03 09:41:19,37.479,0.012%,
446,2025-03-03 11:15:33,2025-03-03 11:15:53,20.051,0.006%,
447,2025-03-03 19:09:05,2025-03-03 19:10:16,70.846,0.023%,
448,2025-03-03 20:43:53,2025-03-03 20:44:29,36.336,0.012%,
449,2025-03-03 22:18:45,2025-03-03 22:19:02,16.995,0.005%,
450,2025-03-04 06:12:16,2025-03-04 06:13:01,44.663,0.014%,
451,2025-03-04 06:13:02,2025-03-04 06:13:26,23.641,0.008%,
452,2025-03-04 07:47:04,2025-03-04 07:47:39,35.12,0.011%,
453,2025-03-04 09:21:57,2025-03-04 09:22:11,13.139,0.004%,
454,2025-03-04 17:15:27,2025-03-04 17:16:11,43.98,0.014%,
455,2025-03-04 17:16:14,2025-03-04 17:16:35,21.441,0.007%,
456,2025-03-04 18:50:15,2025-03-04 18:50:49,33.822,0.011%,
457,2025-03-04 20:25:11,2025-03-04 20:25:18,7.33,0.002%,
458,2025-03-05 04:18:38,2025-03-05 04:19:21,43.25,0.014%,
459,2025-03-05 04:19:26,2025-03-05 04:19:44,18.923,0.006%,
460,2025-03-05 05:53:26,2025-03-05 05:53:59,32.424,0.010%,
461,2025-03-05 15:21:49,2025-03-05 15:22:31,42.474,0.014%,
462,2025-03-05 15:22:38,2025-03-05 15:22:54,15.934,0.005%,
463,2025-03-05 16:56:37,2025-03-05 16:57:08,30.918,0.010%,
464,2025-03-06 00:51:17,2025-03-06 00:51:30,13.485,0.004%,
465,2025-03-06 02:25:00,2025-03-06 02:25:41,41.653,0.013%,
466,2025-03-06 02:25:50,2025-03-06 02:26:02,12.14,0.004%,
467,2025-03-06 03:59:49,2025-03-06 04:00:18,29.286,0.009%,
468,2025-03-06 11:54:02,2025-03-06 11:54:40,38.411,0.012%,
469,2025-03-06 13:28:11,2025-03-06 13:28:52,40.778,0.013%,
470,2025-03-06 13:29:04,2025-03-06 13:29:10,6.199,0.002%,
471,2025-03-06 15:03:00,2025-03-06 15:03:28,27.511,0.009%,
472,2025-03-06 22:56:47,2025-03-06 22:57:50,63.377,0.020%,
473,2025-03-07 00:31:22,2025-03-07 00:32:02,39.855,0.013%,
474,2025-03-07 02:06:12,2025-03-07 02:06:37,25.552,0.008%,
475,2025-03-07 09:59:46,2025-03-07 10:01:00,73.433,0.023%,
476,2025-03-07 11:34:33,2025-03-07 11:35:12,38.864,0.012%,
477,2025-03-07 13:09:23,2025-03-07 13:09:47,23.372,0.007%,
478,2025-03-07 21:02:57,2025-03-07 21:04:09,72.373,0.023%,
479,2025-03-07 22:37:44,2025-03-07 22:38:22,37.816,0.012%,
480,2025-03-08 00:12:35,2025-03-08 00:12:56,20.895,0.007%,
481,2025-03-08 08:06:08,2025-03-08 08:07:19,71.222,0.023%,
482,2025-03-08 09:40:55,2025-03-08 09:41:32,36.697,0.012%,
483,2025-03-08 11:15:47,2025-03-08 11:16:05,18.004,0.006%,
484,2025-03-08 19:09:19,2025-03-08 19:10:04,44.867,0.014%,
485,2025-03-08 19:10:04,2025-03-08 19:10:29,24.273,0.008%,
486,2025-03-08 20:44:06,2025-03-08 20:44:42,35.506,0.011%,
487,2025-03-08 22:18:59,2025-03-08 22:19:14,14.459,0.005%,
488,2025-03-09 06:12:30,2025-03-09 06:13:14,44.193,0.014%,
489,2025-03-09 06:13:16,2025-03-09 06:13:38,22.152,0.007%,
490,2025-03-09 07:47:17,2025-03-09 07:47:52,34.233,0.011%,
491,2025-03-09 09:22:12,2025-03-09 09:22:22,9.527,0.003%,
492,2025-03-09 15:41:49,2025-03-09 15:42:13,23.604,0.008%,
493,2025-03-09 17:15:41,2025-03-09 17:16:24,43.477,0.014%,
494,2025-03-09 17:16:28,2025-03-09 17:16:48,19.744,0.006%,
495,2025-03-09 18:50:29,2025-03-09 18:51:01,32.868,0.010%,
496,2025-03-10 02:44:34,2025-03-10 02:45:23,49.264,0.016%,
497,2025-03-10 04:18:51,2025-03-10 04:19:34,42.72,0.014%,
498,2025-03-10 04:19:40,2025-03-10 04:19:57,16.922,0.005%,
499,2025-03-10 05:53:40,2025-03-10 05:54:11,31.395,0.010%,
500,2025-03-10 13:47:18,2025-03-10 13:48:33,74.952,0.024%,
501,2025-03-10 15:22:02,2025-03-10 15:22:44,41.912,0.013%,
502,2025-03-10 15:22:52,2025-03-10 15:23:06,13.435,0.004%,
503,2025-03-10 16:56:51,2025-03-10 16:57:21,29.808,0.010%,
504,2025-03-11 00:50:27,2025-03-11 00:51:43,75.591,0.024%,
505,2025-03-11 02:25:13,2025-03-11 02:25:54,41.052,0.013%,
506,2025-03-11 02:26:05,2025-03-11 02:26:14,8.499,0.003%,
507,2025-03-11 04:00:03,2025-03-11 04:00:31,28.079,0.009%,
508,2025-03-11 11:53:38,2025-03-11 11:54:53,74.701,0.024%,
509,2025-03-11 13:28:24,2025-03-11 13:29:04,40.147,0.013%,
510,2025-03-11 15:03:14,2025-03-11 15:03:40,26.177,0.008%,
511,2025-03-11 22:56:49,2025-03-11 22:58:03,73.743,0.023%,
512,2025-03-12 00:31:35,2025-03-12 00:32:15,39.173,0.012%,
513,2025-03-12 02:06:26,2025-03-12 02:06:50,24.068,0.008%,
514,2025-03-12 10:00:00,2025-03-12 10:01:12,72.711,0.023%,
515,2025-03-12 11:34:46,2025-03-12 11:35:25,38.149,0.012%,
516,2025-03-12 13:09:37,2025-03-12 13:09:59,21.694,0.007%,
517,2025-03-12 19:29:34,2025-03-12 19:29:46,11.983,0.004%,
518,2025-03-12 21:03:10,2025-03-12 21:04:22,71.587,0.023%,
519,2025-03-12 22:37:58,2025-03-12 22:38:35,37.05,0.012%,
520,2025-03-13 00:12:49,2025-03-13 00:13:08,18.953,0.006%,
521,2025-03-13 06:32:18,2025-03-13 06:32:56,38.186,0.012%,
522,2025-03-13 08:06:21,2025-03-13 08:07:06,45.067,0.014%,
523,2025-03-13 08:07:07,2025-03-13 08:07:32,24.882,0.008%,
524,2025-03-13 09:41:09,2025-03-13 09:41:45,35.883,0.011%,
525,2025-03-13 11:16:02,2025-03-13 11:16:17,15.649,0.005%,
526,2025-03-13 17:35:01,2025-03-13 17:36:06,64.421,0.020%,
527,2025-03-13 19:09:32,2025-03-13 19:10:17,44.41,0.014%,
528,2025-03-13 19:10:18,2025-03-13 19:10:41,22.835,0.007%,
529,2025-03-13 20:44:20,2025-03-13 20:44:54,34.636,0.011%,
530,2025-03-13 22:19:14,2025-03-13 22:19:26,11.295,0.004%,
531,2025-03-14 04:37:58,2025-03-14 04:39:16,78.134,0.025%,
532,2025-03-14 06:12:43,2025-03-14 06:13:27,43.706,0.014%,
533,2025-03-14 06:13:30,2025-03-14 06:13:51,20.525,0.007%,
534,2025-03-14 07:47:31,2025-03-14 07:48:04,33.301,0.011%,
535,2025-03-14 09:22:29,2025-03-14 09:22:32,2.755,0.001%,
536,2025-03-14 15:41:08,2025-03-14 15:42:26,77.427,0.025%,
537,2025-03-14 17:15:54,2025-03-14 17:16:37,42.957,0.014%,
538,2025-03-14 17:16:42,2025-03-14 17:17:00,17.848,0.006%,
539,2025-03-14 18:50:42,2025-03-14 18:51:14,31.862,0.010%,
540,2025-03-15 02:44:19,2025-03-15 02:45:36,76.67,0.024%,
541,2025-03-15 04:19:05,2025-03-15 04:19:47,42.169,0.013%,
542,2025-03-15 04:19:54,2025-03-15 04:20:09,14.612,0.005%,
543,2025-03-15 05:53:54,2025-03-15 05:54:24,30.311,0.010%,
544,2025-03-15 13:47:30,2025-03-15 13:48:46,75.858,0.024%,
545,2025-03-15 15:22:16,2025-03-15 15:22:57,41.325,0.013%,
546,2025-03-15 15:23:07,2025-03-15 15:23:17,10.3,0.003%,
547,2025-03-15 16:57:05,2025-03-15 16:57:34,28.63,0.009%,
548,2025-03-15 23:17:15,2025-03-15 23:17:18,2.893,0.001%,
549,2025-03-15 23:17:27,2025-03-15 23:17:38,11.202,0.004%,
550,2025-03-16 00:50:41,2025-03-16 00:51:56,74.983,0.024%,
551,2025-03-16 02:25:27,2025-03-16 02:26:07,40.435,0.013%,
552,2025-03-16 04:00:16,2025-03-16 04:00:43,26.786,0.009%,
553,2025-03-16 10:19:59,2025-03-16 10:20:28,29.517,0.009%,
554,2025-03-16 10:20:40,2025-03-16 10:20:45,5.169,0.002%,
555,2025-03-16 11:53:51,2025-03-16 11:55:05,74.048,0.024%,
556,2025-03-16 13:28:38,2025-03-16 13:29:17,39.483,0.013%,
557,2025-03-16 15:03:28,2025-03-16 15:03:53,24.746,0.008%,
558,2025-03-16 21:22:42,2025-03-16 21:23:38,56.164,0.018%,
559,2025-03-16 22:57:02,2025-03-16 22:58:15,73.04,0.023%,
560,2025-03-17 00:31:49,2025-03-17 00:32:27,38.472,0.012%,
561,2025-03-17 02:06:40,2025-03-17 02:07:02,22.471,0.007%,
562,2025-03-17 08:25:28,2025-03-17 08:26:48,80.159,0.025%,
563,2025-03-17 10:00:13,2025-03-17 10:01:25,71.944,0.023%,
564,2025-03-17 11:35:00,2025-03-17 11:35:37,37.402,0.012%,
565,2025-03-17 13:09:52,2025-03-17 13:10:11,19.854,0.006%,
566,2025-03-17 19:28:39,2025-03-17 19:29:59,79.599,0.025%,
567,2025-03-17 21:03:24,2025-03-17 21:04:09,45.263,0.014%,
568,2025-03-17 21:04:09,2025-03-17 21:04:35,25.476,0.008%,
569,2025-03-17 22:38:11,2025-03-17 22:38:47,36.252,0.012%,
570,2025-03-18 00:13:04,2025-03-18 00:13:20,16.757,0.005%,
571,2025-03-18 06:31:50,2025-03-18 06:33:09,78.992,0.025%,
572,2025-03-18 08:06:35,2025-03-18 08:07:19,44.617,0.014%,
573,2025-03-18 08:07:21,2025-03-18 08:07:44,23.496,0.008%,
574,2025-03-18 09:41:22,2025-03-18 09:41:57,35.034,0.011%,
575,2025-03-18 11:16:16,2025-03-18 11:16:29,12.822,0.004%,
576,2025-03-18 17:35:00,2025-03-18 17:36:19,78.344,0.025%,
577,2025-03-18 19:09:46,2025-03-18 19:10:30,43.929,0.014%,
578,2025-03-18 19:10:32,2025-03-18 19:10:54,21.277,0.007%,
579,2025-03-18 20:44:33,2025-03-18 20:45:07,33.726,0.011%,
580,2025-03-18 22:19:30,2025-03-18 22:19:36,6.727,0.002%,
581,2025-03-19 03:04:54,2025-03-19 03:05:14,19.218,0.006%,
582,2025-03-19 04:38:11,2025-03-19 04:39:29,77.653,0.025%,
583,2025-03-19 06:12:57,2025-03-19 06:13:40,43.194,0.014%,
584,2025-03-19 06:13:44,2025-03-19 06:14:03,18.731,0.006%,
585,2025-03-19 07:47:45,2025-03-19 07:48:17,32.324,0.010%,
586,2025-03-19 14:07:38,2025-03-19 14:08:00,22.597,0.007%,
587,2025-03-19 14:08:05,2025-03-19 14:08:23,18.602,0.006%,
588,2025-03-19 15:41:22,2025-03-19 15:42:39,76.909,0.024%,
589,2025-03-19 17:16:07,2025-03-19 17:16:50,42.418,0.014%,
590,2025-03-19 17:16:56,2025-03-19 17:17:12,15.703,0.005%,
591,2025-03-19 18:50:56,2025-03-19 18:51:27,30.808,0.010%,
592,2025-03-20 01:10:21,2025-03-20 01:11:11,49.533,0.016%,
593,2025-03-20 01:11:16,2025-03-20 01:11:32,15.878,0.005%,
594,2025-03-20 02:44:32,2025-03-20 02:45:49,76.114,0.024%,
595,2025-03-20 04:19:18,2025-03-20 04:20:00,41.594,0.013%,
596,2025-03-20 04:20:09,2025-03-20 04:20:21,11.826,0.004%,
597,2025-03-20 05:54:07,2025-03-20 05:54:37,29.166,0.009%,
598,2025-03-20 12:13:04,2025-03-20 12:14:21,76.472,0.024%,
599,2025-03-20 12:14:29,2025-03-20 12:14:41,12.49,0.004%,
600,2025-03-20 13:47:43,2025-03-20 13:48:59,75.263,0.024%,
601,2025-03-20 15:22:29,2025-03-20 15:23:10,40.715,0.013%,
602,2025-03-20 15:23:22,2025-03-20 15:23:28,5.545,0.002%,
603,2025-03-20 16:57:19,2025-03-20 16:57:46,27.379,0.009%,
604,2025-03-20 23:16:10,2025-03-20 23:17:31,81.319,0.026%,
605,2025-03-20 23:17:42,2025-03-20 23:17:49,7.601,0.002%,
606,2025-03-21 00:50:54,2025-03-21 00:52:08,74.347,0.024%,
607,2025-03-21 02:25:40,2025-03-21 02:26:20,39.788,0.013%,
608,2025-03-21 04:00:30,2025-03-21 04:00:56,25.408,0.008%,
609,2025-03-21 10:19:20,2025-03-21 10:20:41,80.841,0.026%,
610,2025-03-21 11:54:05,2025-03-21 11:55:18,73.363,0.023%,
611,2025-03-21 13:28:51,2025-03-21 13:29:30,38.793,0.012%,
612,2025-03-21 15:03:42,2025-03-21 15:04:05,23.211,0.007%,
613,2025-03-21 21:22:31,2025-03-21 21:23:51,80.33,0.026%,
614,2025-03-21 22:57:16,2025-03-21 22:58:28,72.297,0.023%,
615,2025-03-22 00:32:02,2025-03-22 00:32:40,37.74,0.012%,
616,2025-03-22 02:06:54,2025-03-22 02:07:15,20.711,0.007%,
617,2025-03-22 06:52:33,2025-03-22 06:52:48,15.225,0.005%,
618,2025-03-22 08:25:42,2025-03-22 08:27:01,79.779,0.025%,
619,2025-03-22 10:00:26,2025-03-22 10:01:38,71.14,0.023%,
620,2025-03-22 11:35:14,2025-03-22 11:35:50,36.617,0.012%,
621,2025-03-22 13:10:06,2025-03-22 13:10:24,17.785,0.006%,
622,2025-03-22 17:55:16,2025-03-22 17:55:57,41.805,0.013%,
623,2025-03-22 19:28:52,2025-03-22 19:30:11,79.185,0.025%,
624,2025-03-22 21:03:37,2025-03-22 21:04:22,44.821,0.014%,
625,2025-03-22 21:04:23,2025-03-22 21:04:47,24.136,0.008%,
626,2025-03-22 22:38:25,2025-03-22 22:39:00,35.421,0.011%,
627,2025-03-23 00:13:18,2025-03-23 00:13:32,14.175,0.005%,
628,2025-03-23 04:57:59,2025-03-23 04:58:43,43.843,0.014%,
629,2025-03-23 04:58:44,2025-03-23 04:59:07,23.578,0.008%,
630,2025-03-23 06:32:03,2025-03-23 06:33:21,78.551,0.025%,
631,2025-03-23 08:06:48,2025-03-23 08:07:32,44.148,0.014%,
632,2025-03-23 08:07:35,2025-03-23 08:07:57,21.996,0.007%,
633,2025-03-23 09:41:36,2025-03-23 09:42:10,34.142,0.011%,
634,2025-03-23 11:16:31,2025-03-23 11:16:40,9.089,0.003%,
635,2025-03-23 16:00:42,2025-03-23 16:01:53,70.958,0.023%,
636,2025-03-23 16:01:55,2025-03-23 16:02:17,21.595,0.007%,
637,2025-03-23 17:35:14,2025-03-23 17:36:32,77.873,0.025%,
638,2025-03-23 19:09:59,2025-03-23 19:10:43,43.43,0.014%,
639,2025-03-23 19:10:46,2025-03-23 19:11:06,19.565,0.006%,
640,2025-03-23 20:44:47,2025-03-23 20:45:20,32.771,0.010%,
641,2025-03-24 03:03:41,2025-03-24 03:05:03,82.656,0.026%,
642,2025-03-24 03:05:07,2025-03-24 03:05:26,19.366,0.006%,
643,2025-03-24 04:38:24,2025-03-24 04:39:42,77.149,0.025%,
644,2025-03-24 06:13:10,2025-03-24 06:13:53,42.666,0.014%,
645,2025-03-24 06:13:58,2025-03-24 06:14:15,16.71,0.005%,
646,2025-03-24 07:47:58,2025-03-24 07:48:30,31.291,0.010%,
647,2025-03-24 14:06:51,2025-03-24 14:08:13,82.29,0.026%,
648,2025-03-24 14:08:19,2025-03-24 14:08:35,16.779,0.005%,
649,2025-03-24 15:41:35,2025-03-24 15:42:51,76.367,0.024%,
650,2025-03-24 17:16:21,2025-03-24 17:17:03,41.854,0.013%,
651,2025-03-24 17:17:11,2025-03-24 17:17:24,13.166,0.004%,
652,2025-03-24 18:51:10,2025-03-24 18:51:39,29.693,0.009%,
653,2025-03-25 01:10:02,2025-03-25 01:11:24,81.891,0.026%,
654,2025-03-25 01:11:31,2025-03-25 01:11:44,13.643,0.004%,
655,2025-03-25 02:44:46,2025-03-25 02:46:01,75.533,0.024%,
656,2025-03-25 04:19:32,2025-03-25 04:20:13,40.993,0.013%,
657,2025-03-25 04:20:24,2025-03-25 04:20:32,8.053,0.003%,
658,2025-03-25 05:54:21,2025-03-25 05:54:49,27.953,0.009%,
659,2025-03-25 10:40:10,2025-03-25 10:40:21,11.178,0.004%,
660,2025-03-25 12:13:12,2025-03-25 12:14:34,81.462,0.026%,
661,2025-03-25 12:14:43,2025-03-25 12:14:53,9.407,0.003%,
662,2025-03-25 13:47:57,2025-03-25 13:49:11,74.638,0.024%,
663,2025-03-25 15:22:43,2025-03-25 15:23:23,40.081,0.013%,
664,2025-03-25 16:57:33,2025-03-25 16:57:59,26.041,0.008%,
665,2025-03-25 21:42:53,2025-03-25 21:43:31,37.98,0.012%,
666,2025-03-25 23:16:23,2025-03-25 23:17:44,80.994,0.026%,
667,2025-03-26 00:51:07,2025-03-26 00:52:21,73.676,0.023%,
668,2025-03-26 02:25:54,2025-03-26 02:26:33,39.105,0.012%,
669,2025-03-26 04:00:44,2025-03-26 04:01:08,23.918,0.008%,
670,2025-03-26 08:45:36,2025-03-26 08:46:41,64.738,0.021%,
671,2025-03-26 10:19:34,2025-03-26 10:20:54,80.49,0.026%,
672,2025-03-26 11:54:18,2025-03-26 11:55:31,72.638,0.023%,
673,2025-03-26 13:29:05,2025-03-26 13:29:43,38.073,0.012%,
674,2025-03-26 15:03:56,2025-03-26 15:04:18,21.521,0.007%,
675,2025-03-26 19:48:19,2025-03-26 19:49:51,91.435,0.029%,
676,2025-03-26 21:22:44,2025-03-26 21:24:04,79.951,0.025%,
677,2025-03-26 22:57:29,2025-03-26 22:58:41,71.508,0.023%,
678,2025-03-27 00:32:16,2025-03-27 00:32:53,36.976,0.012%,
679,2025-03-27 02:07:08,2025-03-27 02:07:27,18.751,0.006%,
680,2025-03-27 06:51:12,2025-03-27 06:53:00,108.893,0.035%,
681,2025-03-27 08:25:55,2025-03-27 08:27:14,79.372,0.025%,
682,2025-03-27 10:00:40,2025-03-27 10:01:25,45.022,0.014%,
683,2025-03-27 10:01:25,2025-03-27 10:01:50,24.749,0.008%,
684,2025-03-27 11:35:27,2025-03-27 11:36:03,35.801,0.011%,
685,2025-03-27 13:10:20,2025-03-27 13:10:36,15.396,0.005%,
686,2025-03-27 17:54:22,2025-03-27 17:55:45,83.38,0.026%,
687,2025-03-27 17:55:46,2025-03-27 17:56:10,24.149,0.008%,
688,2025-03-27 19:29:06,2025-03-27 19:30:24,78.752,0.025%,
689,2025-03-27 21:03:51,2025-03-27 21:04:35,44.36,0.014%,
690,2025-03-27 21:04:37,2025-03-27 21:05:00,22.688,0.007%,
691,2025-03-27 22:38:38,2025-03-27 22:39:13,34.548,0.011%,
692,2025-03-28 00:13:33,2025-03-28 00:13:44,10.932,0.004%,
693,2025-03-28 04:57:33,2025-03-28 04:58:56,83.085,0.026%,
694,2025-03-28 04:58:57,2025-03-28 04:59:20,22.234,0.007%,
695,2025-03-28 06:32:16,2025-03-28 06:33:34,78.088,0.025%,
696,2025-03-28 08:07:02,2025-03-28 08:07:45,43.657,0.014%,
697,2025-03-28 08:07:49,2025-03-28 08:08:09,20.357,0.007%,
698,2025-03-28 09:41:50,2025-03-28 09:42:23,33.207,0.011%,
699,2025-03-28 14:27:47,2025-03-28 14:27:54,6.746,0.002%,
700,2025-03-28 16:00:43,2025-03-28 16:02:06,82.763,0.026%,
701,2025-03-28 16:02:09,2025-03-28 16:02:29,20.091,0.006%,
702,2025-03-28 17:35:27,2025-03-28 17:36:44,77.378,0.025%,
703,2025-03-28 19:10:13,2025-03-28 19:10:55,42.906,0.014%,
704,2025-03-28 19:11:01,2025-03-28 19:11:18,17.652,0.006%,
705,2025-03-28 20:45:01,2025-03-28 20:45:33,31.759,0.010%,
706,2025-03-29 01:30:30,2025-03-29 01:31:04,33.631,0.011%,
707,2025-03-29 03:03:54,2025-03-29 03:05:16,82.407,0.026%,
708,2025-03-29 03:05:21,2025-03-29 03:05:38,17.63,0.006%,
709,2025-03-29 04:38:38,2025-03-29 04:39:54,76.614,0.024%,
710,2025-03-29 06:13:23,2025-03-29 06:14:06,42.11,0.013%,
711,2025-03-29 06:14:13,2025-03-29 06:14:27,14.366,0.005%,
712,2025-03-29 07:48:12,2025-03-29 07:48:42,30.2,0.010%,
713,2025-03-29 12:33:13,2025-03-29 12:34:14,60.462,0.019%,
714,2025-03-29 14:07:04,2025-03-29 14:08:26,82.018,0.026%,
715,2025-03-29 14:08:33,2025-03-29 14:08:48,14.698,0.005%,
716,2025-03-29 15:41:48,2025-03-29 15:43:04,75.798,0.024%,
717,2025-03-29 17:16:34,2025-03-29 17:17:16,41.267,0.013%,
718,2025-03-29 17:17:26,2025-03-29 17:17:36,9.939,0.003%,
719,2025-03-29 18:51:24,2025-03-29 18:51:52,28.511,0.009%,
720,2025-03-29 23:35:57,2025-03-29 23:37:24,87.251,0.028%,
721,2025-03-30 01:10:15,2025-03-30 01:11:37,81.597,0.026%,
722,2025-03-30 01:11:45,2025-03-30 01:11:56,10.91,0.004%,
723,2025-03-30 02:44:59,2025-03-30 02:46:14,74.923,0.024%,
724,2025-03-30 04:19:45,2025-03-30 04:20:26,40.373,0.013%,
725,2025-03-30 05:54:35,2025-03-30 05:55:02,26.655,0.009%,
726,2025-03-30 10:38:43,2025-03-30 10:40:34,111.151,0.035%,
727,2025-03-30 12:13:26,2025-03-30 12:14:47,81.143,0.026%,
728,2025-03-30 12:14:59,2025-03-30 12:15:04,4.488,0.001%,
729,2025-03-30 13:48:10,2025-03-30 13:49:24,73.982,0.024%,
730,2025-03-30 15:22:56,2025-03-30 15:23:36,39.417,0.013%,
731,2025-03-30 16:57:47,2025-03-30 16:58:11,24.601,0.008%,
732,2025-03-30 21:41:53,2025-03-30 21:43:44,110.548,0.035%,
733,2025-03-30 23:16:36,2025-03-30 23:17:57,80.652,0.026%,
734,2025-03-31 00:51:21,2025-03-31 00:52:34,72.97,0.023%,
735,2025-03-31 02:26:07,2025-03-31 02:26:46,38.402,0.012%,
736,2025-03-31 04:00:58,2025-03-31 04:01:21,22.304,0.007%,
737,2025-03-31 08:45:04,2025-03-31 08:46:54,109.882,0.035%,
738,2025-03-31 10:19:47,2025-03-31 10:21:07,80.126,0.025%,
739,2025-03-31 11:54:32,2025-03-31 11:55:43,71.869,0.023%,
740,2025-03-31 13:29:19,2025-03-31 13:29:56,37.323,0.012%,
741,2025-03-31 15:04:10,2025-03-31 15:04:30,19.664,0.006%,
742,2025-03-31 18:15:25,2025-03-31 18:15:26,1.534,0.001%,
743,2025-03-31 19:48:14,2025-03-31 19:50:03,109.141,0.035%,
744,2025-03-31 21:22:57,2025-03-31 21:24:17,79.561,0.025%,
745,2025-03-31 22:57:42,2025-03-31 22:58:28,45.222,0.014%,
746,2025-03-31 22:58:28,2025-03-31 22:58:53,25.351,0.008%,
747,2025-04-01 00:32:30,2025-04-01 00:33:06,36.176,0.012%,
748,2025-04-01 02:07:22,2025-04-01 02:07:39,16.527,0.005%,
749,2025-04-01 05:18:08,2025-04-01 05:18:37,28.389,0.009%,
750,2025-04-01 06:51:25,2025-04-01 06:52:48,83.464,0.027%,
751,2025-04-01 06:52:48,2025-04-01 06:53:13,24.711,0.008%,
752,2025-04-01 08:26:08,2025-04-01 08:27:27,78.951,0.025%,
753,2025-04-01 10:00:53,2025-04-01 10:01:38,44.574,0.014%,
754,2025-04-01 10:01:39,2025-04-01 10:02:03,23.36,0.007%,
755,2025-04-01 11:35:41,2025-04-01 11:36:16,34.949,0.011%,
756,2025-04-01 13:10:35,2025-04-01 13:10:47,12.511,0.004%,
757,2025-04-01 16:20:51,2025-04-01 16:21:47,55.199,0.018%,
758,2025-04-01 17:54:35,2025-04-01 17:55:58,83.181,0.026%,
759,2025-04-01 17:56:00,2025-04-01 17:56:23,22.858,0.007%,
760,2025-04-01 19:29:19,2025-04-01 19:30:37,78.3,0.025%,
761,2025-04-01 21:04:04,2025-04-01 21:04:48,43.882,0.014%,
762,2025-04-01 21:04:51,2025-04-01 21:05:12,21.12,0.007%,
763,2025-04-01 22:38:52,2025-04-01 22:39:26,33.634,0.011%,
764,2025-04-02 00:13:49,2025-04-02 00:13:55,6.101,0.002%,
765,2025-04-02 03:23:35,2025-04-02 03:24:57,81.967,0.026%,
766,2025-04-02 04:57:46,2025-04-02 04:59:09,82.869,0.026%,
767,2025-04-02 04:59:11,2025-04-02 04:59:32,20.792,0.007%,
768,2025-04-02 06:32:30,2025-04-02 06:33:47,77.606,0.025%,
769,2025-04-02 08:07:15,2025-04-02 08:07:58,43.147,0.014%,
770,2025-04-02 08:08:03,2025-04-02 08:08:21,18.549,0.006%,
771,2025-04-02 09:42:03,2025-04-02 09:42:36,32.224,0.010%,
772,2025-04-02 14:26:18,2025-04-02 14:28:07,108.673,0.035%,
773,2025-04-02 16:00:56,2025-04-02 16:02:19,82.522,0.026%,
774,2025-04-02 16:02:23,2025-04-02 16:02:42,18.44,0.006%,
775,2025-04-02 17:35:40,2025-04-02 17:36:57,76.857,0.024%,
776,2025-04-02 19:10:26,2025-04-02 19:11:08,42.363,0.013%,
777,2025-04-02 19:11:15,2025-04-02 19:11:30,15.48,0.005%,
778,2025-04-02 20:45:15,2025-04-02 20:45:45,30.703,0.010%,
779,2025-04-03 01:29:24,2025-04-03 01:31:17,112.337,0.036%,
780,2025-04-03 03:04:07,2025-04-03 03:05:29,82.144,0.026%,
781,2025-04-03 03:05:35,2025-04-03 03:05:51,15.679,0.005%,
782,2025-04-03 04:38:51,2025-04-03 04:40:07,76.06,0.024%,
783,2025-04-03 06:13:37,2025-04-03 06:14:19,41.538,0.013%,
784,2025-04-03 06:14:27,2025-04-03 06:14:39,11.523,0.004%,
785,2025-04-03 07:48:26,2025-04-03 07:48:55,29.054,0.009%,
786,2025-04-03 12:32:35,2025-04-03 12:34:27,111.857,0.036%,
787,2025-04-03 14:07:18,2025-04-03 14:08:39,81.733,0.026%,
788,2025-04-03 14:08:47,2025-04-03 14:09:00,12.237,0.004%,
789,2025-04-03 15:42:02,2025-04-03 15:43:17,75.204,0.024%,
790,2025-04-03 17:16:48,2025-04-03 17:17:29,40.66,0.013%,
791,2025-04-03 17:17:41,2025-04-03 17:17:46,4.849,0.002%,
792,2025-04-03 18:51:37,2025-04-03 18:52:05,27.255,0.009%,
793,2025-04-03 23:35:45,2025-04-03 23:37:37,111.328,0.035%,
794,2025-04-04 01:10:28,2025-04-04 01:11:49,81.289,0.026%,
795,2025-04-04 01:12:00,2025-04-04 01:12:08,7.167,0.002%,
796,2025-04-04 02:45:13,2025-04-04 02:46:27,74.285,0.024%,
797,2025-04-04 04:19:59,2025-04-04 04:20:39,39.725,0.013%,
798,2025-04-04 05:54:49,2025-04-04 05:55:14,25.271,0.008%,
799,2025-04-04 09:05:47,2025-04-04 09:06:09,21.88,0.007%,
800,2025-04-04 10:38:56,2025-04-04 10:40:47,110.744,0.035%,
801,2025-04-04 12:13:39,2025-04-04 12:15:00,80.809,0.026%,
802,2025-04-04 13:48:23,2025-04-04 13:49:37,73.295,0.023%,
803,2025-04-04 15:23:10,2025-04-04 15:23:49,38.726,0.012%,
804,2025-04-04 16:58:01,2025-04-04 16:58:24,23.057,0.007%,
805,2025-04-04 20:08:31,2025-04-04 20:09:19,48.57,0.015%,
806,2025-04-04 21:42:06,2025-04-04 21:43:56,110.098,0.035%,
807,2025-04-04 23:16:49,2025-04-04 23:18:10,80.296,0.026%,
808,2025-04-05 00:51:34,2025-04-05 00:52:46,72.225,0.023%,
809,2025-04-05 02:26:21,2025-04-05 02:26:59,37.668,0.012%,
810,2025-04-05 04:01:12,2025-04-05 04:01:33,20.531,0.007%,
811,2025-04-05 07:11:14,2025-04-05 07:12:29,75.208,0.024%,
812,2025-04-05 08:45:17,2025-04-05 08:47:06,109.384,0.035%,
813,2025-04-05 10:20:00,2025-04-05 10:21:20,79.738,0.025%,
814,2025-04-05 11:54:45,2025-04-05 11:55:56,71.061,0.023%,
815,2025-04-05 13:29:32,2025-04-05 13:30:09,36.541,0.012%,
816,2025-04-05 15:04:24,2025-04-05 15:04:42,17.571,0.006%,
817,2025-04-05 18:13:58,2025-04-05 18:15:39,101.786,0.032%,
818,2025-04-05 19:48:27,2025-04-05 19:50:16,108.588,0.034%,
819,2025-04-05 21:23:11,2025-04-05 21:24:30,79.146,0.025%,
820,2025-04-05 22:57:56,2025-04-05 22:58:41,44.779,0.014%,
821,2025-04-05 22:58:42,2025-04-05 22:59:06,24.004,0.008%,
822,2025-04-06 00:32:43,2025-04-06 00:33:19,35.339,0.011%,
823,2025-04-06 02:07:37,2025-04-06 02:07:51,13.903,0.004%,
824,2025-04-06 05:16:56,2025-04-06 05:18:49,113.609,0.036%,
825,2025-04-06 06:51:38,2025-04-06 06:53:01,83.275,0.026%,
826,2025-04-06 06:53:02,2025-04-06 06:53:26,23.46,0.007%,
827,2025-04-06 08:26:21,2025-04-06 08:27:40,78.508,0.025%,
828,2025-04-06 10:01:07,2025-04-06 10:01:51,44.099,0.014%,
829,2025-04-06 10:01:53,2025-04-06 10:02:15,21.849,0.007%,
830,2025-04-06 11:35:55,2025-04-06 11:36:29,34.054,0.011%,
831,2025-04-06 13:10:50,2025-04-06 13:10:59,8.645,0.003%,
832,2025-04-06 16:20:06,2025-04-06 16:22:00,113.273,0.036%,
833,2025-04-06 17:54:48,2025-04-06 17:56:11,82.968,0.026%,
834,2025-04-06 17:56:14,2025-04-06 17:56:35,21.46,0.007%,
835,2025-04-06 19:29:32,2025-04-06 19:30:50,77.827,0.025%,
836,2025-04-06 21:04:18,2025-04-06 21:05:01,43.382,0.014%,
837,2025-04-06 21:05:05,2025-04-06 21:05:24,19.394,0.006%,
838,2025-04-06 22:39:06,2025-04-06 22:39:38,32.676,0.010%,
839,2025-04-07 01:50:44,2025-04-07 01:50:50,6.66,0.002%,
840,2025-04-07 03:23:17,2025-04-07 03:25:10,112.895,0.036%,
841,2025-04-07 04:57:59,2025-04-07 04:59:22,82.633,0.026%,
842,2025-04-07 04:59:25,2025-04-07 04:59:45,19.21,0.006%,
843,2025-04-07 06:32:43,2025-04-07 06:34:00,77.1,0.024%,
844,2025-04-07 08:07:29,2025-04-07 08:08:11,42.612,0.014%,
845,2025-04-07 08:08:17,2025-04-07 08:08:34,16.505,0.005%,
846,2025-04-07 09:42:17,2025-04-07 09:42:48,31.19,0.010%,
847,2025-04-07 12:53:28,2025-04-07 12:53:41,13.608,0.004%,
848,2025-04-07 12:53:51,2025-04-07 12:53:59,7.63,0.002%,
849,2025-04-07 14:26:27,2025-04-07 14:28:20,112.478,0.036%,
850,2025-04-07 16:01:10,2025-04-07 16:02:32,82.265,0.026%,
851,2025-04-07 16:02:37,2025-04-07 16:02:54,16.598,0.005%,
852,2025-04-07 17:35:54,2025-04-07 17:37:10,76.314,0.024%,
853,2025-04-07 19:10:40,2025-04-07 19:11:21,41.8,0.013%,
854,2025-04-07 19:11:29,2025-04-07 19:11:42,12.894,0.004%,
855,2025-04-07 20:45:28,2025-04-07 20:45:58,29.582,0.009%,
856,2025-04-07 23:56:11,2025-04-07 23:56:51,40.08,0.013%,
857,2025-04-08 01:29:38,2025-04-08 01:31:30,112.011,0.036%,
858,2025-04-08 03:04:20,2025-04-08 03:05:42,81.864,0.026%,
859,2025-04-08 03:05:49,2025-04-08 03:06:03,13.415,0.004%,
860,2025-04-08 04:39:04,2025-04-08 04:40:20,75.477,0.024%,
861,2025-04-08 06:13:50,2025-04-08 06:14:31,40.935,0.013%,
862,2025-04-08 06:14:43,2025-04-08 06:14:50,7.602,0.002%,
863,2025-04-08 07:48:40,2025-04-08 07:49:08,27.835,0.009%,
864,2025-04-08 10:58:55,2025-04-08 11:00:02,66.498,0.021%,
865,2025-04-08 12:32:48,2025-04-08 12:34:40,111.498,0.035%,
866,2025-04-08 14:07:31,2025-04-08 14:08:52,81.433,0.026%,
867,2025-04-08 14:09:02,2025-04-08 14:09:11,9.065,0.003%,
868,2025-04-08 15:42:15,2025-04-08 15:43:30,74.578,0.024%,
869,2025-04-08 17:17:01,2025-04-08 17:17:41,40.018,0.013%,
870,2025-04-08 18:51:51,2025-04-08 18:52:17,25.909,0.008%,
871,2025-04-08 22:01:39,2025-04-08 22:03:12,92.831,0.029%,
872,2025-04-08 23:35:59,2025-04-08 23:37:49,110.929,0.035%,
873,2025-04-09 01:10:41,2025-04-09 01:12:02,80.963,0.026%,
874,2025-04-09 02:45:26,2025-04-09 02:46:40,73.611,0.023%,
875,2025-04-09 04:20:13,2025-04-09 04:20:52,39.04,0.012%,
876,2025-04-09 05:55:03,2025-04-09 05:55:27,23.771,0.008%,
877,2025-04-09 09:04:27,2025-04-09 09:06:22,114.452,0.036%,
878,2025-04-09 10:39:09,2025-04-09 10:40:59,110.307,0.035%,
879,2025-04-09 12:13:52,2025-04-09 12:15:13,80.458,0.026%,
880,2025-04-09 13:48:37,2025-04-09 13:49:49,72.568,0.023%,
881,2025-04-09 15:23:24,2025-04-09 15:24:02,38.003,0.012%,
882,2025-04-09 16:58:15,2025-04-09 16:58:36,21.354,0.007%,
883,2025-04-09 20:07:38,2025-04-09 20:09:32,114.239,0.036%,
884,2025-04-09 21:42:20,2025-04-09 21:44:09,109.614,0.035%,
885,2025-04-09 23:17:03,2025-04-09 23:18:23,79.917,0.025%,
886,2025-04-10 00:51:48,2025-04-10 00:52:59,71.433,0.023%,
887,2025-04-10 02:26:35,2025-04-10 02:27:12,36.896,0.012%,
888,2025-04-10 04:01:27,2025-04-10 04:01:45,18.555,0.006%,
889,2025-04-10 07:10:48,2025-04-10 07:12:42,113.99,0.036%,
890,2025-04-10 08:45:30,2025-04-10 08:47:19,108.844,0.035%,
891,2025-04-10 10:20:13,2025-04-10 10:21:33,79.333,0.025%,
892,2025-04-10 11:54:58,2025-04-10 11:55:43,44.98,0.014%,
893,2025-04-10 11:55:44,2025-04-10 11:56:09,24.624,0.008%,
894,2025-04-10 13:29:46,2025-04-10 13:30:22,35.722,0.011%,
895,2025-04-10 15:04:39,2025-04-10 15:04:54,15.15,0.005%,
896,2025-04-10 16:41:10,2025-04-10 16:41:13,3.02,0.001%,
897,2025-04-10 16:41:17,2025-04-10 16:41:35,18.509,0.006%,
898,2025-04-10 18:13:59,2025-04-10 18:15:52,113.706,0.036%,
899,2025-04-10 19:48:41,2025-04-10 19:50:04,83.362,0.026%,
900,2025-04-10 19:50:05,2025-04-10 19:50:29,24.034,0.008%,
901,2025-04-10 21:23:24,2025-04-10 21:24:43,78.711,0.025%,
902,2025-04-10 22:58:09,2025-04-10 22:58:54,44.319,0.014%,
903,2025-04-10 22:58:56,2025-04-10 22:59:18,22.549,0.007%,
904,2025-04-11 00:32:57,2025-04-11 00:33:31,34.464,0.011%,
905,2025-04-11 02:07:52,2025-04-11 02:08:02,10.574,0.003%,
906,2025-04-11 03:43:54,2025-04-11 03:44:23,29.177,0.009%,
907,2025-04-11 03:44:28,2025-04-11 03:44:45,16.086,0.005%,
908,2025-04-11 05:17:09,2025-04-11 05:19:02,113.382,0.036%,
909,2025-04-11 06:51:51,2025-04-11 06:53:14,83.067,0.026%,
910,2025-04-11 06:53:16,2025-04-11 06:53:38,22.108,0.007%,
911,2025-04-11 08:26:35,2025-04-11 08:27:53,78.044,0.025%,
912,2025-04-11 10:01:20,2025-04-11 10:02:04,43.61,0.014%,
913,2025-04-11 10:02:07,2025-04-11 10:02:28,20.197,0.006%,
914,2025-04-11 11:36:08,2025-04-11 11:36:41,33.115,0.011%,
915,2025-04-11 14:46:38,2025-04-11 14:47:34,55.259,0.018%,
916,2025-04-11 14:47:41,2025-04-11 14:47:54,13.157,0.004%,
917,2025-04-11 16:20:19,2025-04-11 16:22:12,113.019,0.036%,
918,2025-04-11 17:55:02,2025-04-11 17:56:24,82.742,0.026%,
919,2025-04-11 17:56:28,2025-04-11 17:56:48,19.948,0.006%,
920,2025-04-11 19:29:46,2025-04-11 19:31:03,77.332,0.025%,
921,2025-04-11 21:04:31,2025-04-11 21:05:14,42.856,0.014%,
922,2025-04-11 21:05:19,2025-04-11 21:05:37,17.465,0.006%,
923,2025-04-11 22:39:19,2025-04-11 22:39:51,31.661,0.010%,
924,2025-04-12 01:49:23,2025-04-12 01:50:44,81.269,0.026%,
925,2025-04-12 01:50:53,2025-04-12 01:51:02,9.267,0.003%,
926,2025-04-12 03:23:30,2025-04-12 03:25:22,112.612,0.036%,
927,2025-04-12 04:58:12,2025-04-12 04:59:35,82.383,0.026%,
928,2025-04-12 04:59:39,2025-04-12 04:59:57,17.464,0.006%,
929,2025-04-12 06:32:56,2025-04-12 06:34:13,76.565,0.024%,
930,2025-04-12 08:07:42,2025-04-12 08:08:24,42.058,0.013%,
931,2025-04-12 08:08:31,2025-04-12 08:08:46,14.129,0.005%,
932,2025-04-12 09:42:31,2025-04-12 09:43:01,30.096,0.010%,
933,2025-04-12 12:52:07,2025-04-12 12:53:54,107.195,0.034%,
934,2025-04-12 14:26:40,2025-04-12 14:28:32,112.162,0.036%,
935,2025-04-12 16:01:23,2025-04-12 16:02:45,81.993,0.026%,
936,2025-04-12 16:02:52,2025-04-12 16:03:06,14.494,0.005%,
937,2025-04-12 17:36:07,2025-04-12 17:37:23,75.745,0.024%,
938,2025-04-12 19:10:53,2025-04-12 19:11:34,41.213,0.013%,
939,2025-04-12 19:11:44,2025-04-12 19:11:54,9.587,0.003%,
940,2025-04-12 20:45:42,2025-04-12 20:46:11,28.396,0.009%,
941,2025-04-12 23:55:10,2025-04-12 23:57:04,114.805,0.036%,
942,2025-04-13 01:29:51,2025-04-13 01:31:42,111.664,0.035%,
943,2025-04-13 03:04:33,2025-04-13 03:05:55,81.57,0.026%,
944,2025-04-13 03:06:04,2025-04-13 03:06:15,10.63,0.003%,
945,2025-04-13 04:39:18,2025-04-13 04:40:33,74.866,0.024%,
946,2025-04-13 06:14:04,2025-04-13 06:14:44,40.314,0.013%,
947,2025-04-13 07:48:54,2025-04-13 07:49:20,26.53,0.008%,
948,2025-04-13 10:58:20,2025-04-13 11:00:15,114.674,0.036%,
949,2025-04-13 12:33:01,2025-04-13 12:34:52,111.117,0.035%,
950,2025-04-13 14:07:44,2025-04-13 14:09:05,81.113,0.026%,
951,2025-04-13 14:09:18,2025-04-13 14:09:22,3.737,0.001%,
952,2025-04-13 15:42:29,2025-04-13 15:43:42,73.921,0.023%,
953,2025-04-13 17:17:15,2025-04-13 17:17:54,39.353,0.013%,
954,2025-04-13 18:52:05,2025-04-13 18:52:30,24.462,0.008%,
955,2025-04-13 20:28:55,2025-04-13 20:29:09,13.853,0.004%,
956,2025-04-13 22:01:30,2025-04-13 22:03:25,114.512,0.036%,
957,2025-04-13 23:36:12,2025-04-13 23:38:02,110.51,0.035%,
958,2025-04-14 01:10:55,2025-04-14 01:12:15,80.62,0.026%,
959,2025-04-14 02:45:39,2025-04-14 02:46:52,72.903,0.023%,
960,2025-04-14 04:20:26,2025-04-14 04:21:04,38.335,0.012%,
961,2025-04-14 05:55:17,2025-04-14 05:55:39,22.147,0.007%,
962,2025-04-14 07:31:40,2025-04-14 07:31:55,15.27,0.005%,
963,2025-04-14 07:31:56,2025-04-14 07:32:19,23.032,0.007%,
964,2025-04-14 09:04:41,2025-04-14 09:06:35,114.31,0.036%,
965,2025-04-14 10:39:22,2025-04-14 10:41:12,109.839,0.035%,
966,2025-04-14 12:14:05,2025-04-14 12:15:25,80.089,0.025%,
967,2025-04-14 13:48:50,2025-04-14 13:50:02,71.798,0.023%,
968,2025-04-14 15:23:37,2025-04-14 15:24:14,37.251,0.012%,
969,2025-04-14 16:58:29,2025-04-14 16:58:48,19.481,0.006%,
970,2025-04-14 18:34:25,2025-04-14 18:35:06,40.927,0.013%,
971,2025-04-14 18:35:07,2025-04-14 18:35:29,21.225,0.007%,
972,2025-04-14 20:07:51,2025-04-14 20:09:45,114.073,0.036%,
973,2025-04-14 21:42:33,2025-04-14 21:44:22,109.093,0.035%,
974,2025-04-14 23:17:16,2025-04-14 23:18:36,79.524,0.025%,
975,2025-04-15 00:52:01,2025-04-15 00:52:46,45.182,0.014%,
976,2025-04-15 00:52:46,2025-04-15 00:53:12,25.232,0.008%,
977,2025-04-15 02:26:48,2025-04-15 02:27:24,36.099,0.011%,
978,2025-04-15 04:01:41,2025-04-15 04:01:57,16.299,0.005%,
979,2025-04-15 05:37:09,2025-04-15 05:38:16,66.501,0.021%,
980,2025-04-15 05:38:19,2025-04-15 05:38:38,19.203,0.006%,
981,2025-04-15 07:11:01,2025-04-15 07:12:55,113.799,0.036%,
982,2025-04-15 08:45:43,2025-04-15 08:47:07,83.449,0.027%,
983,2025-04-15 08:47:07,2025-04-15 08:47:32,24.6,0.008%,
984,2025-04-15 10:20:27,2025-04-15 10:21:46,78.91,0.025%,
985,2025-04-15 11:55:12,2025-04-15 11:55:56,44.53,0.014%,
986,2025-04-15 11:55:58,2025-04-15 11:56:21,23.227,0.007%,
987,2025-04-15 13:29:59,2025-04-15 13:30:34,34.868,0.011%,
988,2025-04-15 15:04:54,2025-04-15 15:05:06,12.206,0.004%,
989,2025-04-15 16:39:54,2025-04-15 16:41:26,91.983,0.029%,
990,2025-04-15 16:41:31,2025-04-15 16:41:48,16.89,0.005%,
991,2025-04-15 18:14:12,2025-04-15 18:16:05,113.489,0.036%,
992,2025-04-15 19:48:54,2025-04-15 19:50:17,83.162,0.026%,
993,2025-04-15 19:50:18,2025-04-15 19:50:41,22.737,0.007%,
994,2025-04-15 21:23:37,2025-04-15 21:24:56,78.258,0.025%,
995,2025-04-15 22:58:23,2025-04-15 22:59:07,43.836,0.014%,
996,2025-04-15 22:59:10,2025-04-15 22:59:31,20.971,0.007%,
997,2025-04-16 00:33:11,2025-04-16 00:33:44,33.548,0.011%,
998,2025-04-16 02:08:07,2025-04-16 02:08:13,5.436,0.002%,
999,2025-04-16 03:42:41,2025-04-16 03:44:36,115.012,0.037%,
1000,2025-04-16 03:44:43,2025-04-16 03:44:57,14.151,0.005%,
1001,2025-04-16 05:17:22,2025-04-16 05:19:15,113.14,0.036%,
1002,2025-04-16 06:52:04,2025-04-16 06:53:27,82.844,0.026%,
1003,2025-04-16 06:53:30,2025-04-16 06:53:51,20.655,0.007%,
1004,2025-04-16 08:26:48,2025-04-16 08:28:06,77.56,0.025%,
1005,2025-04-16 10:01:34,2025-04-16 10:02:17,43.099,0.014%,
1006,2025-04-16 10:02:21,2025-04-16 10:02:40,18.373,0.006%,
1007,2025-04-16 11:36:22,2025-04-16 11:36:54,32.13,0.010%,
1008,2025-04-16 14:45:52,2025-04-16 14:47:47,114.986,0.037%,
1009,2025-04-16 14:47:55,2025-04-16 14:48:06,10.655,0.003%,
1010,2025-04-16 16:20:33,2025-04-16 16:22:25,112.749,0.036%,
1011,2025-04-16 17:55:15,2025-04-16 17:56:37,82.499,0.026%,
1012,2025-04-16 17:56:42,2025-04-16 17:57:00,18.286,0.006%,
1013,2025-04-16 19:29:59,2025-04-16 19:31:16,76.81,0.024%,
1014,2025-04-16 21:04:45,2025-04-16 21:05:27,42.316,0.013%,
1015,2025-04-16 21:05:34,2025-04-16 21:05:49,15.262,0.005%,
1016,2025-04-16 22:39:33,2025-04-16 22:40:04,30.602,0.010%,
1017,2025-04-17 01:49:02,2025-04-17 01:50:57,114.933,0.036%,
1018,2025-04-17 01:51:08,2025-04-17 01:51:13,5.02,0.002%,
1019,2025-04-17 03:23:43,2025-04-17 03:25:35,112.307,0.036%,
