3UCubedIntegratedSim/Reports & Plots/North Cusp/NorthCusp CSV/NorthCusp_Sat0.csv

"Number","Coverage Start (UTCG)","Coverage End (UTCG)","Duration (sec)","Percent"
1,1 Jan 2025 16:15:50.664,1 Jan 2025 16:17:12.964,82.301,0.000261
2,1 Jan 2025 16:17:15.530,1 Jan 2025 16:20:18.633,183.104,0.000581
3,1 Jan 2025 16:20:54.375,1 Jan 2025 16:21:02.913,8.538,0.000027
4,1 Jan 2025 17:50:34.883,1 Jan 2025 17:55:42.295,307.412,0.000975
5,1 Jan 2025 19:25:20.268,1 Jan 2025 19:30:05.010,284.742,0.000903
6,1 Jan 2025 19:30:08.159,1 Jan 2025 19:30:18.858,10.699,0.000034
7,1 Jan 2025 21:00:03.552,1 Jan 2025 21:04:46.890,283.338,0.000898
8,1 Jan 2025 22:34:48.490,1 Jan 2025 22:39:28.365,279.875,0.000887
9,2 Jan 2025 00:09:35.691,2 Jan 2025 00:14:09.339,273.648,0.000868
10,2 Jan 2025 01:44:18.466,2 Jan 2025 01:48:49.609,271.144,0.000860
11,2 Jan 2025 03:19:01.277,2 Jan 2025 03:20:24.779,83.502,0.000265
12,2 Jan 2025 03:20:25.827,2 Jan 2025 03:23:28.749,182.921,0.000580
13,2 Jan 2025 03:23:58.736,2 Jan 2025 03:24:13.185,14.449,0.000046
14,2 Jan 2025 04:53:45.659,2 Jan 2025 04:58:52.421,306.762,0.000973
15,2 Jan 2025 06:28:30.796,2 Jan 2025 06:33:15.484,284.688,0.000903
16,2 Jan 2025 06:33:19.923,2 Jan 2025 06:33:28.227,8.303,0.000026
17,2 Jan 2025 08:03:14.229,2 Jan 2025 08:07:57.329,283.100,0.000898
18,2 Jan 2025 09:37:59.347,2 Jan 2025 09:42:38.759,279.412,0.000886
19,2 Jan 2025 11:12:46.842,2 Jan 2025 11:17:19.673,272.831,0.000865
20,2 Jan 2025 12:47:28.949,2 Jan 2025 12:51:59.862,270.913,0.000859
21,2 Jan 2025 14:22:11.905,2 Jan 2025 14:26:38.839,266.934,0.000846
22,2 Jan 2025 14:27:03.030,2 Jan 2025 14:27:23.445,20.415,0.000065
23,2 Jan 2025 15:56:56.453,2 Jan 2025 16:02:02.525,306.072,0.000971
24,2 Jan 2025 17:31:41.338,2 Jan 2025 17:36:25.954,284.616,0.000903
25,2 Jan 2025 17:36:32.249,2 Jan 2025 17:36:37.035,4.786,0.000015
26,2 Jan 2025 19:06:24.920,2 Jan 2025 19:11:07.762,282.842,0.000897
27,2 Jan 2025 20:41:10.226,2 Jan 2025 20:43:12.611,122.385,0.000388
28,2 Jan 2025 20:43:12.849,2 Jan 2025 20:45:49.148,156.299,0.000496
29,2 Jan 2025 22:15:57.836,2 Jan 2025 22:20:30.003,272.167,0.000863
30,2 Jan 2025 23:50:39.446,2 Jan 2025 23:55:10.103,270.657,0.000858
31,3 Jan 2025 01:25:22.548,3 Jan 2025 01:29:48.910,266.362,0.000845
32,3 Jan 2025 01:30:07.234,3 Jan 2025 01:30:33.692,26.457,0.000084
33,3 Jan 2025 03:00:07.269,3 Jan 2025 03:05:12.600,305.331,0.000968
34,3 Jan 2025 04:34:51.893,3 Jan 2025 04:39:36.420,284.526,0.000902
35,3 Jan 2025 06:09:35.628,3 Jan 2025 06:14:18.191,282.563,0.000896
36,3 Jan 2025 07:44:21.128,3 Jan 2025 07:46:22.915,121.787,0.000386
37,3 Jan 2025 07:46:23.744,3 Jan 2025 07:48:59.531,155.787,0.000494
38,3 Jan 2025 09:19:08.200,3 Jan 2025 09:23:40.324,272.124,0.000863
39,3 Jan 2025 10:53:49.956,3 Jan 2025 10:58:20.338,270.381,0.000857
40,3 Jan 2025 12:28:33.205,3 Jan 2025 12:32:58.949,265.744,0.000843
41,3 Jan 2025 12:33:11.364,3 Jan 2025 12:33:43.930,32.566,0.000103
42,3 Jan 2025 14:03:18.101,3 Jan 2025 14:08:22.648,304.547,0.000966
43,3 Jan 2025 15:38:02.463,3 Jan 2025 15:42:46.883,284.419,0.000902
44,3 Jan 2025 17:12:46.353,3 Jan 2025 17:17:28.618,282.265,0.000895
45,3 Jan 2025 18:47:32.053,3 Jan 2025 18:52:09.909,277.856,0.000881
46,3 Jan 2025 20:22:18.579,3 Jan 2025 20:26:50.640,272.060,0.000863
47,3 Jan 2025 21:57:00.481,3 Jan 2025 22:01:30.551,270.070,0.000856
48,3 Jan 2025 23:31:43.878,3 Jan 2025 23:36:08.956,265.078,0.000841
49,3 Jan 2025 23:36:15.396,3 Jan 2025 23:36:54.157,38.761,0.000123
50,4 Jan 2025 01:06:28.953,4 Jan 2025 01:07:13.778,44.825,0.000142
51,4 Jan 2025 01:07:14.693,4 Jan 2025 01:11:32.663,257.970,0.000818
52,4 Jan 2025 02:41:13.047,4 Jan 2025 02:45:57.345,284.297,0.000902
53,4 Jan 2025 04:15:57.096,4 Jan 2025 04:20:39.036,281.940,0.000894
54,4 Jan 2025 05:50:43.001,4 Jan 2025 05:55:20.283,277.282,0.000879
55,4 Jan 2025 07:25:28.973,4 Jan 2025 07:30:00.950,271.976,0.000862
56,4 Jan 2025 09:00:11.019,4 Jan 2025 09:01:34.312,83.293,0.000264
57,4 Jan 2025 09:01:35.200,4 Jan 2025 09:04:40.756,185.556,0.000588
58,4 Jan 2025 10:34:54.566,4 Jan 2025 10:39:18.925,264.359,0.000838
59,4 Jan 2025 10:39:19.343,4 Jan 2025 10:40:04.375,45.031,0.000143
60,4 Jan 2025 12:09:39.828,4 Jan 2025 12:10:23.974,44.146,0.000140
61,4 Jan 2025 12:10:26.313,4 Jan 2025 12:14:42.634,256.321,0.000813
62,4 Jan 2025 13:44:23.646,4 Jan 2025 13:49:07.803,284.157,0.000901
63,4 Jan 2025 15:19:07.854,4 Jan 2025 15:23:49.452,281.598,0.000893
64,4 Jan 2025 16:53:53.979,4 Jan 2025 16:58:30.654,276.675,0.000877
65,4 Jan 2025 18:28:39.381,4 Jan 2025 18:33:11.250,271.869,0.000862
66,4 Jan 2025 20:03:21.572,4 Jan 2025 20:04:44.564,82.992,0.000263
67,4 Jan 2025 20:04:46.744,4 Jan 2025 20:07:50.946,184.203,0.000584
68,4 Jan 2025 21:38:05.271,4 Jan 2025 21:43:14.575,309.304,0.000981
69,4 Jan 2025 23:12:50.723,4 Jan 2025 23:13:34.155,43.432,0.000138
70,4 Jan 2025 23:13:38.081,4 Jan 2025 23:17:36.260,238.180,0.000755
71,4 Jan 2025 23:17:36.384,4 Jan 2025 23:17:52.555,16.170,0.000051
72,5 Jan 2025 00:47:34.258,5 Jan 2025 00:52:18.253,283.995,0.000901
73,5 Jan 2025 02:22:18.629,5 Jan 2025 02:26:59.865,281.236,0.000892
74,5 Jan 2025 03:57:04.979,5 Jan 2025 04:01:41.014,276.034,0.000875
75,5 Jan 2025 05:31:49.804,5 Jan 2025 05:36:21.541,271.738,0.000862
76,5 Jan 2025 07:06:32.138,5 Jan 2025 07:07:54.796,82.658,0.000262
77,5 Jan 2025 07:07:57.730,5 Jan 2025 07:11:01.126,183.397,0.000582
78,5 Jan 2025 08:41:15.989,5 Jan 2025 08:45:19.657,243.668,0.000773
79,5 Jan 2025 08:45:20.348,5 Jan 2025 08:46:24.762,64.414,0.000204
80,5 Jan 2025 10:16:01.642,5 Jan 2025 10:16:44.307,42.665,0.000135
81,5 Jan 2025 10:16:49.582,5 Jan 2025 10:20:46.744,237.162,0.000752
82,5 Jan 2025 10:20:47.664,5 Jan 2025 10:21:02.408,14.743,0.000047
83,5 Jan 2025 11:50:44.885,5 Jan 2025 11:55:28.703,283.818,0.000900
84,5 Jan 2025 13:25:29.422,5 Jan 2025 13:30:10.274,280.852,0.000891
85,5 Jan 2025 15:00:16.014,5 Jan 2025 15:04:51.372,275.358,0.000873
86,5 Jan 2025 16:35:00.240,5 Jan 2025 16:39:31.824,271.584,0.000861
87,5 Jan 2025 18:09:42.719,5 Jan 2025 18:11:05.009,82.290,0.000261
88,5 Jan 2025 18:11:07.997,5 Jan 2025 18:14:11.286,183.289,0.000581
89,5 Jan 2025 19:44:26.730,5 Jan 2025 19:48:30.096,243.367,0.000772
90,5 Jan 2025 19:48:30.612,5 Jan 2025 19:49:34.933,64.320,0.000204
91,5 Jan 2025 21:19:12.583,5 Jan 2025 21:19:54.440,41.857,0.000133
92,5 Jan 2025 21:19:58.014,5 Jan 2025 21:23:57.222,239.208,0.000759
93,5 Jan 2025 21:23:59.024,5 Jan 2025 21:24:12.179,13.155,0.000042
94,5 Jan 2025 22:53:55.526,5 Jan 2025 22:58:39.149,283.623,0.000899
95,6 Jan 2025 00:28:40.236,6 Jan 2025 00:33:20.679,280.443,0.000889
96,6 Jan 2025 02:03:27.078,6 Jan 2025 02:08:01.722,274.644,0.000871
97,6 Jan 2025 03:38:10.691,6 Jan 2025 03:42:42.103,271.412,0.000861
98,6 Jan 2025 05:12:53.313,6 Jan 2025 05:14:15.206,81.893,0.000260
99,6 Jan 2025 05:14:18.276,6 Jan 2025 05:17:21.427,183.152,0.000581
100,6 Jan 2025 06:47:37.483,6 Jan 2025 06:52:45.084,307.601,0.000975
101,6 Jan 2025 08:22:23.554,6 Jan 2025 08:27:07.699,284.144,0.000901
102,6 Jan 2025 08:27:10.510,6 Jan 2025 08:27:21.829,11.320,0.000036
103,6 Jan 2025 09:57:06.183,6 Jan 2025 10:01:49.591,283.408,0.000899
104,6 Jan 2025 11:31:51.066,6 Jan 2025 11:36:31.078,280.012,0.000888
105,6 Jan 2025 13:06:38.179,6 Jan 2025 13:11:12.068,273.889,0.000868
106,6 Jan 2025 14:41:21.156,6 Jan 2025 14:45:52.364,271.208,0.000860
107,6 Jan 2025 16:16:03.922,6 Jan 2025 16:17:27.080,83.159,0.000264
108,6 Jan 2025 16:17:28.569,6 Jan 2025 16:20:31.549,182.980,0.000580
109,6 Jan 2025 17:50:48.254,6 Jan 2025 17:55:55.217,306.963,0.000973
110,6 Jan 2025 19:25:34.547,6 Jan 2025 19:30:18.174,283.626,0.000899
111,6 Jan 2025 19:30:22.184,6 Jan 2025 19:30:31.286,9.102,0.000029
112,6 Jan 2025 21:00:16.854,6 Jan 2025 21:05:00.028,283.174,0.000898
113,6 Jan 2025 22:35:01.917,6 Jan 2025 22:39:41.473,279.556,0.000886
114,7 Jan 2025 00:09:49.318,7 Jan 2025 00:14:22.407,273.088,0.000866
115,7 Jan 2025 01:44:31.634,7 Jan 2025 01:49:02.619,270.986,0.000859
116,7 Jan 2025 03:19:14.545,7 Jan 2025 03:20:38.767,84.221,0.000267
117,7 Jan 2025 03:20:38.875,7 Jan 2025 03:23:41.649,182.774,0.000580
118,7 Jan 2025 04:53:59.042,7 Jan 2025 04:59:05.329,306.287,0.000971
119,7 Jan 2025 06:28:45.576,7 Jan 2025 06:33:28.643,283.066,0.000898
120,7 Jan 2025 06:33:34.263,7 Jan 2025 06:33:40.345,6.081,0.000019
121,7 Jan 2025 08:03:27.541,7 Jan 2025 08:08:10.464,282.923,0.000897
122,7 Jan 2025 09:38:12.791,7 Jan 2025 09:42:51.861,279.070,0.000885
123,7 Jan 2025 11:13:00.498,7 Jan 2025 11:17:32.736,272.238,0.000863
124,7 Jan 2025 12:47:42.126,7 Jan 2025 12:52:12.864,270.738,0.000859
125,7 Jan 2025 14:22:25.183,7 Jan 2025 14:26:51.725,266.542,0.000845
126,7 Jan 2025 15:57:09.849,7 Jan 2025 16:02:15.411,305.562,0.000969
127,7 Jan 2025 17:31:56.631,7 Jan 2025 17:36:39.112,282.481,0.000896
128,7 Jan 2025 19:06:38.244,7 Jan 2025 19:11:20.894,282.651,0.000896
129,7 Jan 2025 20:41:23.684,7 Jan 2025 20:43:25.658,121.974,0.000387
130,7 Jan 2025 20:43:26.472,7 Jan 2025 20:46:02.248,155.777,0.000494
131,7 Jan 2025 22:16:10.921,7 Jan 2025 22:20:43.062,272.140,0.000863
132,7 Jan 2025 23:50:52.632,7 Jan 2025 23:55:23.097,270.465,0.000858
133,8 Jan 2025 01:25:35.836,8 Jan 2025 01:30:01.774,265.938,0.000843
134,8 Jan 2025 03:00:20.677,8 Jan 2025 03:05:25.468,304.791,0.000966
135,8 Jan 2025 04:35:07.725,8 Jan 2025 04:39:49.577,281.852,0.000894
136,8 Jan 2025 06:09:48.962,8 Jan 2025 06:14:31.321,282.359,0.000895
137,8 Jan 2025 07:44:34.601,8 Jan 2025 07:46:36.460,121.860,0.000386
138,8 Jan 2025 07:46:36.822,8 Jan 2025 07:49:12.628,155.806,0.000494
139,8 Jan 2025 09:19:21.296,8 Jan 2025 09:23:53.379,272.083,0.000863
140,8 Jan 2025 10:54:03.152,8 Jan 2025 10:58:33.323,270.171,0.000857
141,8 Jan 2025 12:28:46.504,8 Jan 2025 12:33:11.788,265.284,0.000841
142,8 Jan 2025 14:03:31.523,8 Jan 2025 14:04:16.545,45.022,0.000143
143,8 Jan 2025 14:04:17.053,8 Jan 2025 14:08:35.496,258.443,0.000820
144,8 Jan 2025 15:38:17.626,8 Jan 2025 15:43:00.037,282.411,0.000896
145,8 Jan 2025 17:12:59.698,8 Jan 2025 17:17:41.744,282.046,0.000894
146,8 Jan 2025 18:47:45.540,8 Jan 2025 18:52:23.003,277.462,0.000880
147,8 Jan 2025 20:22:31.685,8 Jan 2025 20:27:03.689,272.004,0.000863
148,8 Jan 2025 21:57:13.686,8 Jan 2025 21:58:37.067,83.380,0.000264
149,8 Jan 2025 21:58:37.581,8 Jan 2025 22:01:43.528,185.947,0.000590
150,8 Jan 2025 23:31:57.187,8 Jan 2025 23:36:21.774,264.587,0.000839
151,9 Jan 2025 01:06:42.390,9 Jan 2025 01:07:26.753,44.363,0.000141
152,9 Jan 2025 01:07:28.635,9 Jan 2025 01:11:45.476,256.841,0.000814
153,9 Jan 2025 02:41:26.294,9 Jan 2025 02:46:10.495,284.201,0.000901
154,9 Jan 2025 04:16:10.453,9 Jan 2025 04:20:52.159,281.706,0.000893
155,9 Jan 2025 05:50:56.511,9 Jan 2025 05:55:33.370,276.859,0.000878
156,9 Jan 2025 07:25:42.088,9 Jan 2025 07:30:13.992,271.904,0.000862
157,9 Jan 2025 09:00:24.234,9 Jan 2025 09:01:47.320,83.086,0.000263
158,9 Jan 2025 09:01:49.092,9 Jan 2025 09:04:53.723,184.631,0.000585
159,9 Jan 2025 10:35:07.885,9 Jan 2025 10:39:31.709,263.824,0.000837
160,9 Jan 2025 12:09:53.279,9 Jan 2025 12:10:36.936,43.657,0.000138
161,9 Jan 2025 12:10:40.352,9 Jan 2025 12:14:55.414,255.062,0.000809
162,9 Jan 2025 13:44:36.902,9 Jan 2025 13:49:20.951,284.048,0.000901
163,9 Jan 2025 15:19:21.223,9 Jan 2025 15:24:02.572,281.349,0.000892
164,9 Jan 2025 16:54:07.501,9 Jan 2025 16:58:43.737,276.236,0.000876
165,9 Jan 2025 18:28:52.506,9 Jan 2025 18:33:24.286,271.780,0.000862
166,9 Jan 2025 20:03:34.796,9 Jan 2025 20:04:57.560,82.764,0.000262
167,9 Jan 2025 20:05:00.484,9 Jan 2025 20:08:03.903,183.419,0.000582
168,9 Jan 2025 21:38:18.601,9 Jan 2025 21:42:22.358,243.757,0.000773
169,9 Jan 2025 21:42:22.792,9 Jan 2025 21:42:41.602,18.810,0.000060
170,9 Jan 2025 23:13:04.190,9 Jan 2025 23:13:47.096,42.906,0.000136
171,9 Jan 2025 23:13:52.256,9 Jan 2025 23:17:49.429,237.173,0.000752
172,9 Jan 2025 23:17:50.096,9 Jan 2025 23:18:05.295,15.199,0.000048
173,10 Jan 2025 00:47:47.524,10 Jan 2025 00:52:31.398,283.874,0.000900
174,10 Jan 2025 02:22:32.010,10 Jan 2025 02:27:12.982,280.972,0.000891
175,10 Jan 2025 03:57:18.528,10 Jan 2025 04:01:54.094,275.567,0.000874
176,10 Jan 2025 05:32:02.938,10 Jan 2025 05:36:34.571,271.634,0.000861
177,10 Jan 2025 07:06:45.372,10 Jan 2025 07:08:07.779,82.407,0.000261
178,10 Jan 2025 07:08:10.745,10 Jan 2025 07:11:14.069,183.325,0.000581
179,10 Jan 2025 08:41:29.332,10 Jan 2025 08:45:32.795,243.463,0.000772
180,10 Jan 2025 08:45:34.094,10 Jan 2025 08:45:51.426,17.333,0.000055
181,10 Jan 2025 10:16:15.125,10 Jan 2025 10:16:57.235,42.110,0.000134
182,10 Jan 2025 10:17:02.522,10 Jan 2025 10:20:59.911,237.389,0.000753
183,10 Jan 2025 10:21:01.431,10 Jan 2025 10:21:15.091,13.660,0.000043
184,10 Jan 2025 11:50:58.161,10 Jan 2025 11:55:41.845,283.684,0.000900
185,10 Jan 2025 13:25:42.816,10 Jan 2025 13:30:23.387,280.572,0.000890
186,10 Jan 2025 15:00:29.580,10 Jan 2025 15:05:04.447,274.867,0.000872
187,10 Jan 2025 16:35:13.384,10 Jan 2025 16:39:44.848,271.464,0.000861
188,10 Jan 2025 18:09:55.962,10 Jan 2025 18:11:17.980,82.018,0.000260
189,10 Jan 2025 18:11:21.021,10 Jan 2025 18:14:24.218,183.197,0.000581
190,10 Jan 2025 19:44:40.083,10 Jan 2025 19:48:43.231,243.148,0.000771
191,10 Jan 2025 19:48:45.474,10 Jan 2025 19:49:01.176,15.702,0.000050
192,10 Jan 2025 21:19:26.083,10 Jan 2025 21:20:07.351,41.268,0.000131
193,10 Jan 2025 21:20:12.692,10 Jan 2025 21:24:10.386,237.694,0.000754
194,10 Jan 2025 21:24:12.870,10 Jan 2025 21:24:24.784,11.913,0.000038
195,10 Jan 2025 22:54:08.813,10 Jan 2025 22:58:52.288,283.475,0.000899
196,11 Jan 2025 00:28:53.643,11 Jan 2025 00:33:33.789,280.146,0.000888
197,11 Jan 2025 02:03:40.672,11 Jan 2025 02:08:14.795,274.123,0.000869
198,11 Jan 2025 03:38:23.844,11 Jan 2025 03:42:55.120,271.276,0.000860
199,11 Jan 2025 05:13:06.566,11 Jan 2025 05:14:29.360,82.794,0.000263
200,11 Jan 2025 05:14:31.310,11 Jan 2025 05:17:34.346,183.035,0.000580
201,11 Jan 2025 06:47:50.848,11 Jan 2025 06:51:53.661,242.813,0.000770
202,11 Jan 2025 06:51:56.960,11 Jan 2025 06:52:10.814,13.853,0.000044
203,11 Jan 2025 08:22:37.071,11 Jan 2025 08:23:17.442,40.371,0.000128
204,11 Jan 2025 08:23:22.883,11 Jan 2025 08:27:20.861,237.978,0.000755
205,11 Jan 2025 08:27:24.481,11 Jan 2025 08:27:34.310,9.829,0.000031
206,11 Jan 2025 09:57:19.480,11 Jan 2025 10:02:02.728,283.248,0.000898
207,11 Jan 2025 11:32:04.487,11 Jan 2025 11:36:44.185,279.698,0.000887
208,11 Jan 2025 13:06:51.798,11 Jan 2025 13:11:25.132,273.335,0.000867
209,11 Jan 2025 14:41:34.319,11 Jan 2025 14:46:05.374,271.055,0.000860
210,11 Jan 2025 16:16:17.185,11 Jan 2025 16:17:41.102,83.917,0.000266
211,11 Jan 2025 16:17:41.613,11 Jan 2025 16:20:44.452,182.840,0.000580
212,11 Jan 2025 17:51:01.631,11 Jan 2025 17:55:04.089,242.458,0.000769
213,11 Jan 2025 17:55:08.613,11 Jan 2025 17:55:20.295,11.682,0.000037
214,11 Jan 2025 19:25:48.089,11 Jan 2025 19:26:27.504,39.414,0.000125
215,11 Jan 2025 19:26:33.090,11 Jan 2025 19:30:31.333,238.243,0.000755
216,11 Jan 2025 19:30:36.394,11 Jan 2025 19:30:43.530,7.136,0.000023
217,11 Jan 2025 21:00:30.162,11 Jan 2025 21:05:13.162,283.000,0.000897
218,11 Jan 2025 22:35:15.352,11 Jan 2025 22:39:54.574,279.222,0.000885
219,12 Jan 2025 00:10:02.964,12 Jan 2025 00:14:35.469,272.505,0.000864
220,12 Jan 2025 01:44:44.806,12 Jan 2025 01:49:15.622,270.815,0.000859
221,12 Jan 2025 03:19:27.819,12 Jan 2025 03:23:54.536,266.717,0.000846
222,12 Jan 2025 04:54:12.432,12 Jan 2025 04:58:14.506,242.074,0.000768
223,12 Jan 2025 04:58:20.538,12 Jan 2025 04:58:29.498,8.960,0.000028
224,12 Jan 2025 06:28:59.138,12 Jan 2025 06:29:39.844,40.707,0.000129
225,12 Jan 2025 06:29:43.314,12 Jan 2025 06:33:41.800,238.486,0.000756
226,12 Jan 2025 06:33:49.451,12 Jan 2025 06:33:51.612,2.162,0.000007
227,12 Jan 2025 08:03:40.860,12 Jan 2025 08:08:23.595,282.735,0.000897
228,12 Jan 2025 09:38:26.241,12 Jan 2025 09:40:28.397,122.156,0.000387
229,12 Jan 2025 09:40:29.057,12 Jan 2025 09:43:04.961,155.904,0.000494
230,12 Jan 2025 11:13:13.643,12 Jan 2025 11:17:45.794,272.151,0.000863
231,12 Jan 2025 12:47:55.308,12 Jan 2025 12:52:25.858,270.550,0.000858
232,12 Jan 2025 14:22:38.467,12 Jan 2025 14:27:04.590,266.123,0.000844
233,12 Jan 2025 15:57:23.255,12 Jan 2025 16:01:24.921,241.666,0.000766
234,12 Jan 2025 16:01:33.169,12 Jan 2025 16:01:38.000,4.831,0.000015
235,12 Jan 2025 17:32:10.219,12 Jan 2025 17:32:51.834,41.614,0.000132
236,12 Jan 2025 17:32:53.554,12 Jan 2025 17:36:52.266,238.713,0.000757
237,12 Jan 2025 19:06:51.573,12 Jan 2025 19:11:34.023,282.449,0.000896
238,12 Jan 2025 20:41:37.150,12 Jan 2025 20:43:38.798,121.648,0.000386
239,12 Jan 2025 20:43:39.546,12 Jan 2025 20:46:15.344,155.798,0.000494
240,12 Jan 2025 22:16:24.012,12 Jan 2025 22:20:56.113,272.101,0.000863
241,12 Jan 2025 23:51:05.824,12 Jan 2025 23:55:36.084,270.259,0.000857
242,13 Jan 2025 01:25:49.130,13 Jan 2025 01:30:14.618,265.488,0.000842
243,13 Jan 2025 03:00:34.094,13 Jan 2025 03:01:19.312,45.218,0.000143
244,13 Jan 2025 03:01:19.424,13 Jan 2025 03:04:35.330,195.906,0.000621
245,13 Jan 2025 04:35:21.335,13 Jan 2025 04:36:03.596,42.261,0.000134
246,13 Jan 2025 04:36:03.810,13 Jan 2025 04:40:02.729,238.919,0.000758
247,13 Jan 2025 06:10:02.304,13 Jan 2025 06:14:44.446,282.143,0.000895
248,13 Jan 2025 07:44:48.084,13 Jan 2025 07:49:25.720,277.636,0.000880
249,13 Jan 2025 09:19:34.397,13 Jan 2025 09:24:06.427,272.030,0.000863
250,13 Jan 2025 10:54:16.354,13 Jan 2025 10:55:39.818,83.464,0.000265
251,13 Jan 2025 10:55:39.970,13 Jan 2025 10:58:46.301,186.330,0.000591
252,13 Jan 2025 12:28:59.809,13 Jan 2025 12:33:24.611,264.802,0.000840
253,13 Jan 2025 14:03:44.954,13 Jan 2025 14:04:29.525,44.570,0.000141
254,13 Jan 2025 14:04:30.972,13 Jan 2025 14:07:45.737,194.765,0.000618
255,13 Jan 2025 14:08:48.100,13 Jan 2025 14:08:48.318,0.218,0.000001
256,13 Jan 2025 15:38:32.492,13 Jan 2025 15:43:13.187,280.696,0.000890
257,13 Jan 2025 17:13:13.051,13 Jan 2025 17:17:54.862,281.811,0.000894
258,13 Jan 2025 18:47:59.044,13 Jan 2025 18:52:36.094,277.051,0.000879
259,13 Jan 2025 20:22:44.796,13 Jan 2025 20:27:16.733,271.937,0.000862
260,13 Jan 2025 21:57:26.898,13 Jan 2025 21:58:50.077,83.179,0.000264
261,13 Jan 2025 21:58:51.452,13 Jan 2025 22:01:56.495,185.043,0.000587
262,13 Jan 2025 23:32:10.503,13 Jan 2025 23:36:34.565,264.063,0.000837
263,14 Jan 2025 01:06:55.839,14 Jan 2025 01:07:39.715,43.876,0.000139
264,14 Jan 2025 01:07:42.644,14 Jan 2025 01:10:56.132,193.488,0.000614
265,14 Jan 2025 01:11:49.598,14 Jan 2025 01:11:58.271,8.674,0.000028
266,14 Jan 2025 02:41:43.694,14 Jan 2025 02:46:23.642,279.948,0.000888
267,14 Jan 2025 04:16:23.819,14 Jan 2025 04:21:05.279,281.460,0.000893
268,14 Jan 2025 05:51:10.027,14 Jan 2025 05:55:46.456,276.429,0.000877
269,14 Jan 2025 07:25:55.209,14 Jan 2025 07:30:27.029,271.819,0.000862
270,14 Jan 2025 09:00:37.455,14 Jan 2025 09:02:00.322,82.866,0.000263
271,14 Jan 2025 09:02:03.039,14 Jan 2025 09:05:06.680,183.641,0.000582
272,14 Jan 2025 10:35:21.213,14 Jan 2025 10:39:25.054,243.842,0.000773
273,14 Jan 2025 10:39:25.241,14 Jan 2025 10:39:44.471,19.230,0.000061
274,14 Jan 2025 12:10:06.742,14 Jan 2025 12:10:49.880,43.138,0.000137
275,14 Jan 2025 12:10:54.483,14 Jan 2025 12:14:06.524,192.041,0.000609
276,14 Jan 2025 12:14:50.953,14 Jan 2025 12:14:52.114,1.161,0.000004
277,14 Jan 2025 12:14:52.542,14 Jan 2025 12:15:08.168,15.626,0.000050
278,14 Jan 2025 13:44:54.943,14 Jan 2025 13:49:34.096,279.152,0.000885
279,14 Jan 2025 15:19:34.601,14 Jan 2025 15:24:15.689,281.088,0.000891
280,14 Jan 2025 16:54:21.043,14 Jan 2025 16:58:56.818,275.775,0.000874
281,14 Jan 2025 18:29:05.637,14 Jan 2025 18:33:37.318,271.681,0.000861
282,14 Jan 2025 20:03:48.027,14 Jan 2025 20:05:10.546,82.519,0.000262
283,14 Jan 2025 20:05:13.498,14 Jan 2025 20:08:16.852,183.354,0.000581
284,14 Jan 2025 21:38:31.940,14 Jan 2025 21:42:35.494,243.554,0.000772
285,14 Jan 2025 21:42:36.521,14 Jan 2025 21:42:54.315,17.794,0.000056
286,14 Jan 2025 23:13:17.670,14 Jan 2025 23:14:00.026,42.357,0.000134
287,14 Jan 2025 23:14:05.307,14 Jan 2025 23:17:16.910,191.604,0.000608
288,14 Jan 2025 23:17:52.163,14 Jan 2025 23:18:02.592,10.429,0.000033
289,14 Jan 2025 23:18:03.849,14 Jan 2025 23:18:17.991,14.142,0.000045
290,15 Jan 2025 00:48:06.248,15 Jan 2025 00:52:44.541,278.293,0.000882
291,15 Jan 2025 02:22:45.401,15 Jan 2025 02:27:26.096,280.695,0.000890
292,15 Jan 2025 03:57:32.091,15 Jan 2025 04:02:07.172,275.081,0.000872
293,15 Jan 2025 05:32:16.079,15 Jan 2025 05:36:47.596,271.516,0.000861
294,15 Jan 2025 07:06:58.613,15 Jan 2025 07:08:20.753,82.140,0.000260
295,15 Jan 2025 07:08:23.768,15 Jan 2025 07:11:27.002,183.234,0.000581
296,15 Jan 2025 08:41:42.685,15 Jan 2025 08:45:45.931,243.245,0.000771
297,15 Jan 2025 08:45:47.879,15 Jan 2025 08:46:04.092,16.213,0.000051
298,15 Jan 2025 10:16:28.623,15 Jan 2025 10:17:10.151,41.528,0.000132
299,15 Jan 2025 10:17:15.472,15 Jan 2025 10:20:27.291,191.818,0.000608
300,15 Jan 2025 10:20:53.238,15 Jan 2025 10:21:13.076,19.838,0.000063
301,15 Jan 2025 10:21:15.257,15 Jan 2025 10:21:27.719,12.462,0.000040
302,15 Jan 2025 11:51:17.620,15 Jan 2025 11:55:54.986,277.366,0.000880
303,15 Jan 2025 13:25:56.222,15 Jan 2025 13:30:36.498,280.276,0.000889
304,15 Jan 2025 15:00:43.169,15 Jan 2025 15:05:17.521,274.352,0.000870
305,15 Jan 2025 16:35:26.535,15 Jan 2025 16:39:57.867,271.331,0.000860
306,15 Jan 2025 18:10:09.214,15 Jan 2025 18:11:31.622,82.408,0.000261
307,15 Jan 2025 18:11:34.053,15 Jan 2025 18:14:37.140,183.086,0.000581
308,15 Jan 2025 19:44:53.446,15 Jan 2025 19:48:56.363,242.917,0.000770
309,15 Jan 2025 19:48:59.329,15 Jan 2025 19:49:13.767,14.438,0.000046
310,15 Jan 2025 21:19:39.603,15 Jan 2025 21:20:20.250,40.647,0.000129
311,15 Jan 2025 21:20:25.655,15 Jan 2025 21:23:37.667,192.012,0.000609
312,15 Jan 2025 21:23:54.169,15 Jan 2025 21:24:23.549,29.380,0.000093
313,15 Jan 2025 21:24:26.807,15 Jan 2025 21:24:37.304,10.497,0.000033
314,15 Jan 2025 22:54:29.066,15 Jan 2025 22:59:05.426,276.361,0.000876
315,16 Jan 2025 00:29:07.061,16 Jan 2025 00:33:46.896,279.836,0.000887
316,16 Jan 2025 02:03:54.285,16 Jan 2025 02:08:27.865,273.580,0.000868
317,16 Jan 2025 03:38:37.005,16 Jan 2025 03:43:08.132,271.127,0.000860
318,16 Jan 2025 05:13:19.828,16 Jan 2025 05:14:43.420,83.592,0.000265
319,16 Jan 2025 05:14:44.352,16 Jan 2025 05:17:47.253,182.901,0.000580
320,16 Jan 2025 06:48:04.223,16 Jan 2025 06:52:06.790,242.566,0.000769
321,16 Jan 2025 06:52:10.925,16 Jan 2025 06:52:23.302,12.378,0.000039
322,16 Jan 2025 08:22:50.610,16 Jan 2025 08:23:30.323,39.713,0.000126
323,16 Jan 2025 08:23:35.858,16 Jan 2025 08:26:48.032,192.173,0.000609
324,16 Jan 2025 08:26:54.958,16 Jan 2025 08:27:34.022,39.064,0.000124
325,16 Jan 2025 08:27:38.600,16 Jan 2025 08:27:46.641,8.041,0.000025
326,16 Jan 2025 09:57:40.606,16 Jan 2025 10:02:15.863,275.257,0.000873
327,16 Jan 2025 11:32:17.919,16 Jan 2025 11:36:57.287,279.368,0.000886
328,16 Jan 2025 13:07:05.437,16 Jan 2025 13:11:38.201,272.764,0.000865
329,16 Jan 2025 14:41:47.490,16 Jan 2025 14:46:18.379,270.889,0.000859
330,16 Jan 2025 16:16:30.457,16 Jan 2025 16:20:57.344,266.887,0.000846
331,16 Jan 2025 17:51:15.019,16 Jan 2025 17:55:17.215,242.196,0.000768
332,16 Jan 2025 17:55:22.747,16 Jan 2025 17:55:32.610,9.863,0.000031
333,16 Jan 2025 19:26:01.647,16 Jan 2025 19:26:42.007,40.360,0.000128
334,16 Jan 2025 19:26:46.075,16 Jan 2025 19:30:44.490,238.415,0.000756
335,16 Jan 2025 19:30:51.036,16 Jan 2025 19:30:55.343,4.307,0.000014
336,16 Jan 2025 21:00:52.264,16 Jan 2025 21:05:26.295,274.031,0.000869
337,16 Jan 2025 22:35:28.802,16 Jan 2025 22:37:31.136,122.334,0.000388
338,16 Jan 2025 22:37:31.464,16 Jan 2025 22:40:07.676,156.212,0.000495
339,17 Jan 2025 00:10:16.366,17 Jan 2025 00:14:48.530,272.164,0.000863
340,17 Jan 2025 01:44:57.987,17 Jan 2025 01:49:28.620,270.633,0.000858
341,17 Jan 2025 03:19:41.101,17 Jan 2025 03:24:07.410,266.309,0.000844
342,17 Jan 2025 04:54:25.836,17 Jan 2025 04:58:27.628,241.792,0.000767
343,17 Jan 2025 04:58:35.061,17 Jan 2025 04:58:41.432,6.371,0.000020
344,17 Jan 2025 06:29:12.718,17 Jan 2025 06:29:54.087,41.369,0.000131
345,17 Jan 2025 06:29:56.314,17 Jan 2025 06:33:54.958,238.644,0.000757
346,17 Jan 2025 08:04:04.078,17 Jan 2025 08:08:36.725,272.648,0.000865
347,17 Jan 2025 09:38:39.704,17 Jan 2025 09:40:41.441,121.737,0.000386
348,17 Jan 2025 09:40:42.273,17 Jan 2025 09:43:18.060,155.787,0.000494
349,17 Jan 2025 11:13:26.732,17 Jan 2025 11:17:58.850,272.118,0.000863
350,17 Jan 2025 12:48:08.499,17 Jan 2025 12:52:38.848,270.350,0.000857
351,17 Jan 2025 14:22:51.759,17 Jan 2025 14:27:17.446,265.687,0.000842
352,17 Jan 2025 15:57:36.669,17 Jan 2025 16:01:38.039,241.370,0.000765
353,17 Jan 2025 17:32:23.824,17 Jan 2025 17:33:05.907,42.083,0.000133
354,17 Jan 2025 17:33:06.565,17 Jan 2025 17:37:05.421,238.856,0.000757
355,17 Jan 2025 19:07:16.107,17 Jan 2025 19:11:47.151,271.043,0.000859
356,17 Jan 2025 20:41:50.630,17 Jan 2025 20:46:28.439,277.809,0.000881
357,17 Jan 2025 22:16:37.111,17 Jan 2025 22:21:09.163,272.052,0.000863
358,17 Jan 2025 23:51:19.024,17 Jan 2025 23:55:49.065,270.041,0.000856
359,18 Jan 2025 01:26:02.433,18 Jan 2025 01:30:27.450,265.017,0.000840
360,18 Jan 2025 03:00:47.523,18 Jan 2025 03:01:32.293,44.771,0.000142
361,18 Jan 2025 03:01:33.320,18 Jan 2025 03:04:48.445,195.125,0.000619
362,18 Jan 2025 04:35:34.969,18 Jan 2025 04:40:15.881,280.912,0.000891
363,18 Jan 2025 06:10:23.564,18 Jan 2025 06:14:57.572,274.008,0.000869
364,18 Jan 2025 07:45:01.580,18 Jan 2025 07:49:38.812,277.232,0.000879
365,18 Jan 2025 09:19:47.506,18 Jan 2025 09:24:19.473,271.967,0.000862
366,18 Jan 2025 10:54:29.564,18 Jan 2025 10:55:52.833,83.269,0.000264
367,18 Jan 2025 10:55:53.819,18 Jan 2025 10:58:59.273,185.454,0.000588
368,18 Jan 2025 12:29:13.122,18 Jan 2025 12:33:37.417,264.294,0.000838
369,18 Jan 2025 14:03:58.400,18 Jan 2025 14:04:42.489,44.089,0.000140
370,18 Jan 2025 14:04:44.950,18 Jan 2025 14:07:58.847,193.897,0.000615
371,18 Jan 2025 15:38:46.155,18 Jan 2025 15:43:26.337,280.182,0.000888
372,18 Jan 2025 17:13:26.416,18 Jan 2025 17:18:07.985,281.569,0.000893
373,18 Jan 2025 18:48:12.560,18 Jan 2025 18:52:49.178,276.618,0.000877
374,18 Jan 2025 20:22:57.915,18 Jan 2025 20:27:29.772,271.857,0.000862
375,18 Jan 2025 21:57:40.117,18 Jan 2025 21:59:03.083,82.966,0.000263
376,18 Jan 2025 21:59:05.375,18 Jan 2025 22:02:09.458,184.083,0.000584
377,18 Jan 2025 23:32:23.827,18 Jan 2025 23:36:47.339,263.511,0.000836
378,19 Jan 2025 01:07:09.297,19 Jan 2025 01:07:52.665,43.369,0.000138
379,19 Jan 2025 01:07:56.732,19 Jan 2025 01:11:09.238,192.507,0.000610
380,19 Jan 2025 02:41:57.386,19 Jan 2025 02:46:36.790,279.404,0.000886
381,19 Jan 2025 04:16:37.194,19 Jan 2025 04:21:18.398,281.205,0.000892
382,19 Jan 2025 05:51:23.563,19 Jan 2025 05:55:59.542,275.980,0.000875
383,19 Jan 2025 07:26:08.339,19 Jan 2025 07:30:40.063,271.725,0.000862
384,19 Jan 2025 09:00:50.685,19 Jan 2025 09:02:13.313,82.629,0.000262
385,19 Jan 2025 09:02:16.251,19 Jan 2025 09:05:19.633,183.382,0.000581
386,19 Jan 2025 10:35:34.548,19 Jan 2025 10:39:38.195,243.647,0.000773
387,19 Jan 2025 10:39:38.957,19 Jan 2025 10:39:57.205,18.248,0.000058
388,19 Jan 2025 12:10:20.214,19 Jan 2025 12:11:02.819,42.605,0.000135
389,19 Jan 2025 12:11:08.094,19 Jan 2025 12:14:19.627,191.532,0.000607
390,19 Jan 2025 13:45:08.676,19 Jan 2025 13:49:47.240,278.565,0.000883
391,19 Jan 2025 15:19:47.988,19 Jan 2025 15:24:28.805,280.817,0.000890
392,19 Jan 2025 16:54:34.600,19 Jan 2025 16:59:09.899,275.299,0.000873
393,19 Jan 2025 18:29:18.776,19 Jan 2025 18:33:50.344,271.568,0.000861
394,19 Jan 2025 20:04:01.266,19 Jan 2025 20:05:23.526,82.260,0.000261
395,19 Jan 2025 20:05:26.517,19 Jan 2025 20:08:29.795,183.278,0.000581
396,19 Jan 2025 21:38:45.287,19 Jan 2025 21:42:48.631,243.344,0.000772
397,19 Jan 2025 21:42:50.290,19 Jan 2025 21:43:07.002,16.712,0.000053
398,19 Jan 2025 23:13:31.161,19 Jan 2025 23:14:12.950,41.789,0.000133
399,19 Jan 2025 23:14:18.255,19 Jan 2025 23:17:30.009,191.754,0.000608
400,20 Jan 2025 00:48:20.026,20 Jan 2025 00:52:57.683,277.657,0.000880
401,20 Jan 2025 02:22:58.803,20 Jan 2025 02:27:39.209,280.406,0.000889
402,20 Jan 2025 03:57:45.667,20 Jan 2025 04:02:20.248,274.580,0.000871
403,20 Jan 2025 05:32:29.228,20 Jan 2025 05:37:00.618,271.390,0.000861
404,20 Jan 2025 07:07:11.862,20 Jan 2025 07:08:33.855,81.993,0.000260
405,20 Jan 2025 07:08:36.799,20 Jan 2025 07:11:39.933,183.135,0.000581
406,20 Jan 2025 08:41:56.045,20 Jan 2025 08:45:59.065,243.020,0.000771
407,20 Jan 2025 08:46:01.708,20 Jan 2025 08:46:16.710,15.002,0.000048
408,20 Jan 2025 10:16:42.134,20 Jan 2025 10:17:23.057,40.923,0.000130
409,20 Jan 2025 10:17:28.432,20 Jan 2025 10:20:40.384,191.953,0.000609
410,20 Jan 2025 11:51:31.446,20 Jan 2025 11:56:08.125,276.680,0.000877
411,20 Jan 2025 13:26:09.635,20 Jan 2025 13:30:49.609,279.973,0.000888
412,20 Jan 2025 15:00:56.771,20 Jan 2025 15:05:30.592,273.820,0.000868
413,20 Jan 2025 16:35:39.694,20 Jan 2025 16:40:10.883,271.189,0.000860
414,20 Jan 2025 18:10:22.472,20 Jan 2025 18:11:45.726,83.254,0.000264
415,20 Jan 2025 18:11:47.093,20 Jan 2025 18:14:50.054,182.961,0.000580
416,20 Jan 2025 19:45:06.817,20 Jan 2025 19:49:09.493,242.677,0.000770
417,20 Jan 2025 19:49:13.252,20 Jan 2025 19:49:26.296,13.044,0.000041
418,20 Jan 2025 21:19:53.130,20 Jan 2025 21:20:33.138,40.007,0.000127
419,20 Jan 2025 21:20:38.628,20 Jan 2025 21:23:50.757,192.129,0.000609
420,20 Jan 2025 22:54:42.956,20 Jan 2025 22:59:18.563,275.608,0.000874
421,21 Jan 2025 00:29:20.487,21 Jan 2025 00:34:00.003,279.516,0.000886
422,21 Jan 2025 02:04:07.913,21 Jan 2025 02:08:40.929,273.015,0.000866
423,21 Jan 2025 03:38:50.173,21 Jan 2025 03:43:21.141,270.968,0.000859
424,21 Jan 2025 05:13:33.096,21 Jan 2025 05:14:57.398,84.302,0.000267
425,21 Jan 2025 05:14:57.400,21 Jan 2025 05:18:00.152,182.752,0.000580
426,21 Jan 2025 06:48:17.606,21 Jan 2025 06:52:19.917,242.310,0.000768
427,21 Jan 2025 06:52:24.989,21 Jan 2025 06:52:35.692,10.702,0.000034
428,21 Jan 2025 08:23:04.160,21 Jan 2025 08:23:44.125,39.966,0.000127
429,21 Jan 2025 08:23:48.843,21 Jan 2025 08:27:01.116,192.274,0.000610
430,21 Jan 2025 09:57:54.574,21 Jan 2025 10:02:28.997,274.423,0.000870
431,21 Jan 2025 11:32:31.363,21 Jan 2025 11:34:33.874,122.511,0.000388
432,21 Jan 2025 11:34:33.875,21 Jan 2025 11:37:10.391,156.516,0.000496
433,21 Jan 2025 13:07:19.091,21 Jan 2025 13:11:51.261,272.171,0.000863
434,21 Jan 2025 14:42:00.668,21 Jan 2025 14:46:31.381,270.713,0.000858
435,21 Jan 2025 16:16:43.735,21 Jan 2025 16:21:10.226,266.491,0.000845
436,21 Jan 2025 17:51:28.415,21 Jan 2025 17:55:30.338,241.923,0.000767
437,21 Jan 2025 17:55:37.097,21 Jan 2025 17:55:44.714,7.617,0.000024
438,21 Jan 2025 19:26:15.218,21 Jan 2025 19:26:56.313,41.095,0.000130
439,21 Jan 2025 19:26:59.072,21 Jan 2025 19:30:11.472,192.400,0.000610
440,21 Jan 2025 21:01:06.333,21 Jan 2025 21:05:39.426,273.093,0.000866
441,21 Jan 2025 22:35:42.254,21 Jan 2025 22:37:44.183,121.928,0.000387
442,21 Jan 2025 22:37:45.000,21 Jan 2025 22:40:20.776,155.777,0.000494
443,22 Jan 2025 00:10:29.451,22 Jan 2025 00:15:01.587,272.136,0.000863
444,22 Jan 2025 01:45:11.174,22 Jan 2025 01:49:41.613,270.439,0.000858
445,22 Jan 2025 03:19:54.389,22 Jan 2025 03:24:20.273,265.884,0.000843
446,22 Jan 2025 04:54:39.244,22 Jan 2025 04:58:40.747,241.503,0.000766
447,22 Jan 2025 04:58:50.995,22 Jan 2025 04:58:51.944,0.949,0.000003
448,22 Jan 2025 06:29:26.315,22 Jan 2025 06:30:08.203,41.888,0.000133
449,22 Jan 2025 06:30:09.319,22 Jan 2025 06:33:21.821,192.502,0.000610
450,22 Jan 2025 08:04:18.286,22 Jan 2025 08:08:49.854,271.568,0.000861
451,22 Jan 2025 09:38:53.177,22 Jan 2025 09:40:55.089,121.913,0.000387
452,22 Jan 2025 09:40:55.351,22 Jan 2025 09:43:31.156,155.805,0.000494
453,22 Jan 2025 11:13:39.828,22 Jan 2025 11:18:11.902,272.075,0.000863
454,22 Jan 2025 12:48:21.695,22 Jan 2025 12:52:51.834,270.139,0.000857
455,22 Jan 2025 14:23:05.058,22 Jan 2025 14:27:30.286,265.228,0.000841
456,22 Jan 2025 15:57:50.092,22 Jan 2025 15:58:35.063,44.971,0.000143
457,22 Jan 2025 15:58:35.676,22 Jan 2025 16:01:51.154,195.478,0.000620
458,22 Jan 2025 17:32:37.445,22 Jan 2025 17:36:32.166,234.720,0.000744
459,22 Jan 2025 19:07:30.543,22 Jan 2025 19:12:00.276,269.734,0.000855
460,22 Jan 2025 20:42:04.120,22 Jan 2025 20:46:41.531,277.411,0.000880
461,22 Jan 2025 22:16:50.217,22 Jan 2025 22:21:22.210,271.993,0.000862
462,22 Jan 2025 23:51:32.230,22 Jan 2025 23:52:55.590,83.360,0.000264
463,22 Jan 2025 23:52:56.200,22 Jan 2025 23:56:02.041,185.842,0.000589
464,23 Jan 2025 01:26:15.742,23 Jan 2025 01:30:40.266,264.523,0.000839
465,23 Jan 2025 03:01:00.962,23 Jan 2025 03:01:45.266,44.304,0.000140
466,23 Jan 2025 03:01:47.268,23 Jan 2025 03:05:01.556,194.288,0.000616
467,23 Jan 2025 04:35:48.618,23 Jan 2025 04:39:42.497,233.880,0.000742
468,23 Jan 2025 04:40:22.013,23 Jan 2025 04:40:29.031,7.018,0.000022
469,23 Jan 2025 06:10:41.344,23 Jan 2025 06:15:10.694,269.350,0.000854
470,23 Jan 2025 07:45:15.090,23 Jan 2025 07:49:51.900,276.810,0.000878
471,23 Jan 2025 09:20:00.621,23 Jan 2025 09:24:32.514,271.893,0.000862
472,23 Jan 2025 10:54:42.779,23 Jan 2025 10:56:05.840,83.061,0.000263
473,23 Jan 2025 10:56:07.719,23 Jan 2025 10:59:12.239,184.520,0.000585
474,23 Jan 2025 12:29:26.442,23 Jan 2025 12:33:50.200,263.758,0.000836
475,23 Jan 2025 14:04:11.851,23 Jan 2025 14:04:55.450,43.599,0.000138
476,23 Jan 2025 14:04:58.998,23 Jan 2025 14:08:11.954,192.957,0.000612
477,23 Jan 2025 15:38:59.835,23 Jan 2025 15:42:52.824,232.989,0.000739
478,23 Jan 2025 15:43:20.365,23 Jan 2025 15:43:39.484,19.119,0.000061
479,23 Jan 2025 17:13:51.382,23 Jan 2025 17:18:21.105,269.723,0.000855
480,23 Jan 2025 18:48:26.085,23 Jan 2025 18:53:02.265,276.179,0.000876
481,23 Jan 2025 20:23:11.040,23 Jan 2025 20:27:42.807,271.767,0.000862
482,23 Jan 2025 21:57:53.342,23 Jan 2025 21:59:16.078,82.736,0.000262
483,23 Jan 2025 21:59:19.004,23 Jan 2025 22:02:22.414,183.410,0.000582
484,23 Jan 2025 23:32:37.158,23 Jan 2025 23:36:40.890,243.732,0.000773
485,23 Jan 2025 23:36:41.400,23 Jan 2025 23:37:00.086,18.686,0.000059
486,24 Jan 2025 01:07:22.764,24 Jan 2025 01:08:05.608,42.844,0.000136
487,24 Jan 2025 01:08:10.883,24 Jan 2025 01:11:22.341,191.458,0.000607
488,24 Jan 2025 02:42:11.108,24 Jan 2025 02:46:03.142,232.034,0.000736
489,24 Jan 2025 02:46:18.545,24 Jan 2025 02:46:49.934,31.389,0.000100
490,24 Jan 2025 04:17:01.444,24 Jan 2025 04:21:31.515,270.070,0.000856
491,24 Jan 2025 05:51:37.112,24 Jan 2025 05:56:12.623,275.511,0.000874
492,24 Jan 2025 07:26:21.473,24 Jan 2025 07:30:53.093,271.620,0.000861
493,24 Jan 2025 09:01:03.919,24 Jan 2025 09:02:26.296,82.377,0.000261
494,24 Jan 2025 09:02:29.266,24 Jan 2025 09:05:32.581,183.315,0.000581
495,24 Jan 2025 10:35:47.893,24 Jan 2025 10:39:51.333,243.439,0.000772
496,24 Jan 2025 10:39:52.706,24 Jan 2025 10:40:09.905,17.199,0.000055
497,24 Jan 2025 12:10:33.701,24 Jan 2025 12:11:15.746,42.044,0.000133
498,24 Jan 2025 12:11:21.035,24 Jan 2025 12:14:32.725,191.690,0.000608
499,24 Jan 2025 13:45:22.435,24 Jan 2025 13:49:13.453,231.017,0.000733
500,24 Jan 2025 13:49:16.566,24 Jan 2025 13:50:00.382,43.816,0.000139
501,24 Jan 2025 15:20:11.534,24 Jan 2025 15:24:41.919,270.385,0.000857
502,24 Jan 2025 16:54:48.168,24 Jan 2025 16:59:22.974,274.806,0.000871
503,24 Jan 2025 18:29:31.921,24 Jan 2025 18:34:03.368,271.447,0.000861
504,24 Jan 2025 20:04:14.510,24 Jan 2025 20:05:36.496,81.986,0.000260
505,24 Jan 2025 20:05:39.544,24 Jan 2025 20:08:42.726,183.182,0.000581
506,24 Jan 2025 21:38:58.640,24 Jan 2025 21:43:01.765,243.125,0.000771
507,24 Jan 2025 21:43:04.094,24 Jan 2025 21:43:19.646,15.552,0.000049
508,24 Jan 2025 23:13:44.661,24 Jan 2025 23:14:25.860,41.198,0.000131
509,24 Jan 2025 23:14:31.210,24 Jan 2025 23:17:43.102,191.893,0.000608
510,25 Jan 2025 00:48:33.833,25 Jan 2025 00:53:10.822,276.989,0.000878
511,25 Jan 2025 02:23:21.650,25 Jan 2025 02:27:52.319,270.670,0.000858
512,25 Jan 2025 03:57:59.263,25 Jan 2025 04:02:33.319,274.057,0.000869
513,25 Jan 2025 05:32:42.382,25 Jan 2025 05:37:13.635,271.253,0.000860
514,25 Jan 2025 07:07:25.116,25 Jan 2025 07:08:48.007,82.891,0.000263
515,25 Jan 2025 07:08:49.834,25 Jan 2025 07:11:52.850,183.015,0.000580
516,25 Jan 2025 08:42:09.410,25 Jan 2025 08:46:12.195,242.785,0.000770
517,25 Jan 2025 08:46:15.595,25 Jan 2025 08:46:29.272,13.677,0.000043
518,25 Jan 2025 10:16:55.651,25 Jan 2025 10:17:35.949,40.298,0.000128
519,25 Jan 2025 10:17:41.400,25 Jan 2025 10:20:53.474,192.074,0.000609
520,25 Jan 2025 11:51:45.313,25 Jan 2025 11:56:21.262,275.949,0.000875
521,25 Jan 2025 13:26:31.783,25 Jan 2025 13:31:02.715,270.932,0.000859
522,25 Jan 2025 15:01:10.391,25 Jan 2025 15:05:43.658,273.267,0.000867
523,25 Jan 2025 16:35:52.857,25 Jan 2025 16:40:23.892,271.035,0.000859
524,25 Jan 2025 18:10:35.736,25 Jan 2025 18:11:59.734,83.999,0.000266
525,25 Jan 2025 18:12:00.137,25 Jan 2025 18:15:02.957,182.820,0.000580
526,25 Jan 2025 19:45:20.194,25 Jan 2025 19:49:22.620,242.425,0.000769
527,25 Jan 2025 19:49:27.260,25 Jan 2025 19:49:38.734,11.474,0.000036
528,25 Jan 2025 21:20:06.674,25 Jan 2025 21:20:46.186,39.512,0.000125
529,25 Jan 2025 21:20:51.608,25 Jan 2025 21:24:03.841,192.233,0.000610
530,25 Jan 2025 22:54:56.899,25 Jan 2025 22:59:31.697,274.798,0.000871
531,26 Jan 2025 00:29:36.190,26 Jan 2025 00:34:13.106,276.916,0.000878
532,26 Jan 2025 02:04:21.561,26 Jan 2025 02:08:53.995,272.434,0.000864
533,26 Jan 2025 03:39:03.346,26 Jan 2025 03:43:34.144,270.797,0.000859
534,26 Jan 2025 05:13:46.370,26 Jan 2025 05:18:13.038,266.668,0.000846
535,26 Jan 2025 06:48:30.997,26 Jan 2025 06:52:33.039,242.042,0.000768
536,26 Jan 2025 06:52:39.224,26 Jan 2025 06:52:47.906,8.682,0.000028
537,26 Jan 2025 08:23:17.721,26 Jan 2025 08:23:58.516,40.795,0.000129
538,26 Jan 2025 08:24:01.834,26 Jan 2025 08:27:14.196,192.363,0.000610
539,26 Jan 2025 09:58:08.608,26 Jan 2025 10:02:42.128,273.520,0.000867
540,26 Jan 2025 11:32:44.810,26 Jan 2025 11:34:46.922,122.112,0.000387
541,26 Jan 2025 11:34:47.672,26 Jan 2025 11:37:23.491,155.819,0.000494
542,26 Jan 2025 13:07:32.172,26 Jan 2025 13:12:04.319,272.147,0.000863
543,26 Jan 2025 14:42:13.850,26 Jan 2025 14:46:44.375,270.524,0.000858
544,26 Jan 2025 16:16:57.019,26 Jan 2025 16:21:23.093,266.074,0.000844
545,26 Jan 2025 17:51:41.821,26 Jan 2025 17:55:43.456,241.636,0.000766
546,26 Jan 2025 17:55:51.984,26 Jan 2025 17:55:56.276,4.292,0.000014
547,26 Jan 2025 19:26:28.808,26 Jan 2025 19:27:10.481,41.673,0.000132
548,26 Jan 2025 19:27:12.074,26 Jan 2025 19:30:24.547,192.473,0.000610
549,26 Jan 2025 21:01:20.492,26 Jan 2025 21:05:52.554,272.062,0.000863
550,26 Jan 2025 22:35:55.725,26 Jan 2025 22:37:57.430,121.705,0.000386
551,26 Jan 2025 22:37:58.074,26 Jan 2025 22:40:33.872,155.798,0.000494
552,27 Jan 2025 00:10:42.542,27 Jan 2025 00:15:14.640,272.098,0.000863
553,27 Jan 2025 01:45:24.366,27 Jan 2025 01:49:54.599,270.233,0.000857
554,27 Jan 2025 03:20:07.684,27 Jan 2025 03:24:33.115,265.431,0.000842
555,27 Jan 2025 04:54:52.662,27 Jan 2025 04:55:37.830,45.169,0.000143
556,27 Jan 2025 04:55:38.043,27 Jan 2025 04:58:53.862,195.819,0.000621
557,27 Jan 2025 06:29:39.925,27 Jan 2025 06:30:22.228,42.302,0.000134
558,27 Jan 2025 06:30:22.332,27 Jan 2025 06:33:34.891,192.559,0.000611
559,27 Jan 2025 08:04:32.639,27 Jan 2025 08:09:02.980,270.340,0.000857
560,27 Jan 2025 09:39:06.661,27 Jan 2025 09:43:44.249,277.588,0.000880
561,27 Jan 2025 11:13:52.929,27 Jan 2025 11:18:24.950,272.021,0.000863
562,27 Jan 2025 12:48:34.897,27 Jan 2025 12:49:58.339,83.443,0.000265
563,27 Jan 2025 12:49:58.585,27 Jan 2025 12:53:04.810,186.225,0.000591
564,27 Jan 2025 14:23:18.363,27 Jan 2025 14:27:43.105,264.742,0.000839
565,27 Jan 2025 15:58:03.523,27 Jan 2025 15:58:48.039,44.516,0.000141
566,27 Jan 2025 15:58:49.599,27 Jan 2025 16:02:04.265,194.666,0.000617
567,27 Jan 2025 17:32:51.085,27 Jan 2025 17:36:45.230,234.145,0.000742
568,27 Jan 2025 19:07:44.172,27 Jan 2025 19:12:13.397,269.225,0.000854
569,27 Jan 2025 20:42:17.622,27 Jan 2025 20:46:54.618,276.996,0.000878
570,27 Jan 2025 22:17:03.328,27 Jan 2025 22:21:35.255,271.927,0.000862
571,27 Jan 2025 23:51:45.442,27 Jan 2025 23:53:08.599,83.158,0.000264
572,27 Jan 2025 23:53:10.073,27 Jan 2025 23:56:15.008,184.935,0.000586
573,28 Jan 2025 01:26:29.058,28 Jan 2025 01:30:53.055,263.996,0.000837
574,28 Jan 2025 03:01:14.408,28 Jan 2025 03:01:58.229,43.821,0.000139
575,28 Jan 2025 03:02:01.283,28 Jan 2025 03:05:14.663,193.380,0.000613
576,28 Jan 2025 04:36:02.291,28 Jan 2025 04:39:55.557,233.265,0.000740
577,28 Jan 2025 06:10:54.199,28 Jan 2025 06:15:23.810,269.611,0.000855
578,28 Jan 2025 07:45:28.608,28 Jan 2025 07:50:04.985,276.377,0.000876
579,28 Jan 2025 09:20:13.743,28 Jan 2025 09:24:45.550,271.807,0.000862
580,28 Jan 2025 10:54:56.000,28 Jan 2025 10:56:18.840,82.840,0.000263
581,28 Jan 2025 10:56:21.671,28 Jan 2025 10:59:25.196,183.525,0.000582
582,28 Jan 2025 12:29:39.769,28 Jan 2025 12:33:43.586,243.817,0.000773
583,28 Jan 2025 12:33:43.846,28 Jan 2025 12:34:02.954,19.108,0.000061
584,28 Jan 2025 14:04:25.311,28 Jan 2025 14:05:08.393,43.082,0.000137
585,28 Jan 2025 14:05:13.138,28 Jan 2025 14:08:25.057,191.919,0.000609
586,28 Jan 2025 15:39:13.544,28 Jan 2025 15:43:05.878,232.334,0.000737
587,28 Jan 2025 17:14:04.254,28 Jan 2025 17:18:34.221,269.967,0.000856
588,28 Jan 2025 18:48:39.626,28 Jan 2025 18:53:15.346,275.719,0.000874
589,28 Jan 2025 20:23:24.172,28 Jan 2025 20:27:55.839,271.667,0.000861
590,28 Jan 2025 21:58:06.573,28 Jan 2025 21:59:29.063,82.490,0.000262
591,28 Jan 2025 21:59:32.019,28 Jan 2025 22:02:35.361,183.342,0.000581
592,28 Jan 2025 23:32:50.497,28 Jan 2025 23:36:54.028,243.531,0.000772
593,28 Jan 2025 23:36:55.130,28 Jan 2025 23:37:12.798,17.669,0.000056
594,29 Jan 2025 01:07:36.244,29 Jan 2025 01:08:18.539,42.295,0.000134
595,29 Jan 2025 01:08:23.819,29 Jan 2025 01:11:35.440,191.621,0.000608
596,29 Jan 2025 02:42:24.855,29 Jan 2025 02:46:16.190,231.336,0.000734
597,29 Jan 2025 04:17:14.339,29 Jan 2025 04:21:44.628,270.289,0.000857
598,29 Jan 2025 05:51:50.675,29 Jan 2025 05:56:25.698,275.022,0.000872
599,29 Jan 2025 07:26:34.615,29 Jan 2025 07:31:06.118,271.503,0.000861
600,29 Jan 2025 09:01:17.160,29 Jan 2025 09:02:39.269,82.109,0.000260
601,29 Jan 2025 09:02:42.290,29 Jan 2025 09:05:45.515,183.225,0.000581
602,29 Jan 2025 10:36:01.245,29 Jan 2025 10:40:04.467,243.222,0.000771
603,29 Jan 2025 10:40:06.493,29 Jan 2025 10:40:22.564,16.071,0.000051
604,29 Jan 2025 12:10:47.199,29 Jan 2025 12:11:28.660,41.461,0.000131
605,29 Jan 2025 12:11:33.986,29 Jan 2025 12:14:45.820,191.834,0.000608
606,29 Jan 2025 13:45:36.230,29 Jan 2025 13:49:26.495,230.265,0.000730
607,29 Jan 2025 15:20:24.444,29 Jan 2025 15:24:55.029,270.585,0.000858
608,29 Jan 2025 16:55:01.758,29 Jan 2025 16:59:36.047,274.289,0.000870
609,29 Jan 2025 18:29:45.072,29 Jan 2025 18:34:16.386,271.314,0.000860
610,29 Jan 2025 20:04:27.761,29 Jan 2025 20:05:50.272,82.511,0.000262
611,29 Jan 2025 20:05:52.577,29 Jan 2025 20:08:55.647,183.070,0.000581
612,29 Jan 2025 21:39:12.006,29 Jan 2025 21:43:14.896,242.890,0.000770
613,29 Jan 2025 21:43:17.954,29 Jan 2025 21:43:32.229,14.274,0.000045
614,29 Jan 2025 23:13:58.178,29 Jan 2025 23:14:38.757,40.579,0.000129
615,29 Jan 2025 23:14:44.169,29 Jan 2025 23:17:56.193,192.024,0.000609
616,30 Jan 2025 00:48:47.683,30 Jan 2025 00:52:36.793,229.110,0.000727
617,30 Jan 2025 00:53:13.412,30 Jan 2025 00:53:23.959,10.547,0.000033
618,30 Jan 2025 02:23:34.572,30 Jan 2025 02:28:05.427,270.855,0.000859
619,30 Jan 2025 03:58:12.874,30 Jan 2025 04:02:46.388,273.514,0.000867
620,30 Jan 2025 05:32:55.543,30 Jan 2025 05:37:26.646,271.103,0.000860
621,30 Jan 2025 07:07:38.377,30 Jan 2025 07:09:02.059,83.682,0.000265
622,30 Jan 2025 07:09:02.876,30 Jan 2025 07:12:05.758,182.882,0.000580
623,30 Jan 2025 08:42:22.785,30 Jan 2025 08:46:25.323,242.537,0.000769
624,30 Jan 2025 08:46:29.565,30 Jan 2025 08:46:41.750,12.185,0.000039
625,30 Jan 2025 10:17:09.190,30 Jan 2025 10:17:48.823,39.633,0.000126
626,30 Jan 2025 10:17:54.375,30 Jan 2025 10:21:06.560,192.184,0.000609
627,30 Jan 2025 11:51:59.232,30 Jan 2025 11:55:47.077,227.845,0.000722
628,30 Jan 2025 11:56:09.260,30 Jan 2025 11:56:34.397,25.137,0.000080
629,30 Jan 2025 13:26:44.727,30 Jan 2025 13:31:15.817,271.090,0.000860
630,30 Jan 2025 15:01:24.031,30 Jan 2025 15:05:56.725,272.694,0.000865
631,30 Jan 2025 16:36:06.028,30 Jan 2025 16:40:36.896,270.869,0.000859
632,30 Jan 2025 18:10:49.008,30 Jan 2025 18:15:15.847,266.840,0.000846
633,30 Jan 2025 19:45:33.582,30 Jan 2025 19:49:35.744,242.162,0.000768
634,30 Jan 2025 19:49:41.415,30 Jan 2025 19:49:51.032,9.617,0.000030
635,30 Jan 2025 21:20:20.232,30 Jan 2025 21:21:00.685,40.453,0.000128
636,30 Jan 2025 21:21:04.594,30 Jan 2025 21:24:16.923,192.329,0.000610
637,30 Jan 2025 22:55:10.900,30 Jan 2025 22:58:57.354,226.454,0.000718
638,30 Jan 2025 22:59:04.928,30 Jan 2025 22:59:44.829,39.901,0.000127
639,31 Jan 2025 00:29:54.901,31 Jan 2025 00:31:49.660,114.759,0.000364
640,31 Jan 2025 00:31:50.075,31 Jan 2025 00:34:26.207,156.132,0.000495
641,31 Jan 2025 02:04:34.894,31 Jan 2025 02:09:07.053,272.159,0.000863
642,31 Jan 2025 03:39:16.527,31 Jan 2025 03:43:47.140,270.613,0.000858
643,31 Jan 2025 05:13:59.652,31 Jan 2025 05:18:25.911,266.259,0.000844
644,31 Jan 2025 06:48:44.400,31 Jan 2025 06:52:46.160,241.760,0.000767
645,31 Jan 2025 06:52:53.802,31 Jan 2025 06:52:59.777,5.975,0.000019
646,31 Jan 2025 08:23:31.302,31 Jan 2025 08:24:12.738,41.436,0.000131
647,31 Jan 2025 08:24:14.833,31 Jan 2025 08:27:27.273,192.440,0.000610
648,31 Jan 2025 09:58:22.727,31 Jan 2025 10:02:55.258,272.531,0.000864
649,31 Jan 2025 11:33:05.091,31 Jan 2025 11:34:59.964,114.873,0.000364
650,31 Jan 2025 11:35:00.800,31 Jan 2025 11:37:36.589,155.789,0.000494
651,31 Jan 2025 13:07:45.261,31 Jan 2025 13:12:17.372,272.112,0.000863
652,31 Jan 2025 14:42:27.041,31 Jan 2025 14:46:57.364,270.323,0.000857
653,31 Jan 2025 16:17:10.312,31 Jan 2025 16:21:35.944,265.632,0.000842
654,31 Jan 2025 17:51:55.235,31 Jan 2025 17:55:56.573,241.338,0.000765
655,31 Jan 2025 19:26:42.413,31 Jan 2025 19:27:24.545,42.132,0.000134
656,31 Jan 2025 19:27:25.085,31 Jan 2025 19:30:37.619,192.534,0.000611
657,31 Jan 2025 21:01:34.781,31 Jan 2025 21:06:05.681,270.900,0.000859
658,31 Jan 2025 22:36:15.304,31 Jan 2025 22:40:46.967,271.663,0.000861
659,1 Feb 2025 00:10:55.642,1 Feb 2025 00:15:27.690,272.048,0.000863
660,1 Feb 2025 01:45:37.566,1 Feb 2025 01:50:07.579,270.013,0.000856
661,1 Feb 2025 03:20:20.987,1 Feb 2025 03:24:45.945,264.958,0.000840
662,1 Feb 2025 04:55:06.091,1 Feb 2025 04:55:50.808,44.718,0.000142
663,1 Feb 2025 04:55:51.944,1 Feb 2025 04:59:06.976,195.031,0.000618
664,1 Feb 2025 06:29:53.561,1 Feb 2025 06:33:47.958,234.398,0.000743
665,1 Feb 2025 08:04:47.004,1 Feb 2025 08:09:16.103,269.099,0.000853
666,1 Feb 2025 09:39:20.158,1 Feb 2025 09:43:57.340,277.181,0.000879
667,1 Feb 2025 11:14:06.038,1 Feb 2025 11:18:37.994,271.956,0.000862
668,1 Feb 2025 12:48:48.107,1 Feb 2025 12:50:11.356,83.249,0.000264
669,1 Feb 2025 12:50:12.441,1 Feb 2025 12:53:17.782,185.341,0.000588
670,1 Feb 2025 14:23:31.677,1 Feb 2025 14:27:55.905,264.228,0.000838
671,1 Feb 2025 15:58:16.969,1 Feb 2025 15:59:01.004,44.034,0.000140
672,1 Feb 2025 15:59:03.585,1 Feb 2025 16:02:17.375,193.790,0.000615
673,1 Feb 2025 17:33:04.750,1 Feb 2025 17:36:58.292,233.542,0.000741
674,1 Feb 2025 19:07:57.023,1 Feb 2025 19:12:26.516,269.493,0.000855
675,1 Feb 2025 20:42:31.136,1 Feb 2025 20:47:07.709,276.574,0.000877
676,1 Feb 2025 22:17:16.448,1 Feb 2025 22:21:48.293,271.845,0.000862
677,1 Feb 2025 23:51:58.661,1 Feb 2025 23:53:21.599,82.938,0.000263
678,1 Feb 2025 23:53:24.004,1 Feb 2025 23:56:27.970,183.966,0.000583
679,2 Feb 2025 01:26:42.383,2 Feb 2025 01:30:46.283,243.900,0.000773
680,2 Feb 2025 01:30:46.299,2 Feb 2025 01:31:05.827,19.528,0.000062
681,2 Feb 2025 03:01:27.868,2 Feb 2025 03:02:11.177,43.309,0.000137
682,2 Feb 2025 03:02:15.380,2 Feb 2025 03:05:27.768,192.388,0.000610
683,2 Feb 2025 04:36:15.984,2 Feb 2025 04:40:08.613,232.629,0.000738
684,2 Feb 2025 06:11:07.070,2 Feb 2025 06:15:36.929,269.859,0.000856
685,2 Feb 2025 07:45:42.147,2 Feb 2025 07:50:18.068,275.922,0.000875
686,2 Feb 2025 09:20:26.873,2 Feb 2025 09:24:58.587,271.714,0.000862
687,2 Feb 2025 10:55:09.230,2 Feb 2025 10:56:31.830,82.601,0.000262
688,2 Feb 2025 10:56:34.770,2 Feb 2025 10:59:38.147,183.377,0.000581
689,2 Feb 2025 12:29:53.106,2 Feb 2025 12:33:56.727,243.621,0.000773
690,2 Feb 2025 12:33:57.563,2 Feb 2025 12:34:15.688,18.125,0.000057
691,2 Feb 2025 14:04:38.790,2 Feb 2025 14:05:21.330,42.540,0.000135
692,2 Feb 2025 14:05:26.606,2 Feb 2025 14:08:38.159,191.553,0.000607
693,2 Feb 2025 15:39:27.281,2 Feb 2025 15:43:18.929,231.648,0.000735
694,2 Feb 2025 17:14:17.146,2 Feb 2025 17:18:47.337,270.191,0.000857
695,2 Feb 2025 18:48:53.183,2 Feb 2025 18:53:28.425,275.242,0.000873
696,2 Feb 2025 20:23:37.311,2 Feb 2025 20:28:08.864,271.553,0.000861
697,2 Feb 2025 21:58:19.812,2 Feb 2025 21:59:42.042,82.229,0.000261
698,2 Feb 2025 21:59:45.038,2 Feb 2025 22:02:48.304,183.265,0.000581
699,2 Feb 2025 23:33:03.848,2 Feb 2025 23:37:07.165,243.317,0.000772
700,2 Feb 2025 23:37:08.902,2 Feb 2025 23:37:25.477,16.575,0.000053
701,3 Feb 2025 01:07:49.737,3 Feb 2025 01:08:31.459,41.723,0.000132
702,3 Feb 2025 01:08:36.767,3 Feb 2025 01:11:48.537,191.770,0.000608
703,3 Feb 2025 02:42:38.634,3 Feb 2025 02:46:29.236,230.602,0.000731
704,3 Feb 2025 04:17:27.245,3 Feb 2025 04:21:57.740,270.496,0.000858
705,3 Feb 2025 05:52:04.255,3 Feb 2025 05:56:38.775,274.520,0.000870
706,3 Feb 2025 07:26:47.764,3 Feb 2025 07:31:19.140,271.376,0.000861
707,3 Feb 2025 09:01:30.409,3 Feb 2025 09:02:52.511,82.102,0.000260
708,3 Feb 2025 09:02:55.321,3 Feb 2025 09:05:58.442,183.121,0.000581
709,3 Feb 2025 10:36:14.604,3 Feb 2025 10:40:17.601,242.996,0.000771
710,3 Feb 2025 10:40:20.329,3 Feb 2025 10:40:35.179,14.851,0.000047
711,3 Feb 2025 12:11:00.711,3 Feb 2025 12:11:41.564,40.853,0.000130
712,3 Feb 2025 12:11:46.946,3 Feb 2025 12:14:58.913,191.967,0.000609
713,3 Feb 2025 13:45:50.061,3 Feb 2025 13:49:39.534,229.474,0.000728
714,3 Feb 2025 15:20:37.367,3 Feb 2025 15:25:08.139,270.771,0.000859
715,3 Feb 2025 16:55:15.361,3 Feb 2025 16:59:49.118,273.757,0.000868
716,3 Feb 2025 18:29:58.231,3 Feb 2025 18:34:29.401,271.170,0.000860
717,3 Feb 2025 20:04:41.020,3 Feb 2025 20:06:04.362,83.342,0.000264
718,3 Feb 2025 20:06:05.617,3 Feb 2025 20:09:08.560,182.943,0.000580
719,3 Feb 2025 21:39:25.378,3 Feb 2025 21:43:28.026,242.648,0.000769
720,3 Feb 2025 21:43:31.886,3 Feb 2025 21:43:44.754,12.868,0.000041
721,3 Feb 2025 23:14:11.709,3 Feb 2025 23:14:51.643,39.934,0.000127
722,3 Feb 2025 23:14:57.145,3 Feb 2025 23:18:09.281,192.137,0.000609
723,4 Feb 2025 00:49:01.578,4 Feb 2025 00:52:49.826,228.248,0.000724
724,4 Feb 2025 02:23:47.512,4 Feb 2025 02:28:18.533,271.021,0.000859
725,4 Feb 2025 03:58:26.506,4 Feb 2025 04:02:59.454,272.948,0.000866
726,4 Feb 2025 05:33:08.711,4 Feb 2025 05:37:39.655,270.943,0.000859
727,4 Feb 2025 07:07:51.646,4 Feb 2025 07:12:18.655,267.009,0.000847
728,4 Feb 2025 08:42:36.169,4 Feb 2025 08:46:38.449,242.280,0.000768
729,4 Feb 2025 08:46:43.643,4 Feb 2025 08:46:54.125,10.482,0.000033
730,4 Feb 2025 10:17:22.741,4 Feb 2025 10:18:02.812,40.071,0.000127
731,4 Feb 2025 10:18:07.360,4 Feb 2025 10:21:19.644,192.284,0.000610
732,4 Feb 2025 11:52:13.206,4 Feb 2025 11:56:00.105,226.899,0.000719
733,4 Feb 2025 11:56:45.889,4 Feb 2025 11:56:47.530,1.642,0.000005
734,4 Feb 2025 13:26:57.679,4 Feb 2025 13:28:52.398,114.719,0.000364
735,4 Feb 2025 13:28:52.483,4 Feb 2025 13:31:28.920,156.437,0.000496
736,4 Feb 2025 15:01:37.618,4 Feb 2025 15:06:09.786,272.167,0.000863
737,4 Feb 2025 16:36:19.206,4 Feb 2025 16:40:49.897,270.692,0.000858
738,4 Feb 2025 18:11:02.286,4 Feb 2025 18:15:28.728,266.442,0.000845
739,4 Feb 2025 19:45:46.981,4 Feb 2025 19:49:48.866,241.885,0.000767
740,4 Feb 2025 19:49:55.799,4 Feb 2025 19:50:03.099,7.300,0.000023
741,4 Feb 2025 21:20:33.800,4 Feb 2025 21:21:14.971,41.171,0.000131
742,4 Feb 2025 21:21:17.589,4 Feb 2025 21:24:30.002,192.412,0.000610
743,4 Feb 2025 22:55:24.976,4 Feb 2025 22:59:10.375,225.399,0.000715
744,4 Feb 2025 22:59:39.650,4 Feb 2025 22:59:57.960,18.310,0.000058
745,5 Feb 2025 00:30:07.864,5 Feb 2025 00:32:02.706,114.842,0.000364
746,5 Feb 2025 00:32:03.525,5 Feb 2025 00:34:39.306,155.781,0.000494
747,5 Feb 2025 02:04:47.980,5 Feb 2025 02:09:20.107,272.127,0.000863
748,5 Feb 2025 03:39:29.714,5 Feb 2025 03:44:00.133,270.419,0.000857
749,5 Feb 2025 05:14:12.941,5 Feb 2025 05:18:38.772,265.831,0.000843
750,5 Feb 2025 06:48:57.810,5 Feb 2025 06:52:59.279,241.469,0.000766
751,5 Feb 2025 08:23:44.900,5 Feb 2025 08:24:26.841,41.941,0.000133
752,5 Feb 2025 08:24:27.839,5 Feb 2025 08:27:40.347,192.508,0.000610
753,5 Feb 2025 09:58:36.951,5 Feb 2025 10:02:20.635,223.684,0.000709
754,5 Feb 2025 10:02:33.226,5 Feb 2025 10:03:08.386,35.160,0.000111
755,5 Feb 2025 11:33:18.070,5 Feb 2025 11:35:13.709,115.639,0.000367
756,5 Feb 2025 11:35:13.878,5 Feb 2025 11:37:49.685,155.806,0.000494
757,5 Feb 2025 13:07:58.357,5 Feb 2025 13:12:30.423,272.067,0.000863
758,5 Feb 2025 14:42:40.237,5 Feb 2025 14:47:10.348,270.111,0.000857
759,5 Feb 2025 16:17:23.611,5 Feb 2025 16:21:48.784,265.173,0.000841
760,5 Feb 2025 17:52:08.658,5 Feb 2025 17:52:53.580,44.922,0.000142
761,5 Feb 2025 17:52:54.296,5 Feb 2025 17:56:09.688,195.392,0.000620
762,5 Feb 2025 19:26:56.035,5 Feb 2025 19:30:50.688,234.653,0.000744
763,5 Feb 2025 21:01:49.237,5 Feb 2025 21:06:18.806,269.569,0.000855
764,5 Feb 2025 22:36:28.295,5 Feb 2025 22:41:00.062,271.766,0.000862
765,6 Feb 2025 00:11:08.748,6 Feb 2025 00:15:40.737,271.989,0.000862
766,6 Feb 2025 01:45:50.772,6 Feb 2025 01:47:14.108,83.335,0.000264
767,6 Feb 2025 01:47:14.812,6 Feb 2025 01:50:20.555,185.743,0.000589
768,6 Feb 2025 03:20:34.296,6 Feb 2025 03:24:58.759,264.463,0.000839
769,6 Feb 2025 04:55:19.530,6 Feb 2025 04:56:03.780,44.250,0.000140
770,6 Feb 2025 04:56:05.897,6 Feb 2025 04:59:20.086,194.189,0.000616
771,6 Feb 2025 06:30:07.211,6 Feb 2025 06:34:01.022,233.811,0.000741
772,6 Feb 2025 08:04:59.847,6 Feb 2025 08:09:29.226,269.378,0.000854
773,6 Feb 2025 09:39:38.536,6 Feb 2025 09:44:10.426,271.890,0.000862
774,6 Feb 2025 11:14:19.154,6 Feb 2025 11:18:51.036,271.882,0.000862
775,6 Feb 2025 12:49:01.322,6 Feb 2025 12:50:24.361,83.039,0.000263
776,6 Feb 2025 12:50:26.341,6 Feb 2025 12:53:30.747,184.406,0.000585
777,6 Feb 2025 14:23:44.997,6 Feb 2025 14:28:08.691,263.694,0.000836
778,6 Feb 2025 15:58:30.418,6 Feb 2025 15:59:13.963,43.546,0.000138
779,6 Feb 2025 15:59:17.639,6 Feb 2025 16:02:30.481,192.842,0.000611
780,6 Feb 2025 17:33:18.431,6 Feb 2025 17:37:11.350,232.919,0.000739
781,6 Feb 2025 19:08:09.886,6 Feb 2025 19:12:39.635,269.749,0.000855
782,6 Feb 2025 20:42:44.663,6 Feb 2025 20:47:20.793,276.130,0.000876
783,6 Feb 2025 22:17:29.573,6 Feb 2025 22:22:01.328,271.754,0.000862
784,6 Feb 2025 23:52:11.886,6 Feb 2025 23:53:34.595,82.709,0.000262
785,6 Feb 2025 23:53:37.524,6 Feb 2025 23:56:40.925,183.401,0.000582
786,7 Feb 2025 01:26:55.714,7 Feb 2025 01:30:59.424,243.710,0.000773
787,7 Feb 2025 01:31:00.001,7 Feb 2025 01:31:18.571,18.570,0.000059
788,7 Feb 2025 03:01:41.336,7 Feb 2025 03:02:24.120,42.784,0.000136
789,7 Feb 2025 03:02:29.394,7 Feb 2025 03:05:40.870,191.476,0.000607
790,7 Feb 2025 04:36:29.707,7 Feb 2025 04:40:21.666,231.958,0.000736
791,7 Feb 2025 06:11:19.950,7 Feb 2025 06:15:50.044,270.094,0.000856
792,7 Feb 2025 07:45:55.694,7 Feb 2025 07:50:31.148,275.454,0.000873
793,7 Feb 2025 09:20:40.008,7 Feb 2025 09:25:11.611,271.604,0.000861
794,7 Feb 2025 10:55:22.464,7 Feb 2025 10:56:44.812,82.347,0.000261
795,7 Feb 2025 10:56:47.788,7 Feb 2025 10:59:51.090,183.302,0.000581
796,7 Feb 2025 12:30:06.452,7 Feb 2025 12:34:09.863,243.411,0.000772
797,7 Feb 2025 12:34:11.314,7 Feb 2025 12:34:28.384,17.069,0.000054
798,7 Feb 2025 14:04:52.275,7 Feb 2025 14:05:34.255,41.980,0.000133
799,7 Feb 2025 14:05:39.547,7 Feb 2025 14:08:51.256,191.709,0.000608
800,7 Feb 2025 15:39:41.040,7 Feb 2025 15:43:31.975,230.935,0.000732
801,7 Feb 2025 17:14:30.044,7 Feb 2025 17:19:00.450,270.406,0.000857
802,7 Feb 2025 18:49:06.754,7 Feb 2025 18:53:41.500,274.746,0.000871
803,7 Feb 2025 20:23:50.456,7 Feb 2025 20:28:21.887,271.431,0.000861
804,7 Feb 2025 21:58:33.056,7 Feb 2025 21:59:55.010,81.954,0.000260
805,7 Feb 2025 21:59:58.066,7 Feb 2025 22:03:01.234,183.169,0.000581
806,7 Feb 2025 23:33:17.202,7 Feb 2025 23:37:20.298,243.096,0.000771
807,7 Feb 2025 23:37:22.710,7 Feb 2025 23:37:38.117,15.407,0.000049
808,8 Feb 2025 01:08:03.238,8 Feb 2025 01:08:44.368,41.130,0.000130
809,8 Feb 2025 01:08:49.723,8 Feb 2025 01:12:01.631,191.908,0.000609
810,8 Feb 2025 02:42:52.444,8 Feb 2025 02:46:42.276,229.832,0.000729
811,8 Feb 2025 04:17:40.157,8 Feb 2025 04:22:10.849,270.693,0.000858
812,8 Feb 2025 05:52:17.851,8 Feb 2025 05:56:51.845,273.994,0.000869
813,8 Feb 2025 07:27:00.918,8 Feb 2025 07:31:32.156,271.238,0.000860
814,8 Feb 2025 09:01:43.663,8 Feb 2025 09:03:06.648,82.985,0.000263
815,8 Feb 2025 09:03:08.357,8 Feb 2025 09:06:11.359,183.001,0.000580
816,8 Feb 2025 10:36:27.970,8 Feb 2025 10:40:30.730,242.760,0.000770
817,8 Feb 2025 10:40:34.223,8 Feb 2025 10:40:47.731,13.509,0.000043
818,8 Feb 2025 12:11:14.229,8 Feb 2025 12:11:54.454,40.226,0.000128
819,8 Feb 2025 12:11:59.915,8 Feb 2025 12:15:12.001,192.086,0.000609
820,8 Feb 2025 13:46:03.932,8 Feb 2025 13:49:52.568,228.636,0.000725
821,8 Feb 2025 15:20:50.295,8 Feb 2025 15:25:21.245,270.950,0.000859
822,8 Feb 2025 16:55:28.982,8 Feb 2025 17:00:02.182,273.201,0.000866
823,8 Feb 2025 18:30:11.394,8 Feb 2025 18:34:42.410,271.016,0.000859
824,8 Feb 2025 20:04:54.284,8 Feb 2025 20:06:18.358,84.074,0.000267
825,8 Feb 2025 20:06:18.661,8 Feb 2025 20:09:21.461,182.800,0.000580
826,8 Feb 2025 21:39:38.756,8 Feb 2025 21:43:41.152,242.395,0.000769
827,8 Feb 2025 21:43:45.908,8 Feb 2025 21:43:57.178,11.269,0.000036
828,8 Feb 2025 23:14:25.253,8 Feb 2025 23:15:04.888,39.635,0.000126
829,8 Feb 2025 23:15:10.125,8 Feb 2025 23:18:22.365,192.241,0.000610
830,9 Feb 2025 00:49:15.526,9 Feb 2025 00:53:02.853,227.327,0.000721
831,9 Feb 2025 02:24:00.454,9 Feb 2025 02:28:31.633,271.179,0.000860
832,9 Feb 2025 03:58:40.155,9 Feb 2025 04:03:12.516,272.361,0.000864
833,9 Feb 2025 05:33:21.884,9 Feb 2025 05:37:52.656,270.771,0.000859
834,9 Feb 2025 07:08:04.919,9 Feb 2025 07:12:31.538,266.618,0.000845
835,9 Feb 2025 08:42:49.560,9 Feb 2025 08:46:51.571,242.011,0.000767
836,9 Feb 2025 08:46:57.903,9 Feb 2025 08:47:06.313,8.410,0.000027
837,9 Feb 2025 10:17:36.304,9 Feb 2025 10:18:17.178,40.873,0.000130
838,9 Feb 2025 10:18:20.352,9 Feb 2025 10:21:32.723,192.370,0.000610
839,9 Feb 2025 11:52:27.247,9 Feb 2025 11:56:13.121,225.874,0.000716
840,9 Feb 2025 13:27:10.637,9 Feb 2025 13:29:05.445,114.808,0.000364
841,9 Feb 2025 13:29:06.252,9 Feb 2025 13:31:42.019,155.767,0.000494
842,9 Feb 2025 15:01:50.700,9 Feb 2025 15:06:22.843,272.143,0.000863
843,9 Feb 2025 16:36:32.389,9 Feb 2025 16:41:02.891,270.502,0.000858
844,9 Feb 2025 18:11:15.570,9 Feb 2025 18:15:41.592,266.022,0.000844
845,9 Feb 2025 19:46:00.385,9 Feb 2025 19:50:01.985,241.600,0.000766
846,9 Feb 2025 19:50:10.824,9 Feb 2025 19:50:14.522,3.699,0.000012
847,9 Feb 2025 21:20:47.391,9 Feb 2025 21:21:29.122,41.731,0.000132
848,9 Feb 2025 21:21:30.591,9 Feb 2025 21:24:43.076,192.485,0.000610
849,9 Feb 2025 22:55:39.149,9 Feb 2025 22:59:23.388,224.239,0.000711
850,9 Feb 2025 22:59:53.777,9 Feb 2025 23:00:11.088,17.311,0.000055
851,10 Feb 2025 00:30:20.837,10 Feb 2025 00:32:16.058,115.221,0.000365
852,10 Feb 2025 00:32:16.600,10 Feb 2025 00:34:52.401,155.801,0.000494
853,10 Feb 2025 02:05:01.072,10 Feb 2025 02:09:33.160,272.089,0.000863
854,10 Feb 2025 03:39:42.906,10 Feb 2025 03:44:13.118,270.212,0.000857
855,10 Feb 2025 05:14:26.235,10 Feb 2025 05:18:51.612,265.377,0.000842
856,10 Feb 2025 06:49:11.227,10 Feb 2025 06:49:56.347,45.120,0.000143
857,10 Feb 2025 06:49:56.660,10 Feb 2025 06:53:12.393,195.733,0.000621
858,10 Feb 2025 08:23:58.514,10 Feb 2025 08:27:53.416,234.903,0.000745
859,10 Feb 2025 09:58:51.320,10 Feb 2025 10:02:33.639,222.320,0.000705
