3UCubedIntegratedSim/Reports & Plots/North Cusp/NorthCusp CSV/NorthCusp_Sat10.csv

Number,Coverage Start (UTCG),Coverage End (UTCG),Duration (sec),Percent,
1,2025-01-01 16:24,2025-01-01 16:31,424.503,0.14%,
2,2025-01-01 17:59,2025-01-01 18:06,406.982,0.13%,
3,2025-01-01 19:34,2025-01-01 19:40,398.911,0.13%,
4,2025-01-01 21:08,2025-01-01 21:14,380.183,0.12%,
5,2025-01-01 21:15,2025-01-01 21:15,43.443,0.01%,
6,2025-01-01 22:43,2025-01-01 22:50,416.17,0.13%,
7,2025-01-02 00:18,2025-01-02 00:23,314.29,0.10%,
8,2025-01-02 00:23,2025-01-02 00:25,82.999,0.03%,
9,2025-01-02 01:52,2025-01-02 01:59,423.544,0.13%,
10,2025-01-02 03:27,2025-01-02 03:34,406.967,0.13%,
11,2025-01-02 05:02,2025-01-02 05:09,384.675,0.12%,
12,2025-01-02 06:37,2025-01-02 06:44,420.019,0.13%,
13,2025-01-02 08:12,2025-01-02 08:18,363.575,0.12%,
14,2025-01-02 08:18,2025-01-02 08:18,44.165,0.01%,
15,2025-01-02 09:47,2025-01-02 09:53,398.053,0.13%,
16,2025-01-02 11:21,2025-01-02 11:26,336.957,0.11%,
17,2025-01-02 11:27,2025-01-02 11:28,83.299,0.03%,
18,2025-01-02 12:56,2025-01-02 13:03,404.872,0.13%,
19,2025-01-02 14:30,2025-01-02 14:37,424.463,0.14%,
20,2025-01-02 16:05,2025-01-02 16:12,406.895,0.13%,
21,2025-01-02 17:40,2025-01-02 17:47,401.265,0.13%,
22,2025-01-02 19:14,2025-01-02 19:21,383.041,0.12%,
23,2025-01-02 19:21,2025-01-02 19:22,44.838,0.01%,
24,2025-01-02 20:49,2025-01-02 20:56,417.187,0.13%,
25,2025-01-02 22:24,2025-01-02 22:31,400.629,0.13%,
26,2025-01-02 23:59,2025-01-03 00:06,423.835,0.13%,
27,2025-01-03 01:34,2025-01-03 01:39,291.287,0.09%,
28,2025-01-03 01:39,2025-01-03 01:40,115.811,0.04%,
29,2025-01-03 03:09,2025-01-03 03:15,386.747,0.12%,
30,2025-01-03 04:43,2025-01-03 04:49,379.03,0.12%,
31,2025-01-03 04:49,2025-01-03 04:50,42.02,0.01%,
32,2025-01-03 06:18,2025-01-03 06:25,411.498,0.13%,
33,2025-01-03 07:53,2025-01-03 08:00,398.103,0.13%,
34,2025-01-03 09:27,2025-01-03 09:34,421.72,0.13%,
35,2025-01-03 11:02,2025-01-03 11:09,405.443,0.13%,
36,2025-01-03 12:37,2025-01-03 12:42,308.664,0.10%,
37,2025-01-03 12:42,2025-01-03 12:44,114.856,0.04%,
38,2025-01-03 14:11,2025-01-03 14:18,410.817,0.13%,
39,2025-01-03 15:46,2025-01-03 15:52,359.718,0.11%,
40,2025-01-03 15:52,2025-01-03 15:53,41.284,0.01%,
41,2025-01-03 17:21,2025-01-03 17:28,429.917,0.14%,
42,2025-01-03 18:56,2025-01-03 19:03,418.122,0.13%,
43,2025-01-03 20:31,2025-01-03 20:37,401.687,0.13%,
44,2025-01-03 22:05,2025-01-03 22:12,424.065,0.14%,
45,2025-01-03 23:40,2025-01-03 23:45,292.204,0.09%,
46,2025-01-03 23:45,2025-01-03 23:47,114.738,0.04%,
47,2025-01-04 01:15,2025-01-04 01:22,390.78,0.12%,
48,2025-01-04 02:49,2025-01-04 02:56,379.021,0.12%,
49,2025-01-04 02:56,2025-01-04 02:56,40.234,0.01%,
50,2025-01-04 04:24,2025-01-04 04:31,412.847,0.13%,
51,2025-01-04 05:59,2025-01-04 06:06,398.069,0.13%,
52,2025-01-04 07:34,2025-01-04 07:41,422.257,0.13%,
53,2025-01-04 09:09,2025-01-04 09:15,405.921,0.13%,
54,2025-01-04 10:43,2025-01-04 10:43,3.491,0.00%,
55,2025-01-04 10:43,2025-01-04 10:50,388.638,0.12%,
56,2025-01-04 12:18,2025-01-04 12:25,413.811,0.13%,
57,2025-01-04 13:53,2025-01-04 13:59,360.02,0.11%,
58,2025-01-04 13:59,2025-01-04 14:00,39.807,0.01%,
59,2025-01-04 15:27,2025-01-04 15:34,430.985,0.14%,
60,2025-01-04 17:02,2025-01-04 17:08,334.428,0.11%,
61,2025-01-04 17:08,2025-01-04 17:09,83.482,0.03%,
62,2025-01-04 18:37,2025-01-04 18:44,402.631,0.13%,
63,2025-01-04 20:11,2025-01-04 20:18,424.219,0.14%,
64,2025-01-04 21:46,2025-01-04 21:53,407.105,0.13%,
65,2025-01-04 23:21,2025-01-04 23:28,394.089,0.13%,
66,2025-01-05 00:56,2025-01-05 01:02,378.932,0.12%,
67,2025-01-05 01:02,2025-01-05 01:03,40.741,0.01%,
68,2025-01-05 02:31,2025-01-05 02:38,414.091,0.13%,
69,2025-01-05 04:06,2025-01-05 04:11,313.104,0.10%,
70,2025-01-05 04:11,2025-01-05 04:12,82.276,0.03%,
71,2025-01-05 05:40,2025-01-05 05:47,422.731,0.13%,
72,2025-01-05 07:15,2025-01-05 07:22,406.307,0.13%,
73,2025-01-05 08:50,2025-01-05 08:56,387.275,0.12%,
74,2025-01-05 10:24,2025-01-05 10:31,416.329,0.13%,
75,2025-01-05 11:59,2025-01-05 12:05,360.214,0.11%,
76,2025-01-05 12:05,2025-01-05 12:06,41.612,0.01%,
77,2025-01-05 13:33,2025-01-05 13:41,431.97,0.14%,
78,2025-01-05 15:08,2025-01-05 15:14,334.587,0.11%,
79,2025-01-05 15:14,2025-01-05 15:15,82.178,0.03%,
80,2025-01-05 16:43,2025-01-05 16:50,403.465,0.13%,
81,2025-01-05 18:18,2025-01-05 18:25,424.307,0.14%,
82,2025-01-05 19:53,2025-01-05 19:59,406.949,0.13%,
83,2025-01-05 21:28,2025-01-05 21:34,396.942,0.13%,
84,2025-01-05 23:02,2025-01-05 23:08,378.768,0.12%,
85,2025-01-05 23:08,2025-01-05 23:09,42.437,0.01%,
86,2025-01-06 00:37,2025-01-06 00:44,415.249,0.13%,
87,2025-01-06 02:12,2025-01-06 02:17,312.758,0.10%,
88,2025-01-06 02:17,2025-01-06 02:19,82.552,0.03%,
89,2025-01-06 03:46,2025-01-06 03:53,423.135,0.13%,
90,2025-01-06 05:21,2025-01-06 05:28,406.607,0.13%,
91,2025-01-06 06:56,2025-01-06 07:03,385.758,0.12%,
92,2025-01-06 08:31,2025-01-06 08:37,418.528,0.13%,
93,2025-01-06 10:05,2025-01-06 10:11,361.156,0.12%,
94,2025-01-06 10:12,2025-01-06 10:12,43.214,0.01%,
95,2025-01-06 11:40,2025-01-06 11:47,432.885,0.14%,
96,2025-01-06 13:15,2025-01-06 13:20,335.016,0.11%,
97,2025-01-06 13:20,2025-01-06 13:22,82.894,0.03%,
98,2025-01-06 14:50,2025-01-06 14:56,404.202,0.13%,
99,2025-01-06 16:24,2025-01-06 16:31,424.324,0.14%,
100,2025-01-06 17:59,2025-01-06 18:06,406.674,0.13%,
101,2025-01-06 19:34,2025-01-06 19:41,399.479,0.13%,
102,2025-01-06 21:08,2025-01-06 21:15,381.065,0.12%,
103,2025-01-06 21:15,2025-01-06 21:15,43.95,0.01%,
104,2025-01-06 22:43,2025-01-06 22:50,416.322,0.13%,
105,2025-01-07 00:18,2025-01-07 00:24,315.104,0.10%,
106,2025-01-07 00:24,2025-01-07 00:25,83.214,0.03%,
107,2025-01-07 01:53,2025-01-07 02:00,423.471,0.13%,
108,2025-01-07 03:28,2025-01-07 03:34,406.813,0.13%,
109,2025-01-07 05:03,2025-01-07 05:09,384.063,0.12%,
110,2025-01-07 06:37,2025-01-07 06:44,420.491,0.13%,
111,2025-01-07 08:12,2025-01-07 08:18,364.385,0.12%,
112,2025-01-07 08:18,2025-01-07 08:19,44.637,0.01%,
113,2025-01-07 09:46,2025-01-07 09:47,28.746,0.01%,
114,2025-01-07 09:47,2025-01-07 09:53,398.075,0.13%,
115,2025-01-07 11:21,2025-01-07 11:27,337.616,0.11%,
116,2025-01-07 11:27,2025-01-07 11:28,83.491,0.03%,
117,2025-01-07 12:56,2025-01-07 13:03,404.835,0.13%,
118,2025-01-07 14:30,2025-01-07 14:37,424.261,0.14%,
119,2025-01-07 16:05,2025-01-07 16:12,408.219,0.13%,
120,2025-01-07 17:40,2025-01-07 17:46,359.201,0.11%,
121,2025-01-07 17:46,2025-01-07 17:47,42.205,0.01%,
122,2025-01-07 19:15,2025-01-07 19:22,429,0.14%,
123,2025-01-07 20:50,2025-01-07 20:57,417.315,0.13%,
124,2025-01-07 22:25,2025-01-07 22:31,400.713,0.13%,
125,2025-01-07 23:59,2025-01-08 00:06,423.741,0.13%,
126,2025-01-08 01:34,2025-01-08 01:39,291.199,0.09%,
127,2025-01-08 01:39,2025-01-08 01:41,114.887,0.04%,
128,2025-01-08 03:09,2025-01-08 03:15,387.92,0.12%,
129,2025-01-08 04:43,2025-01-08 04:50,378.851,0.12%,
130,2025-01-08 04:50,2025-01-08 04:50,41.533,0.01%,
131,2025-01-08 06:18,2025-01-08 06:25,411.751,0.13%,
132,2025-01-08 07:53,2025-01-08 08:00,398.094,0.13%,
133,2025-01-08 09:27,2025-01-08 09:34,421.724,0.13%,
134,2025-01-08 11:02,2025-01-08 11:09,405.38,0.13%,
135,2025-01-08 12:37,2025-01-08 12:42,308.79,0.10%,
136,2025-01-08 12:42,2025-01-08 12:44,114.777,0.04%,
137,2025-01-08 14:12,2025-01-08 14:19,411.731,0.13%,
138,2025-01-08 15:47,2025-01-08 15:53,359.58,0.11%,
139,2025-01-08 15:53,2025-01-08 15:53,40.599,0.01%,
140,2025-01-08 17:21,2025-01-08 17:28,430.121,0.14%,
141,2025-01-08 18:56,2025-01-08 19:03,418.227,0.13%,
142,2025-01-08 20:31,2025-01-08 20:38,401.745,0.13%,
143,2025-01-08 22:05,2025-01-08 22:12,423.948,0.13%,
144,2025-01-08 23:40,2025-01-08 23:47,406.941,0.13%,
145,2025-01-09 01:15,2025-01-09 01:22,391.671,0.12%,
146,2025-01-09 02:50,2025-01-09 02:56,378.818,0.12%,
147,2025-01-09 02:56,2025-01-09 02:57,39.512,0.01%,
148,2025-01-09 04:24,2025-01-09 04:31,413.067,0.13%,
149,2025-01-09 05:59,2025-01-09 06:05,313.586,0.10%,
150,2025-01-09 06:05,2025-01-09 06:06,83.809,0.03%,
151,2025-01-09 07:34,2025-01-09 07:41,422.243,0.13%,
152,2025-01-09 09:09,2025-01-09 09:16,405.833,0.13%,
153,2025-01-09 10:43,2025-01-09 10:50,423.889,0.13%,
154,2025-01-09 12:18,2025-01-09 12:25,414.532,0.13%,
155,2025-01-09 13:53,2025-01-09 13:59,359.851,0.11%,
156,2025-01-09 13:59,2025-01-09 14:00,40.463,0.01%,
157,2025-01-09 15:27,2025-01-09 15:35,431.162,0.14%,
158,2025-01-09 17:02,2025-01-09 17:08,334.29,0.11%,
159,2025-01-09 17:08,2025-01-09 17:09,82.669,0.03%,
160,2025-01-09 18:37,2025-01-09 18:44,402.662,0.13%,
161,2025-01-09 20:12,2025-01-09 20:19,424.08,0.14%,
162,2025-01-09 21:47,2025-01-09 21:53,406.856,0.13%,
163,2025-01-09 23:22,2025-01-09 23:28,394.825,0.13%,
164,2025-01-10 00:56,2025-01-10 01:02,378.704,0.12%,
165,2025-01-10 01:02,2025-01-10 01:03,41.35,0.01%,
166,2025-01-10 02:31,2025-01-10 02:38,414.287,0.13%,
167,2025-01-10 04:06,2025-01-10 04:11,312.841,0.10%,
168,2025-01-10 04:11,2025-01-10 04:12,82.063,0.03%,
169,2025-01-10 05:40,2025-01-10 05:47,422.689,0.13%,
170,2025-01-10 07:15,2025-01-10 07:22,406.198,0.13%,
171,2025-01-10 08:49,2025-01-10 08:57,423.566,0.13%,
172,2025-01-10 10:24,2025-01-10 10:31,416.932,0.13%,
173,2025-01-10 11:59,2025-01-10 12:05,360.016,0.11%,
174,2025-01-10 12:05,2025-01-10 12:06,42.194,0.01%,
175,2025-01-10 13:34,2025-01-10 13:41,432.122,0.14%,
176,2025-01-10 15:09,2025-01-10 15:14,334.43,0.11%,
177,2025-01-10 15:14,2025-01-10 15:16,82.44,0.03%,
178,2025-01-10 16:44,2025-01-10 16:50,403.472,0.13%,
179,2025-01-10 18:18,2025-01-10 18:25,424.148,0.14%,
180,2025-01-10 19:53,2025-01-10 20:00,406.662,0.13%,
181,2025-01-10 21:28,2025-01-10 21:35,397.569,0.13%,
182,2025-01-10 23:02,2025-01-10 23:09,378.808,0.12%,
183,2025-01-10 23:09,2025-01-10 23:09,42.983,0.01%,
184,2025-01-11 00:37,2025-01-11 00:44,415.419,0.13%,
185,2025-01-11 02:12,2025-01-11 02:17,312.683,0.10%,
186,2025-01-11 02:17,2025-01-11 02:19,82.793,0.03%,
187,2025-01-11 03:46,2025-01-11 03:54,423.076,0.13%,
188,2025-01-11 05:21,2025-01-11 05:28,406.467,0.13%,
189,2025-01-11 06:56,2025-01-11 07:03,385.189,0.12%,
190,2025-01-11 08:31,2025-01-11 08:38,419.045,0.13%,
191,2025-01-11 10:06,2025-01-11 10:12,362.121,0.12%,
192,2025-01-11 10:12,2025-01-11 10:13,43.732,0.01%,
193,2025-01-11 11:40,2025-01-11 11:47,433.014,0.14%,
194,2025-01-11 13:15,2025-01-11 13:21,335.776,0.11%,
195,2025-01-11 13:21,2025-01-11 13:22,83.114,0.03%,
196,2025-01-11 14:50,2025-01-11 14:57,404.183,0.13%,
197,2025-01-11 16:24,2025-01-11 16:31,424.136,0.14%,
198,2025-01-11 17:59,2025-01-11 18:06,406.354,0.13%,
199,2025-01-11 19:34,2025-01-11 19:41,400.025,0.13%,
200,2025-01-11 21:09,2025-01-11 21:15,381.873,0.12%,
201,2025-01-11 21:15,2025-01-11 21:16,44.431,0.01%,
202,2025-01-11 22:44,2025-01-11 22:50,416.467,0.13%,
203,2025-01-12 00:19,2025-01-12 00:24,315.869,0.10%,
204,2025-01-12 00:24,2025-01-12 00:25,83.409,0.03%,
205,2025-01-12 01:53,2025-01-12 02:00,423.391,0.13%,
206,2025-01-12 03:28,2025-01-12 03:35,406.646,0.13%,
207,2025-01-12 05:03,2025-01-12 05:09,384.646,0.12%,
208,2025-01-12 06:37,2025-01-12 06:44,420.94,0.13%,
209,2025-01-12 08:12,2025-01-12 08:18,365.14,0.12%,
210,2025-01-12 08:18,2025-01-12 08:19,45.087,0.01%,
211,2025-01-12 09:46,2025-01-12 09:54,433.829,0.14%,
212,2025-01-12 11:21,2025-01-12 11:28,421.16,0.13%,
213,2025-01-12 12:56,2025-01-12 13:03,404.791,0.13%,
214,2025-01-12 14:31,2025-01-12 14:36,308.273,0.10%,
215,2025-01-12 14:36,2025-01-12 14:38,115.279,0.04%,
216,2025-01-12 16:06,2025-01-12 16:12,409.358,0.13%,
217,2025-01-12 17:41,2025-01-12 17:47,359.082,0.11%,
218,2025-01-12 17:47,2025-01-12 17:47,41.766,0.01%,
219,2025-01-12 19:15,2025-01-12 19:22,429.223,0.14%,
220,2025-01-12 20:50,2025-01-12 20:57,417.437,0.13%,
221,2025-01-12 22:25,2025-01-12 22:32,400.796,0.13%,
222,2025-01-12 23:59,2025-01-13 00:06,423.644,0.13%,
223,2025-01-13 01:34,2025-01-13 01:39,291.107,0.09%,
224,2025-01-13 01:39,2025-01-13 01:41,114.814,0.04%,
225,2025-01-13 03:09,2025-01-13 03:16,388.983,0.12%,
226,2025-01-13 04:43,2025-01-13 04:50,378.663,0.12%,
227,2025-01-13 04:50,2025-01-13 04:50,40.917,0.01%,
228,2025-01-13 06:18,2025-01-13 06:25,411.996,0.13%,
229,2025-01-13 07:53,2025-01-13 08:00,434.581,0.14%,
230,2025-01-13 09:28,2025-01-13 09:35,421.722,0.13%,
231,2025-01-13 11:03,2025-01-13 11:09,405.311,0.13%,
232,2025-01-13 12:37,2025-01-13 12:44,423.876,0.13%,
233,2025-01-13 14:12,2025-01-13 14:19,412.567,0.13%,
234,2025-01-13 15:47,2025-01-13 15:53,359.433,0.11%,
235,2025-01-13 15:53,2025-01-13 15:54,39.707,0.01%,
236,2025-01-13 17:21,2025-01-13 17:28,430.316,0.14%,
237,2025-01-13 18:56,2025-01-13 19:02,333.964,0.11%,
238,2025-01-13 19:02,2025-01-13 19:03,84.123,0.03%,
239,2025-01-13 20:31,2025-01-13 20:38,401.799,0.13%,
240,2025-01-13 22:05,2025-01-13 22:13,423.824,0.13%,
241,2025-01-13 23:40,2025-01-13 23:47,406.716,0.13%,
242,2025-01-14 01:15,2025-01-14 01:22,392.509,0.13%,
243,2025-01-14 02:50,2025-01-14 02:56,378.603,0.12%,
244,2025-01-14 02:56,2025-01-14 02:57,40.174,0.01%,
245,2025-01-14 04:25,2025-01-14 04:32,413.283,0.13%,
246,2025-01-14 06:00,2025-01-14 06:05,313.33,0.10%,
247,2025-01-14 06:05,2025-01-14 06:06,83.036,0.03%,
248,2025-01-14 07:34,2025-01-14 07:41,422.22,0.13%,
249,2025-01-14 09:09,2025-01-14 09:16,405.741,0.13%,
250,2025-01-14 10:43,2025-01-14 10:50,423.617,0.13%,
251,2025-01-14 12:18,2025-01-14 12:25,415.214,0.13%,
252,2025-01-14 13:53,2025-01-14 13:59,359.674,0.11%,
253,2025-01-14 13:59,2025-01-14 14:00,41.084,0.01%,
254,2025-01-14 15:28,2025-01-14 15:35,431.332,0.14%,
255,2025-01-14 17:03,2025-01-14 17:08,334.147,0.11%,
256,2025-01-14 17:08,2025-01-14 17:10,81.936,0.03%,
257,2025-01-14 18:38,2025-01-14 18:44,402.689,0.13%,
258,2025-01-14 20:12,2025-01-14 20:19,423.933,0.13%,
259,2025-01-14 21:47,2025-01-14 21:54,406.596,0.13%,
260,2025-01-14 23:22,2025-01-14 23:28,395.524,0.13%,
261,2025-01-15 00:56,2025-01-15 01:02,378.464,0.12%,
262,2025-01-15 01:02,2025-01-15 01:03,41.94,0.01%,
263,2025-01-15 02:31,2025-01-15 02:38,414.475,0.13%,
264,2025-01-15 04:06,2025-01-15 04:11,312.563,0.10%,
265,2025-01-15 04:11,2025-01-15 04:13,82.33,0.03%,
266,2025-01-15 05:40,2025-01-15 05:47,422.644,0.13%,
267,2025-01-15 07:15,2025-01-15 07:22,406.077,0.13%,
268,2025-01-15 08:50,2025-01-15 08:57,423.262,0.13%,
269,2025-01-15 10:25,2025-01-15 10:32,417.503,0.13%,
270,2025-01-15 12:00,2025-01-15 12:06,359.809,0.11%,
271,2025-01-15 12:06,2025-01-15 12:06,42.751,0.01%,
272,2025-01-15 13:34,2025-01-15 13:41,432.267,0.14%,
273,2025-01-15 15:09,2025-01-15 15:14,334.266,0.11%,
274,2025-01-15 15:14,2025-01-15 15:16,82.691,0.03%,
275,2025-01-15 16:44,2025-01-15 16:51,403.475,0.13%,
276,2025-01-15 18:18,2025-01-15 18:25,423.977,0.13%,
277,2025-01-15 19:53,2025-01-15 20:00,406.366,0.13%,
278,2025-01-15 21:28,2025-01-15 21:35,398.172,0.13%,
279,2025-01-15 23:02,2025-01-15 23:09,379.78,0.12%,
280,2025-01-15 23:09,2025-01-15 23:10,43.506,0.01%,
281,2025-01-16 00:37,2025-01-16 00:44,415.581,0.13%,
282,2025-01-16 02:12,2025-01-16 02:18,313.478,0.10%,
283,2025-01-16 02:18,2025-01-16 02:19,83.019,0.03%,
284,2025-01-16 03:47,2025-01-16 03:54,423.011,0.13%,
285,2025-01-16 05:22,2025-01-16 05:28,406.318,0.13%,
286,2025-01-16 06:56,2025-01-16 07:03,422.804,0.13%,
287,2025-01-16 08:31,2025-01-16 08:38,419.538,0.13%,
288,2025-01-16 10:06,2025-01-16 10:12,363,0.12%,
289,2025-01-16 10:12,2025-01-16 10:13,44.218,0.01%,
290,2025-01-16 11:40,2025-01-16 11:47,433.132,0.14%,
291,2025-01-16 13:15,2025-01-16 13:21,336.483,0.11%,
292,2025-01-16 13:21,2025-01-16 13:22,83.319,0.03%,
293,2025-01-16 14:50,2025-01-16 14:57,404.156,0.13%,
294,2025-01-16 16:25,2025-01-16 16:32,423.94,0.13%,
295,2025-01-16 17:59,2025-01-16 18:06,406.488,0.13%,
296,2025-01-16 19:34,2025-01-16 19:41,400.546,0.13%,
297,2025-01-16 21:09,2025-01-16 21:15,382.615,0.12%,
298,2025-01-16 21:15,2025-01-16 21:16,44.892,0.01%,
299,2025-01-16 22:44,2025-01-16 22:51,416.601,0.13%,
300,2025-01-17 00:19,2025-01-17 00:25,399.775,0.13%,
301,2025-01-17 01:53,2025-01-17 02:00,423.304,0.13%,
302,2025-01-17 03:28,2025-01-17 03:33,290.651,0.09%,
303,2025-01-17 03:33,2025-01-17 03:35,115.702,0.04%,
304,2025-01-17 05:02,2025-01-17 05:02,0.557,0.00%,
305,2025-01-17 05:03,2025-01-17 05:09,385.881,0.12%,
306,2025-01-17 06:37,2025-01-17 06:44,378.474,0.12%,
307,2025-01-17 06:44,2025-01-17 06:44,41.971,0.01%,
308,2025-01-17 08:12,2025-01-17 08:19,410.872,0.13%,
309,2025-01-17 09:47,2025-01-17 09:54,433.928,0.14%,
310,2025-01-17 11:22,2025-01-17 11:29,421.172,0.13%,
311,2025-01-17 12:57,2025-01-17 13:03,404.743,0.13%,
312,2025-01-17 14:31,2025-01-17 14:36,308.152,0.10%,
313,2025-01-17 14:36,2025-01-17 14:38,114.849,0.04%,
314,2025-01-17 16:06,2025-01-17 16:13,410.361,0.13%,
315,2025-01-17 17:41,2025-01-17 17:47,358.954,0.11%,
316,2025-01-17 17:47,2025-01-17 17:47,41.21,0.01%,
317,2025-01-17 19:15,2025-01-17 19:22,429.436,0.14%,
318,2025-01-17 20:50,2025-01-17 20:57,417.55,0.13%,
319,2025-01-17 22:25,2025-01-17 22:32,400.874,0.13%,
320,2025-01-17 23:59,2025-01-18 00:06,423.533,0.13%,
321,2025-01-18 01:34,2025-01-18 01:39,291.664,0.09%,
322,2025-01-18 01:39,2025-01-18 01:41,114.728,0.04%,
323,2025-01-18 03:09,2025-01-18 03:16,389.948,0.12%,
324,2025-01-18 04:44,2025-01-18 04:50,378.468,0.12%,
325,2025-01-18 04:50,2025-01-18 04:51,40.134,0.01%,
326,2025-01-18 06:19,2025-01-18 06:25,412.23,0.13%,
327,2025-01-18 07:53,2025-01-18 08:00,434.658,0.14%,
328,2025-01-18 09:28,2025-01-18 09:35,421.712,0.13%,
329,2025-01-18 11:03,2025-01-18 11:10,405.233,0.13%,
330,2025-01-18 12:37,2025-01-18 12:44,423.625,0.13%,
331,2025-01-18 14:12,2025-01-18 14:19,413.338,0.13%,
332,2025-01-18 15:47,2025-01-18 15:53,359.277,0.11%,
333,2025-01-18 15:53,2025-01-18 15:54,39.882,0.01%,
334,2025-01-18 17:21,2025-01-18 17:29,430.502,0.14%,
335,2025-01-18 18:56,2025-01-18 19:02,333.834,0.11%,
336,2025-01-18 19:02,2025-01-18 19:03,83.393,0.03%,
337,2025-01-18 20:31,2025-01-18 20:38,401.841,0.13%,
338,2025-01-18 22:06,2025-01-18 22:13,423.693,0.13%,
339,2025-01-18 23:41,2025-01-18 23:47,406.476,0.13%,
340,2025-01-19 01:16,2025-01-19 01:22,393.294,0.13%,
341,2025-01-19 02:50,2025-01-19 02:56,378.382,0.12%,
342,2025-01-19 02:56,2025-01-19 02:57,40.81,0.01%,
343,2025-01-19 04:25,2025-01-19 04:32,413.486,0.13%,
344,2025-01-19 05:59,2025-01-19 06:05,350.428,0.11%,
345,2025-01-19 06:05,2025-01-19 06:07,82.163,0.03%,
346,2025-01-19 07:34,2025-01-19 07:41,422.189,0.13%,
347,2025-01-19 09:09,2025-01-19 09:16,405.637,0.13%,
348,2025-01-19 10:44,2025-01-19 10:51,423.335,0.13%,
349,2025-01-19 12:18,2025-01-19 12:25,415.849,0.13%,
350,2025-01-19 13:53,2025-01-19 13:59,359.491,0.11%,
351,2025-01-19 14:00,2025-01-19 14:00,41.683,0.01%,
352,2025-01-19 15:28,2025-01-19 15:35,431.492,0.14%,
353,2025-01-19 17:03,2025-01-19 17:08,333.999,0.11%,
354,2025-01-19 17:08,2025-01-19 17:10,82.212,0.03%,
355,2025-01-19 18:38,2025-01-19 18:44,402.706,0.13%,
356,2025-01-19 20:12,2025-01-19 20:19,423.783,0.13%,
357,2025-01-19 21:47,2025-01-19 21:54,406.325,0.13%,
358,2025-01-19 23:22,2025-01-19 23:29,396.183,0.13%,
359,2025-01-20 00:56,2025-01-20 01:03,378.217,0.12%,
360,2025-01-20 01:03,2025-01-20 01:03,42.502,0.01%,
361,2025-01-20 02:31,2025-01-20 02:38,414.651,0.13%,
362,2025-01-20 04:06,2025-01-20 04:06,2.532,0.00%,
363,2025-01-20 04:06,2025-01-20 04:11,312.284,0.10%,
364,2025-01-20 04:12,2025-01-20 04:13,82.587,0.03%,
365,2025-01-20 05:41,2025-01-20 05:48,422.592,0.13%,
366,2025-01-20 07:16,2025-01-20 07:22,405.943,0.13%,
367,2025-01-20 08:50,2025-01-20 08:57,422.946,0.13%,
368,2025-01-20 10:25,2025-01-20 10:32,418.043,0.13%,
369,2025-01-20 12:00,2025-01-20 12:06,360.591,0.11%,
370,2025-01-20 12:06,2025-01-20 12:07,43.274,0.01%,
371,2025-01-20 13:34,2025-01-20 13:41,432.4,0.14%,
372,2025-01-20 15:09,2025-01-20 15:15,334.549,0.11%,
373,2025-01-20 15:15,2025-01-20 15:16,82.923,0.03%,
374,2025-01-20 16:44,2025-01-20 16:51,403.462,0.13%,
375,2025-01-20 18:18,2025-01-20 18:25,423.796,0.13%,
376,2025-01-20 19:53,2025-01-20 20:00,406.055,0.13%,
377,2025-01-20 21:28,2025-01-20 21:35,398.741,0.13%,
378,2025-01-20 23:03,2025-01-20 23:09,380.648,0.12%,
379,2025-01-20 23:09,2025-01-20 23:10,44.003,0.01%,
380,2025-01-21 00:38,2025-01-21 00:45,415.734,0.13%,
381,2025-01-21 02:13,2025-01-21 02:18,314.294,0.10%,
382,2025-01-21 02:18,2025-01-21 02:19,83.23,0.03%,
383,2025-01-21 03:47,2025-01-21 03:54,422.937,0.13%,
384,2025-01-21 05:22,2025-01-21 05:29,406.16,0.13%,
385,2025-01-21 06:56,2025-01-21 07:03,422.444,0.13%,
386,2025-01-21 08:31,2025-01-21 08:38,420.005,0.13%,
387,2025-01-21 10:06,2025-01-21 10:12,363.806,0.12%,
388,2025-01-21 10:12,2025-01-21 10:13,44.69,0.01%,
389,2025-01-21 11:40,2025-01-21 11:48,433.244,0.14%,
390,2025-01-21 13:15,2025-01-21 13:22,420.588,0.13%,
391,2025-01-21 14:50,2025-01-21 14:57,404.121,0.13%,
392,2025-01-21 16:25,2025-01-21 16:32,423.735,0.13%,
393,2025-01-21 18:00,2025-01-21 18:06,407.787,0.13%,
394,2025-01-21 19:35,2025-01-21 19:41,358.412,0.11%,
395,2025-01-21 19:41,2025-01-21 19:41,42.157,0.01%,
396,2025-01-21 21:09,2025-01-21 21:16,428.514,0.14%,
397,2025-01-21 22:44,2025-01-21 22:51,416.73,0.13%,
398,2025-01-22 00:19,2025-01-22 00:26,399.87,0.13%,
399,2025-01-22 01:53,2025-01-22 02:00,423.21,0.13%,
400,2025-01-22 03:28,2025-01-22 03:33,290.564,0.09%,
401,2025-01-22 03:33,2025-01-22 03:35,114.88,0.04%,
402,2025-01-22 05:03,2025-01-22 05:10,426.055,0.14%,
403,2025-01-22 06:38,2025-01-22 06:44,378.293,0.12%,
404,2025-01-22 06:44,2025-01-22 06:45,41.468,0.01%,
405,2025-01-22 08:12,2025-01-22 08:19,411.129,0.13%,
406,2025-01-22 09:47,2025-01-22 09:54,434.018,0.14%,
407,2025-01-22 11:22,2025-01-22 11:29,421.176,0.13%,
408,2025-01-22 12:57,2025-01-22 13:03,404.683,0.13%,
409,2025-01-22 14:31,2025-01-22 14:36,308.366,0.10%,
410,2025-01-22 14:36,2025-01-22 14:38,114.766,0.04%,
411,2025-01-22 16:06,2025-01-22 16:13,411.264,0.13%,
412,2025-01-22 17:41,2025-01-22 17:47,358.818,0.11%,
413,2025-01-22 17:47,2025-01-22 17:48,40.507,0.01%,
414,2025-01-22 19:15,2025-01-22 19:22,429.64,0.14%,
415,2025-01-22 20:50,2025-01-22 20:57,417.655,0.13%,
416,2025-01-22 22:25,2025-01-22 22:32,400.935,0.13%,
417,2025-01-23 00:00,2025-01-23 00:07,423.416,0.13%,
418,2025-01-23 01:35,2025-01-23 01:41,406.307,0.13%,
419,2025-01-23 03:10,2025-01-23 03:16,390.844,0.12%,
420,2025-01-23 04:44,2025-01-23 04:50,378.265,0.12%,
421,2025-01-23 04:50,2025-01-23 04:51,39.588,0.01%,
422,2025-01-23 06:19,2025-01-23 06:26,412.452,0.13%,
423,2025-01-23 07:53,2025-01-23 07:59,350.243,0.11%,
424,2025-01-23 07:59,2025-01-23 08:00,83.724,0.03%,
425,2025-01-23 09:28,2025-01-23 09:35,421.695,0.13%,
426,2025-01-23 11:03,2025-01-23 11:10,405.147,0.13%,
427,2025-01-23 12:37,2025-01-23 12:44,423.364,0.13%,
428,2025-01-23 14:12,2025-01-23 14:19,414.054,0.13%,
429,2025-01-23 15:47,2025-01-23 15:53,359.111,0.11%,
430,2025-01-23 15:53,2025-01-23 15:54,40.531,0.01%,
431,2025-01-23 17:22,2025-01-23 17:29,430.677,0.14%,
432,2025-01-23 18:57,2025-01-23 19:02,333.697,0.11%,
433,2025-01-23 19:02,2025-01-23 19:04,82.564,0.03%,
434,2025-01-23 20:32,2025-01-23 20:38,401.878,0.13%,
435,2025-01-23 22:06,2025-01-23 22:13,423.553,0.13%,
436,2025-01-23 23:41,2025-01-23 23:48,406.227,0.13%,
437,2025-01-24 01:16,2025-01-24 01:22,394.031,0.13%,
438,2025-01-24 02:50,2025-01-24 02:56,378.153,0.12%,
439,2025-01-24 02:57,2025-01-24 02:57,41.419,0.01%,
440,2025-01-24 04:25,2025-01-24 04:32,413.684,0.13%,
441,2025-01-24 06:00,2025-01-24 06:05,350.259,0.11%,
442,2025-01-24 06:05,2025-01-24 06:07,82.089,0.03%,
443,2025-01-24 07:34,2025-01-24 07:41,422.151,0.13%,
444,2025-01-24 09:09,2025-01-24 09:16,405.525,0.13%,
445,2025-01-24 10:44,2025-01-24 10:51,423.041,0.13%,
446,2025-01-24 12:19,2025-01-24 12:26,416.448,0.13%,
447,2025-01-24 13:54,2025-01-24 14:00,359.29,0.11%,
448,2025-01-24 14:00,2025-01-24 14:00,42.257,0.01%,
449,2025-01-24 15:28,2025-01-24 15:35,431.641,0.14%,
450,2025-01-24 17:03,2025-01-24 17:09,333.842,0.11%,
451,2025-01-24 17:09,2025-01-24 17:10,82.476,0.03%,
452,2025-01-24 18:38,2025-01-24 18:45,402.716,0.13%,
453,2025-01-24 20:12,2025-01-24 20:19,423.618,0.13%,
454,2025-01-24 21:47,2025-01-24 21:54,406.041,0.13%,
455,2025-01-24 23:22,2025-01-24 23:29,396.812,0.13%,
456,2025-01-25 00:57,2025-01-25 01:03,378.409,0.12%,
457,2025-01-25 01:03,2025-01-25 01:04,43.046,0.01%,
458,2025-01-25 02:31,2025-01-25 02:38,414.821,0.13%,
459,2025-01-25 04:06,2025-01-25 04:12,350.24,0.11%,
460,2025-01-25 04:12,2025-01-25 04:13,82.823,0.03%,
461,2025-01-25 05:41,2025-01-25 05:48,422.534,0.13%,
462,2025-01-25 07:16,2025-01-25 07:23,405.808,0.13%,
463,2025-01-25 08:50,2025-01-25 08:57,422.618,0.13%,
464,2025-01-25 10:25,2025-01-25 10:32,418.558,0.13%,
465,2025-01-25 12:00,2025-01-25 12:06,361.546,0.12%,
466,2025-01-25 12:06,2025-01-25 12:07,43.788,0.01%,
467,2025-01-25 13:34,2025-01-25 13:42,432.528,0.14%,
468,2025-01-25 15:09,2025-01-25 15:15,335.3,0.11%,
469,2025-01-25 15:15,2025-01-25 15:16,83.144,0.03%,
470,2025-01-25 16:44,2025-01-25 16:51,403.446,0.13%,
471,2025-01-25 18:19,2025-01-25 18:26,423.609,0.13%,
472,2025-01-25 19:54,2025-01-25 20:00,405.732,0.13%,
473,2025-01-25 21:29,2025-01-25 21:35,399.286,0.13%,
474,2025-01-25 23:03,2025-01-25 23:09,381.447,0.12%,
475,2025-01-25 23:09,2025-01-25 23:10,44.484,0.01%,
476,2025-01-26 00:38,2025-01-26 00:45,415.879,0.13%,
477,2025-01-26 02:13,2025-01-26 02:18,315.061,0.10%,
478,2025-01-26 02:18,2025-01-26 02:19,83.429,0.03%,
479,2025-01-26 03:47,2025-01-26 03:54,422.857,0.13%,
480,2025-01-26 05:22,2025-01-26 05:29,405.993,0.13%,
481,2025-01-26 06:56,2025-01-26 07:04,423.496,0.13%,
482,2025-01-26 08:31,2025-01-26 08:38,378.086,0.12%,
483,2025-01-26 08:38,2025-01-26 08:38,42.323,0.01%,
484,2025-01-26 10:06,2025-01-26 10:12,364.559,0.12%,
485,2025-01-26 10:12,2025-01-26 10:13,45.139,0.01%,
486,2025-01-26 11:41,2025-01-26 11:48,433.35,0.14%,
487,2025-01-26 13:16,2025-01-26 13:23,420.606,0.13%,
488,2025-01-26 14:51,2025-01-26 14:57,404.078,0.13%,
489,2025-01-26 16:25,2025-01-26 16:30,307.76,0.10%,
490,2025-01-26 16:30,2025-01-26 16:32,115.167,0.04%,
491,2025-01-26 18:00,2025-01-26 18:07,408.905,0.13%,
492,2025-01-26 19:35,2025-01-26 19:41,358.301,0.11%,
493,2025-01-26 19:41,2025-01-26 19:42,41.707,0.01%,
494,2025-01-26 21:09,2025-01-26 21:16,428.738,0.14%,
495,2025-01-26 22:44,2025-01-26 22:51,416.851,0.13%,
496,2025-01-27 00:19,2025-01-27 00:26,399.957,0.13%,
497,2025-01-27 01:53,2025-01-27 02:01,423.108,0.13%,
498,2025-01-27 03:28,2025-01-27 03:33,290.488,0.09%,
499,2025-01-27 03:33,2025-01-27 03:35,114.806,0.04%,
500,2025-01-27 05:03,2025-01-27 05:10,426.98,0.14%,
501,2025-01-27 06:38,2025-01-27 06:44,378.106,0.12%,
502,2025-01-27 06:44,2025-01-27 06:45,40.837,0.01%,
503,2025-01-27 08:13,2025-01-27 08:20,411.372,0.13%,
504,2025-01-27 09:47,2025-01-27 09:54,434.102,0.14%,
505,2025-01-27 11:22,2025-01-27 11:29,421.173,0.13%,
506,2025-01-27 12:57,2025-01-27 13:04,404.615,0.13%,
507,2025-01-27 14:31,2025-01-27 14:38,423.349,0.13%,
508,2025-01-27 16:06,2025-01-27 16:13,412.093,0.13%,
509,2025-01-27 17:41,2025-01-27 17:47,358.675,0.11%,
510,2025-01-27 17:47,2025-01-27 17:48,39.583,0.01%,
511,2025-01-27 19:16,2025-01-27 19:23,429.835,0.14%,
512,2025-01-27 20:50,2025-01-27 20:56,333.364,0.11%,
513,2025-01-27 20:56,2025-01-27 20:57,84.04,0.03%,
514,2025-01-27 22:25,2025-01-27 22:32,400.993,0.13%,
515,2025-01-28 00:00,2025-01-28 00:07,423.292,0.13%,
516,2025-01-28 01:35,2025-01-28 01:42,406.076,0.13%,
517,2025-01-28 03:09,2025-01-28 03:16,429.703,0.14%,
518,2025-01-28 04:44,2025-01-28 04:50,378.049,0.12%,
519,2025-01-28 04:50,2025-01-28 04:51,40.251,0.01%,
520,2025-01-28 06:19,2025-01-28 06:26,412.668,0.13%,
521,2025-01-28 07:53,2025-01-28 07:59,350.085,0.11%,
522,2025-01-28 07:59,2025-01-28 08:01,82.941,0.03%,
523,2025-01-28 09:28,2025-01-28 09:35,421.672,0.13%,
524,2025-01-28 11:03,2025-01-28 11:10,405.053,0.13%,
525,2025-01-28 12:38,2025-01-28 12:45,423.09,0.13%,
526,2025-01-28 14:13,2025-01-28 14:19,414.731,0.13%,
527,2025-01-28 15:48,2025-01-28 15:54,358.937,0.11%,
528,2025-01-28 15:54,2025-01-28 15:54,41.157,0.01%,
529,2025-01-28 17:22,2025-01-28 17:29,430.846,0.14%,
530,2025-01-28 18:57,2025-01-28 19:02,333.554,0.11%,
531,2025-01-28 19:02,2025-01-28 19:04,81.968,0.03%,
532,2025-01-28 20:32,2025-01-28 20:39,401.909,0.13%,
533,2025-01-28 22:06,2025-01-28 22:13,423.406,0.13%,
534,2025-01-28 23:41,2025-01-28 23:48,405.965,0.13%,
535,2025-01-29 01:16,2025-01-29 01:23,394.73,0.13%,
536,2025-01-29 02:50,2025-01-29 02:57,377.914,0.12%,
537,2025-01-29 02:57,2025-01-29 02:57,42.005,0.01%,
538,2025-01-29 04:25,2025-01-29 04:32,413.871,0.13%,
539,2025-01-29 06:00,2025-01-29 06:06,350.08,0.11%,
540,2025-01-29 06:06,2025-01-29 06:07,82.362,0.03%,
541,2025-01-29 07:35,2025-01-29 07:42,422.107,0.13%,
542,2025-01-29 09:10,2025-01-29 09:16,405.404,0.13%,
543,2025-01-29 10:44,2025-01-29 10:51,422.736,0.13%,
544,2025-01-29 12:19,2025-01-29 12:26,417.017,0.13%,
545,2025-01-29 13:54,2025-01-29 14:00,359.086,0.11%,
546,2025-01-29 14:00,2025-01-29 14:01,42.809,0.01%,
547,2025-01-29 15:28,2025-01-29 15:35,431.785,0.14%,
548,2025-01-29 17:03,2025-01-29 17:09,333.679,0.11%,
549,2025-01-29 17:09,2025-01-29 17:10,82.721,0.03%,
550,2025-01-29 18:38,2025-01-29 18:45,402.719,0.13%,
551,2025-01-29 20:12,2025-01-29 20:20,423.447,0.13%,
552,2025-01-29 21:47,2025-01-29 21:54,405.741,0.13%,
553,2025-01-29 23:22,2025-01-29 23:29,397.414,0.13%,
554,2025-01-30 00:57,2025-01-30 01:03,379.366,0.12%,
555,2025-01-30 01:03,2025-01-30 01:04,43.569,0.01%,
556,2025-01-30 02:32,2025-01-30 02:39,414.984,0.13%,
557,2025-01-30 04:06,2025-01-30 04:12,351,0.11%,
558,2025-01-30 04:12,2025-01-30 04:13,83.047,0.03%,
559,2025-01-30 05:41,2025-01-30 05:48,422.473,0.13%,
560,2025-01-30 07:16,2025-01-30 07:23,405.656,0.13%,
561,2025-01-30 08:50,2025-01-30 08:57,422.274,0.13%,
562,2025-01-30 10:25,2025-01-30 10:32,419.047,0.13%,
563,2025-01-30 12:00,2025-01-30 12:06,362.421,0.12%,
564,2025-01-30 12:06,2025-01-30 12:07,44.277,0.01%,
565,2025-01-30 13:35,2025-01-30 13:42,432.649,0.14%,
566,2025-01-30 15:10,2025-01-30 15:15,336,0.11%,
567,2025-01-30 15:15,2025-01-30 15:17,83.347,0.03%,
568,2025-01-30 16:44,2025-01-30 16:51,403.422,0.13%,
569,2025-01-30 18:19,2025-01-30 18:26,423.411,0.13%,
570,2025-01-30 19:54,2025-01-30 20:01,406.069,0.13%,
571,2025-01-30 21:29,2025-01-30 21:35,399.814,0.13%,
572,2025-01-30 23:03,2025-01-30 23:09,382.182,0.12%,
573,2025-01-30 23:09,2025-01-30 23:10,44.947,0.01%,
574,2025-01-31 00:38,2025-01-31 00:45,416.017,0.13%,
575,2025-01-31 02:12,2025-01-31 02:13,28.504,0.01%,
576,2025-01-31 02:13,2025-01-31 02:20,398.893,0.13%,
577,2025-01-31 03:47,2025-01-31 03:54,422.77,0.13%,
578,2025-01-31 05:22,2025-01-31 05:27,290.014,0.09%,
579,2025-01-31 05:27,2025-01-31 05:29,115.59,0.04%,
580,2025-01-31 06:57,2025-01-31 07:04,424.667,0.14%,
581,2025-01-31 08:32,2025-01-31 08:38,377.915,0.12%,
582,2025-01-31 08:38,2025-01-31 08:39,41.917,0.01%,
583,2025-01-31 10:07,2025-01-31 10:13,410.237,0.13%,
584,2025-01-31 11:41,2025-01-31 11:48,433.447,0.14%,
585,2025-01-31 13:16,2025-01-31 13:23,420.618,0.13%,
586,2025-01-31 14:51,2025-01-31 14:58,404.028,0.13%,
587,2025-01-31 16:25,2025-01-31 16:30,307.639,0.10%,
588,2025-01-31 16:30,2025-01-31 16:32,114.839,0.04%,
589,2025-01-31 18:00,2025-01-31 18:07,409.898,0.13%,
590,2025-01-31 19:35,2025-01-31 19:41,358.178,0.11%,
591,2025-01-31 19:41,2025-01-31 19:42,41.136,0.01%,
592,2025-01-31 21:09,2025-01-31 21:17,428.951,0.14%,
593,2025-01-31 22:44,2025-01-31 22:51,416.965,0.13%,
594,2025-02-01 00:19,2025-02-01 00:26,400.036,0.13%,
595,2025-02-01 01:54,2025-02-01 02:01,422.999,0.13%,
596,2025-02-01 03:29,2025-02-01 03:33,291.124,0.09%,
597,2025-02-01 03:33,2025-02-01 03:35,114.717,0.04%,
598,2025-02-01 05:03,2025-02-01 05:10,427.818,0.14%,
599,2025-02-01 06:38,2025-02-01 06:44,377.909,0.12%,
600,2025-02-01 06:44,2025-02-01 06:45,40.018,0.01%,
601,2025-02-01 08:13,2025-02-01 08:20,411.607,0.13%,
602,2025-02-01 09:47,2025-02-01 09:55,434.179,0.14%,
603,2025-02-01 11:22,2025-02-01 11:29,421.167,0.13%,
604,2025-02-01 12:57,2025-02-01 13:04,404.536,0.13%,
605,2025-02-01 14:32,2025-02-01 14:39,423.099,0.13%,
606,2025-02-01 16:06,2025-02-01 16:13,412.86,0.13%,
607,2025-02-01 17:41,2025-02-01 17:47,358.519,0.11%,
608,2025-02-01 17:48,2025-02-01 17:48,39.965,0.01%,
609,2025-02-01 19:16,2025-02-01 19:23,430.021,0.14%,
610,2025-02-01 20:51,2025-02-01 20:56,333.234,0.11%,
611,2025-02-01 20:56,2025-02-01 20:58,83.302,0.03%,
612,2025-02-01 22:26,2025-02-01 22:32,401.043,0.13%,
613,2025-02-02 00:00,2025-02-02 00:07,423.16,0.13%,
614,2025-02-02 01:35,2025-02-02 01:42,405.838,0.13%,
615,2025-02-02 03:09,2025-02-02 03:17,430.377,0.14%,
616,2025-02-02 04:44,2025-02-02 04:51,377.828,0.12%,
617,2025-02-02 04:51,2025-02-02 04:51,40.884,0.01%,
618,2025-02-02 06:19,2025-02-02 06:26,412.871,0.13%,
619,2025-02-02 07:54,2025-02-02 07:59,349.921,0.11%,
620,2025-02-02 07:59,2025-02-02 08:01,82.051,0.03%,
621,2025-02-02 09:29,2025-02-02 09:36,421.641,0.13%,
622,2025-02-02 11:04,2025-02-02 11:10,404.954,0.13%,
623,2025-02-02 12:38,2025-02-02 12:45,422.811,0.13%,
624,2025-02-02 14:13,2025-02-02 14:20,415.361,0.13%,
625,2025-02-02 15:48,2025-02-02 15:54,358.753,0.11%,
626,2025-02-02 15:54,2025-02-02 15:55,41.749,0.01%,
627,2025-02-02 17:22,2025-02-02 17:29,431.006,0.14%,
628,2025-02-02 18:57,2025-02-02 19:03,333.405,0.11%,
629,2025-02-02 19:03,2025-02-02 19:04,82.243,0.03%,
630,2025-02-02 20:32,2025-02-02 20:39,401.93,0.13%,
631,2025-02-02 22:06,2025-02-02 22:13,423.251,0.13%,
632,2025-02-02 23:41,2025-02-02 23:48,405.695,0.13%,
633,2025-02-03 01:16,2025-02-03 01:23,395.393,0.13%,
634,2025-02-03 02:51,2025-02-03 02:57,377.667,0.12%,
635,2025-02-03 02:57,2025-02-03 02:58,42.57,0.01%,
636,2025-02-03 04:26,2025-02-03 04:32,414.05,0.13%,
637,2025-02-03 06:00,2025-02-03 06:06,349.897,0.11%,
638,2025-02-03 06:06,2025-02-03 06:07,82.61,0.03%,
639,2025-02-03 07:35,2025-02-03 07:42,422.055,0.13%,
640,2025-02-03 09:10,2025-02-03 09:17,405.274,0.13%,
641,2025-02-03 10:44,2025-02-03 10:51,422.417,0.13%,
642,2025-02-03 12:19,2025-02-03 12:26,417.555,0.13%,
643,2025-02-03 13:54,2025-02-03 14:00,360.012,0.11%,
644,2025-02-03 14:00,2025-02-03 14:01,43.335,0.01%,
645,2025-02-03 15:28,2025-02-03 15:36,431.92,0.14%,
646,2025-02-03 17:03,2025-02-03 17:09,334.076,0.11%,
647,2025-02-03 17:09,2025-02-03 17:10,82.951,0.03%,
648,2025-02-03 18:38,2025-02-03 18:45,402.715,0.13%,
649,2025-02-03 20:13,2025-02-03 20:20,423.268,0.13%,
650,2025-02-03 21:48,2025-02-03 21:54,405.43,0.13%,
651,2025-02-03 23:23,2025-02-03 23:29,397.986,0.13%,
652,2025-02-04 00:57,2025-02-04 01:03,380.227,0.12%,
653,2025-02-04 01:03,2025-02-04 01:04,44.063,0.01%,
654,2025-02-04 02:32,2025-02-04 02:39,415.137,0.13%,
655,2025-02-04 04:06,2025-02-04 04:12,351.696,0.11%,
656,2025-02-04 04:12,2025-02-04 04:14,83.257,0.03%,
657,2025-02-04 05:41,2025-02-04 05:48,422.395,0.13%,
658,2025-02-04 07:16,2025-02-04 07:23,405.499,0.13%,
659,2025-02-04 08:51,2025-02-04 08:58,421.916,0.13%,
660,2025-02-04 10:25,2025-02-04 10:32,419.512,0.13%,
661,2025-02-04 12:00,2025-02-04 12:07,363.22,0.12%,
662,2025-02-04 12:07,2025-02-04 12:07,44.744,0.01%,
663,2025-02-04 13:35,2025-02-04 13:42,432.762,0.14%,
664,2025-02-04 15:10,2025-02-04 15:17,420.032,0.13%,
665,2025-02-04 16:45,2025-02-04 16:51,403.389,0.13%,
666,2025-02-04 18:19,2025-02-04 18:26,423.206,0.13%,
667,2025-02-04 19:54,2025-02-04 20:01,407.346,0.13%,
668,2025-02-04 21:29,2025-02-04 21:35,357.611,0.11%,
669,2025-02-04 21:35,2025-02-04 21:36,42.106,0.01%,
670,2025-02-04 23:03,2025-02-04 23:10,428.031,0.14%,
671,2025-02-05 00:38,2025-02-05 00:45,416.146,0.13%,
672,2025-02-05 02:13,2025-02-05 02:20,436.472,0.14%,
673,2025-02-05 03:48,2025-02-05 03:55,422.675,0.13%,
674,2025-02-05 05:23,2025-02-05 05:27,289.928,0.09%,
675,2025-02-05 05:27,2025-02-05 05:29,114.869,0.04%,
676,2025-02-05 06:57,2025-02-05 07:04,425.685,0.14%,
677,2025-02-05 08:32,2025-02-05 08:38,377.735,0.12%,
678,2025-02-05 08:38,2025-02-05 08:39,41.406,0.01%,
679,2025-02-05 10:07,2025-02-05 10:14,410.492,0.13%,
680,2025-02-05 11:41,2025-02-05 11:48,433.538,0.14%,
681,2025-02-05 13:16,2025-02-05 13:23,420.622,0.13%,
682,2025-02-05 14:51,2025-02-05 14:58,403.969,0.13%,
683,2025-02-05 16:25,2025-02-05 16:31,307.939,0.10%,
684,2025-02-05 16:31,2025-02-05 16:32,114.76,0.04%,
685,2025-02-05 18:00,2025-02-05 18:07,410.795,0.13%,
686,2025-02-05 19:35,2025-02-05 19:41,358.041,0.11%,
687,2025-02-05 19:41,2025-02-05 19:42,40.408,0.01%,
688,2025-02-05 21:10,2025-02-05 21:17,429.153,0.14%,
689,2025-02-05 22:45,2025-02-05 22:52,417.071,0.13%,
690,2025-02-06 00:20,2025-02-06 00:26,400.105,0.13%,
691,2025-02-06 01:54,2025-02-06 02:01,422.883,0.13%,
692,2025-02-06 03:29,2025-02-06 03:36,405.663,0.13%,
693,2025-02-06 05:03,2025-02-06 05:10,428.588,0.14%,
694,2025-02-06 06:38,2025-02-06 06:44,377.705,0.12%,
695,2025-02-06 06:45,2025-02-06 06:45,39.667,0.01%,
696,2025-02-06 08:13,2025-02-06 08:20,411.832,0.13%,
697,2025-02-06 09:47,2025-02-06 09:53,349.738,0.11%,
698,2025-02-06 09:53,2025-02-06 09:55,83.635,0.03%,
699,2025-02-06 11:22,2025-02-06 11:29,421.147,0.13%,
700,2025-02-06 12:57,2025-02-06 13:04,404.454,0.13%,
701,2025-02-06 14:32,2025-02-06 14:39,422.837,0.13%,
702,2025-02-06 16:07,2025-02-06 16:14,413.572,0.13%,
703,2025-02-06 17:42,2025-02-06 17:48,358.356,0.11%,
704,2025-02-06 17:48,2025-02-06 17:48,40.607,0.01%,
705,2025-02-06 19:16,2025-02-06 19:23,430.194,0.14%,
706,2025-02-06 20:51,2025-02-06 20:56,333.101,0.11%,
707,2025-02-06 20:57,2025-02-06 20:58,82.465,0.03%,
708,2025-02-06 22:26,2025-02-06 22:33,401.081,0.13%,
709,2025-02-07 00:00,2025-02-07 00:07,423.021,0.13%,
710,2025-02-07 01:35,2025-02-07 01:42,405.592,0.13%,
711,2025-02-07 03:10,2025-02-07 03:17,431.006,0.14%,
712,2025-02-07 04:45,2025-02-07 04:51,377.598,0.12%,
713,2025-02-07 04:51,2025-02-07 04:52,41.488,0.01%,
714,2025-02-07 06:19,2025-02-07 06:26,413.07,0.13%,
715,2025-02-07 07:54,2025-02-07 08:00,349.751,0.11%,
716,2025-02-07 08:00,2025-02-07 08:01,82.121,0.03%,
717,2025-02-07 09:29,2025-02-07 09:36,421.603,0.13%,
718,2025-02-07 11:04,2025-02-07 11:10,404.843,0.13%,
719,2025-02-07 12:38,2025-02-07 12:45,422.514,0.13%,
720,2025-02-07 14:13,2025-02-07 14:20,415.956,0.13%,
721,2025-02-07 15:48,2025-02-07 15:54,358.554,0.11%,
722,2025-02-07 15:54,2025-02-07 15:55,42.321,0.01%,
723,2025-02-07 17:22,2025-02-07 17:30,431.157,0.14%,
724,2025-02-07 18:57,2025-02-07 19:03,333.249,0.11%,
725,2025-02-07 19:03,2025-02-07 19:04,82.499,0.03%,
726,2025-02-07 20:32,2025-02-07 20:39,401.943,0.13%,
727,2025-02-07 22:07,2025-02-07 22:14,423.088,0.13%,
728,2025-02-07 23:42,2025-02-07 23:48,405.412,0.13%,
729,2025-02-08 01:16,2025-02-08 01:16,7.049,0.00%,
730,2025-02-08 01:17,2025-02-08 01:23,396.025,0.13%,
731,2025-02-08 02:51,2025-02-08 02:57,378.004,0.12%,
732,2025-02-08 02:57,2025-02-08 02:58,43.104,0.01%,
733,2025-02-08 04:26,2025-02-08 04:33,414.222,0.13%,
734,2025-02-08 06:00,2025-02-08 06:06,349.848,0.11%,
735,2025-02-08 06:06,2025-02-08 06:07,82.847,0.03%,
736,2025-02-08 07:35,2025-02-08 07:42,421.996,0.13%,
737,2025-02-08 09:10,2025-02-08 09:17,405.136,0.13%,
738,2025-02-08 10:44,2025-02-08 10:51,422.086,0.13%,
739,2025-02-08 12:19,2025-02-08 12:26,418.067,0.13%,
740,2025-02-08 13:54,2025-02-08 14:00,360.958,0.12%,
741,2025-02-08 14:00,2025-02-08 14:01,43.846,0.01%,
742,2025-02-08 15:29,2025-02-08 15:36,432.048,0.14%,
743,2025-02-08 17:04,2025-02-08 17:09,334.822,0.11%,
744,2025-02-08 17:09,2025-02-08 17:11,83.168,0.03%,
745,2025-02-08 18:39,2025-02-08 18:45,402.698,0.13%,
746,2025-02-08 20:13,2025-02-08 20:20,423.08,0.13%,
747,2025-02-08 21:48,2025-02-08 21:55,405.106,0.13%,
748,2025-02-08 23:23,2025-02-08 23:30,398.531,0.13%,
749,2025-02-09 00:57,2025-02-09 01:04,381.017,0.12%,
750,2025-02-09 01:04,2025-02-09 01:04,44.537,0.01%,
751,2025-02-09 02:32,2025-02-09 02:39,415.283,0.13%,
752,2025-02-09 04:07,2025-02-09 04:12,352.347,0.11%,
753,2025-02-09 04:12,2025-02-09 04:14,83.452,0.03%,
754,2025-02-09 05:41,2025-02-09 05:48,422.318,0.13%,
755,2025-02-09 07:16,2025-02-09 07:23,405.333,0.13%,
756,2025-02-09 08:51,2025-02-09 08:58,423.156,0.13%,
757,2025-02-09 10:26,2025-02-09 10:32,377.525,0.12%,
758,2025-02-09 10:32,2025-02-09 10:33,42.277,0.01%,
759,2025-02-09 12:01,2025-02-09 12:07,363.971,0.12%,
760,2025-02-09 12:07,2025-02-09 12:07,45.195,0.01%,
761,2025-02-09 13:35,2025-02-09 13:42,432.867,0.14%,
762,2025-02-09 15:10,2025-02-09 15:17,420.051,0.13%,
763,2025-02-09 16:45,2025-02-09 16:52,403.353,0.13%,
764,2025-02-09 18:19,2025-02-09 18:24,307.246,0.10%,
765,2025-02-09 18:24,2025-02-09 18:26,115.05,0.04%,
766,2025-02-09 19:54,2025-02-09 20:01,408.449,0.13%,
767,2025-02-09 21:29,2025-02-09 21:35,357.498,0.11%,
768,2025-02-09 21:35,2025-02-09 21:36,41.644,0.01%,
769,2025-02-09 23:04,2025-02-09 23:11,428.253,0.14%,
770,2025-02-10 00:38,2025-02-10 00:45,416.269,0.13%,
771,2025-02-10 02:13,2025-02-10 02:20,436.46,0.14%,
772,2025-02-10 03:48,2025-02-10 03:55,422.573,0.13%,
773,2025-02-10 05:23,2025-02-10 05:28,289.935,0.09%,
774,2025-02-10 05:28,2025-02-10 05:29,114.797,0.04%,
775,2025-02-10 06:57,2025-02-10 07:04,426.599,0.14%,
776,2025-02-10 08:32,2025-02-10 08:38,377.548,0.12%,
777,2025-02-10 08:38,2025-02-10 08:39,40.754,0.01%,
778,2025-02-10 10:07,2025-02-10 10:14,410.739,0.13%,
779,2025-02-10 11:41,2025-02-10 11:49,433.621,0.14%,
780,2025-02-10 13:16,2025-02-10 13:23,420.619,0.13%,
781,2025-02-10 14:51,2025-02-10 14:58,403.903,0.13%,
782,2025-02-10 16:26,2025-02-10 16:33,422.823,0.13%,
783,2025-02-10 18:01,2025-02-10 18:07,411.617,0.13%,
784,2025-02-10 19:36,2025-02-10 19:42,357.899,0.11%,
785,2025-02-10 19:42,2025-02-10 19:42,39.457,0.01%,
786,2025-02-10 21:10,2025-02-10 21:17,429.347,0.14%,
787,2025-02-10 22:45,2025-02-10 22:50,332.759,0.11%,
788,2025-02-10 22:50,2025-02-10 22:52,83.953,0.03%,
789,2025-02-11 00:20,2025-02-11 00:26,400.168,0.13%,
790,2025-02-11 01:54,2025-02-11 02:01,422.761,0.13%,
791,2025-02-11 03:29,2025-02-11 03:36,405.436,0.13%,
792,2025-02-11 05:03,2025-02-11 05:11,429.303,0.14%,
793,2025-02-11 06:38,2025-02-11 06:45,377.496,0.12%,
794,2025-02-11 06:45,2025-02-11 06:45,40.324,0.01%,
795,2025-02-11 08:13,2025-02-11 08:20,412.05,0.13%,
796,2025-02-11 09:48,2025-02-11 09:54,349.58,0.11%,
797,2025-02-11 09:54,2025-02-11 09:55,82.84,0.03%,
798,2025-02-11 11:23,2025-02-11 11:30,421.124,0.13%,
799,2025-02-11 12:58,2025-02-11 13:04,404.359,0.13%,
800,2025-02-11 14:32,2025-02-11 14:39,422.565,0.13%,
801,2025-02-11 16:07,2025-02-11 16:14,414.245,0.13%,
802,2025-02-11 17:42,2025-02-11 17:48,358.182,0.11%,
803,2025-02-11 17:48,2025-02-11 17:49,41.227,0.01%,
804,2025-02-11 19:16,2025-02-11 19:23,430.362,0.14%,
805,2025-02-11 20:51,2025-02-11 20:57,332.959,0.11%,
806,2025-02-11 20:57,2025-02-11 20:58,82.003,0.03%,
807,2025-02-11 22:26,2025-02-11 22:33,401.113,0.13%,
808,2025-02-12 00:00,2025-02-12 00:08,422.873,0.13%,
809,2025-02-12 01:35,2025-02-12 01:42,405.331,0.13%,
810,2025-02-12 03:10,2025-02-12 03:17,431.598,0.14%,
811,2025-02-12 04:45,2025-02-12 04:51,377.36,0.12%,
812,2025-02-12 04:51,2025-02-12 04:52,42.072,0.01%,
813,2025-02-12 06:20,2025-02-12 06:27,413.259,0.13%,
814,2025-02-12 07:54,2025-02-12 08:00,349.574,0.11%,
815,2025-02-12 08:00,2025-02-12 08:01,82.39,0.03%,
816,2025-02-12 09:29,2025-02-12 09:36,421.559,0.13%,
817,2025-02-12 11:04,2025-02-12 11:11,404.721,0.13%,
818,2025-02-12 12:38,2025-02-12 12:45,422.207,0.13%,
819,2025-02-12 14:13,2025-02-12 14:20,416.522,0.13%,
820,2025-02-12 15:48,2025-02-12 15:54,358.381,0.11%,
821,2025-02-12 15:54,2025-02-12 15:55,42.87,0.01%,
822,2025-02-12 17:23,2025-02-12 17:30,431.301,0.14%,
823,2025-02-12 18:57,2025-02-12 19:03,333.086,0.11%,
824,2025-02-12 19:03,2025-02-12 19:04,82.743,0.03%,
825,2025-02-12 20:32,2025-02-12 20:39,401.95,0.13%,
826,2025-02-12 22:07,2025-02-12 22:14,422.917,0.13%,
827,2025-02-12 23:42,2025-02-12 23:49,405.11,0.13%,
828,2025-02-13 01:17,2025-02-13 01:23,396.628,0.13%,
829,2025-02-13 02:51,2025-02-13 02:57,378.95,0.12%,
830,2025-02-13 02:57,2025-02-13 02:58,43.623,0.01%,
831,2025-02-13 04:26,2025-02-13 04:33,414.385,0.13%,
832,2025-02-13 06:00,2025-02-13 06:06,350.6,0.11%,
833,2025-02-13 06:06,2025-02-13 06:08,83.072,0.03%,
834,2025-02-13 07:35,2025-02-13 07:42,421.93,0.13%,
835,2025-02-13 09:10,2025-02-13 09:17,404.989,0.13%,
836,2025-02-13 10:45,2025-02-13 10:52,421.745,0.13%,
837,2025-02-13 12:20,2025-02-13 12:27,418.556,0.13%,
838,2025-02-13 13:55,2025-02-13 14:01,361.822,0.12%,
839,2025-02-13 14:01,2025-02-13 14:01,44.327,0.01%,
840,2025-02-13 15:29,2025-02-13 15:36,432.167,0.14%,
841,2025-02-13 17:04,2025-02-13 17:09,335.516,0.11%,
842,2025-02-13 17:09,2025-02-13 17:11,83.371,0.03%,
843,2025-02-13 18:39,2025-02-13 18:46,402.677,0.13%,
844,2025-02-13 20:13,2025-02-13 20:20,422.886,0.13%,
845,2025-02-13 21:48,2025-02-13 21:55,405.644,0.13%,
846,2025-02-13 23:23,2025-02-13 23:30,399.058,0.13%,
847,2025-02-14 00:57,2025-02-14 01:04,381.748,0.12%,
848,2025-02-14 01:04,2025-02-14 01:05,44.995,0.01%,
849,2025-02-14 02:32,2025-02-14 02:39,415.421,0.13%,
850,2025-02-14 04:07,2025-02-14 04:14,436,0.14%,
851,2025-02-14 05:42,2025-02-14 05:49,422.23,0.13%,
852,2025-02-14 07:17,2025-02-14 07:21,289.367,0.09%,
853,2025-02-14 07:21,2025-02-14 07:23,115.474,0.04%,
854,2025-02-14 08:51,2025-02-14 08:58,424.303,0.14%,
855,2025-02-14 10:26,2025-02-14 10:32,377.355,0.12%,
856,2025-02-14 10:32,2025-02-14 10:33,41.862,0.01%,
857,2025-02-14 12:01,2025-02-14 12:08,409.595,0.13%,
858,2025-02-14 13:35,2025-02-14 13:42,432.965,0.14%,
859,2025-02-14 15:10,2025-02-14 15:17,420.062,0.13%,
860,2025-02-14 16:45,2025-02-14 16:52,403.301,0.13%,
861,2025-02-14 18:19,2025-02-14 18:25,307.126,0.10%,
862,2025-02-14 18:25,2025-02-14 18:27,114.833,0.04%,
863,2025-02-14 19:54,2025-02-14 20:01,409.427,0.13%,
864,2025-02-14 21:29,2025-02-14 21:35,357.378,0.11%,
865,2025-02-14 21:35,2025-02-14 21:36,41.059,0.01%,
866,2025-02-14 23:04,2025-02-14 23:11,428.465,0.14%,
867,2025-02-15 00:39,2025-02-15 00:46,416.383,0.13%,
868,2025-02-15 02:13,2025-02-15 02:14,30.726,0.01%,
869,2025-02-15 02:14,2025-02-15 02:20,399.167,0.13%,
870,2025-02-15 03:48,2025-02-15 03:55,422.463,0.13%,
871,2025-02-15 05:23,2025-02-15 05:30,405.229,0.13%,
872,2025-02-15 06:57,2025-02-15 07:04,427.427,0.14%,
873,2025-02-15 08:32,2025-02-15 08:39,377.352,0.12%,
874,2025-02-15 08:39,2025-02-15 08:39,39.915,0.01%,
875,2025-02-15 10:07,2025-02-15 10:14,410.974,0.13%,
876,2025-02-15 11:42,2025-02-15 11:47,349.381,0.11%,
877,2025-02-15 11:47,2025-02-15 11:49,84.261,0.03%,
878,2025-02-15 13:17,2025-02-15 13:24,420.61,0.13%,
879,2025-02-15 14:51,2025-02-15 14:58,403.828,0.13%,
880,2025-02-15 16:26,2025-02-15 16:33,422.571,0.13%,
881,2025-02-15 18:01,2025-02-15 18:08,412.376,0.13%,
882,2025-02-15 19:36,2025-02-15 19:42,357.748,0.11%,
883,2025-02-15 19:42,2025-02-15 19:42,40.035,0.01%,
884,2025-02-15 21:10,2025-02-15 21:17,429.534,0.14%,
885,2025-02-15 22:45,2025-02-15 22:51,332.63,0.11%,
886,2025-02-15 22:51,2025-02-15 22:52,83.206,0.03%,
887,2025-02-16 00:20,2025-02-16 00:27,400.221,0.13%,
888,2025-02-16 01:54,2025-02-16 02:01,422.629,0.13%,
889,2025-02-16 03:29,2025-02-16 03:36,405.198,0.13%,
890,2025-02-16 05:04,2025-02-16 05:11,429.971,0.14%,
891,2025-02-16 06:39,2025-02-16 06:45,377.275,0.12%,
892,2025-02-16 06:45,2025-02-16 06:46,40.954,0.01%,
893,2025-02-16 08:14,2025-02-16 08:20,412.256,0.13%,
894,2025-02-16 09:48,2025-02-16 09:54,349.416,0.11%,
895,2025-02-16 09:54,2025-02-16 09:55,81.934,0.03%,
896,2025-02-16 11:23,2025-02-16 11:30,421.093,0.13%,
897,2025-02-16 12:58,2025-02-16 13:05,404.258,0.13%,
898,2025-02-16 14:32,2025-02-16 14:39,422.282,0.13%,
899,2025-02-16 16:07,2025-02-16 16:14,414.872,0.13%,
900,2025-02-16 17:42,2025-02-16 17:48,357.999,0.11%,
901,2025-02-16 17:48,2025-02-16 17:49,41.818,0.01%,
902,2025-02-16 19:16,2025-02-16 19:24,430.521,0.14%,
903,2025-02-16 20:51,2025-02-16 20:57,332.806,0.11%,
904,2025-02-16 20:57,2025-02-16 20:58,82.277,0.03%,
905,2025-02-16 22:26,2025-02-16 22:33,401.139,0.13%,
906,2025-02-17 00:01,2025-02-17 00:08,422.718,0.13%,
907,2025-02-17 01:36,2025-02-17 01:42,405.06,0.13%,
908,2025-02-17 03:10,2025-02-17 03:17,432.155,0.14%,
909,2025-02-17 04:45,2025-02-17 04:51,377.11,0.12%,
910,2025-02-17 04:51,2025-02-17 04:52,42.636,0.01%,
911,2025-02-17 06:20,2025-02-17 06:27,413.438,0.13%,
912,2025-02-17 07:54,2025-02-17 08:00,349.392,0.11%,
913,2025-02-17 08:00,2025-02-17 08:02,82.642,0.03%,
914,2025-02-17 09:29,2025-02-17 09:36,421.507,0.13%,
915,2025-02-17 11:04,2025-02-17 11:11,404.593,0.13%,
916,2025-02-17 12:39,2025-02-17 12:46,421.89,0.13%,
917,2025-02-17 14:13,2025-02-17 14:20,417.057,0.13%,
918,2025-02-17 15:48,2025-02-17 15:54,359.416,0.11%,
919,2025-02-17 15:54,2025-02-17 15:55,43.399,0.01%,
920,2025-02-17 17:23,2025-02-17 17:30,431.436,0.14%,
921,2025-02-17 18:58,2025-02-17 19:03,333.593,0.11%,
922,2025-02-17 19:03,2025-02-17 19:05,82.974,0.03%,
923,2025-02-17 20:33,2025-02-17 20:39,401.946,0.13%,
924,2025-02-17 22:07,2025-02-17 22:14,422.74,0.13%,
925,2025-02-17 23:42,2025-02-17 23:49,404.801,0.13%,
926,2025-02-18 01:17,2025-02-18 01:24,397.201,0.13%,
927,2025-02-18 02:51,2025-02-18 02:58,379.803,0.12%,
928,2025-02-18 02:58,2025-02-18 02:58,44.116,0.01%,
929,2025-02-18 04:26,2025-02-18 04:33,414.539,0.13%,
930,2025-02-18 06:01,2025-02-18 06:06,351.29,0.11%,
931,2025-02-18 06:06,2025-02-18 06:08,83.279,0.03%,
932,2025-02-18 07:36,2025-02-18 07:43,421.857,0.13%,
933,2025-02-18 09:11,2025-02-18 09:17,404.832,0.13%,
934,2025-02-18 10:45,2025-02-18 10:52,421.48,0.13%,
935,2025-02-18 12:20,2025-02-18 12:27,419.019,0.13%,
936,2025-02-18 13:55,2025-02-18 14:01,362.619,0.12%,
937,2025-02-18 14:01,2025-02-18 14:02,44.792,0.01%,
938,2025-02-18 15:29,2025-02-18 15:36,432.279,0.14%,
939,2025-02-18 17:04,2025-02-18 17:11,419.471,0.13%,
940,2025-02-18 18:39,2025-02-18 18:46,402.646,0.13%,
941,2025-02-18 20:13,2025-02-18 20:20,422.68,0.13%,
942,2025-02-18 21:48,2025-02-18 21:55,406.895,0.13%,
943,2025-02-18 23:23,2025-02-18 23:29,356.788,0.11%,
944,2025-02-18 23:29,2025-02-18 23:30,42.061,0.01%,
945,2025-02-19 00:58,2025-02-19 01:05,427.54,0.14%,
946,2025-02-19 02:33,2025-02-19 02:40,415.55,0.13%,
947,2025-02-19 04:07,2025-02-19 04:14,435.993,0.14%,
948,2025-02-19 05:42,2025-02-19 05:49,422.136,0.13%,
949,2025-02-19 07:17,2025-02-19 07:22,289.283,0.09%,
950,2025-02-19 07:22,2025-02-19 07:24,114.862,0.04%,
951,2025-02-19 08:51,2025-02-19 08:58,425.307,0.14%,
952,2025-02-19 10:26,2025-02-19 10:32,377.172,0.12%,
953,2025-02-19 10:32,2025-02-19 10:33,41.337,0.01%,
954,2025-02-19 12:01,2025-02-19 12:08,409.85,0.13%,
955,2025-02-19 13:35,2025-02-19 13:43,433.055,0.14%,
956,2025-02-19 15:10,2025-02-19 15:17,420.066,0.13%,
957,2025-02-19 16:45,2025-02-19 16:52,403.247,0.13%,
958,2025-02-19 18:20,2025-02-19 18:25,307.509,0.10%,
959,2025-02-19 18:25,2025-02-19 18:27,114.748,0.04%,
960,2025-02-19 19:55,2025-02-19 20:01,410.316,0.13%,
961,2025-02-19 21:30,2025-02-19 21:36,357.246,0.11%,
962,2025-02-19 21:36,2025-02-19 21:36,40.313,0.01%,
963,2025-02-19 23:04,2025-02-19 23:11,428.664,0.14%,
964,2025-02-20 00:39,2025-02-20 00:46,416.489,0.13%,
965,2025-02-20 02:14,2025-02-20 02:21,399.242,0.13%,
966,2025-02-20 03:48,2025-02-20 03:55,422.346,0.13%,
967,2025-02-20 05:23,2025-02-20 05:30,405.013,0.13%,
968,2025-02-20 06:58,2025-02-20 07:05,428.19,0.14%,
969,2025-02-20 08:32,2025-02-20 08:39,377.148,0.12%,
970,2025-02-20 08:39,2025-02-20 08:40,39.741,0.01%,
971,2025-02-20 10:07,2025-02-20 10:14,411.2,0.13%,
972,2025-02-20 11:42,2025-02-20 11:48,349.229,0.11%,
973,2025-02-20 11:48,2025-02-20 11:49,83.549,0.03%,
974,2025-02-20 13:17,2025-02-20 13:24,420.593,0.13%,
975,2025-02-20 14:52,2025-02-20 14:58,403.745,0.13%,
976,2025-02-20 16:26,2025-02-20 16:33,422.308,0.13%,
977,2025-02-20 18:01,2025-02-20 18:08,413.082,0.13%,
978,2025-02-20 19:36,2025-02-20 19:42,357.586,0.11%,
979,2025-02-20 19:42,2025-02-20 19:43,40.679,0.01%,
980,2025-02-20 21:10,2025-02-20 21:17,429.709,0.14%,
981,2025-02-20 22:45,2025-02-20 22:51,332.494,0.11%,
982,2025-02-20 22:51,2025-02-20 22:52,82.354,0.03%,
983,2025-02-21 00:20,2025-02-21 00:27,400.261,0.13%,
984,2025-02-21 01:55,2025-02-21 02:02,422.489,0.13%,
985,2025-02-21 03:30,2025-02-21 03:36,404.95,0.13%,
986,2025-02-21 05:04,2025-02-21 05:11,430.594,0.14%,
987,2025-02-21 06:39,2025-02-21 06:45,377.042,0.12%,
988,2025-02-21 06:45,2025-02-21 06:46,41.56,0.01%,
989,2025-02-21 08:14,2025-02-21 08:21,412.454,0.13%,
990,2025-02-21 09:48,2025-02-21 09:54,349.246,0.11%,
991,2025-02-21 09:54,2025-02-21 09:55,82.155,0.03%,
992,2025-02-21 11:23,2025-02-21 11:30,421.055,0.13%,
993,2025-02-21 12:58,2025-02-21 13:05,404.151,0.13%,
994,2025-02-21 14:32,2025-02-21 14:39,421.988,0.13%,
995,2025-02-21 16:07,2025-02-21 16:14,415.465,0.13%,
996,2025-02-21 17:42,2025-02-21 17:48,357.806,0.11%,
997,2025-02-21 17:48,2025-02-21 17:49,42.385,0.01%,
998,2025-02-21 19:17,2025-02-21 19:24,430.671,0.14%,
999,2025-02-21 20:52,2025-02-21 20:57,332.65,0.11%,
1000,2025-02-21 20:57,2025-02-21 20:59,82.533,0.03%,
1001,2025-02-21 22:27,2025-02-21 22:33,401.153,0.13%,
1002,2025-02-22 00:01,2025-02-22 00:08,422.554,0.13%,
1003,2025-02-22 01:36,2025-02-22 01:43,404.776,0.13%,
1004,2025-02-22 03:10,2025-02-22 03:11,19.113,0.01%,
1005,2025-02-22 03:11,2025-02-22 03:17,395.21,0.13%,
1006,2025-02-22 04:45,2025-02-22 04:51,377.594,0.12%,
1007,2025-02-22 04:52,2025-02-22 04:52,43.167,0.01%,
1008,2025-02-22 06:20,2025-02-22 06:27,413.609,0.13%,
1009,2025-02-22 07:54,2025-02-22 08:00,349.453,0.11%,
1010,2025-02-22 08:00,2025-02-22 08:02,82.877,0.03%,
1011,2025-02-22 09:29,2025-02-22 09:36,421.448,0.13%,
1012,2025-02-22 11:04,2025-02-22 11:11,404.457,0.13%,
1013,2025-02-22 12:39,2025-02-22 12:46,421.559,0.13%,
1014,2025-02-22 14:14,2025-02-22 14:21,417.568,0.13%,
1015,2025-02-22 15:49,2025-02-22 15:55,360.357,0.11%,
1016,2025-02-22 15:55,2025-02-22 15:55,43.902,0.01%,
1017,2025-02-22 17:23,2025-02-22 17:30,431.563,0.14%,
1018,2025-02-22 18:58,2025-02-22 19:04,334.329,0.11%,
1019,2025-02-22 19:04,2025-02-22 19:05,83.188,0.03%,
1020,2025-02-22 20:33,2025-02-22 20:40,401.934,0.13%,
1021,2025-02-22 22:07,2025-02-22 22:14,422.549,0.13%,
1022,2025-02-22 23:42,2025-02-22 23:49,404.476,0.13%,
1023,2025-02-23 01:17,2025-02-23 01:24,397.751,0.13%,
1024,2025-02-23 02:52,2025-02-23 02:58,380.584,0.12%,
1025,2025-02-23 02:58,2025-02-23 02:59,44.592,0.01%,
1026,2025-02-23 04:26,2025-02-23 04:33,414.685,0.13%,
1027,2025-02-23 06:01,2025-02-23 06:07,351.937,0.11%,
1028,2025-02-23 06:07,2025-02-23 06:08,83.472,0.03%,
1029,2025-02-23 07:36,2025-02-23 07:43,421.776,0.13%,
1030,2025-02-23 09:11,2025-02-23 09:17,404.667,0.13%,
1031,2025-02-23 10:45,2025-02-23 10:52,422.807,0.13%,
1032,2025-02-23 12:20,2025-02-23 12:26,376.962,0.12%,
1033,2025-02-23 12:26,2025-02-23 12:27,42.237,0.01%,
1034,2025-02-23 13:55,2025-02-23 14:01,363.363,0.12%,
1035,2025-02-23 14:01,2025-02-23 14:02,45.238,0.01%,
1036,2025-02-23 15:29,2025-02-23 15:37,432.383,0.14%,
1037,2025-02-23 17:04,2025-02-23 17:11,419.49,0.13%,
1038,2025-02-23 18:39,2025-02-23 18:46,402.608,0.13%,
1039,2025-02-23 20:14,2025-02-23 20:19,306.725,0.10%,
1040,2025-02-23 20:19,2025-02-23 20:21,114.938,0.04%,
1041,2025-02-23 21:49,2025-02-23 21:55,407.98,0.13%,
1042,2025-02-23 23:24,2025-02-23 23:29,356.681,0.11%,
1043,2025-02-23 23:30,2025-02-23 23:30,41.586,0.01%,
1044,2025-02-24 00:58,2025-02-24 01:05,427.76,0.14%,
1045,2025-02-24 02:33,2025-02-24 02:40,415.673,0.13%,
1046,2025-02-24 04:07,2025-02-24 04:14,435.981,0.14%,
1047,2025-02-24 05:42,2025-02-24 05:49,422.034,0.13%,
1048,2025-02-24 07:17,2025-02-24 07:22,289.376,0.09%,
1049,2025-02-24 07:22,2025-02-24 07:24,114.788,0.04%,
1050,2025-02-24 08:51,2025-02-24 08:59,426.209,0.14%,
1051,2025-02-24 10:26,2025-02-24 10:33,376.985,0.12%,
1052,2025-02-24 10:33,2025-02-24 10:33,40.668,0.01%,
1053,2025-02-24 12:01,2025-02-24 12:08,410.097,0.13%,
1054,2025-02-24 13:36,2025-02-24 13:43,433.137,0.14%,
1055,2025-02-24 15:11,2025-02-24 15:18,420.066,0.13%,
1056,2025-02-24 16:46,2025-02-24 16:52,403.179,0.13%,
1057,2025-02-24 18:20,2025-02-24 18:27,422.293,0.13%,
1058,2025-02-24 19:55,2025-02-24 20:02,411.128,0.13%,
1059,2025-02-24 21:30,2025-02-24 21:36,357.106,0.11%,
1060,2025-02-24 21:36,2025-02-24 21:37,39.446,0.01%,
1061,2025-02-24 23:04,2025-02-24 23:11,428.857,0.14%,
1062,2025-02-25 00:39,2025-02-25 00:45,332.147,0.11%,
1063,2025-02-25 00:45,2025-02-25 00:46,83.878,0.03%,
1064,2025-02-25 02:14,2025-02-25 02:21,399.309,0.13%,
1065,2025-02-25 03:48,2025-02-25 03:55,422.221,0.13%,
1066,2025-02-25 05:23,2025-02-25 05:30,404.789,0.13%,
1067,2025-02-25 06:58,2025-02-25 07:05,428.898,0.14%,
1068,2025-02-25 08:33,2025-02-25 08:39,376.936,0.12%,
1069,2025-02-25 08:39,2025-02-25 08:40,40.399,0.01%,
1070,2025-02-25 10:08,2025-02-25 10:15,411.417,0.13%,
1071,2025-02-25 11:42,2025-02-25 11:48,349.071,0.11%,
1072,2025-02-25 11:48,2025-02-25 11:49,82.744,0.03%,
1073,2025-02-25 13:17,2025-02-25 13:24,420.569,0.13%,
1074,2025-02-25 14:52,2025-02-25 14:59,403.654,0.13%,
1075,2025-02-25 16:26,2025-02-25 16:33,422.035,0.13%,
1076,2025-02-25 18:01,2025-02-25 18:08,413.75,0.13%,
1077,2025-02-25 19:36,2025-02-25 19:42,357.416,0.11%,
1078,2025-02-25 19:42,2025-02-25 19:43,41.295,0.01%,
1079,2025-02-25 21:11,2025-02-25 21:18,429.873,0.14%,
1080,2025-02-25 22:45,2025-02-25 22:51,332.352,0.11%,
1081,2025-02-25 22:51,2025-02-25 22:52,82.034,0.03%,
1082,2025-02-26 00:20,2025-02-26 00:27,400.299,0.13%,
1083,2025-02-26 01:55,2025-02-26 02:02,422.341,0.13%,
1084,2025-02-26 03:30,2025-02-26 03:36,404.69,0.13%,
1085,2025-02-26 05:04,2025-02-26 05:11,431.183,0.14%,
1086,2025-02-26 06:39,2025-02-26 06:45,376.801,0.12%,
1087,2025-02-26 06:45,2025-02-26 06:46,42.136,0.01%,
1088,2025-02-26 08:14,2025-02-26 08:21,412.644,0.13%,
1089,2025-02-26 09:48,2025-02-26 09:54,349.069,0.11%,
1090,2025-02-26 09:54,2025-02-26 09:56,82.418,0.03%,
1091,2025-02-26 11:23,2025-02-26 11:30,421.011,0.13%,
1092,2025-02-26 12:58,2025-02-26 13:05,404.03,0.13%,
1093,2025-02-26 14:33,2025-02-26 14:40,421.678,0.13%,
1094,2025-02-26 16:08,2025-02-26 16:14,416.028,0.13%,
1095,2025-02-26 17:43,2025-02-26 17:48,357.779,0.11%,
1096,2025-02-26 17:49,2025-02-26 17:49,42.931,0.01%,
1097,2025-02-26 19:17,2025-02-26 19:24,430.814,0.14%,
1098,2025-02-26 20:52,2025-02-26 20:57,332.488,0.11%,
1099,2025-02-26 20:57,2025-02-26 20:59,82.777,0.03%,
1100,2025-02-26 22:27,2025-02-26 22:33,401.159,0.13%,
1101,2025-02-27 00:01,2025-02-27 00:08,422.383,0.13%,
1102,2025-02-27 01:36,2025-02-27 01:43,404.479,0.13%,
1103,2025-02-27 03:11,2025-02-27 03:18,395.815,0.13%,
1104,2025-02-27 04:45,2025-02-27 04:52,378.525,0.12%,
1105,2025-02-27 04:52,2025-02-27 04:52,43.683,0.01%,
1106,2025-02-27 06:20,2025-02-27 06:27,413.773,0.13%,
1107,2025-02-27 07:55,2025-02-27 08:01,350.199,0.11%,
1108,2025-02-27 08:01,2025-02-27 08:02,83.098,0.03%,
1109,2025-02-27 09:30,2025-02-27 09:37,421.386,0.13%,
1110,2025-02-27 11:05,2025-02-27 11:11,404.31,0.13%,
1111,2025-02-27 12:39,2025-02-27 12:46,421.216,0.13%,
1112,2025-02-27 14:14,2025-02-27 14:21,418.054,0.13%,
1113,2025-02-27 15:49,2025-02-27 15:55,361.217,0.12%,
1114,2025-02-27 15:55,2025-02-27 15:56,44.385,0.01%,
1115,2025-02-27 17:23,2025-02-27 17:30,431.683,0.14%,
1116,2025-02-27 18:58,2025-02-27 19:04,335.022,0.11%,
1117,2025-02-27 19:04,2025-02-27 19:05,83.387,0.03%,
1118,2025-02-27 20:33,2025-02-27 20:40,401.915,0.13%,
1119,2025-02-27 22:07,2025-02-27 22:15,422.352,0.13%,
1120,2025-02-27 23:42,2025-02-27 23:49,405.203,0.13%,
1121,2025-02-28 01:17,2025-02-28 01:24,398.279,0.13%,
1122,2025-02-28 02:52,2025-02-28 02:58,381.307,0.12%,
1123,2025-02-28 02:58,2025-02-28 02:59,45.048,0.01%,
1124,2025-02-28 04:27,2025-02-28 04:34,414.824,0.13%,
1125,2025-02-28 06:01,2025-02-28 06:08,435.518,0.14%,
1126,2025-02-28 07:36,2025-02-28 07:43,421.689,0.13%,
1127,2025-02-28 09:11,2025-02-28 09:16,288.713,0.09%,
1128,2025-02-28 09:16,2025-02-28 09:18,115.37,0.04%,
1129,2025-02-28 10:45,2025-02-28 10:52,423.936,0.13%,
1130,2025-02-28 12:20,2025-02-28 12:27,376.786,0.12%,
1131,2025-02-28 12:27,2025-02-28 12:27,41.808,0.01%,
1132,2025-02-28 13:55,2025-02-28 14:02,408.939,0.13%,
1133,2025-02-28 15:30,2025-02-28 15:37,432.48,0.14%,
1134,2025-02-28 17:04,2025-02-28 17:11,419.501,0.13%,
1135,2025-02-28 18:39,2025-02-28 18:46,402.565,0.13%,
1136,2025-02-28 20:14,2025-02-28 20:19,306.605,0.10%,
