3UCubedIntegratedSim/NorthCusp_RgnBySplicedPass.txt

                                                                                                                                                                                                     25 Apr 2023 14:23:33
CoverageDefinition-NorthCusp



Spliced coverage by Pass for Region: 1
--------------------------------------

Access       Access Start (UTCG)          Access End (UTCG)       Duration (sec)     Asset Name    Asset Full Name    Region Name    % Coverage    Area Coverage (km^2)    % Accum Coverage    Accum Area Coverage (km^2)
------    ------------------------    ------------------------    --------------    -----------    ---------------    -----------    ----------    --------------------    ----------------    --------------------------
     1     2 Jan 2025 08:08:18.971     2 Jan 2025 08:24:08.025           949.053    Satellite12    Satellite12        1               44.444444          1963085.320590           44.444444                1963085.320590
     2     2 Jan 2025 09:42:38.982     2 Jan 2025 09:59:11.154           992.172    Satellite12    Satellite12        1              100.000000          4416941.971327          100.000000                4416941.971327
     3     2 Jan 2025 11:17:05.873     2 Jan 2025 11:33:55.239          1009.365    Satellite12    Satellite12        1               77.777778          3435399.311032          100.000000                4416941.971327
     4     2 Jan 2025 12:51:48.957     2 Jan 2025 13:08:14.468           985.511    Satellite12    Satellite12        1               33.333333          1472313.990442          100.000000                4416941.971327
     5     3 Jan 2025 07:49:28.086     3 Jan 2025 08:04:53.471           925.385    Satellite12    Satellite12        1               44.444444          1963085.320590          100.000000                4416941.971327
     6     3 Jan 2025 09:23:50.628     3 Jan 2025 09:40:16.559           985.930    Satellite12    Satellite12        1               88.888889          3926170.641179          100.000000                4416941.971327
     7     3 Jan 2025 10:58:10.103     3 Jan 2025 11:15:00.418          1010.315    Satellite12    Satellite12        1               88.888889          3926170.641179          100.000000                4416941.971327
     8     3 Jan 2025 12:32:53.169     3 Jan 2025 12:49:34.386          1001.217    Satellite12    Satellite12        1               44.444444          1963085.320590          100.000000                4416941.971327
     9     4 Jan 2025 07:30:36.649     4 Jan 2025 07:45:30.053           893.404    Satellite12    Satellite12        1               33.333333          1472313.990442          100.000000                4416941.971327
    10     4 Jan 2025 09:05:01.783     4 Jan 2025 09:21:21.753           979.970    Satellite12    Satellite12        1               77.777778          3435399.311032          100.000000                4416941.971327
    11     4 Jan 2025 10:39:14.312     4 Jan 2025 10:56:06.694          1012.382    Satellite12    Satellite12        1              100.000000          4416941.971327          100.000000                4416941.971327
    12     4 Jan 2025 12:13:57.359     4 Jan 2025 12:30:48.798          1011.439    Satellite12    Satellite12        1               55.555556          2453856.650737          100.000000                4416941.971327
    13     4 Jan 2025 13:48:40.391     4 Jan 2025 13:53:40.143           299.752    Satellite12    Satellite12        1               11.111111           490771.330147          100.000000                4416941.971327
    14     5 Jan 2025 07:11:44.637     5 Jan 2025 07:25:55.826           851.188    Satellite12    Satellite12        1               22.222222           981542.660295          100.000000                4416941.971327
    15     5 Jan 2025 08:46:12.442     5 Jan 2025 09:02:28.180           975.738    Satellite12    Satellite12        1               66.666667          2944627.980884          100.000000                4416941.971327
    16     5 Jan 2025 10:20:27.447     5 Jan 2025 10:37:12.888          1005.441    Satellite12    Satellite12        1              100.000000          4416941.971327          100.000000                4416941.971327
    17     5 Jan 2025 11:55:01.527     5 Jan 2025 12:11:57.404          1015.876    Satellite12    Satellite12        1               66.666667          2944627.980884          100.000000                4416941.971327
    18     5 Jan 2025 13:29:44.540     5 Jan 2025 13:45:32.121           947.580    Satellite12    Satellite12        1               13.523118           597308.260372          100.000000                4416941.971327
    19     6 Jan 2025 06:52:52.013     6 Jan 2025 07:06:06.938           794.925    Satellite12    Satellite12        1               11.111111           490771.330147          100.000000                4416941.971327
    20     6 Jan 2025 08:27:22.601     6 Jan 2025 08:43:28.311           965.710    Satellite12    Satellite12        1               55.555556          2453856.650737          100.000000                4416941.971327
    21     6 Jan 2025 10:01:40.085     6 Jan 2025 10:18:18.809           998.724    Satellite12    Satellite12        1              100.000000          4416941.971327          100.000000                4416941.971327
    22     6 Jan 2025 11:36:05.674     6 Jan 2025 11:53:03.103          1017.429    Satellite12    Satellite12        1               69.078673          3051164.911109          100.000000                4416941.971327
    23     6 Jan 2025 13:10:57.955     6 Jan 2025 13:27:02.362           964.407    Satellite12    Satellite12        1               22.222222           981542.660295          100.000000                4416941.971327
    24     7 Jan 2025 08:08:32.248     7 Jan 2025 08:24:21.536           949.288    Satellite12    Satellite12        1               44.444444          1963085.320590          100.000000                4416941.971327
    25     7 Jan 2025 09:42:52.229     7 Jan 2025 09:59:24.459           992.230    Satellite12    Satellite12        1               95.249532          4207116.553537          100.000000                4416941.971327
    26     7 Jan 2025 11:17:19.106     7 Jan 2025 11:34:08.531          1009.425    Satellite12    Satellite12        1               77.777778          3435399.311032          100.000000                4416941.971327
    27     7 Jan 2025 12:52:02.188     7 Jan 2025 13:08:27.589           985.401    Satellite12    Satellite12        1               33.333333          1472313.990442          100.000000                4416941.971327
    28     8 Jan 2025 07:49:41.369     8 Jan 2025 08:05:07.079           925.710    Satellite12    Satellite12        1               40.935162          1808082.335056          100.000000                4416941.971327
    29     8 Jan 2025 09:24:03.882     8 Jan 2025 09:40:29.849           985.967    Satellite12    Satellite12        1               88.888889          3926170.641179          100.000000                4416941.971327
    30     8 Jan 2025 10:58:23.335     8 Jan 2025 11:15:13.696          1010.361    Satellite12    Satellite12        1               88.888889          3926170.641179          100.000000                4416941.971327
    31     8 Jan 2025 12:33:06.399     8 Jan 2025 12:49:47.571          1001.172    Satellite12    Satellite12        1               44.444444          1963085.320590          100.000000                4416941.971327
    32     9 Jan 2025 07:30:49.939     9 Jan 2025 07:45:43.775           893.836    Satellite12    Satellite12        1               33.333333          1472313.990442          100.000000                4416941.971327
    33     9 Jan 2025 09:05:15.042     9 Jan 2025 09:21:35.116           980.074    Satellite12    Satellite12        1               77.777778          3435399.311032          100.000000                4416941.971327
    34     9 Jan 2025 10:39:27.543     9 Jan 2025 10:56:20.044          1012.501    Satellite12    Satellite12        1              100.000000          4416941.971327          100.000000                4416941.971327
    35     9 Jan 2025 12:14:10.589     9 Jan 2025 12:31:02.052          1011.464    Satellite12    Satellite12        1               55.555556          2453856.650737          100.000000                4416941.971327
    36     9 Jan 2025 13:48:53.619     9 Jan 2025 13:55:49.159           415.540    Satellite12    Satellite12        1               11.111111           490771.330147          100.000000                4416941.971327
    37    10 Jan 2025 07:11:57.935    10 Jan 2025 07:26:09.689           851.755    Satellite12    Satellite12        1               22.222222           981542.660295          100.000000                4416941.971327
    38    10 Jan 2025 08:46:25.708    10 Jan 2025 09:02:41.529           975.821    Satellite12    Satellite12        1               66.666667          2944627.980884          100.000000                4416941.971327
    39    10 Jan 2025 10:20:40.684    10 Jan 2025 10:37:26.224          1005.540    Satellite12    Satellite12        1              100.000000          4416941.971327          100.000000                4416941.971327
    40    10 Jan 2025 11:55:14.756    10 Jan 2025 12:12:10.726          1015.970    Satellite12    Satellite12        1               66.666667          2944627.980884          100.000000                4416941.971327
    41    10 Jan 2025 13:29:57.768    10 Jan 2025 13:45:45.124           947.356    Satellite12    Satellite12        1               18.767497           828949.461054          100.000000                4416941.971327
    42    11 Jan 2025 06:53:38.620    11 Jan 2025 07:06:21.015           762.395    Satellite12    Satellite12        1               11.111111           490771.330147          100.000000                4416941.971327
    43    11 Jan 2025 08:27:35.873    11 Jan 2025 08:43:41.737           965.864    Satellite12    Satellite12        1               55.555556          2453856.650737          100.000000                4416941.971327
    44    11 Jan 2025 10:01:53.328    11 Jan 2025 10:18:32.129           998.801    Satellite12    Satellite12        1              100.000000          4416941.971327          100.000000                4416941.971327
    45    11 Jan 2025 11:36:18.902    11 Jan 2025 11:53:16.410          1017.509    Satellite12    Satellite12        1               72.800242          3215544.433872          100.000000                4416941.971327
    46    11 Jan 2025 13:11:11.189    11 Jan 2025 13:27:15.425           964.236    Satellite12    Satellite12        1               22.222222           981542.660295          100.000000                4416941.971327
    47    12 Jan 2025 08:08:45.526    12 Jan 2025 08:24:35.048           949.523    Satellite12    Satellite12        1               44.444444          1963085.320590          100.000000                4416941.971327
    48    12 Jan 2025 09:43:05.478    12 Jan 2025 09:59:37.765           992.286    Satellite12    Satellite12        1               88.888889          3926170.641179          100.000000                4416941.971327
    49    12 Jan 2025 11:17:32.339    12 Jan 2025 11:34:21.824          1009.485    Satellite12    Satellite12        1               77.777778          3435399.311032          100.000000                4416941.971327
    50    12 Jan 2025 12:52:15.421    12 Jan 2025 13:08:40.712           985.291    Satellite12    Satellite12        1               33.333333          1472313.990442          100.000000                4416941.971327
    51    13 Jan 2025 07:49:54.653    13 Jan 2025 08:05:20.688           926.035    Satellite12    Satellite12        1               33.333333          1472313.990442          100.000000                4416941.971327
    52    13 Jan 2025 09:24:17.136    13 Jan 2025 09:40:43.140           986.004    Satellite12    Satellite12        1               88.888889          3926170.641179          100.000000                4416941.971327
    53    13 Jan 2025 10:58:36.567    13 Jan 2025 11:15:26.975          1010.407    Satellite12    Satellite12        1               88.888889          3926170.641179          100.000000                4416941.971327
    54    13 Jan 2025 12:33:19.631    13 Jan 2025 12:50:00.756          1001.126    Satellite12    Satellite12        1               44.444444          1963085.320590          100.000000                4416941.971327
    55    14 Jan 2025 07:31:03.229    14 Jan 2025 07:45:57.496           894.267    Satellite12    Satellite12        1               33.333333          1472313.990442          100.000000                4416941.971327
    56    14 Jan 2025 09:05:28.302    14 Jan 2025 09:21:48.480           980.178    Satellite12    Satellite12        1               77.777778          3435399.311032          100.000000                4416941.971327
    57    14 Jan 2025 10:39:40.774    14 Jan 2025 10:56:33.395          1012.621    Satellite12    Satellite12        1              100.000000          4416941.971327          100.000000                4416941.971327
    58    14 Jan 2025 12:14:23.819    14 Jan 2025 12:31:15.304          1011.485    Satellite12    Satellite12        1               55.555556          2453856.650737          100.000000                4416941.971327
    59    14 Jan 2025 13:49:06.848    14 Jan 2025 13:57:43.906           517.058    Satellite12    Satellite12        1               11.111111           490771.330147          100.000000                4416941.971327
    60    15 Jan 2025 07:12:11.231    15 Jan 2025 07:26:23.554           852.324    Satellite12    Satellite12        1               22.222222           981542.660295          100.000000                4416941.971327
    61    15 Jan 2025 08:46:38.973    15 Jan 2025 09:02:54.876           975.903    Satellite12    Satellite12        1               66.666667          2944627.980884          100.000000                4416941.971327
    62    15 Jan 2025 10:20:53.920    15 Jan 2025 10:37:39.558          1005.638    Satellite12    Satellite12        1              100.000000          4416941.971327          100.000000                4416941.971327
    63    15 Jan 2025 11:55:27.985    15 Jan 2025 12:12:24.048          1016.063    Satellite12    Satellite12        1               66.666667          2944627.980884          100.000000                4416941.971327
    64    15 Jan 2025 13:30:10.996    15 Jan 2025 13:45:58.127           947.131    Satellite12    Satellite12        1               22.222222           981542.660295          100.000000                4416941.971327
    65    16 Jan 2025 06:55:27.959    16 Jan 2025 07:06:35.090           667.131    Satellite12    Satellite12        1               11.111111           490771.330147          100.000000                4416941.971327
    66    16 Jan 2025 08:27:49.143    16 Jan 2025 08:43:55.162           966.019    Satellite12    Satellite12        1               55.555556          2453856.650737          100.000000                4416941.971327
    67    16 Jan 2025 10:02:06.570    16 Jan 2025 10:18:45.448           998.878    Satellite12    Satellite12        1              100.000000          4416941.971327          100.000000                4416941.971327
    68    16 Jan 2025 11:36:32.129    16 Jan 2025 11:53:29.717          1017.588    Satellite12    Satellite12        1               77.777778          3435399.311032          100.000000                4416941.971327
    69    16 Jan 2025 13:11:15.121    16 Jan 2025 13:27:28.485           973.364    Satellite12    Satellite12        1               24.634229          1088079.590519          100.000000                4416941.971327
    70    17 Jan 2025 08:08:58.802    17 Jan 2025 08:24:48.558           949.757    Satellite12    Satellite12        1               44.444444          1963085.320590          100.000000                4416941.971327
    71    17 Jan 2025 09:43:18.725    17 Jan 2025 09:59:51.070           992.345    Satellite12    Satellite12        1               88.888889          3926170.641179          100.000000                4416941.971327
    72    17 Jan 2025 11:17:36.251    17 Jan 2025 11:34:35.115          1018.864    Satellite12    Satellite12        1               80.189784          3541936.241256          100.000000                4416941.971327
    73    17 Jan 2025 12:52:28.652    17 Jan 2025 13:08:53.832           985.180    Satellite12    Satellite12        1               33.333333          1472313.990442          100.000000                4416941.971327
    74    18 Jan 2025 07:50:07.935    18 Jan 2025 08:05:34.294           926.359    Satellite12    Satellite12        1               33.333333          1472313.990442          100.000000                4416941.971327
    75    18 Jan 2025 09:24:30.389    18 Jan 2025 09:40:56.429           986.040    Satellite12    Satellite12        1               86.476882          3819633.710955          100.000000                4416941.971327
    76    18 Jan 2025 10:58:49.798    18 Jan 2025 11:15:40.317          1010.519    Satellite12    Satellite12        1               88.888889          3926170.641179          100.000000                4416941.971327
    77    18 Jan 2025 12:33:32.860    18 Jan 2025 12:50:13.939          1001.079    Satellite12    Satellite12        1               44.444444          1963085.320590          100.000000                4416941.971327
    78    19 Jan 2025 07:31:16.518    19 Jan 2025 07:46:11.214           894.696    Satellite12    Satellite12        1               31.872940          1407809.249121          100.000000                4416941.971327
    79    19 Jan 2025 09:05:41.561    19 Jan 2025 09:22:01.841           980.281    Satellite12    Satellite12        1               77.777778          3435399.311032          100.000000                4416941.971327
    80    19 Jan 2025 10:39:54.004    19 Jan 2025 10:56:46.743          1012.739    Satellite12    Satellite12        1              100.000000          4416941.971327          100.000000                4416941.971327
    81    19 Jan 2025 12:14:37.047    19 Jan 2025 12:31:28.553          1011.506    Satellite12    Satellite12        1               55.555556          2453856.650737          100.000000                4416941.971327
    82    19 Jan 2025 13:49:20.076    19 Jan 2025 13:59:22.203           602.127    Satellite12    Satellite12        1               11.111111           490771.330147          100.000000                4416941.971327
    83    20 Jan 2025 07:12:24.527    20 Jan 2025 07:26:37.416           852.888    Satellite12    Satellite12        1               22.222222           981542.660295          100.000000                4416941.971327
    84    20 Jan 2025 08:46:52.238    20 Jan 2025 09:03:08.222           975.984    Satellite12    Satellite12        1               66.666667          2944627.980884          100.000000                4416941.971327
    85    20 Jan 2025 10:21:07.156    20 Jan 2025 10:37:52.891          1005.735    Satellite12    Satellite12        1              100.000000          4416941.971327          100.000000                4416941.971327
    86    20 Jan 2025 11:55:41.212    20 Jan 2025 12:12:37.368          1016.155    Satellite12    Satellite12        1               66.666667          2944627.980884          100.000000                4416941.971327
    87    20 Jan 2025 13:30:24.222    20 Jan 2025 13:46:11.128           946.906    Satellite12    Satellite12        1               22.222222           981542.660295          100.000000                4416941.971327
    88    21 Jan 2025 06:57:00.243    21 Jan 2025 07:06:49.159           588.916    Satellite12    Satellite12        1               11.111111           490771.330147          100.000000                4416941.971327
    89    21 Jan 2025 08:28:02.414    21 Jan 2025 08:44:08.585           966.171    Satellite12    Satellite12        1               55.555556          2453856.650737          100.000000                4416941.971327
    90    21 Jan 2025 10:02:19.812    21 Jan 2025 10:18:58.766           998.954    Satellite12    Satellite12        1              100.000000          4416941.971327          100.000000                4416941.971327
    91    21 Jan 2025 11:36:45.355    21 Jan 2025 11:53:43.022          1017.666    Satellite12    Satellite12        1               77.777778          3435399.311032          100.000000                4416941.971327
    92    21 Jan 2025 13:11:28.347    21 Jan 2025 13:27:41.545           973.198    Satellite12    Satellite12        1               28.355797          1252459.113283          100.000000                4416941.971327
    93    22 Jan 2025 08:09:12.079    22 Jan 2025 08:25:02.068           949.988    Satellite12    Satellite12        1               44.444444          1963085.320590          100.000000                4416941.971327
    94    22 Jan 2025 09:43:31.973    22 Jan 2025 10:00:04.373           992.400    Satellite12    Satellite12        1               88.888889          3926170.641179          100.000000                4416941.971327
    95    22 Jan 2025 11:17:49.477    22 Jan 2025 11:34:48.406          1018.929    Satellite12    Satellite12        1               82.528246          3645224.728821          100.000000                4416941.971327
    96    22 Jan 2025 12:52:41.884    22 Jan 2025 13:09:06.952           985.068    Satellite12    Satellite12        1               33.333333          1472313.990442          100.000000                4416941.971327
    97    23 Jan 2025 07:50:21.219    23 Jan 2025 08:05:47.899           926.680    Satellite12    Satellite12        1               33.333333          1472313.990442          100.000000                4416941.971327
    98    23 Jan 2025 09:24:43.643    23 Jan 2025 09:41:09.715           986.072    Satellite12    Satellite12        1               81.232503          3587992.510272          100.000000                4416941.971327
    99    23 Jan 2025 10:59:03.030    23 Jan 2025 11:15:53.681          1010.650    Satellite12    Satellite12        1               88.888889          3926170.641179          100.000000                4416941.971327
   100    23 Jan 2025 12:33:46.092    23 Jan 2025 12:50:27.123          1001.031    Satellite12    Satellite12        1               44.444444          1963085.320590          100.000000                4416941.971327
   101    24 Jan 2025 07:31:29.809    24 Jan 2025 07:46:24.932           895.123    Satellite12    Satellite12        1               27.199758          1201397.537454          100.000000                4416941.971327
   102    24 Jan 2025 09:05:54.821    24 Jan 2025 09:22:15.203           980.382    Satellite12    Satellite12        1               77.777778          3435399.311032          100.000000                4416941.971327
   103    24 Jan 2025 10:40:07.235    24 Jan 2025 10:57:00.091          1012.856    Satellite12    Satellite12        1              100.000000          4416941.971327          100.000000                4416941.971327
   104    24 Jan 2025 12:14:50.278    24 Jan 2025 12:31:41.804          1011.526    Satellite12    Satellite12        1               55.555556          2453856.650737          100.000000                4416941.971327
   105    24 Jan 2025 13:49:33.305    24 Jan 2025 14:00:42.396           669.091    Satellite12    Satellite12        1               11.111111           490771.330147          100.000000                4416941.971327
   106    25 Jan 2025 07:12:37.825    25 Jan 2025 07:26:51.277           853.451    Satellite12    Satellite12        1               22.222222           981542.660295          100.000000                4416941.971327
   107    25 Jan 2025 08:47:05.504    25 Jan 2025 09:03:21.568           976.064    Satellite12    Satellite12        1               66.666667          2944627.980884          100.000000                4416941.971327
   108    25 Jan 2025 10:21:20.394    25 Jan 2025 10:38:06.224          1005.831    Satellite12    Satellite12        1              100.000000          4416941.971327          100.000000                4416941.971327
   109    25 Jan 2025 11:55:54.442    25 Jan 2025 12:12:50.688          1016.247    Satellite12    Satellite12        1               66.666667          2944627.980884          100.000000                4416941.971327
   110    25 Jan 2025 13:30:37.451    25 Jan 2025 13:46:24.131           946.680    Satellite12    Satellite12        1               22.222222           981542.660295          100.000000                4416941.971327
   111    26 Jan 2025 06:58:13.950    26 Jan 2025 07:07:03.227           529.277    Satellite12    Satellite12        1               11.111111           490771.330147          100.000000                4416941.971327
   112    26 Jan 2025 08:28:15.686    26 Jan 2025 08:44:22.009           966.322    Satellite12    Satellite12        1               55.555556          2453856.650737          100.000000                4416941.971327
   113    26 Jan 2025 10:02:33.055    26 Jan 2025 10:19:12.084           999.029    Satellite12    Satellite12        1              100.000000          4416941.971327          100.000000                4416941.971327
   114    26 Jan 2025 11:36:58.584    26 Jan 2025 11:53:56.327          1017.744    Satellite12    Satellite12        1               77.777778          3435399.311032          100.000000                4416941.971327
   115    26 Jan 2025 13:11:41.574    26 Jan 2025 13:27:54.605           973.031    Satellite12    Satellite12        1               29.878608          1319720.791202          100.000000                4416941.971327
   116    27 Jan 2025 08:09:25.357    27 Jan 2025 08:25:15.577           950.220    Satellite12    Satellite12        1               44.444444          1963085.320590          100.000000                4416941.971327
   117    27 Jan 2025 09:43:45.222    27 Jan 2025 10:00:17.677           992.454    Satellite12    Satellite12        1               88.888889          3926170.641179          100.000000                4416941.971327
   118    27 Jan 2025 11:18:02.704    27 Jan 2025 11:35:01.697          1018.993    Satellite12    Satellite12        1               85.434164          3773577.441939          100.000000                4416941.971327
   119    27 Jan 2025 12:52:45.676    27 Jan 2025 13:09:20.073           994.398    Satellite12    Satellite12        1               33.989297          1501287.529086          100.000000                4416941.971327
   120    28 Jan 2025 07:50:34.503    28 Jan 2025 08:06:01.504           927.001    Satellite12    Satellite12        1               33.333333          1472313.990442          100.000000                4416941.971327
   121    28 Jan 2025 09:24:56.898    28 Jan 2025 09:41:23.001           986.103    Satellite12    Satellite12        1               77.777778          3435399.311032          100.000000                4416941.971327
   122    28 Jan 2025 10:59:16.263    28 Jan 2025 11:16:07.045          1010.782    Satellite12    Satellite12        1               88.888889          3926170.641179          100.000000                4416941.971327
   123    28 Jan 2025 12:33:59.323    28 Jan 2025 12:50:40.306          1000.983    Satellite12    Satellite12        1               44.444444          1963085.320590          100.000000                4416941.971327
   124    29 Jan 2025 07:31:43.099    29 Jan 2025 07:46:38.649           895.550    Satellite12    Satellite12        1               24.016878          1060811.573197          100.000000                4416941.971327
   125    29 Jan 2025 09:06:08.081    29 Jan 2025 09:22:28.564           980.483    Satellite12    Satellite12        1               77.777778          3435399.311032          100.000000                4416941.971327
   126    29 Jan 2025 10:40:20.466    29 Jan 2025 10:57:13.439          1012.973    Satellite12    Satellite12        1              100.000000          4416941.971327          100.000000                4416941.971327
   127    29 Jan 2025 12:15:03.508    29 Jan 2025 12:31:55.053          1011.545    Satellite12    Satellite12        1               55.555556          2453856.650737          100.000000                4416941.971327
   128    29 Jan 2025 13:49:46.534    29 Jan 2025 14:01:43.194           716.660    Satellite12    Satellite12        1               11.111111           490771.330147          100.000000                4416941.971327
   129    30 Jan 2025 07:12:51.122    30 Jan 2025 07:27:05.136           854.014    Satellite12    Satellite12        1               22.222222           981542.660295          100.000000                4416941.971327
   130    30 Jan 2025 08:47:18.769    30 Jan 2025 09:03:34.913           976.144    Satellite12    Satellite12        1               66.666667          2944627.980884          100.000000                4416941.971327
   131    30 Jan 2025 10:21:33.630    30 Jan 2025 10:38:19.556          1005.926    Satellite12    Satellite12        1              100.000000          4416941.971327          100.000000                4416941.971327
   132    30 Jan 2025 11:56:07.670    30 Jan 2025 12:13:04.007          1016.337    Satellite12    Satellite12        1               66.666667          2944627.980884          100.000000                4416941.971327
   133    30 Jan 2025 13:30:50.678    30 Jan 2025 13:46:37.131           946.453    Satellite12    Satellite12        1               22.222222           981542.660295          100.000000                4416941.971327
   134    31 Jan 2025 06:59:07.883    31 Jan 2025 07:07:17.292           489.409    Satellite12    Satellite12        1               11.111111           490771.330147          100.000000                4416941.971327
   135    31 Jan 2025 08:28:28.957    31 Jan 2025 08:44:35.431           966.474    Satellite12    Satellite12        1               55.555556          2453856.650737          100.000000                4416941.971327
   136    31 Jan 2025 10:02:46.297    31 Jan 2025 10:19:25.400           999.103    Satellite12    Satellite12        1              100.000000          4416941.971327          100.000000                4416941.971327
   137    31 Jan 2025 11:37:11.811    31 Jan 2025 11:54:09.631          1017.821    Satellite12    Satellite12        1               77.777778          3435399.311032          100.000000                4416941.971327
   138    31 Jan 2025 13:11:54.800    31 Jan 2025 13:28:07.664           972.864    Satellite12    Satellite12        1               31.538677          1393045.077540          100.000000                4416941.971327
   139     1 Feb 2025 08:09:38.634     1 Feb 2025 08:25:29.085           950.451    Satellite12    Satellite12        1               44.444444          1963085.320590          100.000000                4416941.971327
   140     1 Feb 2025 09:43:58.470     1 Feb 2025 10:00:30.978           992.508    Satellite12    Satellite12        1               88.888889          3926170.641179          100.000000                4416941.971327
   141     1 Feb 2025 11:18:15.929     1 Feb 2025 11:35:14.985          1019.056    Satellite12    Satellite12        1               87.094233          3846901.728277          100.000000                4416941.971327
   142     1 Feb 2025 12:52:58.900     1 Feb 2025 13:09:33.192           994.292    Satellite12    Satellite12        1               34.793727          1536818.731764          100.000000                4416941.971327
   143     2 Feb 2025 07:50:47.786     2 Feb 2025 08:06:15.106           927.320    Satellite12    Satellite12        1               33.333333          1472313.990442          100.000000                4416941.971327
   144     2 Feb 2025 09:25:10.151     2 Feb 2025 09:41:36.288           986.137    Satellite12    Satellite12        1               77.777778          3435399.311032          100.000000                4416941.971327
   145     2 Feb 2025 10:59:20.026     2 Feb 2025 11:16:20.406          1020.380    Satellite12    Satellite12        1               89.544853          3955144.179823          100.000000                4416941.971327
   146     2 Feb 2025 12:34:12.554     2 Feb 2025 12:50:53.488          1000.934    Satellite12    Satellite12        1               44.444444          1963085.320590          100.000000                4416941.971327
   147     3 Feb 2025 07:31:56.389     3 Feb 2025 07:46:52.363           895.974    Satellite12    Satellite12        1               22.222222           981542.660295          100.000000                4416941.971327
   148     3 Feb 2025 09:06:21.340     3 Feb 2025 09:22:41.923           980.583    Satellite12    Satellite12        1               77.777778          3435399.311032          100.000000                4416941.971327
   149     3 Feb 2025 10:40:33.697     3 Feb 2025 10:57:26.785          1013.089    Satellite12    Satellite12        1              100.000000          4416941.971327          100.000000                4416941.971327
   150     3 Feb 2025 12:15:16.737     3 Feb 2025 12:32:08.301          1011.564    Satellite12    Satellite12        1               55.555556          2453856.650737          100.000000                4416941.971327
   151     3 Feb 2025 13:49:59.763     3 Feb 2025 14:02:23.615           743.852    Satellite12    Satellite12        1               11.111111           490771.330147          100.000000                4416941.971327
   152     4 Feb 2025 07:13:04.419     4 Feb 2025 07:27:18.991           854.572    Satellite12    Satellite12        1               22.222222           981542.660295          100.000000                4416941.971327
   153     4 Feb 2025 08:47:32.035     4 Feb 2025 09:03:48.257           976.222    Satellite12    Satellite12        1               66.666667          2944627.980884          100.000000                4416941.971327
   154     4 Feb 2025 10:21:46.867     4 Feb 2025 10:38:32.887          1006.021    Satellite12    Satellite12        1              100.000000          4416941.971327          100.000000                4416941.971327
   155     4 Feb 2025 11:56:20.899     4 Feb 2025 12:13:17.330          1016.431    Satellite12    Satellite12        1               66.666667          2944627.980884          100.000000                4416941.971327
   156     4 Feb 2025 13:31:03.905     4 Feb 2025 13:46:50.131           946.226    Satellite12    Satellite12        1               22.222222           981542.660295          100.000000                4416941.971327
   157     5 Feb 2025 06:59:41.225     5 Feb 2025 07:07:31.352           470.127    Satellite12    Satellite12        1               11.111111           490771.330147          100.000000                4416941.971327
   158     5 Feb 2025 08:28:42.229     5 Feb 2025 08:44:48.852           966.623    Satellite12    Satellite12        1               55.555556          2453856.650737          100.000000                4416941.971327
   159     5 Feb 2025 10:02:59.540     5 Feb 2025 10:19:38.716           999.177    Satellite12    Satellite12        1              100.000000          4416941.971327          100.000000                4416941.971327
   160     5 Feb 2025 11:37:25.038     5 Feb 2025 11:54:22.935          1017.897    Satellite12    Satellite12        1               77.777778          3435399.311032          100.000000                4416941.971327
   161     5 Feb 2025 13:12:08.027     5 Feb 2025 13:28:20.723           972.696    Satellite12    Satellite12        1               33.333333          1472313.990442          100.000000                4416941.971327
   162     6 Feb 2025 08:09:51.912     6 Feb 2025 08:25:42.591           950.679    Satellite12    Satellite12        1               44.444444          1963085.320590          100.000000                4416941.971327
   163     6 Feb 2025 09:44:11.719     6 Feb 2025 10:00:44.279           992.560    Satellite12    Satellite12        1               88.888889          3926170.641179          100.000000                4416941.971327
   164     6 Feb 2025 11:18:29.156     6 Feb 2025 11:35:28.274          1019.118    Satellite12    Satellite12        1               87.094233          3846901.728277          100.000000                4416941.971327
   165     6 Feb 2025 12:53:12.126     6 Feb 2025 13:09:46.311           994.185    Satellite12    Satellite12        1               34.793727          1536818.731764          100.000000                4416941.971327
   166     7 Feb 2025 07:51:01.071     7 Feb 2025 08:06:28.708           927.637    Satellite12    Satellite12        1               33.333333          1472313.990442          100.000000                4416941.971327
   167     7 Feb 2025 09:25:23.406     7 Feb 2025 09:41:49.575           986.169    Satellite12    Satellite12        1               77.777778          3435399.311032          100.000000                4416941.971327
   168     7 Feb 2025 10:59:33.252     7 Feb 2025 11:16:33.769          1020.517    Satellite12    Satellite12        1               89.544853          3955144.179823          100.000000                4416941.971327
   169     7 Feb 2025 12:34:25.786     7 Feb 2025 12:51:06.670          1000.884    Satellite12    Satellite12        1               44.444444          1963085.320590          100.000000                4416941.971327
   170     8 Feb 2025 07:32:09.681     8 Feb 2025 07:47:06.077           896.396    Satellite12    Satellite12        1               22.222222           981542.660295          100.000000                4416941.971327
   171     8 Feb 2025 09:06:34.601     8 Feb 2025 09:22:55.283           980.682    Satellite12    Satellite12        1               77.777778          3435399.311032          100.000000                4416941.971327
   172     8 Feb 2025 10:40:46.929     8 Feb 2025 10:57:40.132          1013.204    Satellite12    Satellite12        1              100.000000          4416941.971327          100.000000                4416941.971327
   173     8 Feb 2025 12:15:29.968     8 Feb 2025 12:32:21.549          1011.581    Satellite12    Satellite12        1               55.555556          2453856.650737          100.000000                4416941.971327
   174     8 Feb 2025 13:50:12.993     8 Feb 2025 14:02:43.335           750.342    Satellite12    Satellite12        1               11.111111           490771.330147          100.000000                4416941.971327
   175     9 Feb 2025 07:13:17.718     9 Feb 2025 07:27:32.847           855.129    Satellite12    Satellite12        1               22.222222           981542.660295          100.000000                4416941.971327
   176     9 Feb 2025 08:47:45.302     9 Feb 2025 09:04:01.601           976.300    Satellite12    Satellite12        1               66.666667          2944627.980884          100.000000                4416941.971327
   177     9 Feb 2025 10:22:00.105     9 Feb 2025 10:38:46.219          1006.114    Satellite12    Satellite12        1              100.000000          4416941.971327          100.000000                4416941.971327
   178     9 Feb 2025 11:56:34.128     9 Feb 2025 12:13:30.649          1016.520    Satellite12    Satellite12        1               66.666667          2944627.980884          100.000000                4416941.971327
   179     9 Feb 2025 13:31:17.134     9 Feb 2025 13:47:03.132           945.998    Satellite12    Satellite12        1               22.222222           981542.660295          100.000000                4416941.971327
   180    10 Feb 2025 06:59:54.009    10 Feb 2025 07:07:45.411           471.402    Satellite12    Satellite12        1               11.111111           490771.330147          100.000000                4416941.971327
   181    10 Feb 2025 08:28:55.501    10 Feb 2025 08:45:02.273           966.772    Satellite12    Satellite12        1               55.555556          2453856.650737          100.000000                4416941.971327
   182    10 Feb 2025 10:03:12.783    10 Feb 2025 10:19:52.033           999.249    Satellite12    Satellite12        1              100.000000          4416941.971327          100.000000                4416941.971327
   183    10 Feb 2025 11:37:38.267    10 Feb 2025 11:54:36.239          1017.972    Satellite12    Satellite12        1               77.777778          3435399.311032          100.000000                4416941.971327
   184    10 Feb 2025 13:12:21.254    10 Feb 2025 13:28:33.781           972.527    Satellite12    Satellite12        1               33.333333          1472313.990442          100.000000                4416941.971327
   185    11 Feb 2025 08:10:05.191    11 Feb 2025 08:25:56.097           950.907    Satellite12    Satellite12        1               44.444444          1963085.320590          100.000000                4416941.971327
   186    11 Feb 2025 09:44:24.968    11 Feb 2025 10:00:57.581           992.613    Satellite12    Satellite12        1               88.888889          3926170.641179          100.000000                4416941.971327
   187    11 Feb 2025 11:18:42.383    11 Feb 2025 11:35:41.563          1019.180    Satellite12    Satellite12        1               87.094233          3846901.728277          100.000000                4416941.971327
   188    11 Feb 2025 12:53:25.352    11 Feb 2025 13:09:59.430           994.078    Satellite12    Satellite12        1               34.793727          1536818.731764          100.000000                4416941.971327
   189    12 Feb 2025 07:51:14.355    12 Feb 2025 08:06:42.309           927.954    Satellite12    Satellite12        1               33.333333          1472313.990442          100.000000                4416941.971327
   190    12 Feb 2025 09:25:36.660    12 Feb 2025 09:42:02.862           986.201    Satellite12    Satellite12        1               77.777778          3435399.311032          100.000000                4416941.971327
   191    12 Feb 2025 10:59:46.477    12 Feb 2025 11:16:47.130          1020.652    Satellite12    Satellite12        1               89.544853          3955144.179823          100.000000                4416941.971327
   192    12 Feb 2025 12:34:39.017    12 Feb 2025 12:51:19.851          1000.834    Satellite12    Satellite12        1               44.444444          1963085.320590          100.000000                4416941.971327
   193    13 Feb 2025 07:32:22.971    13 Feb 2025 07:47:19.789           896.818    Satellite12    Satellite12        1               22.222222           981542.660295          100.000000                4416941.971327
   194    13 Feb 2025 09:06:47.861    13 Feb 2025 09:23:08.641           980.780    Satellite12    Satellite12        1               77.777778          3435399.311032          100.000000                4416941.971327
   195    13 Feb 2025 10:41:00.159    13 Feb 2025 10:57:53.477          1013.318    Satellite12    Satellite12        1              100.000000          4416941.971327          100.000000                4416941.971327
   196    13 Feb 2025 12:15:43.198    13 Feb 2025 12:32:34.796          1011.598    Satellite12    Satellite12        1               55.555556          2453856.650737          100.000000                4416941.971327
   197    13 Feb 2025 13:50:26.221    13 Feb 2025 14:02:43.142           736.920    Satellite12    Satellite12        1               11.111111           490771.330147          100.000000                4416941.971327
   198    14 Feb 2025 07:13:31.015    14 Feb 2025 07:27:46.700           855.685    Satellite12    Satellite12        1               22.222222           981542.660295          100.000000                4416941.971327
   199    14 Feb 2025 08:47:58.567    14 Feb 2025 09:04:14.943           976.376    Satellite12    Satellite12        1               66.666667          2944627.980884          100.000000                4416941.971327
   200    14 Feb 2025 10:22:13.341    14 Feb 2025 10:38:59.548          1006.207    Satellite12    Satellite12        1              100.000000          4416941.971327          100.000000                4416941.971327
   201    14 Feb 2025 11:56:47.357    14 Feb 2025 12:13:43.965          1016.609    Satellite12    Satellite12        1               66.666667          2944627.980884          100.000000                4416941.971327
   202    14 Feb 2025 13:31:30.362    14 Feb 2025 13:47:16.131           945.770    Satellite12    Satellite12        1               22.222222           981542.660295          100.000000                4416941.971327
   203    15 Feb 2025 06:59:47.355    15 Feb 2025 07:07:59.465           492.111    Satellite12    Satellite12        1               11.111111           490771.330147          100.000000                4416941.971327
   204    15 Feb 2025 08:29:08.773    15 Feb 2025 08:45:15.692           966.920    Satellite12    Satellite12        1               55.555556          2453856.650737          100.000000                4416941.971327
   205    15 Feb 2025 10:03:26.025    15 Feb 2025 10:20:05.346           999.321    Satellite12    Satellite12        1              100.000000          4416941.971327          100.000000                4416941.971327
   206    15 Feb 2025 11:37:51.494    15 Feb 2025 11:54:49.540          1018.046    Satellite12    Satellite12        1               77.777778          3435399.311032          100.000000                4416941.971327
   207    15 Feb 2025 13:12:34.480    15 Feb 2025 13:28:46.838           972.358    Satellite12    Satellite12        1               31.538677          1393045.077540          100.000000                4416941.971327
   208    16 Feb 2025 08:10:18.468    16 Feb 2025 08:26:09.601           951.133    Satellite12    Satellite12        1               44.444444          1963085.320590          100.000000                4416941.971327
   209    16 Feb 2025 09:44:38.216    16 Feb 2025 10:01:10.878           992.662    Satellite12    Satellite12        1               88.888889          3926170.641179          100.000000                4416941.971327
   210    16 Feb 2025 11:18:55.609    16 Feb 2025 11:35:54.849          1019.241    Satellite12    Satellite12        1               85.434164          3773577.441939          100.000000                4416941.971327
   211    16 Feb 2025 12:53:38.576    16 Feb 2025 13:10:12.547           993.970    Satellite12    Satellite12        1               33.989297          1501287.529086          100.000000                4416941.971327
   212    17 Feb 2025 07:51:27.639    17 Feb 2025 08:06:55.907           928.268    Satellite12    Satellite12        1               33.333333          1472313.990442          100.000000                4416941.971327
   213    17 Feb 2025 09:25:49.914    17 Feb 2025 09:42:16.146           986.232    Satellite12    Satellite12        1               77.777778          3435399.311032          100.000000                4416941.971327
   214    17 Feb 2025 11:00:09.192    17 Feb 2025 11:17:00.489          1011.297    Satellite12    Satellite12        1               88.888889          3926170.641179          100.000000                4416941.971327
   215    17 Feb 2025 12:34:52.248    17 Feb 2025 12:51:33.030          1000.783    Satellite12    Satellite12        1               44.444444          1963085.320590          100.000000                4416941.971327
   216    18 Feb 2025 07:32:36.262    18 Feb 2025 07:47:33.499           897.237    Satellite12    Satellite12        1               24.016878          1060811.573197          100.000000                4416941.971327
   217    18 Feb 2025 09:07:01.121    18 Feb 2025 09:23:21.998           980.877    Satellite12    Satellite12        1               77.777778          3435399.311032          100.000000                4416941.971327
   218    18 Feb 2025 10:41:13.390    18 Feb 2025 10:58:06.821          1013.431    Satellite12    Satellite12        1              100.000000          4416941.971327          100.000000                4416941.971327
   219    18 Feb 2025 12:15:56.427    18 Feb 2025 12:32:48.042          1011.614    Satellite12    Satellite12        1               55.555556          2453856.650737          100.000000                4416941.971327
   220    18 Feb 2025 13:50:39.450    18 Feb 2025 14:02:24.592           705.142    Satellite12    Satellite12        1               11.111111           490771.330147          100.000000                4416941.971327
   221    19 Feb 2025 07:13:44.313    19 Feb 2025 07:28:00.550           856.237    Satellite12    Satellite12        1               22.222222           981542.660295          100.000000                4416941.971327
   222    19 Feb 2025 08:48:11.833    19 Feb 2025 09:04:28.285           976.452    Satellite12    Satellite12        1               66.666667          2944627.980884          100.000000                4416941.971327
   223    19 Feb 2025 10:22:26.578    19 Feb 2025 10:39:12.876          1006.299    Satellite12    Satellite12        1              100.000000          4416941.971327          100.000000                4416941.971327
   224    19 Feb 2025 11:57:00.585    19 Feb 2025 12:13:57.281          1016.696    Satellite12    Satellite12        1               66.666667          2944627.980884          100.000000                4416941.971327
   225    19 Feb 2025 13:31:43.589    19 Feb 2025 13:47:29.130           945.541    Satellite12    Satellite12        1               22.222222           981542.660295          100.000000                4416941.971327
   226    20 Feb 2025 06:59:22.951    20 Feb 2025 07:08:13.516           530.565    Satellite12    Satellite12        1               11.111111           490771.330147          100.000000                4416941.971327
   227    20 Feb 2025 08:29:22.045    20 Feb 2025 08:45:29.111           967.066    Satellite12    Satellite12        1               55.555556          2453856.650737          100.000000                4416941.971327
   228    20 Feb 2025 10:03:39.268    20 Feb 2025 10:20:18.660           999.392    Satellite12    Satellite12        1              100.000000          4416941.971327          100.000000                4416941.971327
   229    20 Feb 2025 11:38:04.721    20 Feb 2025 11:55:02.841          1018.120    Satellite12    Satellite12        1               77.777778          3435399.311032          100.000000                4416941.971327
   230    20 Feb 2025 13:12:47.707    20 Feb 2025 13:28:59.895           972.189    Satellite12    Satellite12        1               29.878608          1319720.791202          100.000000                4416941.971327
   231    21 Feb 2025 08:10:31.747    21 Feb 2025 08:26:23.104           951.357    Satellite12    Satellite12        1               44.444444          1963085.320590          100.000000                4416941.971327
   232    21 Feb 2025 09:44:51.465    21 Feb 2025 10:01:24.177           992.713    Satellite12    Satellite12        1               88.888889          3926170.641179          100.000000                4416941.971327
   233    21 Feb 2025 11:19:08.836    21 Feb 2025 11:36:08.136          1019.301    Satellite12    Satellite12        1               83.911353          3706315.764020          100.000000                4416941.971327
   234    21 Feb 2025 12:54:01.279    21 Feb 2025 13:10:25.664           984.385    Satellite12    Satellite12        1               33.333333          1472313.990442          100.000000                4416941.971327
   235    22 Feb 2025 07:51:40.924    22 Feb 2025 08:07:09.505           928.581    Satellite12    Satellite12        1               33.333333          1472313.990442          100.000000                4416941.971327
   236    22 Feb 2025 09:26:03.169    22 Feb 2025 09:42:29.432           986.262    Satellite12    Satellite12        1               79.572434          3514668.223934          100.000000                4416941.971327
   237    22 Feb 2025 11:00:22.425    22 Feb 2025 11:17:13.849          1011.424    Satellite12    Satellite12        1               88.888889          3926170.641179          100.000000                4416941.971327
   238    22 Feb 2025 12:35:05.480    22 Feb 2025 12:51:46.210          1000.731    Satellite12    Satellite12        1               44.444444          1963085.320590          100.000000                4416941.971327
   239    23 Feb 2025 07:32:49.554    23 Feb 2025 07:47:47.208           897.655    Satellite12    Satellite12        1               28.582865          1262488.572653          100.000000                4416941.971327
   240    23 Feb 2025 09:07:14.382    23 Feb 2025 09:23:35.355           980.973    Satellite12    Satellite12        1               77.777778          3435399.311032          100.000000                4416941.971327
   241    23 Feb 2025 10:41:26.622    23 Feb 2025 10:58:20.165          1013.543    Satellite12    Satellite12        1              100.000000          4416941.971327          100.000000                4416941.971327
   242    23 Feb 2025 12:16:09.658    23 Feb 2025 12:33:01.288          1011.630    Satellite12    Satellite12        1               55.555556          2453856.650737          100.000000                4416941.971327
   243    23 Feb 2025 13:50:52.680    23 Feb 2025 14:01:49.520           656.840    Satellite12    Satellite12        1               11.111111           490771.330147          100.000000                4416941.971327
   244    24 Feb 2025 07:13:57.612    24 Feb 2025 07:28:14.399           856.787    Satellite12    Satellite12        1               22.222222           981542.660295          100.000000                4416941.971327
   245    24 Feb 2025 08:48:25.100    24 Feb 2025 09:04:41.627           976.527    Satellite12    Satellite12        1               66.666667          2944627.980884          100.000000                4416941.971327
   246    24 Feb 2025 10:22:39.816    24 Feb 2025 10:39:26.205          1006.390    Satellite12    Satellite12        1              100.000000          4416941.971327          100.000000                4416941.971327
   247    24 Feb 2025 11:57:13.815    24 Feb 2025 12:14:10.597          1016.782    Satellite12    Satellite12        1               66.666667          2944627.980884          100.000000                4416941.971327
   248    24 Feb 2025 13:31:56.818    24 Feb 2025 13:47:42.129           945.311    Satellite12    Satellite12        1               22.222222           981542.660295          100.000000                4416941.971327
   249    25 Feb 2025 06:58:42.671    25 Feb 2025 07:08:27.565           584.894    Satellite12    Satellite12        1               11.111111           490771.330147          100.000000                4416941.971327
   250    25 Feb 2025 08:29:35.318    25 Feb 2025 08:45:42.530           967.212    Satellite12    Satellite12        1               55.555556          2453856.650737          100.000000                4416941.971327
   251    25 Feb 2025 10:03:52.512    25 Feb 2025 10:20:31.974           999.462    Satellite12    Satellite12        1              100.000000          4416941.971327          100.000000                4416941.971327
   252    25 Feb 2025 11:38:17.950    25 Feb 2025 11:55:16.142          1018.192    Satellite12    Satellite12        1               77.777778          3435399.311032          100.000000                4416941.971327
   253    25 Feb 2025 13:13:00.934    25 Feb 2025 13:29:12.952           972.018    Satellite12    Satellite12        1               28.355797          1252459.113283          100.000000                4416941.971327
   254    26 Feb 2025 08:10:45.025    26 Feb 2025 08:26:36.607           951.582    Satellite12    Satellite12        1               44.444444          1963085.320590          100.000000                4416941.971327
   255    26 Feb 2025 09:45:04.714    26 Feb 2025 10:01:37.477           992.763    Satellite12    Satellite12        1               88.888889          3926170.641179          100.000000                4416941.971327
   256    26 Feb 2025 11:19:22.062    26 Feb 2025 11:36:21.422          1019.360    Satellite12    Satellite12        1               81.287061          3590402.296565          100.000000                4416941.971327
   257    26 Feb 2025 12:54:14.512    26 Feb 2025 13:10:38.781           984.268    Satellite12    Satellite12        1               33.333333          1472313.990442          100.000000                4416941.971327
   258    27 Feb 2025 07:51:54.209    27 Feb 2025 08:07:23.103           928.894    Satellite12    Satellite12        1               33.333333          1472313.990442          100.000000                4416941.971327
   259    27 Feb 2025 09:26:16.424    27 Feb 2025 09:42:42.716           986.292    Satellite12    Satellite12        1               85.379606          3771167.655646          100.000000                4416941.971327
   260    27 Feb 2025 11:00:35.657    27 Feb 2025 11:17:27.207          1011.550    Satellite12    Satellite12        1               88.888889          3926170.641179          100.000000                4416941.971327
   261    27 Feb 2025 12:35:18.711    27 Feb 2025 12:51:59.389          1000.678    Satellite12    Satellite12        1               44.444444          1963085.320590          100.000000                4416941.971327
   262    28 Feb 2025 07:33:02.844    28 Feb 2025 07:48:00.916           898.072    Satellite12    Satellite12        1               31.872940          1407809.249121          100.000000                4416941.971327
   263    28 Feb 2025 09:07:27.642    28 Feb 2025 09:23:48.711           981.069    Satellite12    Satellite12        1               77.777778          3435399.311032          100.000000                4416941.971327
   264    28 Feb 2025 10:41:39.853    28 Feb 2025 10:58:33.508          1013.655    Satellite12    Satellite12        1              100.000000          4416941.971327          100.000000                4416941.971327
   265    28 Feb 2025 12:16:22.888    28 Feb 2025 12:33:14.533          1011.645    Satellite12    Satellite12        1               55.555556          2453856.650737          100.000000                4416941.971327
   266    28 Feb 2025 13:51:05.909    28 Feb 2025 14:00:59.786           593.877    Satellite12    Satellite12        1               11.111111           490771.330147          100.000000                4416941.971327
   267     1 Mar 2025 07:14:10.909     1 Mar 2025 07:28:28.245           857.337    Satellite12    Satellite12        1               22.222222           981542.660295          100.000000                4416941.971327
   268     1 Mar 2025 08:48:38.365     1 Mar 2025 09:04:54.966           976.601    Satellite12    Satellite12        1               66.666667          2944627.980884          100.000000                4416941.971327
   269     1 Mar 2025 10:22:53.052     1 Mar 2025 10:39:39.532          1006.480    Satellite12    Satellite12        1              100.000000          4416941.971327          100.000000                4416941.971327
   270     1 Mar 2025 11:57:27.043     1 Mar 2025 12:14:23.911          1016.868    Satellite12    Satellite12        1               66.666667          2944627.980884          100.000000                4416941.971327
   271     1 Mar 2025 13:32:10.045     1 Mar 2025 13:47:55.126           945.081    Satellite12    Satellite12        1               22.222222           981542.660295          100.000000                4416941.971327
