3UCubedIntegratedSim/Reports & Plots/North Cusp @ 1 Degree/CSV/Sat0.csv

Number,Coverage Start (UTCG),Coverage End (UTCG),Duration (sec),Percent,
1,2025-01-01 16:15:39,2025-01-01 16:20:41,302.695,0.096%,
2,2025-01-01 16:20:49,2025-01-01 16:20:55,5.827,0.002%,
3,2025-01-01 17:50:23,2025-01-01 17:55:44,321.043,0.102%,
4,2025-01-01 19:25:07,2025-01-01 19:30:31,324.005,0.103%,
5,2025-01-01 20:59:52,2025-01-01 21:05:03,311.251,0.099%,
6,2025-01-01 22:34:36,2025-01-01 22:39:57,320.382,0.102%,
7,2025-01-02 00:09:21,2025-01-02 00:14:34,313.016,0.099%,
8,2025-01-02 01:44:06,2025-01-02 01:49:13,307.118,0.097%,
9,2025-01-02 03:18:50,2025-01-02 03:23:56,305.44,0.097%,
10,2025-01-02 03:23:59,2025-01-02 03:24:10,11.457,0.004%,
11,2025-01-02 04:53:35,2025-01-02 04:58:47,312.273,0.099%,
12,2025-01-02 06:28:20,2025-01-02 06:33:22,301.842,0.096%,
13,2025-01-02 08:03:04,2025-01-02 08:08:04,300.62,0.095%,
14,2025-01-02 09:37:48,2025-01-02 09:43:01,313.114,0.099%,
15,2025-01-02 11:12:32,2025-01-02 11:17:43,311.188,0.099%,
16,2025-01-02 12:47:16,2025-01-02 12:52:26,310.349,0.098%,
17,2025-01-02 14:22:00,2025-01-02 14:27:14,314.151,0.100%,
18,2025-01-02 15:56:45,2025-01-02 16:01:53,308.304,0.098%,
19,2025-01-02 17:31:29,2025-01-02 17:36:36,307.088,0.097%,
20,2025-01-02 17:36:36,2025-01-02 17:36:49,12.818,0.004%,
21,2025-01-02 19:06:13,2025-01-02 19:11:28,314.676,0.100%,
22,2025-01-02 19:11:29,2025-01-02 19:11:37,7.535,0.002%,
23,2025-01-02 20:40:58,2025-01-02 20:46:02,304.213,0.097%,
24,2025-01-02 22:15:42,2025-01-02 22:20:45,302.53,0.096%,
25,2025-01-02 23:50:27,2025-01-02 23:55:41,314.627,0.100%,
26,2025-01-03 01:25:11,2025-01-03 01:30:15,303.642,0.096%,
27,2025-01-03 02:59:56,2025-01-03 03:05:06,310.308,0.098%,
28,2025-01-03 04:34:41,2025-01-03 04:39:55,313.892,0.100%,
29,2025-01-03 06:09:26,2025-01-03 06:14:33,307.233,0.097%,
30,2025-01-03 07:44:10,2025-01-03 07:49:16,306.394,0.097%,
31,2025-01-03 09:18:54,2025-01-03 09:24:08,314.609,0.100%,
32,2025-01-03 10:53:38,2025-01-03 10:58:43,304.796,0.097%,
33,2025-01-03 12:28:22,2025-01-03 12:33:25,303.047,0.096%,
34,2025-01-03 14:03:06,2025-01-03 14:08:22,315.642,0.100%,
35,2025-01-03 15:37:50,2025-01-03 15:42:56,305.925,0.097%,
36,2025-01-03 17:12:35,2025-01-03 17:17:33,298.113,0.095%,
37,2025-01-03 17:17:43,2025-01-03 17:17:54,11.159,0.004%,
38,2025-01-03 18:47:19,2025-01-03 18:52:35,316.169,0.100%,
39,2025-01-03 20:22:03,2025-01-03 20:27:13,309.51,0.098%,
40,2025-01-03 21:56:48,2025-01-03 22:01:56,308.185,0.098%,
41,2025-01-03 23:31:33,2025-01-03 23:36:49,316.125,0.100%,
42,2025-01-04 01:06:17,2025-01-04 01:11:24,306.475,0.097%,
43,2025-01-04 02:41:02,2025-01-04 02:46:05,303.291,0.096%,
44,2025-01-04 04:15:47,2025-01-04 04:21:02,315.404,0.100%,
45,2025-01-04 05:50:32,2025-01-04 05:55:37,305.742,0.097%,
46,2025-01-04 07:25:16,2025-01-04 07:30:13,297.703,0.094%,
47,2025-01-04 09:00:00,2025-01-04 09:05:16,315.995,0.100%,
48,2025-01-04 10:34:44,2025-01-04 10:39:53,309.404,0.098%,
49,2025-01-04 12:09:28,2025-01-04 12:14:36,308.478,0.098%,
50,2025-01-04 13:44:12,2025-01-04 13:49:29,317.032,0.101%,
51,2025-01-04 15:18:56,2025-01-04 15:24:05,308.354,0.098%,
52,2025-01-04 16:53:40,2025-01-04 16:58:45,304.904,0.097%,
53,2025-01-04 16:58:49,2025-01-04 16:58:59,9.184,0.003%,
54,2025-01-04 18:28:25,2025-01-04 18:33:42,317.56,0.101%,
55,2025-01-04 20:03:09,2025-01-04 20:08:18,308.875,0.098%,
56,2025-01-04 21:37:54,2025-01-04 21:42:54,299.864,0.095%,
57,2025-01-04 23:12:38,2025-01-04 23:17:56,317.524,0.101%,
58,2025-01-05 00:47:23,2025-01-05 00:52:33,310.109,0.098%,
59,2025-01-05 02:22:08,2025-01-05 02:27:16,308.637,0.098%,
60,2025-01-05 03:56:52,2025-01-05 04:02:09,316.818,0.101%,
61,2025-01-05 05:31:37,2025-01-05 05:36:45,307.973,0.098%,
62,2025-01-05 07:06:21,2025-01-05 07:11:26,304.182,0.097%,
63,2025-01-05 08:41:05,2025-01-05 08:46:23,317.289,0.101%,
64,2025-01-05 10:15:49,2025-01-05 10:20:59,309.407,0.098%,
65,2025-01-05 11:50:34,2025-01-05 11:55:34,300.384,0.095%,
66,2025-01-05 13:25:18,2025-01-05 13:30:36,318.331,0.101%,
67,2025-01-05 15:00:02,2025-01-05 15:05:12,310.418,0.098%,
68,2025-01-05 16:34:46,2025-01-05 16:39:56,310.033,0.098%,
69,2025-01-05 16:39:56,2025-01-05 16:40:03,6.626,0.002%,
70,2025-01-05 18:09:31,2025-01-05 18:14:49,318.866,0.101%,
71,2025-01-05 19:44:15,2025-01-05 19:49:26,310.901,0.099%,
72,2025-01-05 21:18:59,2025-01-05 21:24:06,306.172,0.097%,
73,2025-01-05 22:53:44,2025-01-05 22:58:49,304.591,0.097%,
74,2025-01-05 22:59:03,2025-01-05 22:59:03,0.2,0.000%,
75,2025-01-06 00:28:29,2025-01-06 00:33:39,310.792,0.099%,
76,2025-01-06 02:03:13,2025-01-06 02:08:14,300.881,0.095%,
77,2025-01-06 03:37:58,2025-01-06 03:42:57,298.709,0.095%,
78,2025-01-06 05:12:43,2025-01-06 05:17:53,309.968,0.098%,
79,2025-01-06 06:47:27,2025-01-06 06:52:21,294.304,0.093%,
80,2025-01-06 06:52:31,2025-01-06 06:52:36,4.976,0.002%,
81,2025-01-06 08:22:11,2025-01-06 08:27:20,308.35,0.098%,
82,2025-01-06 09:56:55,2025-01-06 10:02:06,311.245,0.099%,
83,2025-01-06 11:31:39,2025-01-06 11:36:46,306.429,0.097%,
84,2025-01-06 13:06:24,2025-01-06 13:11:29,305.26,0.097%,
85,2025-01-06 14:41:08,2025-01-06 14:46:20,312.24,0.099%,
86,2025-01-06 16:15:52,2025-01-06 16:20:55,302.464,0.096%,
87,2025-01-06 16:21:04,2025-01-06 16:21:06,1.756,0.001%,
88,2025-01-06 17:50:36,2025-01-06 17:55:37,300.796,0.095%,
89,2025-01-06 19:25:21,2025-01-06 19:30:34,312.714,0.099%,
90,2025-01-06 21:00:05,2025-01-06 21:05:02,296.767,0.094%,
91,2025-01-06 22:34:50,2025-01-06 22:40:00,309.767,0.098%,
92,2025-01-07 00:09:34,2025-01-07 00:14:47,312.598,0.099%,
93,2025-01-07 01:44:19,2025-01-07 01:49:26,306.797,0.097%,
94,2025-01-07 03:19:04,2025-01-07 03:24:09,305.076,0.097%,
95,2025-01-07 04:53:49,2025-01-07 04:59:00,311.77,0.099%,
96,2025-01-07 06:28:33,2025-01-07 06:33:35,301.744,0.096%,
97,2025-01-07 08:03:17,2025-01-07 08:08:17,300.482,0.095%,
98,2025-01-07 09:38:01,2025-01-07 09:43:14,312.909,0.099%,
99,2025-01-07 11:12:45,2025-01-07 11:17:46,300.606,0.095%,
100,2025-01-07 12:47:29,2025-01-07 12:52:25,295.375,0.094%,
101,2025-01-07 14:22:14,2025-01-07 14:27:27,313.89,0.100%,
102,2025-01-07 15:56:58,2025-01-07 16:02:06,308.135,0.098%,
103,2025-01-07 17:31:42,2025-01-07 17:36:49,306.886,0.097%,
104,2025-01-07 19:06:27,2025-01-07 19:11:41,314.355,0.100%,
105,2025-01-07 20:41:11,2025-01-07 20:46:15,303.937,0.096%,
106,2025-01-07 22:15:56,2025-01-07 22:20:58,302.212,0.096%,
107,2025-01-07 23:50:40,2025-01-07 23:55:54,314.236,0.100%,
108,2025-01-08 01:25:25,2025-01-08 01:30:28,302.865,0.096%,
109,2025-01-08 03:00:10,2025-01-08 03:05:05,295.677,0.094%,
110,2025-01-08 04:34:54,2025-01-08 04:40:08,313.418,0.099%,
111,2025-01-08 06:09:39,2025-01-08 06:14:46,307.193,0.097%,
112,2025-01-08 07:44:23,2025-01-08 07:49:29,306.323,0.097%,
113,2025-01-08 09:19:07,2025-01-08 09:24:21,314.427,0.100%,
114,2025-01-08 10:53:51,2025-01-08 10:58:55,304.309,0.097%,
115,2025-01-08 12:28:35,2025-01-08 12:33:38,302.865,0.096%,
116,2025-01-08 14:03:19,2025-01-08 14:08:35,315.408,0.100%,
117,2025-01-08 15:38:04,2025-01-08 15:43:09,305.41,0.097%,
118,2025-01-08 17:12:48,2025-01-08 17:17:46,297.8,0.094%,
119,2025-01-08 18:47:32,2025-01-08 18:52:48,315.871,0.100%,
120,2025-01-08 20:22:17,2025-01-08 20:27:26,309.29,0.098%,
121,2025-01-08 21:57:01,2025-01-08 22:02:09,307.931,0.098%,
122,2025-01-08 23:31:46,2025-01-08 23:37:02,315.763,0.100%,
123,2025-01-09 01:06:31,2025-01-09 01:11:36,305.866,0.097%,
124,2025-01-09 02:41:15,2025-01-09 02:46:18,302.91,0.096%,
125,2025-01-09 04:16:00,2025-01-09 04:21:15,314.951,0.100%,
126,2025-01-09 05:50:45,2025-01-09 05:55:50,305.417,0.097%,
127,2025-01-09 07:25:29,2025-01-09 07:30:26,297.531,0.094%,
128,2025-01-09 09:00:13,2025-01-09 09:05:29,315.838,0.100%,
129,2025-01-09 10:34:57,2025-01-09 10:40:04,306.941,0.097%,
130,2025-01-09 12:09:41,2025-01-09 12:14:49,308.36,0.098%,
131,2025-01-09 13:44:25,2025-01-09 13:49:42,316.819,0.101%,
132,2025-01-09 15:19:09,2025-01-09 15:24:17,307.946,0.098%,
133,2025-01-09 16:53:54,2025-01-09 16:58:58,304.687,0.097%,
134,2025-01-09 18:28:38,2025-01-09 18:33:41,303.147,0.096%,
135,2025-01-09 20:03:23,2025-01-09 20:08:31,308.407,0.098%,
136,2025-01-09 21:38:07,2025-01-09 21:43:07,299.515,0.095%,
137,2025-01-09 23:12:52,2025-01-09 23:17:49,297.345,0.094%,
138,2025-01-10 00:47:36,2025-01-10 00:52:45,308.261,0.098%,
139,2025-01-10 02:22:21,2025-01-10 02:27:13,291.966,0.093%,
140,2025-01-10 02:27:28,2025-01-10 02:27:29,1.823,0.001%,
141,2025-01-10 03:57:06,2025-01-10 04:02:13,306.646,0.097%,
142,2025-01-10 05:31:51,2025-01-10 05:36:58,307.634,0.098%,
143,2025-01-10 07:06:35,2025-01-10 07:11:39,304.095,0.096%,
144,2025-01-10 08:41:19,2025-01-10 08:46:22,302.961,0.096%,
145,2025-01-10 10:16:03,2025-01-10 10:21:12,309.107,0.098%,
146,2025-01-10 11:50:47,2025-01-10 11:55:47,300.178,0.095%,
147,2025-01-10 13:25:31,2025-01-10 13:30:29,298.481,0.095%,
148,2025-01-10 15:00:15,2025-01-10 15:05:25,310.069,0.098%,
149,2025-01-10 16:35:00,2025-01-10 16:39:54,294.227,0.093%,
150,2025-01-10 18:09:44,2025-01-10 18:14:53,308.686,0.098%,
151,2025-01-10 19:44:28,2025-01-10 19:49:39,310.494,0.099%,
152,2025-01-10 21:19:13,2025-01-10 21:24:19,305.904,0.097%,
153,2025-01-10 22:53:57,2025-01-10 22:59:02,304.282,0.097%,
154,2025-01-11 00:28:42,2025-01-11 00:33:52,310.318,0.098%,
155,2025-01-11 02:03:27,2025-01-11 02:08:27,300.476,0.095%,
156,2025-01-11 03:38:12,2025-01-11 03:43:10,298.246,0.095%,
157,2025-01-11 05:12:56,2025-01-11 05:18:06,309.547,0.098%,
158,2025-01-11 06:47:40,2025-01-11 06:52:34,294.076,0.093%,
159,2025-01-11 08:22:24,2025-01-11 08:27:16,291.872,0.093%,
160,2025-01-11 09:57:08,2025-01-11 10:02:19,310.991,0.099%,
161,2025-01-11 11:31:53,2025-01-11 11:36:59,306.299,0.097%,
162,2025-01-11 13:06:37,2025-01-11 13:11:42,305.097,0.097%,
163,2025-01-11 14:41:21,2025-01-11 14:46:33,311.934,0.099%,
164,2025-01-11 16:16:05,2025-01-11 16:21:08,302.224,0.096%,
165,2025-01-11 17:50:50,2025-01-11 17:55:50,300.511,0.095%,
166,2025-01-11 19:25:34,2025-01-11 19:30:46,312.348,0.099%,
167,2025-01-11 21:00:19,2025-01-11 21:05:15,296.371,0.094%,
168,2025-01-11 22:35:03,2025-01-11 22:39:57,293.814,0.093%,
169,2025-01-12 00:09:48,2025-01-12 00:15:00,312.159,0.099%,
170,2025-01-12 01:44:33,2025-01-12 01:49:39,306.461,0.097%,
171,2025-01-12 03:19:17,2025-01-12 03:24:22,304.697,0.097%,
172,2025-01-12 04:54:02,2025-01-12 04:59:13,311.257,0.099%,
173,2025-01-12 06:28:46,2025-01-12 06:33:48,301.631,0.096%,
174,2025-01-12 08:03:30,2025-01-12 08:08:31,300.332,0.095%,
175,2025-01-12 09:38:14,2025-01-12 09:43:27,312.687,0.099%,
176,2025-01-12 11:12:58,2025-01-12 11:17:58,299.591,0.095%,
177,2025-01-12 12:47:43,2025-01-12 12:52:38,295.069,0.094%,
178,2025-01-12 14:22:27,2025-01-12 14:27:40,313.617,0.099%,
179,2025-01-12 15:57:11,2025-01-12 16:02:19,307.96,0.098%,
180,2025-01-12 17:31:55,2025-01-12 17:37:02,306.677,0.097%,
181,2025-01-12 19:06:40,2025-01-12 19:11:54,314.02,0.100%,
182,2025-01-12 20:41:24,2025-01-12 20:46:28,303.649,0.096%,
183,2025-01-12 22:16:09,2025-01-12 22:21:11,301.88,0.096%,
184,2025-01-12 23:50:54,2025-01-12 23:56:07,313.829,0.100%,
185,2025-01-13 01:25:38,2025-01-13 01:30:40,302.014,0.096%,
186,2025-01-13 03:00:23,2025-01-13 03:05:18,295.169,0.094%,
187,2025-01-13 04:35:08,2025-01-13 04:40:21,312.924,0.099%,
188,2025-01-13 06:09:52,2025-01-13 06:14:54,302.155,0.096%,
189,2025-01-13 07:44:36,2025-01-13 07:49:42,306.243,0.097%,
190,2025-01-13 09:19:20,2025-01-13 09:24:34,314.236,0.100%,
191,2025-01-13 10:54:04,2025-01-13 10:59:08,304.026,0.096%,
192,2025-01-13 12:28:48,2025-01-13 12:33:51,302.677,0.096%,
193,2025-01-13 14:03:33,2025-01-13 14:08:34,301.165,0.096%,
194,2025-01-13 15:38:17,2025-01-13 15:43:22,304.852,0.097%,
195,2025-01-13 17:13:01,2025-01-13 17:17:59,297.476,0.094%,
196,2025-01-13 18:47:46,2025-01-13 18:52:41,295.206,0.094%,
197,2025-01-13 20:22:30,2025-01-13 20:27:36,305.36,0.097%,
198,2025-01-13 21:57:15,2025-01-13 22:02:04,289.178,0.092%,
199,2025-01-13 22:02:15,2025-01-13 22:02:22,7.075,0.002%,
200,2025-01-13 23:31:59,2025-01-13 23:37:05,306.116,0.097%,
201,2025-01-14 01:06:44,2025-01-14 01:11:49,305.216,0.097%,
202,2025-01-14 02:41:29,2025-01-14 02:46:31,302.517,0.096%,
203,2025-01-14 04:16:14,2025-01-14 04:21:14,300.421,0.095%,
204,2025-01-14 05:50:58,2025-01-14 05:56:03,305.062,0.097%,
205,2025-01-14 07:25:42,2025-01-14 07:30:39,297.343,0.094%,
206,2025-01-14 09:00:26,2025-01-14 09:05:21,295.55,0.094%,
207,2025-01-14 10:35:10,2025-01-14 10:40:17,306.545,0.097%,
208,2025-01-14 12:09:54,2025-01-14 12:14:45,290.768,0.092%,
209,2025-01-14 13:44:38,2025-01-14 13:49:46,307.116,0.097%,
210,2025-01-14 15:19:23,2025-01-14 15:24:30,307.507,0.098%,
211,2025-01-14 16:54:07,2025-01-14 16:59:12,304.453,0.097%,
212,2025-01-14 18:28:51,2025-01-14 18:33:54,302.879,0.096%,
213,2025-01-14 20:03:36,2025-01-14 20:08:44,307.921,0.098%,
214,2025-01-14 21:38:20,2025-01-14 21:43:20,299.151,0.095%,
215,2025-01-14 23:13:05,2025-01-14 23:18:02,296.92,0.094%,
216,2025-01-15 00:47:50,2025-01-15 00:52:57,307.705,0.098%,
217,2025-01-15 02:22:35,2025-01-15 02:27:26,291.373,0.092%,
218,2025-01-15 03:57:19,2025-01-15 04:02:07,287.682,0.091%,
219,2025-01-15 05:32:04,2025-01-15 05:37:11,307.36,0.098%,
220,2025-01-15 07:06:48,2025-01-15 07:11:52,303.997,0.096%,
221,2025-01-15 08:41:32,2025-01-15 08:46:35,302.829,0.096%,
222,2025-01-15 10:16:16,2025-01-15 10:21:25,308.789,0.098%,
223,2025-01-15 11:51:00,2025-01-15 11:56:00,299.967,0.095%,
224,2025-01-15 13:25:44,2025-01-15 13:30:42,298.216,0.095%,
225,2025-01-15 15:00:29,2025-01-15 15:05:38,309.699,0.098%,
226,2025-01-15 16:35:13,2025-01-15 16:40:07,293.824,0.093%,
227,2025-01-15 18:09:57,2025-01-15 18:14:48,290.939,0.092%,
228,2025-01-15 19:44:42,2025-01-15 19:49:52,310.07,0.098%,
229,2025-01-15 21:19:26,2025-01-15 21:24:32,305.623,0.097%,
230,2025-01-15 22:54:11,2025-01-15 22:59:15,303.96,0.096%,
231,2025-01-16 00:28:56,2025-01-16 00:34:05,309.823,0.098%,
232,2025-01-16 02:03:40,2025-01-16 02:08:40,300.056,0.095%,
233,2025-01-16 03:38:25,2025-01-16 03:43:23,297.767,0.094%,
234,2025-01-16 05:13:10,2025-01-16 05:18:19,309.329,0.098%,
235,2025-01-16 06:47:54,2025-01-16 06:52:47,293.827,0.093%,
236,2025-01-16 08:22:38,2025-01-16 08:27:29,291.536,0.092%,
237,2025-01-16 09:57:22,2025-01-16 10:02:32,310.724,0.099%,
238,2025-01-16 11:32:06,2025-01-16 11:37:12,306.16,0.097%,
239,2025-01-16 13:06:50,2025-01-16 13:11:55,304.922,0.097%,
240,2025-01-16 14:41:34,2025-01-16 14:46:46,311.611,0.099%,
241,2025-01-16 16:16:19,2025-01-16 16:21:21,301.97,0.096%,
242,2025-01-16 17:51:03,2025-01-16 17:56:03,300.217,0.095%,
243,2025-01-16 19:25:47,2025-01-16 19:30:59,311.962,0.099%,
244,2025-01-16 21:00:32,2025-01-16 21:05:28,295.958,0.094%,
245,2025-01-16 22:35:17,2025-01-16 22:40:10,293.319,0.093%,
246,2025-01-17 00:10:01,2025-01-17 00:15:13,311.707,0.099%,
247,2025-01-17 01:44:46,2025-01-17 01:49:32,285.946,0.091%,
248,2025-01-17 03:19:31,2025-01-17 03:24:35,304.301,0.097%,
249,2025-01-17 04:54:15,2025-01-17 04:59:26,311.079,0.099%,
250,2025-01-17 06:28:59,2025-01-17 06:34:01,301.512,0.096%,
251,2025-01-17 08:03:43,2025-01-17 08:08:44,300.172,0.095%,
252,2025-01-17 09:38:28,2025-01-17 09:43:26,298.629,0.095%,
253,2025-01-17 09:43:27,2025-01-17 09:43:40,12.716,0.004%,
254,2025-01-17 11:13:12,2025-01-17 11:18:10,298.138,0.095%,
255,2025-01-17 12:47:56,2025-01-17 12:52:51,294.74,0.094%,
256,2025-01-17 14:22:40,2025-01-17 14:27:32,292.215,0.093%,
257,2025-01-17 15:57:24,2025-01-17 16:02:13,288.997,0.092%,
258,2025-01-17 16:02:17,2025-01-17 16:02:24,7.35,0.002%,
259,2025-01-17 17:32:09,2025-01-17 17:36:53,283.958,0.090%,
260,2025-01-17 17:36:54,2025-01-17 17:37:15,21.673,0.007%,
261,2025-01-17 19:06:53,2025-01-17 19:11:58,304.987,0.097%,
262,2025-01-17 20:41:38,2025-01-17 20:46:41,303.352,0.096%,
263,2025-01-17 22:16:22,2025-01-17 22:21:24,301.536,0.096%,
264,2025-01-17 23:51:07,2025-01-17 23:56:07,299.507,0.095%,
265,2025-01-18 01:25:52,2025-01-18 01:30:53,301.08,0.096%,
266,2025-01-18 03:00:37,2025-01-18 03:05:31,294.642,0.093%,
267,2025-01-18 04:35:21,2025-01-18 04:40:13,291.907,0.093%,
268,2025-01-18 06:10:05,2025-01-18 06:15:07,301.57,0.096%,
269,2025-01-18 07:44:49,2025-01-18 07:49:35,285.849,0.091%,
270,2025-01-18 09:19:33,2025-01-18 09:24:38,305.085,0.097%,
271,2025-01-18 10:54:17,2025-01-18 10:59:21,303.865,0.096%,
272,2025-01-18 12:29:02,2025-01-18 12:34:04,302.481,0.096%,
273,2025-01-18 14:03:46,2025-01-18 14:08:47,300.926,0.095%,
274,2025-01-18 15:38:30,2025-01-18 15:43:34,304.256,0.097%,
275,2025-01-18 17:13:15,2025-01-18 17:18:12,297.134,0.094%,
276,2025-01-18 18:47:59,2025-01-18 18:52:54,294.796,0.094%,
277,2025-01-18 20:22:44,2025-01-18 20:27:48,304.727,0.097%,
278,2025-01-18 21:57:28,2025-01-18 22:02:17,288.508,0.092%,
279,2025-01-18 23:32:13,2025-01-18 23:36:56,283.043,0.090%,
280,2025-01-18 23:37:17,2025-01-18 23:37:19,1.475,0.001%,
281,2025-01-19 01:06:57,2025-01-19 01:12:02,304.534,0.097%,
282,2025-01-19 02:41:42,2025-01-19 02:46:44,302.104,0.096%,
283,2025-01-19 04:16:27,2025-01-19 04:21:27,300.07,0.095%,
284,2025-01-19 05:51:11,2025-01-19 05:56:16,304.676,0.097%,
285,2025-01-19 07:25:55,2025-01-19 07:30:52,297.145,0.094%,
286,2025-01-19 09:00:39,2025-01-19 09:05:34,295.294,0.094%,
287,2025-01-19 10:35:23,2025-01-19 10:40:29,306.125,0.097%,
288,2025-01-19 12:10:07,2025-01-19 12:14:58,290.319,0.092%,
289,2025-01-19 13:44:52,2025-01-19 13:49:38,286.505,0.091%,
290,2025-01-19 15:19:36,2025-01-19 15:24:43,307.046,0.097%,
291,2025-01-19 16:54:20,2025-01-19 16:59:25,304.215,0.097%,
292,2025-01-19 18:29:05,2025-01-19 18:34:07,302.604,0.096%,
293,2025-01-19 20:03:49,2025-01-19 20:08:57,307.411,0.098%,
294,2025-01-19 21:38:34,2025-01-19 21:43:33,298.775,0.095%,
295,2025-01-19 23:13:19,2025-01-19 23:18:15,296.481,0.094%,
296,2025-01-20 00:48:03,2025-01-20 00:53:10,307.128,0.097%,
297,2025-01-20 02:22:48,2025-01-20 02:27:39,290.755,0.092%,
298,2025-01-20 03:57:33,2025-01-20 04:02:20,286.885,0.091%,
299,2025-01-20 05:32:17,2025-01-20 05:36:59,282.137,0.090%,
300,2025-01-20 05:37:02,2025-01-20 05:37:24,21.74,0.007%,
301,2025-01-20 07:07:01,2025-01-20 07:12:05,303.892,0.096%,
302,2025-01-20 08:41:45,2025-01-20 08:46:48,302.687,0.096%,
303,2025-01-20 10:16:29,2025-01-20 10:21:38,308.453,0.098%,
304,2025-01-20 11:51:13,2025-01-20 11:56:13,299.739,0.095%,
305,2025-01-20 13:25:58,2025-01-20 13:30:55,297.942,0.095%,
306,2025-01-20 15:00:42,2025-01-20 15:05:51,309.314,0.098%,
307,2025-01-20 16:35:26,2025-01-20 16:40:20,293.414,0.093%,
308,2025-01-20 18:10:11,2025-01-20 18:15:01,290.4,0.092%,
309,2025-01-20 19:44:55,2025-01-20 19:50:05,309.628,0.098%,
310,2025-01-20 21:19:40,2025-01-20 21:24:22,282.195,0.090%,
311,2025-01-20 21:24:31,2025-01-20 21:24:45,14.24,0.005%,
312,2025-01-20 22:54:24,2025-01-20 22:59:28,303.622,0.096%,
313,2025-01-21 00:29:09,2025-01-21 00:34:18,309.31,0.098%,
314,2025-01-21 02:03:54,2025-01-21 02:08:53,299.624,0.095%,
315,2025-01-21 03:38:39,2025-01-21 03:43:36,297.274,0.094%,
316,2025-01-21 05:13:23,2025-01-21 05:18:32,309.096,0.098%,
317,2025-01-21 06:48:07,2025-01-21 06:53:00,293.567,0.093%,
318,2025-01-21 08:22:51,2025-01-21 08:27:42,291.179,0.092%,
319,2025-01-21 09:57:35,2025-01-21 10:02:23,288.05,0.091%,
320,2025-01-21 10:02:26,2025-01-21 10:02:45,19.166,0.006%,
321,2025-01-21 11:32:19,2025-01-21 11:37:02,283.182,0.090%,
322,2025-01-21 13:07:03,2025-01-21 13:12:08,304.74,0.097%,
323,2025-01-21 14:41:48,2025-01-21 14:46:51,303.31,0.096%,
324,2025-01-21 14:46:56,2025-01-21 14:46:59,2.773,0.001%,
325,2025-01-21 16:16:32,2025-01-21 16:21:34,301.71,0.096%,
326,2025-01-21 17:51:16,2025-01-21 17:56:16,299.908,0.095%,
327,2025-01-21 19:26:01,2025-01-21 19:30:59,297.867,0.095%,
328,2025-01-21 21:00:45,2025-01-21 21:05:41,295.532,0.094%,
329,2025-01-21 22:35:30,2025-01-21 22:40:23,292.806,0.093%,
330,2025-01-22 00:10:15,2025-01-22 00:15:04,289.497,0.092%,
331,2025-01-22 01:44:59,2025-01-22 01:49:44,285.011,0.090%,
332,2025-01-22 03:19:44,2025-01-22 03:24:25,280.734,0.089%,
333,2025-01-22 04:54:29,2025-01-22 04:59:31,302.586,0.096%,
334,2025-01-22 06:29:13,2025-01-22 06:34:14,301.384,0.096%,
335,2025-01-22 08:03:57,2025-01-22 08:08:57,300.007,0.095%,
336,2025-01-22 09:38:41,2025-01-22 09:43:39,298.414,0.095%,
337,2025-01-22 11:13:25,2025-01-22 11:18:21,296.572,0.094%,
338,2025-01-22 12:48:09,2025-01-22 12:53:04,294.403,0.093%,
339,2025-01-22 14:22:53,2025-01-22 14:27:45,291.781,0.093%,
340,2025-01-22 15:57:38,2025-01-22 16:02:26,288.39,0.091%,
341,2025-01-22 16:02:32,2025-01-22 16:02:36,4.506,0.001%,
342,2025-01-22 17:32:22,2025-01-22 17:37:06,283.372,0.090%,
343,2025-01-22 19:07:07,2025-01-22 19:12:11,304.719,0.097%,
344,2025-01-22 20:41:51,2025-01-22 20:46:54,303.046,0.096%,
345,2025-01-22 22:16:36,2025-01-22 22:21:37,301.18,0.096%,
346,2025-01-22 23:51:20,2025-01-22 23:56:20,299.099,0.095%,
347,2025-01-23 01:26:05,2025-01-23 01:31:05,300.03,0.095%,
348,2025-01-23 03:00:50,2025-01-23 03:05:44,294.1,0.093%,
349,2025-01-23 04:35:34,2025-01-23 04:40:26,291.633,0.093%,
350,2025-01-23 06:10:18,2025-01-23 06:15:07,288.991,0.092%,
351,2025-01-23 06:15:08,2025-01-23 06:15:19,11.029,0.004%,
352,2025-01-23 07:45:02,2025-01-23 07:49:48,285.157,0.090%,
353,2025-01-23 09:19:47,2025-01-23 09:24:28,281.765,0.089%,
354,2025-01-23 10:54:31,2025-01-23 10:59:34,303.696,0.096%,
355,2025-01-23 12:29:15,2025-01-23 12:34:17,302.277,0.096%,
356,2025-01-23 14:03:59,2025-01-23 14:09:00,300.678,0.095%,
357,2025-01-23 15:38:44,2025-01-23 15:43:47,303.609,0.096%,
358,2025-01-23 17:13:28,2025-01-23 17:18:25,296.783,0.094%,
359,2025-01-23 18:48:12,2025-01-23 18:53:07,294.369,0.093%,
360,2025-01-23 20:22:57,2025-01-23 20:28:01,304.058,0.096%,
361,2025-01-23 21:57:42,2025-01-23 22:02:29,287.801,0.091%,
362,2025-01-23 23:32:26,2025-01-23 23:37:09,282.592,0.090%,
363,2025-01-24 01:07:11,2025-01-24 01:11:51,280.106,0.089%,
364,2025-01-24 01:11:59,2025-01-24 01:12:15,15.912,0.005%,
365,2025-01-24 02:41:56,2025-01-24 02:46:57,301.681,0.096%,
366,2025-01-24 04:16:40,2025-01-24 04:21:40,299.955,0.095%,
367,2025-01-24 05:51:24,2025-01-24 05:56:28,304.264,0.097%,
368,2025-01-24 07:26:08,2025-01-24 07:31:05,296.935,0.094%,
369,2025-01-24 09:00:52,2025-01-24 09:05:47,295.024,0.094%,
370,2025-01-24 10:35:37,2025-01-24 10:40:42,305.675,0.097%,
371,2025-01-24 12:10:21,2025-01-24 12:15:11,289.84,0.092%,
372,2025-01-24 13:45:05,2025-01-24 13:49:51,285.713,0.091%,
373,2025-01-24 15:19:49,2025-01-24 15:24:32,282.23,0.090%,
374,2025-01-24 15:24:37,2025-01-24 15:24:56,18.683,0.006%,
375,2025-01-24 16:54:34,2025-01-24 16:59:38,303.966,0.096%,
376,2025-01-24 18:29:18,2025-01-24 18:34:20,302.31,0.096%,
377,2025-01-24 20:04:03,2025-01-24 20:09:10,306.874,0.097%,
378,2025-01-24 21:38:47,2025-01-24 21:43:46,298.387,0.095%,
379,2025-01-24 23:13:32,2025-01-24 23:18:28,296.027,0.094%,
380,2025-01-25 00:48:17,2025-01-25 00:53:23,306.528,0.097%,
381,2025-01-25 02:23:01,2025-01-25 02:27:52,290.108,0.092%,
382,2025-01-25 03:57:46,2025-01-25 04:02:32,286.395,0.091%,
383,2025-01-25 05:32:30,2025-01-25 05:37:12,281.96,0.089%,
384,2025-01-25 05:37:16,2025-01-25 05:37:37,21.034,0.007%,
385,2025-01-25 07:07:14,2025-01-25 07:11:54,280.179,0.089%,
386,2025-01-25 08:41:58,2025-01-25 08:47:01,302.538,0.096%,
387,2025-01-25 10:16:42,2025-01-25 10:21:50,308.093,0.098%,
388,2025-01-25 11:51:27,2025-01-25 11:56:26,299.502,0.095%,
389,2025-01-25 13:26:11,2025-01-25 13:31:08,297.651,0.094%,
390,2025-01-25 15:00:55,2025-01-25 15:06:04,308.911,0.098%,
391,2025-01-25 16:35:39,2025-01-25 16:40:32,292.974,0.093%,
392,2025-01-25 18:10:24,2025-01-25 18:15:14,289.833,0.092%,
393,2025-01-25 19:45:08,2025-01-25 19:49:54,285.374,0.091%,
394,2025-01-25 19:50:12,2025-01-25 19:50:18,5.877,0.002%,
395,2025-01-25 21:19:53,2025-01-25 21:24:35,281.787,0.089%,
396,2025-01-25 22:54:38,2025-01-25 22:59:41,303.276,0.096%,
397,2025-01-26 00:29:22,2025-01-26 00:34:24,301.337,0.096%,
398,2025-01-26 02:04:07,2025-01-26 02:09:06,299.174,0.095%,
399,2025-01-26 03:38:52,2025-01-26 03:43:49,296.98,0.094%,
400,2025-01-26 05:13:36,2025-01-26 05:18:31,295.299,0.094%,
401,2025-01-26 06:48:20,2025-01-26 06:53:13,293.289,0.093%,
402,2025-01-26 08:23:04,2025-01-26 08:27:55,290.801,0.092%,
403,2025-01-26 09:57:48,2025-01-26 10:02:36,287.484,0.091%,
404,2025-01-26 11:32:32,2025-01-26 11:37:15,282.922,0.090%,
405,2025-01-26 13:07:17,2025-01-26 13:11:58,280.919,0.089%,
406,2025-01-26 14:42:01,2025-01-26 14:47:04,303.08,0.096%,
407,2025-01-26 16:16:45,2025-01-26 16:21:47,301.437,0.096%,
408,2025-01-26 17:51:30,2025-01-26 17:56:29,299.586,0.095%,
409,2025-01-26 19:26:14,2025-01-26 19:31:12,297.488,0.094%,
410,2025-01-26 21:00:59,2025-01-26 21:05:54,295.086,0.094%,
411,2025-01-26 22:35:43,2025-01-26 22:40:36,292.276,0.093%,
412,2025-01-27 00:10:28,2025-01-27 00:15:17,288.816,0.092%,
413,2025-01-27 01:45:13,2025-01-27 01:49:57,283.966,0.090%,
414,2025-01-27 03:19:58,2025-01-27 03:24:38,280.286,0.089%,
415,2025-01-27 04:54:42,2025-01-27 04:59:20,278.422,0.088%,
416,2025-01-27 04:59:22,2025-01-27 04:59:44,21.719,0.007%,
417,2025-01-27 06:29:26,2025-01-27 06:34:27,301.249,0.096%,
418,2025-01-27 08:04:10,2025-01-27 08:09:10,299.822,0.095%,
419,2025-01-27 09:38:54,2025-01-27 09:43:52,298.183,0.095%,
420,2025-01-27 11:13:38,2025-01-27 11:18:34,296.282,0.094%,
421,2025-01-27 12:48:22,2025-01-27 12:53:16,294.041,0.093%,
422,2025-01-27 14:23:07,2025-01-27 14:27:58,291.317,0.092%,
423,2025-01-27 15:57:51,2025-01-27 16:02:39,287.725,0.091%,
424,2025-01-27 17:32:35,2025-01-27 17:37:19,283.034,0.090%,
425,2025-01-27 19:07:20,2025-01-27 19:12:01,280.779,0.089%,
426,2025-01-27 20:42:05,2025-01-27 20:47:07,302.72,0.096%,
427,2025-01-27 22:16:49,2025-01-27 22:21:50,300.808,0.095%,
428,2025-01-27 23:51:34,2025-01-27 23:56:33,298.672,0.095%,
429,2025-01-28 01:26:19,2025-01-28 01:31:17,298.781,0.095%,
430,2025-01-28 03:01:04,2025-01-28 03:05:57,293.536,0.093%,
431,2025-01-28 04:35:48,2025-01-28 04:40:39,291.34,0.092%,
432,2025-01-28 06:10:32,2025-01-28 06:15:20,288.56,0.092%,
433,2025-01-28 06:15:22,2025-01-28 06:15:32,9.399,0.003%,
434,2025-01-28 07:45:16,2025-01-28 07:50:00,284.35,0.090%,
435,2025-01-28 09:20:00,2025-01-28 09:24:41,281.511,0.089%,
436,2025-01-28 10:54:44,2025-01-28 10:59:23,279.422,0.089%,
437,2025-01-28 10:59:35,2025-01-28 10:59:47,12.74,0.004%,
438,2025-01-28 12:29:28,2025-01-28 12:34:30,302.065,0.096%,
439,2025-01-28 14:04:12,2025-01-28 14:09:13,300.418,0.095%,
440,2025-01-28 15:38:57,2025-01-28 15:44:00,302.888,0.096%,
441,2025-01-28 17:13:41,2025-01-28 17:18:38,296.408,0.094%,
442,2025-01-28 18:48:26,2025-01-28 18:53:20,293.922,0.093%,
443,2025-01-28 20:23:10,2025-01-28 20:28:14,303.328,0.096%,
444,2025-01-28 21:57:55,2025-01-28 22:02:42,287.025,0.091%,
445,2025-01-28 23:32:40,2025-01-28 23:37:22,282.15,0.090%,
446,2025-01-29 01:07:24,2025-01-29 01:12:04,279.593,0.089%,
447,2025-01-29 01:12:13,2025-01-29 01:12:27,14.864,0.005%,
448,2025-01-29 02:42:09,2025-01-29 02:47:11,301.243,0.096%,
449,2025-01-29 04:16:53,2025-01-29 04:21:53,299.83,0.095%,
450,2025-01-29 05:51:37,2025-01-29 05:56:41,303.809,0.096%,
451,2025-01-29 07:26:21,2025-01-29 07:31:18,296.714,0.094%,
452,2025-01-29 09:01:06,2025-01-29 09:06:00,294.735,0.094%,
453,2025-01-29 10:35:50,2025-01-29 10:40:55,305.193,0.097%,
454,2025-01-29 12:10:34,2025-01-29 12:15:23,289.326,0.092%,
455,2025-01-29 13:45:18,2025-01-29 13:50:03,284.789,0.090%,
456,2025-01-29 15:20:03,2025-01-29 15:24:45,281.898,0.089%,
457,2025-01-29 15:24:51,2025-01-29 15:25:09,17.812,0.006%,
458,2025-01-29 16:54:47,2025-01-29 16:59:27,279.572,0.089%,
459,2025-01-29 16:59:50,2025-01-29 16:59:51,0.595,0.000%,
460,2025-01-29 18:29:32,2025-01-29 18:34:34,302.011,0.096%,
461,2025-01-29 20:04:16,2025-01-29 20:09:22,306.309,0.097%,
462,2025-01-29 21:39:01,2025-01-29 21:43:59,297.98,0.095%,
463,2025-01-29 23:13:45,2025-01-29 23:18:41,295.557,0.094%,
464,2025-01-30 00:48:30,2025-01-30 00:53:36,305.894,0.097%,
465,2025-01-30 02:23:15,2025-01-30 02:28:04,289.432,0.092%,
466,2025-01-30 03:57:59,2025-01-30 04:02:45,285.852,0.091%,
467,2025-01-30 05:32:43,2025-01-30 05:37:25,281.769,0.089%,
468,2025-01-30 05:37:42,2025-01-30 05:37:50,7.676,0.002%,
469,2025-01-30 07:07:27,2025-01-30 07:12:07,279.927,0.089%,
470,2025-01-30 08:42:11,2025-01-30 08:47:14,302.375,0.096%,
471,2025-01-30 10:16:56,2025-01-30 10:21:56,300.912,0.095%,
472,2025-01-30 11:51:40,2025-01-30 11:56:39,299.252,0.095%,
473,2025-01-30 13:26:24,2025-01-30 13:31:21,297.35,0.094%,
474,2025-01-30 15:01:08,2025-01-30 15:06:04,295.141,0.094%,
475,2025-01-30 16:35:53,2025-01-30 16:40:45,292.516,0.093%,
476,2025-01-30 18:10:37,2025-01-30 18:15:27,289.224,0.092%,
477,2025-01-30 19:45:22,2025-01-30 19:50:06,284.326,0.090%,
478,2025-01-30 21:20:06,2025-01-30 21:24:48,281.357,0.089%,
479,2025-01-30 22:54:51,2025-01-30 22:59:30,278.749,0.088%,
480,2025-01-31 00:29:36,2025-01-31 00:34:37,300.927,0.095%,
481,2025-01-31 02:04:21,2025-01-31 02:09:19,298.712,0.095%,
482,2025-01-31 03:39:05,2025-01-31 03:44:02,296.816,0.094%,
483,2025-01-31 05:13:49,2025-01-31 05:18:44,295.078,0.094%,
484,2025-01-31 06:48:33,2025-01-31 06:53:26,292.991,0.093%,
485,2025-01-31 08:23:17,2025-01-31 08:28:08,290.398,0.092%,
486,2025-01-31 09:58:01,2025-01-31 10:02:48,286.852,0.091%,
487,2025-01-31 11:32:46,2025-01-31 11:37:28,282.651,0.090%,
488,2025-01-31 13:07:30,2025-01-31 13:12:10,280.586,0.089%,
489,2025-01-31 14:42:14,2025-01-31 14:47:17,302.835,0.096%,
490,2025-01-31 16:16:59,2025-01-31 16:22:00,301.151,0.096%,
491,2025-01-31 17:51:43,2025-01-31 17:56:42,299.251,0.095%,
492,2025-01-31 19:26:28,2025-01-31 19:31:25,297.099,0.094%,
493,2025-01-31 21:01:12,2025-01-31 21:06:07,294.625,0.093%,
494,2025-01-31 22:35:57,2025-01-31 22:40:49,291.711,0.093%,
495,2025-02-01 00:10:42,2025-02-01 00:15:30,288.097,0.091%,
496,2025-02-01 01:45:26,2025-02-01 01:50:09,282.756,0.090%,
497,2025-02-01 03:20:11,2025-02-01 03:24:51,280.098,0.089%,
498,2025-02-01 04:54:55,2025-02-01 04:59:33,278.17,0.088%,
499,2025-02-01 06:29:39,2025-02-01 06:34:40,301.099,0.096%,
500,2025-02-01 08:04:23,2025-02-01 08:09:23,299.634,0.095%,
501,2025-02-01 09:39:07,2025-02-01 09:44:05,297.94,0.095%,
502,2025-02-01 11:13:51,2025-02-01 11:18:47,295.979,0.094%,
503,2025-02-01 12:48:36,2025-02-01 12:53:29,293.663,0.093%,
504,2025-02-01 14:23:20,2025-02-01 14:28:11,290.831,0.092%,
505,2025-02-01 15:58:04,2025-02-01 16:02:51,287.002,0.091%,
506,2025-02-01 17:32:49,2025-02-01 17:37:32,282.676,0.090%,
507,2025-02-01 19:07:33,2025-02-01 19:12:14,280.358,0.089%,
508,2025-02-01 20:42:18,2025-02-01 20:46:56,277.654,0.088%,
509,2025-02-01 20:46:58,2025-02-01 20:47:20,22.55,0.007%,
510,2025-02-01 22:17:03,2025-02-01 22:22:03,300.423,0.095%,
511,2025-02-01 23:51:47,2025-02-01 23:56:46,298.233,0.095%,
512,2025-02-02 01:26:32,2025-02-02 01:31:29,297.099,0.094%,
513,2025-02-02 03:01:17,2025-02-02 03:06:10,293.269,0.093%,
514,2025-02-02 04:36:01,2025-02-02 04:40:52,291.027,0.092%,
515,2025-02-02 06:10:45,2025-02-02 06:15:33,288.094,0.091%,
516,2025-02-02 06:15:37,2025-02-02 06:15:44,7.399,0.002%,
517,2025-02-02 07:45:29,2025-02-02 07:50:12,283.361,0.090%,
518,2025-02-02 09:20:13,2025-02-02 09:24:54,281.247,0.089%,
519,2025-02-02 10:54:57,2025-02-02 10:59:36,279.09,0.089%,
520,2025-02-02 10:59:49,2025-02-02 10:59:58,9.409,0.003%,
521,2025-02-02 12:29:41,2025-02-02 12:34:43,301.838,0.096%,
522,2025-02-02 14:04:26,2025-02-02 14:09:26,300.15,0.095%,
523,2025-02-02 15:39:10,2025-02-02 15:44:12,302.087,0.096%,
524,2025-02-02 17:13:55,2025-02-02 17:18:51,296.025,0.094%,
525,2025-02-02 18:48:39,2025-02-02 18:53:33,293.457,0.093%,
526,2025-02-02 20:23:24,2025-02-02 20:28:26,302.534,0.096%,
527,2025-02-02 21:58:08,2025-02-02 22:02:55,286.193,0.091%,
528,2025-02-02 23:32:53,2025-02-02 23:37:35,281.689,0.089%,
529,2025-02-03 01:07:38,2025-02-03 01:12:17,279.057,0.089%,
530,2025-02-03 01:12:26,2025-02-03 01:12:40,13.729,0.004%,
531,2025-02-03 02:42:23,2025-02-03 02:46:59,276.197,0.088%,
532,2025-02-03 02:47:06,2025-02-03 02:47:24,17.169,0.005%,
533,2025-02-03 04:17:07,2025-02-03 04:22:06,299.691,0.095%,
534,2025-02-03 05:51:51,2025-02-03 05:56:54,303.317,0.096%,
535,2025-02-03 07:26:35,2025-02-03 07:31:31,296.478,0.094%,
536,2025-02-03 09:01:19,2025-02-03 09:06:13,294.436,0.093%,
537,2025-02-03 10:36:03,2025-02-03 10:41:08,304.674,0.097%,
538,2025-02-03 12:10:47,2025-02-03 12:15:36,288.775,0.092%,
539,2025-02-03 13:45:32,2025-02-03 13:50:15,283.664,0.090%,
540,2025-02-03 15:20:16,2025-02-03 15:24:58,281.551,0.089%,
541,2025-02-03 15:25:05,2025-02-03 15:25:21,16.907,0.005%,
542,2025-02-03 16:55:00,2025-02-03 16:59:40,279.156,0.089%,
543,2025-02-03 18:29:45,2025-02-03 18:34:47,301.697,0.096%,
544,2025-02-03 20:04:29,2025-02-03 20:09:35,305.713,0.097%,
545,2025-02-03 21:39:14,2025-02-03 21:44:12,297.557,0.094%,
546,2025-02-03 23:13:59,2025-02-03 23:18:54,295.068,0.094%,
547,2025-02-04 00:48:44,2025-02-04 00:53:36,292.185,0.093%,
548,2025-02-04 02:23:28,2025-02-04 02:28:17,288.783,0.092%,
549,2025-02-04 03:58:12,2025-02-04 04:02:58,285.252,0.091%,
550,2025-02-04 05:32:56,2025-02-04 05:37:38,281.565,0.089%,
551,2025-02-04 07:07:41,2025-02-04 07:12:20,279.66,0.089%,
552,2025-02-04 08:42:25,2025-02-04 08:47:02,277.382,0.088%,
553,2025-02-04 08:47:14,2025-02-04 08:47:27,13.088,0.004%,
554,2025-02-04 10:17:09,2025-02-04 10:22:10,300.698,0.095%,
555,2025-02-04 11:51:53,2025-02-04 11:56:52,298.993,0.095%,
556,2025-02-04 13:26:37,2025-02-04 13:31:34,297.035,0.094%,
557,2025-02-04 15:01:22,2025-02-04 15:06:17,294.759,0.094%,
558,2025-02-04 16:36:06,2025-02-04 16:40:58,292.038,0.093%,
559,2025-02-04 18:10:51,2025-02-04 18:15:39,288.581,0.092%,
560,2025-02-04 19:45:35,2025-02-04 19:50:18,283.247,0.090%,
561,2025-02-04 21:20:20,2025-02-04 21:25:01,280.915,0.089%,
562,2025-02-04 22:55:05,2025-02-04 22:59:43,278.226,0.088%,
563,2025-02-05 00:29:49,2025-02-05 00:34:50,300.504,0.095%,
564,2025-02-05 02:04:34,2025-02-05 02:09:32,298.228,0.095%,
565,2025-02-05 03:39:18,2025-02-05 03:44:15,296.64,0.094%,
566,2025-02-05 05:14:02,2025-02-05 05:18:57,294.844,0.094%,
567,2025-02-05 06:48:46,2025-02-05 06:53:39,292.682,0.093%,
568,2025-02-05 08:23:30,2025-02-05 08:28:20,289.97,0.092%,
569,2025-02-05 09:58:15,2025-02-05 10:03:01,286.161,0.091%,
570,2025-02-05 11:32:59,2025-02-05 11:37:41,282.375,0.090%,
571,2025-02-05 13:07:43,2025-02-05 13:12:23,280.242,0.089%,
572,2025-02-05 14:42:28,2025-02-05 14:47:05,277.72,0.088%,
573,2025-02-05 14:47:20,2025-02-05 14:47:30,10.308,0.003%,
574,2025-02-05 16:17:12,2025-02-05 16:22:13,300.855,0.095%,
575,2025-02-05 17:51:56,2025-02-05 17:56:55,298.905,0.095%,
576,2025-02-05 19:26:41,2025-02-05 19:31:38,296.693,0.094%,
577,2025-02-05 21:01:26,2025-02-05 21:06:20,294.141,0.093%,
578,2025-02-05 22:36:10,2025-02-05 22:41:01,291.13,0.092%,
579,2025-02-06 00:10:55,2025-02-06 00:15:42,287.339,0.091%,
580,2025-02-06 01:45:40,2025-02-06 01:50:22,281.764,0.089%,
581,2025-02-06 03:20:24,2025-02-06 03:25:04,279.899,0.089%,
582,2025-02-06 04:55:08,2025-02-06 04:59:46,277.9,0.088%,
583,2025-02-06 06:29:52,2025-02-06 06:34:53,300.941,0.095%,
584,2025-02-06 08:04:36,2025-02-06 08:09:36,299.432,0.095%,
585,2025-02-06 09:39:20,2025-02-06 09:44:18,297.689,0.094%,
586,2025-02-06 11:14:05,2025-02-06 11:19:00,295.669,0.094%,
587,2025-02-06 12:48:49,2025-02-06 12:53:42,293.275,0.093%,
588,2025-02-06 14:23:33,2025-02-06 14:28:24,290.314,0.092%,
589,2025-02-06 15:58:18,2025-02-06 16:03:04,286.206,0.091%,
590,2025-02-06 17:33:02,2025-02-06 17:37:45,282.312,0.090%,
591,2025-02-06 19:07:47,2025-02-06 19:12:27,279.925,0.089%,
592,2025-02-06 20:42:31,2025-02-06 20:47:08,277.128,0.088%,
593,2025-02-06 20:47:25,2025-02-06 20:47:33,8.81,0.003%,
594,2025-02-06 22:17:16,2025-02-06 22:22:16,300.029,0.095%,
595,2025-02-06 23:52:01,2025-02-06 23:56:59,297.781,0.094%,
596,2025-02-07 01:26:46,2025-02-07 01:31:41,295.243,0.094%,
597,2025-02-07 03:01:30,2025-02-07 03:06:23,293.03,0.093%,
598,2025-02-07 04:36:14,2025-02-07 04:41:05,290.694,0.092%,
599,2025-02-07 06:10:58,2025-02-07 06:15:46,287.592,0.091%,
600,2025-02-07 06:15:51,2025-02-07 06:15:56,4.604,0.002%,
601,2025-02-07 07:45:42,2025-02-07 07:50:25,282.859,0.090%,
602,2025-02-07 09:20:26,2025-02-07 09:25:07,280.968,0.089%,
603,2025-02-07 10:55:10,2025-02-07 10:59:49,278.742,0.088%,
604,2025-02-07 11:00:03,2025-02-07 11:00:10,7.43,0.002%,
605,2025-02-07 12:29:55,2025-02-07 12:34:56,301.599,0.096%,
606,2025-02-07 14:04:39,2025-02-07 14:09:39,299.863,0.095%,
607,2025-02-07 15:39:24,2025-02-07 15:44:25,301.177,0.096%,
608,2025-02-07 17:14:08,2025-02-07 17:19:04,295.627,0.094%,
609,2025-02-07 18:48:52,2025-02-07 18:53:45,292.974,0.093%,
610,2025-02-07 20:23:37,2025-02-07 20:28:27,289.733,0.092%,
611,2025-02-07 20:28:28,2025-02-07 20:28:39,11.067,0.004%,
612,2025-02-07 21:58:22,2025-02-07 22:03:07,285.278,0.091%,
613,2025-02-07 23:33:07,2025-02-07 23:37:48,281.218,0.089%,
614,2025-02-08 01:07:51,2025-02-08 01:12:30,278.509,0.088%,
615,2025-02-08 01:12:40,2025-02-08 01:12:53,12.481,0.004%,
616,2025-02-08 02:42:36,2025-02-08 02:47:12,275.91,0.088%,
617,2025-02-08 02:47:28,2025-02-08 02:47:37,8.582,0.003%,
618,2025-02-08 04:17:20,2025-02-08 04:22:19,299.544,0.095%,
619,2025-02-08 05:52:04,2025-02-08 05:57:07,302.774,0.096%,
620,2025-02-08 07:26:48,2025-02-08 07:31:44,296.232,0.094%,
621,2025-02-08 09:01:32,2025-02-08 09:06:26,294.117,0.093%,
622,2025-02-08 10:36:16,2025-02-08 10:41:20,304.119,0.096%,
623,2025-02-08 12:11:01,2025-02-08 12:15:49,288.187,0.091%,
624,2025-02-08 13:45:45,2025-02-08 13:50:28,283.312,0.090%,
625,2025-02-08 15:20:29,2025-02-08 15:25:10,281.192,0.089%,
626,2025-02-08 15:25:18,2025-02-08 15:25:34,15.937,0.005%,
627,2025-02-08 16:55:14,2025-02-08 16:59:52,278.718,0.088%,
628,2025-02-08 18:29:58,2025-02-08 18:35:00,301.371,0.096%,
629,2025-02-08 20:04:43,2025-02-08 20:09:42,299.377,0.095%,
630,2025-02-08 20:09:43,2025-02-08 20:09:48,5.093,0.002%,
631,2025-02-08 21:39:28,2025-02-08 21:44:25,297.124,0.094%,
632,2025-02-08 23:14:12,2025-02-08 23:19:07,294.563,0.093%,
633,2025-02-09 00:48:57,2025-02-09 00:53:49,291.585,0.093%,
634,2025-02-09 02:23:42,2025-02-09 02:28:30,288.405,0.092%,
635,2025-02-09 03:58:26,2025-02-09 04:03:10,284.563,0.090%,
636,2025-02-09 05:33:10,2025-02-09 05:37:51,281.349,0.089%,
637,2025-02-09 07:07:54,2025-02-09 07:12:33,279.387,0.089%,
638,2025-02-09 08:42:38,2025-02-09 08:47:15,277.017,0.088%,
639,2025-02-09 08:47:30,2025-02-09 08:47:40,9.609,0.003%,
640,2025-02-09 10:17:22,2025-02-09 10:22:23,300.475,0.095%,
641,2025-02-09 11:52:06,2025-02-09 11:57:05,298.722,0.095%,
642,2025-02-09 13:26:51,2025-02-09 13:31:47,296.707,0.094%,
643,2025-02-09 15:01:35,2025-02-09 15:06:29,294.359,0.093%,
644,2025-02-09 16:36:20,2025-02-09 16:41:11,291.536,0.092%,
645,2025-02-09 18:11:04,2025-02-09 18:15:52,287.893,0.091%,
646,2025-02-09 19:45:49,2025-02-09 19:50:31,282.853,0.090%,
647,2025-02-09 21:20:33,2025-02-09 21:25:14,280.453,0.089%,
648,2025-02-09 22:55:18,2025-02-09 22:59:56,277.683,0.088%,
649,2025-02-10 00:30:03,2025-02-10 00:35:03,300.063,0.095%,
650,2025-02-10 02:04:47,2025-02-10 02:09:45,298.023,0.095%,
651,2025-02-10 03:39:31,2025-02-10 03:44:28,296.453,0.094%,
652,2025-02-10 05:14:15,2025-02-10 05:19:10,294.595,0.093%,
653,2025-02-10 06:49:00,2025-02-10 06:53:52,292.351,0.093%,
654,2025-02-10 08:23:44,2025-02-10 08:28:33,289.51,0.092%,
655,2025-02-10 09:58:28,2025-02-10 10:03:13,285.369,0.091%,
656,2025-02-10 11:33:12,2025-02-10 11:37:54,282.081,0.089%,
657,2025-02-10 13:07:56,2025-02-10 13:12:36,279.885,0.089%,
658,2025-02-10 14:42:41,2025-02-10 14:47:18,277.273,0.088%,
659,2025-02-10 14:47:31,2025-02-10 14:47:43,11.875,0.004%,
660,2025-02-10 16:17:25,2025-02-10 16:22:26,300.545,0.095%,
661,2025-02-10 17:52:10,2025-02-10 17:57:08,298.545,0.095%,
662,2025-02-10 19:26:54,2025-02-10 19:31:51,296.274,0.094%,
663,2025-02-10 21:01:39,2025-02-10 21:06:33,293.642,0.093%,
664,2025-02-10 22:36:24,2025-02-10 22:41:14,290.519,0.092%,
665,2025-02-11 00:11:09,2025-02-11 00:15:55,286.529,0.091%,
666,2025-02-11 01:45:53,2025-02-11 01:50:35,281.409,0.089%,
667,2025-02-11 03:20:37,2025-02-11 03:25:17,279.684,0.089%,
668,2025-02-11 04:55:21,2025-02-11 04:59:59,277.607,0.088%,
669,2025-02-11 06:30:05,2025-02-11 06:35:06,300.771,0.095%,
670,2025-02-11 08:04:50,2025-02-11 08:09:49,299.217,0.095%,
671,2025-02-11 09:39:34,2025-02-11 09:44:31,297.42,0.094%,
672,2025-02-11 11:14:18,2025-02-11 11:19:13,295.343,0.094%,
673,2025-02-11 12:49:02,2025-02-11 12:53:55,292.861,0.093%,
674,2025-02-11 14:23:47,2025-02-11 14:28:36,289.769,0.092%,
675,2025-02-11 15:58:31,2025-02-11 16:03:16,285.304,0.091%,
676,2025-02-11 17:33:16,2025-02-11 17:37:57,281.929,0.089%,
677,2025-02-11 19:08:00,2025-02-11 19:12:40,279.474,0.089%,
678,2025-02-11 20:42:45,2025-02-11 20:47:21,276.578,0.088%,
679,2025-02-11 20:47:31,2025-02-11 20:47:46,15.362,0.005%,
680,2025-02-11 22:17:29,2025-02-11 22:22:29,299.613,0.095%,
681,2025-02-11 23:52:14,2025-02-11 23:57:12,297.31,0.094%,
682,2025-02-12 01:26:59,2025-02-12 01:31:54,294.727,0.094%,
683,2025-02-12 03:01:43,2025-02-12 03:06:36,292.772,0.093%,
684,2025-02-12 04:36:27,2025-02-12 04:41:17,290.333,0.092%,
685,2025-02-12 06:11:11,2025-02-12 06:15:58,287.036,0.091%,
686,2025-02-12 07:45:55,2025-02-12 07:50:38,282.621,0.090%,
687,2025-02-12 09:20:40,2025-02-12 09:25:20,280.673,0.089%,
688,2025-02-12 10:55:24,2025-02-12 11:00:02,278.37,0.088%,
689,2025-02-12 11:00:18,2025-02-12 11:00:22,4.62,0.002%,
690,2025-02-12 12:30:08,2025-02-12 12:35:09,301.35,0.096%,
691,2025-02-12 14:04:52,2025-02-12 14:09:52,299.567,0.095%,
692,2025-02-12 15:39:37,2025-02-12 15:44:37,300.074,0.095%,
693,2025-02-12 17:14:21,2025-02-12 17:19:17,295.211,0.094%,
694,2025-02-12 18:49:06,2025-02-12 18:53:58,292.468,0.093%,
695,2025-02-12 20:23:51,2025-02-12 20:28:40,289.082,0.092%,
696,2025-02-12 20:28:42,2025-02-12 20:28:51,9.444,0.003%,
697,2025-02-12 21:58:35,2025-02-12 22:03:19,284.243,0.090%,
698,2025-02-12 23:33:20,2025-02-12 23:38:01,280.728,0.089%,
699,2025-02-13 01:08:05,2025-02-13 01:12:43,277.938,0.088%,
700,2025-02-13 01:12:54,2025-02-13 01:13:05,11.076,0.004%,
701,2025-02-13 02:42:49,2025-02-13 02:47:25,275.605,0.087%,
702,2025-02-13 02:47:30,2025-02-13 02:47:50,20.025,0.006%,
703,2025-02-13 04:17:33,2025-02-13 04:22:32,299.387,0.095%,
704,2025-02-13 05:52:17,2025-02-13 05:57:19,302.163,0.096%,
705,2025-02-13 07:27:01,2025-02-13 07:31:57,295.965,0.094%,
706,2025-02-13 09:01:45,2025-02-13 09:06:39,293.777,0.093%,
707,2025-02-13 10:36:30,2025-02-13 10:41:33,303.506,0.096%,
708,2025-02-13 12:11:14,2025-02-13 12:16:01,287.535,0.091%,
709,2025-02-13 13:45:58,2025-02-13 13:50:41,283.002,0.090%,
710,2025-02-13 15:20:43,2025-02-13 15:25:23,280.815,0.089%,
711,2025-02-13 15:25:32,2025-02-13 15:25:47,14.894,0.005%,
712,2025-02-13 16:55:27,2025-02-13 17:00:05,278.261,0.088%,
713,2025-02-13 18:30:12,2025-02-13 18:35:13,301.032,0.096%,
714,2025-02-13 20:04:56,2025-02-13 20:10:01,304.407,0.097%,
715,2025-02-13 21:39:41,2025-02-13 21:44:38,296.676,0.094%,
716,2025-02-13 23:14:26,2025-02-13 23:19:20,294.036,0.093%,
717,2025-02-14 00:49:11,2025-02-14 00:54:02,290.963,0.092%,
718,2025-02-14 00:54:08,2025-02-14 00:54:14,6.51,0.002%,
719,2025-02-14 02:23:55,2025-02-14 02:28:43,287.994,0.091%,
720,2025-02-14 03:58:39,2025-02-14 04:03:23,283.749,0.090%,
721,2025-02-14 05:33:23,2025-02-14 05:38:04,281.119,0.089%,
722,2025-02-14 07:08:07,2025-02-14 07:12:46,279.091,0.089%,
723,2025-02-14 08:42:51,2025-02-14 08:47:53,301.829,0.096%,
724,2025-02-14 10:17:35,2025-02-14 10:22:36,300.239,0.095%,
725,2025-02-14 11:52:20,2025-02-14 11:57:18,298.434,0.095%,
726,2025-02-14 13:27:04,2025-02-14 13:32:00,296.362,0.094%,
727,2025-02-14 15:01:48,2025-02-14 15:06:42,293.938,0.093%,
728,2025-02-14 16:36:33,2025-02-14 16:41:24,291.007,0.092%,
729,2025-02-14 18:11:17,2025-02-14 18:16:05,287.144,0.091%,
730,2025-02-14 19:46:02,2025-02-14 19:50:44,282.446,0.090%,
731,2025-02-14 21:20:47,2025-02-14 21:25:27,279.976,0.089%,
732,2025-02-14 22:55:31,2025-02-14 23:00:09,277.116,0.088%,
733,2025-02-15 00:30:16,2025-02-15 00:35:16,299.612,0.095%,
734,2025-02-15 02:05:01,2025-02-15 02:09:58,297.874,0.095%,
735,2025-02-15 03:39:45,2025-02-15 03:44:41,296.254,0.094%,
736,2025-02-15 05:14:29,2025-02-15 05:19:23,294.329,0.093%,
737,2025-02-15 06:49:13,2025-02-15 06:54:05,292,0.093%,
738,2025-02-15 08:23:57,2025-02-15 08:28:46,289.014,0.092%,
739,2025-02-15 09:58:41,2025-02-15 10:03:26,284.442,0.090%,
740,2025-02-15 11:33:25,2025-02-15 11:38:07,281.77,0.089%,
741,2025-02-15 13:08:10,2025-02-15 13:12:49,279.505,0.089%,
742,2025-02-15 14:42:54,2025-02-15 14:47:56,302.046,0.096%,
743,2025-02-15 16:17:39,2025-02-15 16:22:39,300.228,0.095%,
744,2025-02-15 17:52:23,2025-02-15 17:57:21,298.171,0.095%,
745,2025-02-15 19:27:08,2025-02-15 19:32:04,295.833,0.094%,
746,2025-02-15 21:01:52,2025-02-15 21:06:46,293.123,0.093%,
747,2025-02-15 22:36:37,2025-02-15 22:41:27,289.88,0.092%,
748,2025-02-16 00:11:22,2025-02-16 00:16:08,285.652,0.091%,
749,2025-02-16 01:46:06,2025-02-16 01:50:48,281.24,0.089%,
750,2025-02-16 03:20:50,2025-02-16 03:25:30,279.456,0.089%,
751,2025-02-16 04:55:35,2025-02-16 05:00:12,277.303,0.088%,
752,2025-02-16 06:30:19,2025-02-16 06:35:19,300.591,0.095%,
753,2025-02-16 08:05:03,2025-02-16 08:10:02,298.989,0.095%,
754,2025-02-16 09:39:47,2025-02-16 09:44:44,297.146,0.094%,
755,2025-02-16 11:14:31,2025-02-16 11:19:26,294.998,0.094%,
756,2025-02-16 12:49:16,2025-02-16 12:54:08,292.429,0.093%,
757,2025-02-16 14:24:00,2025-02-16 14:28:49,289.184,0.092%,
758,2025-02-16 15:58:44,2025-02-16 16:03:29,284.249,0.090%,
759,2025-02-16 17:33:29,2025-02-16 17:38:10,281.531,0.089%,
760,2025-02-16 19:08:14,2025-02-16 19:12:53,279.003,0.089%,
761,2025-02-16 20:42:58,2025-02-16 20:47:59,301.303,0.096%,
762,2025-02-16 22:17:43,2025-02-16 22:22:42,299.19,0.095%,
763,2025-02-16 23:52:28,2025-02-16 23:57:25,296.819,0.094%,
764,2025-02-17 01:27:12,2025-02-17 01:32:07,294.529,0.093%,
765,2025-02-17 03:01:56,2025-02-17 03:06:49,292.498,0.093%,
766,2025-02-17 04:36:40,2025-02-17 04:41:30,289.952,0.092%,
767,2025-02-17 06:11:24,2025-02-17 06:16:11,286.421,0.091%,
768,2025-02-17 07:46:09,2025-02-17 07:50:51,282.376,0.090%,
769,2025-02-17 09:20:53,2025-02-17 09:25:33,280.368,0.089%,
770,2025-02-17 10:55:37,2025-02-17 11:00:15,277.986,0.088%,
771,2025-02-17 11:00:36,2025-02-17 11:00:40,3.769,0.001%,
772,2025-02-17 12:30:21,2025-02-17 12:35:22,301.093,0.096%,
773,2025-02-17 14:05:06,2025-02-17 14:10:05,299.261,0.095%,
774,2025-02-17 15:39:50,2025-02-17 15:44:49,298.57,0.095%,
775,2025-02-17 17:14:35,2025-02-17 17:19:29,294.778,0.094%,
776,2025-02-17 18:49:19,2025-02-17 18:54:11,291.942,0.093%,
777,2025-02-17 20:24:04,2025-02-17 20:28:52,288.394,0.091%,
778,2025-02-17 20:28:56,2025-02-17 20:29:03,7.481,0.002%,
779,2025-02-17 21:58:49,2025-02-17 22:03:32,283.037,0.090%,
780,2025-02-17 23:33:33,2025-02-17 23:38:14,280.215,0.089%,
781,2025-02-18 01:08:18,2025-02-18 01:12:56,277.608,0.088%,
782,2025-02-18 01:13:08,2025-02-18 01:13:18,9.471,0.003%,
783,2025-02-18 02:43:02,2025-02-18 02:48:03,300.624,0.095%,
784,2025-02-18 04:17:46,2025-02-18 04:22:45,299.218,0.095%,
785,2025-02-18 05:52:30,2025-02-18 05:57:32,301.474,0.096%,
786,2025-02-18 07:27:14,2025-02-18 07:32:10,295.688,0.094%,
787,2025-02-18 09:01:59,2025-02-18 09:06:52,293.426,0.093%,
788,2025-02-18 10:36:43,2025-02-18 10:41:46,302.833,0.096%,
789,2025-02-18 12:11:27,2025-02-18 12:16:14,286.834,0.091%,
790,2025-02-18 13:46:12,2025-02-18 13:50:54,282.672,0.090%,
791,2025-02-18 15:20:56,2025-02-18 15:25:36,280.425,0.089%,
792,2025-02-18 15:25:46,2025-02-18 15:26:00,13.768,0.004%,
793,2025-02-18 16:55:40,2025-02-18 17:00:18,277.788,0.088%,
794,2025-02-18 17:00:30,2025-02-18 17:00:43,13.396,0.004%,
795,2025-02-18 18:30:25,2025-02-18 18:35:26,300.683,0.095%,
796,2025-02-18 20:05:10,2025-02-18 20:10:13,303.7,0.096%,
797,2025-02-18 21:39:54,2025-02-18 21:44:51,296.208,0.094%,
798,2025-02-18 23:14:39,2025-02-18 23:19:33,293.493,0.093%,
799,2025-02-19 00:49:24,2025-02-19 00:54:27,303.164,0.096%,
800,2025-02-19 02:24:08,2025-02-19 02:28:56,287.546,0.091%,
801,2025-02-19 03:58:52,2025-02-19 04:03:35,282.741,0.090%,
802,2025-02-19 05:33:36,2025-02-19 05:38:17,280.879,0.089%,
803,2025-02-19 05:38:24,2025-02-19 05:38:41,16.94,0.005%,
804,2025-02-19 07:08:20,2025-02-19 07:12:59,278.783,0.088%,
805,2025-02-19 08:43:04,2025-02-19 08:48:06,301.625,0.096%,
806,2025-02-19 10:17:49,2025-02-19 10:22:55,305.965,0.097%,
807,2025-02-19 11:52:33,2025-02-19 11:57:31,298.137,0.095%,
808,2025-02-19 13:27:17,2025-02-19 13:32:13,296.005,0.094%,
809,2025-02-19 15:02:02,2025-02-19 15:06:55,293.502,0.093%,
810,2025-02-19 15:07:04,2025-02-19 15:07:08,4.015,0.001%,
811,2025-02-19 16:36:46,2025-02-19 16:41:37,290.453,0.092%,
812,2025-02-19 18:11:31,2025-02-19 18:16:17,286.337,0.091%,
813,2025-02-19 19:46:15,2025-02-19 19:50:57,282.023,0.089%,
814,2025-02-19 21:21:00,2025-02-19 21:25:40,279.482,0.089%,
815,2025-02-19 22:55:45,2025-02-19 23:00:21,276.533,0.088%,
816,2025-02-19 23:00:22,2025-02-19 23:00:46,24.053,0.008%,
817,2025-02-20 00:30:30,2025-02-20 00:35:29,299.143,0.095%,
818,2025-02-20 02:05:14,2025-02-20 02:10:12,297.715,0.094%,
819,2025-02-20 03:39:58,2025-02-20 03:44:54,296.041,0.094%,
820,2025-02-20 05:14:42,2025-02-20 05:19:36,294.053,0.093%,
821,2025-02-20 06:49:26,2025-02-20 06:54:18,291.632,0.093%,
822,2025-02-20 08:24:10,2025-02-20 08:28:59,288.485,0.092%,
823,2025-02-20 09:58:54,2025-02-20 10:03:38,283.454,0.090%,
824,2025-02-20 11:33:39,2025-02-20 11:38:20,281.449,0.089%,
825,2025-02-20 13:08:23,2025-02-20 13:13:02,279.119,0.089%,
826,2025-02-20 14:43:08,2025-02-20 14:48:09,301.761,0.096%,
827,2025-02-20 16:17:52,2025-02-20 16:22:52,299.896,0.095%,
828,2025-02-20 17:52:37,2025-02-20 17:57:34,297.786,0.094%,
829,2025-02-20 19:27:21,2025-02-20 19:32:17,295.377,0.094%,
830,2025-02-20 21:02:06,2025-02-20 21:06:58,292.582,0.093%,
831,2025-02-20 22:36:51,2025-02-20 22:41:40,289.214,0.092%,
832,2025-02-21 00:11:36,2025-02-21 00:16:20,284.711,0.090%,
833,2025-02-21 01:46:20,2025-02-21 01:51:01,281.063,0.089%,
834,2025-02-21 03:21:04,2025-02-21 03:25:43,279.213,0.089%,
835,2025-02-21 04:55:48,2025-02-21 05:00:50,301.838,0.096%,
836,2025-02-21 06:30:32,2025-02-21 06:35:32,300.402,0.095%,
837,2025-02-21 08:05:16,2025-02-21 08:10:15,298.751,0.095%,
838,2025-02-21 09:40:00,2025-02-21 09:44:57,296.856,0.094%,
839,2025-02-21 11:14:45,2025-02-21 11:19:39,294.643,0.093%,
840,2025-02-21 12:49:29,2025-02-21 12:54:21,291.976,0.093%,
841,2025-02-21 14:24:13,2025-02-21 14:29:02,288.565,0.092%,
842,2025-02-21 15:58:58,2025-02-21 16:03:41,283.376,0.090%,
843,2025-02-21 17:33:42,2025-02-21 17:38:23,281.121,0.089%,
844,2025-02-21 19:08:27,2025-02-21 19:13:05,278.511,0.088%,
845,2025-02-21 19:13:30,2025-02-21 19:13:30,0.273,0.000%,
846,2025-02-21 20:43:12,2025-02-21 20:48:13,300.919,0.095%,
847,2025-02-21 22:17:56,2025-02-21 22:22:55,298.752,0.095%,
848,2025-02-21 23:52:41,2025-02-21 23:57:38,296.317,0.094%,
849,2025-02-22 01:27:25,2025-02-22 01:32:20,294.316,0.093%,
850,2025-02-22 03:02:09,2025-02-22 03:07:02,292.21,0.093%,
851,2025-02-22 04:36:54,2025-02-22 04:41:43,289.54,0.092%,
852,2025-02-22 06:11:38,2025-02-22 06:16:23,285.736,0.091%,
853,2025-02-22 07:46:22,2025-02-22 07:51:04,282.119,0.090%,
854,2025-02-22 09:21:06,2025-02-22 09:25:46,280.047,0.089%,
855,2025-02-22 10:55:50,2025-02-22 11:00:53,302.484,0.096%,
856,2025-02-22 12:30:35,2025-02-22 12:35:35,300.823,0.095%,
857,2025-02-22 14:05:19,2025-02-22 14:10:18,298.942,0.095%,
858,2025-02-22 15:40:04,2025-02-22 15:45:00,296.804,0.094%,
859,2025-02-22 17:14:48,2025-02-22 17:19:42,294.333,0.093%,
860,2025-02-22 18:49:33,2025-02-22 18:54:24,291.39,0.092%,
861,2025-02-22 20:24:17,2025-02-22 20:29:05,287.667,0.091%,
862,2025-02-22 20:29:11,2025-02-22 20:29:15,4.74,0.002%,
863,2025-02-22 21:59:02,2025-02-22 22:03:44,282.267,0.090%,
864,2025-02-22 23:33:47,2025-02-22 23:38:27,279.689,0.089%,
865,2025-02-23 01:08:31,2025-02-23 01:13:09,277.358,0.088%,
866,2025-02-23 01:13:20,2025-02-23 01:13:33,13.359,0.004%,
867,2025-02-23 02:43:15,2025-02-23 02:48:16,300.489,0.095%,
868,2025-02-23 04:17:59,2025-02-23 04:22:58,299.041,0.095%,
869,2025-02-23 05:52:43,2025-02-23 05:57:44,300.676,0.095%,
870,2025-02-23 07:27:28,2025-02-23 07:32:23,295.397,0.094%,
871,2025-02-23 09:02:12,2025-02-23 09:07:05,293.057,0.093%,
872,2025-02-23 10:36:56,2025-02-23 10:41:46,290.143,0.092%,
873,2025-02-23 10:41:47,2025-02-23 10:41:58,11.124,0.004%,
874,2025-02-23 12:11:40,2025-02-23 12:16:27,286.048,0.091%,
875,2025-02-23 13:46:25,2025-02-23 13:51:07,282.333,0.090%,
876,2025-02-23 15:21:09,2025-02-23 15:25:49,280.018,0.089%,
877,2025-02-23 15:26:00,2025-02-23 15:26:12,12.53,0.004%,
878,2025-02-23 16:55:54,2025-02-23 17:00:56,302.241,0.096%,
879,2025-02-23 18:30:38,2025-02-23 18:35:39,300.32,0.095%,
880,2025-02-23 20:05:23,2025-02-23 20:10:26,302.936,0.096%,
881,2025-02-23 21:40:08,2025-02-23 21:45:04,295.728,0.094%,
882,2025-02-23 23:14:53,2025-02-23 23:19:46,292.931,0.093%,
883,2025-02-24 00:49:37,2025-02-24 00:54:40,302.711,0.096%,
884,2025-02-24 02:24:21,2025-02-24 02:29:08,287.059,0.091%,
885,2025-02-24 03:59:05,2025-02-24 04:03:48,282.457,0.090%,
886,2025-02-24 05:33:49,2025-02-24 05:38:30,280.626,0.089%,
887,2025-02-24 05:38:38,2025-02-24 05:38:54,15.976,0.005%,
888,2025-02-24 07:08:33,2025-02-24 07:13:36,302.885,0.096%,
889,2025-02-24 08:43:18,2025-02-24 08:48:19,301.406,0.096%,
890,2025-02-24 10:18:02,2025-02-24 10:23:07,305.456,0.097%,
891,2025-02-24 11:52:46,2025-02-24 11:57:44,297.83,0.094%,
892,2025-02-24 13:27:31,2025-02-24 13:32:26,295.633,0.094%,
893,2025-02-24 15:02:15,2025-02-24 15:07:21,306.003,0.097%,
894,2025-02-24 16:37:00,2025-02-24 16:41:49,289.865,0.092%,
895,2025-02-24 18:11:44,2025-02-24 18:16:30,285.437,0.091%,
896,2025-02-24 19:46:29,2025-02-24 19:51:10,281.585,0.089%,
897,2025-02-24 19:51:16,2025-02-24 19:51:35,18.737,0.006%,
898,2025-02-24 21:21:14,2025-02-24 21:25:53,278.969,0.089%,
899,2025-02-24 22:55:58,2025-02-24 23:00:59,300.914,0.095%,
900,2025-02-25 00:30:43,2025-02-25 00:35:48,305.442,0.097%,
901,2025-02-25 02:05:27,2025-02-25 02:10:25,297.544,0.094%,
902,2025-02-25 03:40:11,2025-02-25 03:45:07,295.817,0.094%,
903,2025-02-25 05:14:55,2025-02-25 05:20:02,306.971,0.097%,
904,2025-02-25 06:49:39,2025-02-25 06:54:30,291.234,0.092%,
905,2025-02-25 08:24:23,2025-02-25 08:29:11,287.907,0.091%,
906,2025-02-25 09:59:08,2025-02-25 10:03:51,283.173,0.090%,
907,2025-02-25 10:04:05,2025-02-25 10:04:16,10.449,0.003%,
908,2025-02-25 11:33:52,2025-02-25 11:38:33,281.115,0.089%,
909,2025-02-25 13:08:36,2025-02-25 13:13:40,303.175,0.096%,
910,2025-02-25 14:43:21,2025-02-25 14:48:22,301.468,0.096%,
911,2025-02-25 16:18:05,2025-02-25 16:23:05,299.55,0.095%,
912,2025-02-25 17:52:50,2025-02-25 17:57:47,297.383,0.094%,
913,2025-02-25 19:27:35,2025-02-25 19:32:30,294.907,0.094%,
914,2025-02-25 21:02:19,2025-02-25 21:07:11,292.023,0.093%,
915,2025-02-25 22:37:04,2025-02-25 22:41:53,288.509,0.092%,
916,2025-02-26 00:11:49,2025-02-26 00:16:33,283.898,0.090%,
917,2025-02-26 01:46:33,2025-02-26 01:51:14,280.869,0.089%,
918,2025-02-26 03:21:17,2025-02-26 03:25:56,278.956,0.089%,
919,2025-02-26 03:26:12,2025-02-26 03:26:20,8.318,0.003%,
920,2025-02-26 04:56:01,2025-02-26 05:01:03,301.678,0.096%,
921,2025-02-26 06:30:45,2025-02-26 06:35:45,300.201,0.095%,
922,2025-02-26 08:05:29,2025-02-26 08:10:28,298.503,0.095%,
923,2025-02-26 09:40:14,2025-02-26 09:45:10,296.553,0.094%,
924,2025-02-26 11:14:58,2025-02-26 11:19:52,294.264,0.093%,
925,2025-02-26 12:49:42,2025-02-26 12:54:34,291.5,0.092%,
926,2025-02-26 14:24:27,2025-02-26 14:29:15,287.892,0.091%,
927,2025-02-26 15:59:11,2025-02-26 16:03:54,283.011,0.090%,
928,2025-02-26 17:33:56,2025-02-26 17:38:36,280.694,0.089%,
929,2025-02-26 19:08:40,2025-02-26 19:13:43,302.513,0.096%,
930,2025-02-26 20:43:25,2025-02-26 20:48:26,300.52,0.095%,
931,2025-02-26 22:18:10,2025-02-26 22:23:08,298.294,0.095%,
932,2025-02-26 23:52:55,2025-02-26 23:57:51,295.893,0.094%,
933,2025-02-27 01:27:39,2025-02-27 01:32:33,294.091,0.093%,
934,2025-02-27 03:02:23,2025-02-27 03:07:15,291.899,0.093%,
935,2025-02-27 04:37:07,2025-02-27 04:41:56,289.098,0.092%,
936,2025-02-27 06:11:51,2025-02-27 06:16:36,284.948,0.090%,
937,2025-02-27 07:46:35,2025-02-27 07:51:17,281.848,0.089%,
938,2025-02-27 09:21:19,2025-02-27 09:26:23,303.766,0.096%,
939,2025-02-27 10:56:04,2025-02-27 11:01:06,302.249,0.096%,
940,2025-02-27 12:30:48,2025-02-27 12:35:49,300.541,0.095%,
941,2025-02-27 14:05:32,2025-02-27 14:10:31,298.611,0.095%,
942,2025-02-27 15:40:17,2025-02-27 15:45:13,296.408,0.094%,
943,2025-02-27 17:15:01,2025-02-27 17:19:55,293.862,0.093%,
944,2025-02-27 18:49:46,2025-02-27 18:54:37,290.813,0.092%,
945,2025-02-27 20:24:31,2025-02-27 20:29:18,286.881,0.091%,
946,2025-02-27 21:59:16,2025-02-27 22:03:57,281.791,0.089%,
947,2025-02-27 23:34:00,2025-02-27 23:38:40,279.138,0.089%,
948,2025-02-28 01:08:44,2025-02-28 01:13:46,301.641,0.096%,
949,2025-02-28 02:43:29,2025-02-28 02:48:29,300.346,0.095%,
950,2025-02-28 04:18:13,2025-02-28 04:23:11,298.851,0.095%,
951,2025-02-28 05:52:57,2025-02-28 05:57:56,299.692,0.095%,
952,2025-02-28 07:27:41,2025-02-28 07:32:36,295.092,0.094%,
953,2025-02-28 09:02:25,2025-02-28 09:07:18,292.67,0.093%,
954,2025-02-28 10:37:09,2025-02-28 10:41:59,289.619,0.092%,
955,2025-02-28 10:42:01,2025-02-28 10:42:11,9.52,0.003%,
956,2025-02-28 12:11:54,2025-02-28 12:16:39,285.152,0.090%,
957,2025-02-28 13:46:38,2025-02-28 13:51:20,281.981,0.089%,
958,2025-02-28 15:21:23,2025-02-28 15:26:26,303.684,0.096%,
959,2025-02-28 16:56:07,2025-02-28 17:01:09,301.912,0.096%,
960,2025-02-28 18:30:52,2025-02-28 18:35:52,299.943,0.095%,
961,2025-02-28 20:05:37,2025-02-28 20:10:39,302.096,0.096%,
962,2025-02-28 21:40:21,2025-02-28 21:45:17,295.222,0.094%,
963,2025-02-28 23:15:06,2025-02-28 23:19:59,292.343,0.093%,
964,2025-03-01 00:49:50,2025-03-01 00:54:53,302.203,0.096%,
965,2025-03-01 02:24:34,2025-03-01 02:29:21,286.515,0.091%,
966,2025-03-01 03:59:18,2025-03-01 04:04:01,282.248,0.090%,
967,2025-03-01 05:34:03,2025-03-01 05:38:43,280.357,0.089%,
968,2025-03-01 05:38:51,2025-03-01 05:39:07,15.153,0.005%,
969,2025-03-01 07:08:47,2025-03-01 07:13:49,302.701,0.096%,
970,2025-03-01 08:43:31,2025-03-01 08:48:32,301.186,0.096%,
971,2025-03-01 10:18:15,2025-03-01 10:23:20,304.905,0.097%,
972,2025-03-01 11:53:00,2025-03-01 11:57:57,297.509,0.094%,
973,2025-03-01 13:27:44,2025-03-01 13:32:39,295.244,0.094%,
974,2025-03-01 15:02:28,2025-03-01 15:07:34,305.418,0.097%,
975,2025-03-01 16:37:13,2025-03-01 16:42:02,289.242,0.092%,
976,2025-03-01 18:11:58,2025-03-01 18:16:42,284.411,0.090%,
977,2025-03-01 19:46:42,2025-03-01 19:51:23,281.125,0.089%,
978,2025-03-01 19:51:30,2025-03-01 19:51:48,17.88,0.006%,
979,2025-03-01 21:21:27,2025-03-01 21:26:30,302.562,0.096%,
980,2025-03-01 22:56:12,2025-03-01 23:01:12,300.47,0.095%,
981,2025-03-02 00:30:56,2025-03-02 00:36:01,305.095,0.097%,
982,2025-03-02 02:05:40,2025-03-02 02:10:38,297.361,0.094%,
983,2025-03-02 03:40:24,2025-03-02 03:45:20,295.574,0.094%,
984,2025-03-02 05:15:08,2025-03-02 05:20:15,306.583,0.097%,
985,2025-03-02 06:49:53,2025-03-02 06:54:43,290.811,0.092%,
986,2025-03-02 08:24:37,2025-03-02 08:29:24,287.277,0.091%,
987,2025-03-02 09:59:21,2025-03-02 10:04:04,282.887,0.090%,
988,2025-03-02 10:04:08,2025-03-02 10:04:29,20.343,0.007%,
989,2025-03-02 11:34:05,2025-03-02 11:39:10,304.478,0.097%,
990,2025-03-02 13:08:50,2025-03-02 13:13:53,302.909,0.096%,
991,2025-03-02 14:43:34,2025-03-02 14:48:42,307.971,0.098%,
992,2025-03-02 16:18:19,2025-03-02 16:23:18,299.192,0.095%,
993,2025-03-02 17:53:03,2025-03-02 17:58:00,296.968,0.094%,
994,2025-03-02 19:27:48,2025-03-02 19:32:56,307.764,0.098%,
995,2025-03-02 21:02:33,2025-03-02 21:07:24,291.434,0.092%,
996,2025-03-02 22:37:18,2025-03-02 22:42:05,287.763,0.091%,
997,2025-03-03 00:12:02,2025-03-03 00:16:45,283.082,0.090%,
998,2025-03-03 00:16:47,2025-03-03 00:17:09,22.489,0.007%,
999,2025-03-03 01:46:46,2025-03-03 01:51:27,280.661,0.089%,
1000,2025-03-03 03:21:30,2025-03-03 03:26:33,302.845,0.096%,
1001,2025-03-03 04:56:14,2025-03-03 05:01:23,308.821,0.098%,
1002,2025-03-03 06:30:58,2025-03-03 06:35:58,299.988,0.095%,
1003,2025-03-03 08:05:43,2025-03-03 08:10:41,298.244,0.095%,
1004,2025-03-03 09:40:27,2025-03-03 09:45:37,309.738,0.098%,
