3UCubedIntegratedSim/Reports & Plots/North Cusp @ 1 Degree/CSV/Sat10.csv

Number,Coverage Start (UTCG),Coverage End (UTCG),Duration (sec),Percent,
1,2025-01-01 16:24:19,2025-01-01 16:31:43,444.644,0.141%,
2,2025-01-01 17:59:05,2025-01-01 17:59:11,5.432,0.002%,
3,2025-01-01 17:59:16,2025-01-01 18:06:28,432.185,0.137%,
4,2025-01-01 19:33:58,2025-01-01 19:41:12,433.972,0.138%,
5,2025-01-01 21:08:36,2025-01-01 21:15:57,440.219,0.140%,
6,2025-01-01 22:43:30,2025-01-01 22:50:41,431.351,0.137%,
7,2025-01-02 00:18:07,2025-01-02 00:25:25,437.639,0.139%,
8,2025-01-02 01:53:01,2025-01-02 02:00:09,428.421,0.136%,
9,2025-01-02 03:27:39,2025-01-02 03:34:53,434.784,0.138%,
10,2025-01-02 05:02:17,2025-01-02 05:09:37,440.659,0.140%,
11,2025-01-02 06:37:10,2025-01-02 06:44:21,431.648,0.137%,
12,2025-01-02 08:11:48,2025-01-02 08:19:06,437.85,0.139%,
13,2025-01-02 09:46:41,2025-01-02 09:53:51,429.492,0.136%,
14,2025-01-02 11:21:19,2025-01-02 11:28:35,436.389,0.138%,
15,2025-01-02 12:56:10,2025-01-02 13:03:20,429.723,0.136%,
16,2025-01-02 14:30:50,2025-01-02 14:38:05,434.537,0.138%,
17,2025-01-02 16:05:28,2025-01-02 16:12:49,440.94,0.140%,
18,2025-01-02 17:40:21,2025-01-02 17:47:34,432.334,0.137%,
19,2025-01-02 19:14:59,2025-01-02 19:22:18,438.751,0.139%,
20,2025-01-02 20:49:49,2025-01-02 20:57:02,433.463,0.138%,
21,2025-01-02 22:24:30,2025-01-02 22:31:47,436.271,0.138%,
22,2025-01-02 23:59:09,2025-01-03 00:06:31,442.274,0.140%,
23,2025-01-03 01:34:00,2025-01-03 01:41:15,434.857,0.138%,
24,2025-01-03 03:08:40,2025-01-03 03:15:59,439.526,0.139%,
25,2025-01-03 04:43:28,2025-01-03 04:50:43,435.465,0.138%,
26,2025-01-03 06:18:11,2025-01-03 06:25:27,436.517,0.138%,
27,2025-01-03 07:52:55,2025-01-03 08:00:11,435.995,0.138%,
28,2025-01-03 09:27:39,2025-01-03 09:34:56,437.062,0.139%,
29,2025-01-03 11:02:20,2025-01-03 11:09:41,440.984,0.140%,
30,2025-01-03 12:37:07,2025-01-03 12:44:26,438.909,0.139%,
31,2025-01-03 14:11:51,2025-01-03 14:19:10,439.703,0.139%,
32,2025-01-03 15:46:35,2025-01-03 15:53:55,440.42,0.140%,
33,2025-01-03 17:21:18,2025-01-03 17:28:39,441.064,0.140%,
34,2025-01-03 18:56:02,2025-01-03 19:03:24,441.638,0.140%,
35,2025-01-03 20:30:46,2025-01-03 20:38:08,442.147,0.140%,
36,2025-01-03 22:05:30,2025-01-03 22:12:53,442.591,0.140%,
37,2025-01-03 23:40:14,2025-01-03 23:47:37,442.973,0.141%,
38,2025-01-04 01:14:58,2025-01-04 01:22:21,443.295,0.141%,
39,2025-01-04 02:49:41,2025-01-04 02:57:05,443.557,0.141%,
40,2025-01-04 04:24:25,2025-01-04 04:31:49,443.761,0.141%,
41,2025-01-04 05:59:09,2025-01-04 06:06:33,443.907,0.141%,
42,2025-01-04 07:34:05,2025-01-04 07:41:17,432.233,0.137%,
43,2025-01-04 09:08:43,2025-01-04 09:16:02,439.028,0.139%,
44,2025-01-04 10:43:36,2025-01-04 10:50:47,430.681,0.137%,
45,2025-01-04 12:18:14,2025-01-04 12:25:32,437.452,0.139%,
46,2025-01-04 13:53:07,2025-01-04 14:00:16,428.707,0.136%,
47,2025-01-04 15:27:45,2025-01-04 15:35:01,435.511,0.138%,
48,2025-01-04 17:02:23,2025-01-04 17:09:45,441.814,0.140%,
49,2025-01-04 18:37:16,2025-01-04 18:44:30,433.231,0.137%,
50,2025-01-04 20:11:54,2025-01-04 20:19:14,439.549,0.139%,
51,2025-01-04 21:46:48,2025-01-04 21:53:58,430.634,0.137%,
52,2025-01-04 23:21:26,2025-01-04 23:28:43,436.998,0.139%,
53,2025-01-05 00:56:04,2025-01-05 00:56:04,0.563,0.000%,
54,2025-01-05 00:56:17,2025-01-05 01:03:27,429.864,0.136%,
55,2025-01-05 02:30:57,2025-01-05 02:38:11,434.167,0.138%,
56,2025-01-05 04:05:35,2025-01-05 04:12:55,440.104,0.140%,
57,2025-01-05 05:40:28,2025-01-05 05:47:39,431.053,0.137%,
58,2025-01-05 07:15:06,2025-01-05 07:22:23,437.027,0.139%,
59,2025-01-05 08:49:56,2025-01-05 08:57:08,432.23,0.137%,
60,2025-01-05 10:24:37,2025-01-05 10:31:53,435.533,0.138%,
61,2025-01-05 11:59:15,2025-01-05 12:06:37,442.023,0.140%,
62,2025-01-05 13:34:07,2025-01-05 13:41:22,435.099,0.138%,
63,2025-01-05 15:08:46,2025-01-05 15:16:06,440.193,0.140%,
64,2025-01-05 16:43:34,2025-01-05 16:50:51,436.589,0.138%,
65,2025-01-05 18:18:17,2025-01-05 18:25:35,438.043,0.139%,
66,2025-01-05 19:53:02,2025-01-05 20:00:20,437.788,0.139%,
67,2025-01-05 21:27:46,2025-01-05 21:35:04,438.288,0.139%,
68,2025-01-05 23:02:27,2025-01-05 23:09:48,441.657,0.140%,
69,2025-01-06 00:37:13,2025-01-06 00:44:33,439.095,0.139%,
70,2025-01-06 02:11:57,2025-01-06 02:19:17,439.407,0.139%,
71,2025-01-06 03:46:41,2025-01-06 03:54:01,439.659,0.139%,
72,2025-01-06 05:21:25,2025-01-06 05:28:45,439.851,0.140%,
73,2025-01-06 06:56:07,2025-01-06 07:03:29,441.661,0.140%,
74,2025-01-06 08:30:53,2025-01-06 08:38:13,440.831,0.140%,
75,2025-01-06 10:05:37,2025-01-06 10:12:58,441.799,0.140%,
76,2025-01-06 11:40:20,2025-01-06 11:47:43,442.675,0.140%,
77,2025-01-06 13:15:04,2025-01-06 13:22:28,443.466,0.141%,
78,2025-01-06 14:49:48,2025-01-06 14:57:12,444.179,0.141%,
79,2025-01-06 16:24:32,2025-01-06 16:31:57,444.819,0.141%,
80,2025-01-06 17:59:16,2025-01-06 18:06:41,445.389,0.141%,
81,2025-01-06 19:34:00,2025-01-06 19:41:26,445.893,0.141%,
82,2025-01-06 21:08:50,2025-01-06 21:16:10,440.305,0.140%,
83,2025-01-06 22:43:43,2025-01-06 22:50:54,431.427,0.137%,
84,2025-01-07 00:18:21,2025-01-07 00:25:38,437.686,0.139%,
85,2025-01-07 01:53:10,2025-01-07 02:00:23,432.415,0.137%,
86,2025-01-07 03:27:52,2025-01-07 03:35:07,434.795,0.138%,
87,2025-01-07 05:02:30,2025-01-07 05:09:51,440.643,0.140%,
88,2025-01-07 06:37:23,2025-01-07 06:44:35,431.623,0.137%,
89,2025-01-07 08:12:01,2025-01-07 08:19:19,438.15,0.139%,
90,2025-01-07 09:46:54,2025-01-07 09:54:04,429.77,0.136%,
91,2025-01-07 11:21:32,2025-01-07 11:28:49,436.626,0.139%,
92,2025-01-07 12:56:10,2025-01-07 13:03:33,443.014,0.141%,
93,2025-01-07 14:31:03,2025-01-07 14:38:18,434.724,0.138%,
94,2025-01-07 16:05:41,2025-01-07 16:13:03,441.095,0.140%,
95,2025-01-07 17:40:35,2025-01-07 17:47:47,432.475,0.137%,
96,2025-01-07 19:15:13,2025-01-07 19:22:31,438.862,0.139%,
97,2025-01-07 20:50:02,2025-01-07 20:57:16,433.605,0.138%,
98,2025-01-07 22:24:44,2025-01-07 22:32:00,436.343,0.138%,
99,2025-01-07 23:59:22,2025-01-08 00:06:44,442.319,0.140%,
100,2025-01-08 01:34:13,2025-01-08 01:41:28,434.932,0.138%,
101,2025-01-08 03:08:53,2025-01-08 03:16:12,439.533,0.139%,
102,2025-01-08 04:43:41,2025-01-08 04:50:56,435.497,0.138%,
103,2025-01-08 06:18:24,2025-01-08 06:25:40,436.488,0.138%,
104,2025-01-08 07:53:09,2025-01-08 08:00:25,436.338,0.138%,
105,2025-01-08 09:27:52,2025-01-08 09:35:10,437.37,0.139%,
106,2025-01-08 11:02:33,2025-01-08 11:09:55,441.221,0.140%,
107,2025-01-08 12:37:20,2025-01-08 12:44:39,439.153,0.139%,
108,2025-01-08 14:12:04,2025-01-08 14:19:24,439.92,0.140%,
109,2025-01-08 15:46:48,2025-01-08 15:54:08,440.611,0.140%,
110,2025-01-08 17:21:32,2025-01-08 17:28:53,441.23,0.140%,
111,2025-01-08 18:56:14,2025-01-08 19:03:37,443.441,0.141%,
112,2025-01-08 20:30:59,2025-01-08 20:38:22,442.266,0.140%,
113,2025-01-08 22:05:43,2025-01-08 22:13:06,442.688,0.140%,
114,2025-01-08 23:40:27,2025-01-08 23:47:50,443.049,0.141%,
115,2025-01-09 01:15:11,2025-01-09 01:22:34,443.35,0.141%,
116,2025-01-09 02:49:55,2025-01-09 02:57:18,443.591,0.141%,
117,2025-01-09 04:24:39,2025-01-09 04:32:02,443.775,0.141%,
118,2025-01-09 05:59:22,2025-01-09 06:06:46,443.901,0.141%,
119,2025-01-09 07:34:06,2025-01-09 07:41:31,444.362,0.141%,
120,2025-01-09 09:08:50,2025-01-09 09:16:16,445.34,0.141%,
121,2025-01-09 10:43:34,2025-01-09 10:43:43,8.854,0.003%,
122,2025-01-09 10:43:49,2025-01-09 10:51:00,430.935,0.137%,
123,2025-01-09 12:18:27,2025-01-09 12:25:45,437.668,0.139%,
124,2025-01-09 13:53:06,2025-01-09 14:00:30,443.958,0.141%,
125,2025-01-09 15:27:58,2025-01-09 15:35:14,435.678,0.138%,
126,2025-01-09 17:02:37,2025-01-09 17:09:59,441.951,0.140%,
127,2025-01-09 18:37:30,2025-01-09 18:44:43,433.356,0.137%,
128,2025-01-09 20:12:08,2025-01-09 20:19:27,439.643,0.139%,
129,2025-01-09 21:47:01,2025-01-09 21:54:12,430.72,0.137%,
130,2025-01-09 23:21:39,2025-01-09 23:28:56,437.054,0.139%,
131,2025-01-10 00:56:17,2025-01-10 01:03:40,442.945,0.141%,
132,2025-01-10 02:31:10,2025-01-10 02:38:24,434.186,0.138%,
133,2025-01-10 04:05:48,2025-01-10 04:13:08,440.097,0.140%,
134,2025-01-10 05:40:41,2025-01-10 05:47:52,431.037,0.137%,
135,2025-01-10 07:15:19,2025-01-10 07:22:36,437.252,0.139%,
136,2025-01-10 08:50:09,2025-01-10 08:57:21,432.563,0.137%,
137,2025-01-10 10:24:50,2025-01-10 10:32:06,435.784,0.138%,
138,2025-01-10 11:59:28,2025-01-10 12:06:51,442.238,0.140%,
139,2025-01-10 13:34:20,2025-01-10 13:41:35,435.336,0.138%,
140,2025-01-10 15:09:00,2025-01-10 15:16:20,440.358,0.140%,
141,2025-01-10 16:43:48,2025-01-10 16:51:04,436.773,0.139%,
142,2025-01-10 18:18:31,2025-01-10 18:25:49,438.166,0.139%,
143,2025-01-10 19:53:09,2025-01-10 20:00:33,444.196,0.141%,
144,2025-01-10 21:27:59,2025-01-10 21:35:17,438.402,0.139%,
145,2025-01-10 23:02:40,2025-01-10 23:10:02,441.711,0.140%,
146,2025-01-11 00:37:27,2025-01-11 00:44:46,439.166,0.139%,
147,2025-01-11 02:12:10,2025-01-11 02:19:30,439.457,0.139%,
148,2025-01-11 03:46:54,2025-01-11 03:54:14,439.687,0.139%,
149,2025-01-11 05:21:38,2025-01-11 05:28:58,439.859,0.140%,
150,2025-01-11 06:56:20,2025-01-11 07:03:42,441.754,0.140%,
151,2025-01-11 08:31:06,2025-01-11 08:38:27,441.143,0.140%,
152,2025-01-11 10:05:50,2025-01-11 10:13:12,442.077,0.140%,
153,2025-01-11 11:40:34,2025-01-11 11:47:56,442.922,0.140%,
154,2025-01-11 13:15:17,2025-01-11 13:22:41,443.686,0.141%,
155,2025-01-11 14:50:01,2025-01-11 14:57:26,444.372,0.141%,
156,2025-01-11 16:24:45,2025-01-11 16:32:10,444.987,0.141%,
157,2025-01-11 17:59:29,2025-01-11 18:06:55,445.533,0.141%,
158,2025-01-11 19:34:13,2025-01-11 19:41:39,446.014,0.141%,
159,2025-01-11 21:08:57,2025-01-11 21:16:23,446.432,0.142%,
160,2025-01-11 22:43:41,2025-01-11 22:51:07,446.789,0.142%,
161,2025-01-12 00:18:25,2025-01-12 00:25:52,447.089,0.142%,
162,2025-01-12 01:53:12,2025-01-12 02:00:36,443.536,0.141%,
163,2025-01-12 03:28:05,2025-01-12 03:35:20,434.799,0.138%,
164,2025-01-12 05:02:43,2025-01-12 05:10:04,440.62,0.140%,
165,2025-01-12 06:37:36,2025-01-12 06:44:48,431.602,0.137%,
166,2025-01-12 08:12:14,2025-01-12 08:19:33,438.438,0.139%,
167,2025-01-12 09:47:05,2025-01-12 09:54:17,432.971,0.137%,
168,2025-01-12 11:21:45,2025-01-12 11:29:02,436.854,0.139%,
169,2025-01-12 12:56:24,2025-01-12 13:03:47,443.208,0.141%,
170,2025-01-12 14:31:17,2025-01-12 14:38:31,434.902,0.138%,
171,2025-01-12 16:05:55,2025-01-12 16:13:16,441.241,0.140%,
172,2025-01-12 17:40:48,2025-01-12 17:48:00,432.61,0.137%,
173,2025-01-12 19:15:26,2025-01-12 19:22:45,438.968,0.139%,
174,2025-01-12 20:50:04,2025-01-12 20:50:04,0.285,0.000%,
175,2025-01-12 20:50:15,2025-01-12 20:57:29,433.741,0.138%,
176,2025-01-12 22:24:57,2025-01-12 22:32:13,436.408,0.138%,
177,2025-01-12 23:59:35,2025-01-13 00:06:57,442.357,0.140%,
178,2025-01-13 01:34:27,2025-01-13 01:41:42,435,0.138%,
179,2025-01-13 03:09:06,2025-01-13 03:16:26,439.534,0.139%,
180,2025-01-13 04:43:54,2025-01-13 04:51:10,435.523,0.138%,
181,2025-01-13 06:18:37,2025-01-13 06:25:54,436.455,0.138%,
182,2025-01-13 07:53:16,2025-01-13 08:00:38,442.92,0.140%,
183,2025-01-13 09:28:06,2025-01-13 09:35:23,437.668,0.139%,
184,2025-01-13 11:02:47,2025-01-13 11:10:08,441.448,0.140%,
185,2025-01-13 12:37:33,2025-01-13 12:44:53,439.39,0.139%,
186,2025-01-13 14:12:17,2025-01-13 14:19:37,440.129,0.140%,
187,2025-01-13 15:47:01,2025-01-13 15:54:22,440.794,0.140%,
188,2025-01-13 17:21:45,2025-01-13 17:29:06,441.389,0.140%,
189,2025-01-13 18:56:27,2025-01-13 19:03:50,443.543,0.141%,
190,2025-01-13 20:31:12,2025-01-13 20:38:35,442.379,0.140%,
191,2025-01-13 22:05:56,2025-01-13 22:13:19,442.78,0.140%,
192,2025-01-13 23:40:40,2025-01-13 23:48:03,443.119,0.141%,
193,2025-01-14 01:15:24,2025-01-14 01:22:47,443.399,0.141%,
194,2025-01-14 02:50:07,2025-01-14 02:57:31,444.089,0.141%,
195,2025-01-14 04:24:52,2025-01-14 04:32:16,443.783,0.141%,
196,2025-01-14 05:59:36,2025-01-14 06:06:59,443.888,0.141%,
197,2025-01-14 07:34:19,2025-01-14 07:41:44,444.681,0.141%,
198,2025-01-14 09:09:03,2025-01-14 09:16:29,445.624,0.141%,
199,2025-01-14 10:43:47,2025-01-14 10:51:14,446.475,0.142%,
200,2025-01-14 12:18:31,2025-01-14 12:25:58,447.245,0.142%,
201,2025-01-14 13:53:15,2025-01-14 14:00:43,447.936,0.142%,
202,2025-01-14 15:28:12,2025-01-14 15:35:27,435.837,0.138%,
203,2025-01-14 17:02:50,2025-01-14 17:10:12,442.079,0.140%,
204,2025-01-14 18:37:43,2025-01-14 18:44:56,433.472,0.138%,
205,2025-01-14 20:12:21,2025-01-14 20:19:41,439.73,0.139%,
206,2025-01-14 21:47:11,2025-01-14 21:54:25,433.708,0.138%,
207,2025-01-14 23:21:52,2025-01-14 23:29:09,437.102,0.139%,
208,2025-01-15 00:56:30,2025-01-15 01:03:53,442.967,0.141%,
209,2025-01-15 02:31:23,2025-01-15 02:38:37,434.199,0.138%,
210,2025-01-15 04:06:01,2025-01-15 04:13:21,440.082,0.140%,
211,2025-01-15 05:40:54,2025-01-15 05:48:05,431.014,0.137%,
212,2025-01-15 07:15:32,2025-01-15 07:22:50,437.555,0.139%,
213,2025-01-15 08:50:11,2025-01-15 08:57:35,444.024,0.141%,
214,2025-01-15 10:25:03,2025-01-15 10:32:19,436.024,0.138%,
215,2025-01-15 11:59:42,2025-01-15 12:07:04,442.444,0.140%,
216,2025-01-15 13:34:33,2025-01-15 13:41:49,435.566,0.138%,
217,2025-01-15 15:09:13,2025-01-15 15:16:33,440.514,0.140%,
218,2025-01-15 16:44:01,2025-01-15 16:51:18,436.95,0.139%,
219,2025-01-15 18:18:44,2025-01-15 18:26:02,438.279,0.139%,
220,2025-01-15 19:53:22,2025-01-15 20:00:46,444.281,0.141%,
221,2025-01-15 21:28:12,2025-01-15 21:35:31,438.509,0.139%,
222,2025-01-15 23:02:53,2025-01-15 23:10:15,441.757,0.140%,
223,2025-01-16 00:37:40,2025-01-16 00:44:59,439.23,0.139%,
224,2025-01-16 02:12:24,2025-01-16 02:19:43,439.499,0.139%,
225,2025-01-16 03:47:07,2025-01-16 03:54:27,439.709,0.139%,
226,2025-01-16 05:21:51,2025-01-16 05:29:11,439.86,0.140%,
227,2025-01-16 06:56:34,2025-01-16 07:03:56,442.057,0.140%,
228,2025-01-16 08:31:19,2025-01-16 08:38:40,441.443,0.140%,
229,2025-01-16 10:06:03,2025-01-16 10:13:25,442.345,0.140%,
230,2025-01-16 11:40:47,2025-01-16 11:48:10,443.16,0.141%,
231,2025-01-16 13:15:31,2025-01-16 13:22:54,443.895,0.141%,
232,2025-01-16 14:50:14,2025-01-16 14:57:39,445.01,0.141%,
233,2025-01-16 16:24:58,2025-01-16 16:32:23,445.146,0.141%,
234,2025-01-16 17:59:42,2025-01-16 18:07:08,445.669,0.141%,
235,2025-01-16 19:34:26,2025-01-16 19:41:52,446.127,0.142%,
236,2025-01-16 21:09:10,2025-01-16 21:16:36,446.523,0.142%,
237,2025-01-16 22:43:54,2025-01-16 22:51:21,446.859,0.142%,
238,2025-01-17 00:18:38,2025-01-17 00:26:05,447.138,0.142%,
239,2025-01-17 01:53:22,2025-01-17 02:00:49,447.357,0.142%,
240,2025-01-17 03:28:05,2025-01-17 03:28:18,12.317,0.004%,
241,2025-01-17 03:28:18,2025-01-17 03:35:33,434.795,0.138%,
242,2025-01-17 05:02:56,2025-01-17 05:10:17,440.59,0.140%,
243,2025-01-17 06:37:49,2025-01-17 06:45:01,431.921,0.137%,
244,2025-01-17 08:12:27,2025-01-17 08:19:46,438.713,0.139%,
245,2025-01-17 09:47:18,2025-01-17 09:54:31,433.179,0.137%,
246,2025-01-17 11:21:59,2025-01-17 11:29:16,437.072,0.139%,
247,2025-01-17 12:56:37,2025-01-17 13:04:00,443.392,0.141%,
248,2025-01-17 14:31:30,2025-01-17 14:38:45,435.07,0.138%,
249,2025-01-17 16:06:08,2025-01-17 16:13:29,441.379,0.140%,
250,2025-01-17 17:40:59,2025-01-17 17:48:14,434.676,0.138%,
251,2025-01-17 19:15:39,2025-01-17 19:22:58,439.064,0.139%,
252,2025-01-17 20:50:17,2025-01-17 20:57:42,444.979,0.141%,
253,2025-01-17 22:25:10,2025-01-17 22:32:26,436.465,0.138%,
254,2025-01-17 23:59:48,2025-01-18 00:07:11,442.388,0.140%,
255,2025-01-18 01:34:40,2025-01-18 01:41:55,435.06,0.138%,
256,2025-01-18 03:09:19,2025-01-18 03:16:39,439.528,0.139%,
257,2025-01-18 04:44:07,2025-01-18 04:51:23,435.54,0.138%,
258,2025-01-18 06:18:50,2025-01-18 06:26:07,436.652,0.139%,
259,2025-01-18 07:53:29,2025-01-18 08:00:52,443.195,0.141%,
260,2025-01-18 09:28:19,2025-01-18 09:35:37,437.953,0.139%,
261,2025-01-18 11:03:00,2025-01-18 11:10:21,441.664,0.140%,
262,2025-01-18 12:37:46,2025-01-18 12:45:06,439.615,0.139%,
263,2025-01-18 14:12:30,2025-01-18 14:19:51,440.328,0.140%,
264,2025-01-18 15:47:09,2025-01-18 15:54:35,445.854,0.141%,
265,2025-01-18 17:21:58,2025-01-18 17:29:19,441.538,0.140%,
266,2025-01-18 18:56:40,2025-01-18 19:04:04,443.637,0.141%,
267,2025-01-18 20:31:26,2025-01-18 20:38:48,442.483,0.140%,
268,2025-01-18 22:06:09,2025-01-18 22:13:32,442.862,0.140%,
269,2025-01-18 23:40:53,2025-01-18 23:48:16,443.18,0.141%,
270,2025-01-19 01:15:37,2025-01-19 01:23:01,443.439,0.141%,
271,2025-01-19 02:50:21,2025-01-19 02:57:45,444.082,0.141%,
272,2025-01-19 04:25:05,2025-01-19 04:32:29,443.782,0.141%,
273,2025-01-19 05:59:49,2025-01-19 06:07:13,443.979,0.141%,
274,2025-01-19 07:34:33,2025-01-19 07:41:58,444.985,0.141%,
275,2025-01-19 09:09:17,2025-01-19 09:16:42,445.895,0.141%,
276,2025-01-19 10:44:00,2025-01-19 10:51:27,446.716,0.142%,
277,2025-01-19 12:18:44,2025-01-19 12:26:12,447.458,0.142%,
278,2025-01-19 13:53:28,2025-01-19 14:00:56,448.122,0.142%,
279,2025-01-19 15:28:12,2025-01-19 15:35:41,448.715,0.142%,
280,2025-01-19 17:02:56,2025-01-19 17:03:01,4.647,0.002%,
281,2025-01-19 17:03:03,2025-01-19 17:10:25,442.199,0.140%,
282,2025-01-19 18:37:56,2025-01-19 18:45:10,433.581,0.138%,
283,2025-01-19 20:12:34,2025-01-19 20:19:54,439.809,0.140%,
284,2025-01-19 21:47:12,2025-01-19 21:54:38,445.649,0.141%,
285,2025-01-19 23:22:05,2025-01-19 23:29:22,437.143,0.139%,
286,2025-01-20 00:56:43,2025-01-20 01:04:06,442.983,0.141%,
287,2025-01-20 02:31:36,2025-01-20 02:38:51,434.204,0.138%,
288,2025-01-20 04:06:14,2025-01-20 04:13:35,440.06,0.140%,
289,2025-01-20 05:41:06,2025-01-20 05:48:18,432.901,0.137%,
290,2025-01-20 07:15:46,2025-01-20 07:23:03,437.844,0.139%,
291,2025-01-20 08:50:24,2025-01-20 08:57:48,444.276,0.141%,
292,2025-01-20 10:25:17,2025-01-20 10:32:33,436.253,0.138%,
293,2025-01-20 11:59:55,2025-01-20 12:07:18,442.638,0.140%,
294,2025-01-20 13:34:46,2025-01-20 13:42:02,435.783,0.138%,
295,2025-01-20 15:09:26,2025-01-20 15:16:47,440.661,0.140%,
296,2025-01-20 16:44:14,2025-01-20 16:51:31,437.117,0.139%,
297,2025-01-20 18:18:57,2025-01-20 18:26:15,438.384,0.139%,
298,2025-01-20 19:53:35,2025-01-20 20:01:00,444.359,0.141%,
299,2025-01-20 21:28:25,2025-01-20 21:35:44,438.606,0.139%,
300,2025-01-20 23:03:06,2025-01-20 23:10:28,441.796,0.140%,
301,2025-01-21 00:37:53,2025-01-21 00:45:12,439.284,0.139%,
302,2025-01-21 02:12:37,2025-01-21 02:19:56,439.533,0.139%,
303,2025-01-21 03:47:16,2025-01-21 03:54:40,444.591,0.141%,
304,2025-01-21 05:22:04,2025-01-21 05:29:24,439.852,0.140%,
305,2025-01-21 06:56:47,2025-01-21 07:04:09,442.346,0.140%,
306,2025-01-21 08:31:32,2025-01-21 08:38:54,441.729,0.140%,
307,2025-01-21 10:06:16,2025-01-21 10:13:39,442.6,0.140%,
308,2025-01-21 11:41:00,2025-01-21 11:48:23,443.386,0.141%,
309,2025-01-21 13:15:44,2025-01-21 13:23:08,444.094,0.141%,
310,2025-01-21 14:50:27,2025-01-21 14:57:52,445.158,0.141%,
311,2025-01-21 16:25:11,2025-01-21 16:32:37,445.296,0.141%,
312,2025-01-21 17:59:55,2025-01-21 18:07:21,445.796,0.141%,
313,2025-01-21 19:34:39,2025-01-21 19:42:05,446.232,0.142%,
314,2025-01-21 21:09:23,2025-01-21 21:16:50,446.606,0.142%,
315,2025-01-21 22:44:07,2025-01-21 22:51:34,446.921,0.142%,
316,2025-01-22 00:18:51,2025-01-22 00:26:18,447.18,0.142%,
317,2025-01-22 01:53:35,2025-01-22 02:01:02,447.378,0.142%,
318,2025-01-22 03:28:19,2025-01-22 03:35:46,447.52,0.142%,
319,2025-01-22 05:03:03,2025-01-22 05:10:30,447.603,0.142%,
320,2025-01-22 06:38:03,2025-01-22 06:45:15,432.226,0.137%,
321,2025-01-22 08:12:41,2025-01-22 08:20:00,438.977,0.139%,
322,2025-01-22 09:47:19,2025-01-22 09:54:44,445.309,0.141%,
323,2025-01-22 11:22:12,2025-01-22 11:29:29,437.279,0.139%,
324,2025-01-22 12:56:50,2025-01-22 13:04:14,443.567,0.141%,
325,2025-01-22 14:31:43,2025-01-22 14:38:58,435.23,0.138%,
326,2025-01-22 16:06:21,2025-01-22 16:13:43,441.508,0.140%,
327,2025-01-22 17:41:12,2025-01-22 17:48:27,434.748,0.138%,
328,2025-01-22 19:15:52,2025-01-22 19:23:11,439.152,0.139%,
329,2025-01-22 20:50:30,2025-01-22 20:57:56,445.042,0.141%,
330,2025-01-22 22:25:23,2025-01-22 22:32:40,436.514,0.138%,
331,2025-01-23 00:00:01,2025-01-23 00:07:24,442.411,0.140%,
332,2025-01-23 01:34:53,2025-01-23 01:42:08,435.112,0.138%,
333,2025-01-23 03:09:33,2025-01-23 03:16:52,439.514,0.139%,
334,2025-01-23 04:44:20,2025-01-23 04:51:36,435.549,0.138%,
335,2025-01-23 06:19:04,2025-01-23 06:26:21,436.955,0.139%,
336,2025-01-23 07:53:42,2025-01-23 08:01:05,443.459,0.141%,
337,2025-01-23 09:28:32,2025-01-23 09:35:50,438.225,0.139%,
338,2025-01-23 11:03:13,2025-01-23 11:10:35,441.87,0.140%,
339,2025-01-23 12:38:00,2025-01-23 12:45:19,439.831,0.140%,
340,2025-01-23 14:12:43,2025-01-23 14:20:04,440.517,0.140%,
341,2025-01-23 15:47:22,2025-01-23 15:54:48,445.983,0.141%,
342,2025-01-23 17:22:11,2025-01-23 17:29:33,441.679,0.140%,
343,2025-01-23 18:56:53,2025-01-23 19:04:17,443.723,0.141%,
344,2025-01-23 20:31:39,2025-01-23 20:39:01,442.58,0.140%,
345,2025-01-23 22:06:23,2025-01-23 22:13:46,442.937,0.141%,
346,2025-01-23 23:41:06,2025-01-23 23:48:30,443.234,0.141%,
347,2025-01-24 01:15:50,2025-01-24 01:23:14,443.472,0.141%,
348,2025-01-24 02:50:34,2025-01-24 02:57:58,444.066,0.141%,
349,2025-01-24 04:25:18,2025-01-24 04:32:42,443.775,0.141%,
350,2025-01-24 06:00:02,2025-01-24 06:07:26,444.307,0.141%,
351,2025-01-24 07:34:46,2025-01-24 07:42:11,445.277,0.141%,
352,2025-01-24 09:09:30,2025-01-24 09:16:56,446.154,0.142%,
353,2025-01-24 10:44:14,2025-01-24 10:51:41,446.946,0.142%,
354,2025-01-24 12:18:57,2025-01-24 12:26:25,447.661,0.142%,
355,2025-01-24 13:53:41,2025-01-24 14:01:10,448.299,0.142%,
356,2025-01-24 15:28:25,2025-01-24 15:35:54,448.868,0.142%,
357,2025-01-24 17:03:09,2025-01-24 17:10:39,449.373,0.143%,
358,2025-01-24 18:37:53,2025-01-24 18:45:23,449.812,0.143%,
359,2025-01-24 20:12:47,2025-01-24 20:20:07,439.881,0.140%,
360,2025-01-24 21:47:26,2025-01-24 21:54:51,445.695,0.141%,
361,2025-01-24 23:22:18,2025-01-24 23:29:36,437.177,0.139%,
362,2025-01-25 00:56:57,2025-01-25 01:04:20,442.991,0.141%,
363,2025-01-25 02:31:49,2025-01-25 02:39:04,434.202,0.138%,
364,2025-01-25 04:06:28,2025-01-25 04:13:48,440.032,0.140%,
365,2025-01-25 05:41:19,2025-01-25 05:48:32,433.159,0.137%,
366,2025-01-25 07:15:59,2025-01-25 07:23:17,438.121,0.139%,
367,2025-01-25 08:50:37,2025-01-25 08:58:02,444.515,0.141%,
368,2025-01-25 10:25:30,2025-01-25 10:32:46,436.472,0.138%,
369,2025-01-25 12:00:08,2025-01-25 12:07:31,442.824,0.140%,
370,2025-01-25 13:34:59,2025-01-25 13:42:15,435.992,0.138%,
371,2025-01-25 15:09:39,2025-01-25 15:17:00,440.8,0.140%,
372,2025-01-25 16:44:18,2025-01-25 16:51:44,446.766,0.142%,
373,2025-01-25 18:19:10,2025-01-25 18:26:29,438.481,0.139%,
374,2025-01-25 19:53:49,2025-01-25 20:01:13,444.429,0.141%,
375,2025-01-25 21:28:38,2025-01-25 21:35:57,438.697,0.139%,
376,2025-01-25 23:03:20,2025-01-25 23:10:41,441.828,0.140%,
377,2025-01-26 00:38:06,2025-01-26 00:45:25,439.333,0.139%,
378,2025-01-26 02:12:50,2025-01-26 02:20:10,439.56,0.139%,
379,2025-01-26 03:47:29,2025-01-26 03:54:54,444.561,0.141%,
380,2025-01-26 05:22:18,2025-01-26 05:29:38,440.051,0.140%,
381,2025-01-26 06:57:00,2025-01-26 07:04:23,442.623,0.140%,
382,2025-01-26 08:31:45,2025-01-26 08:39:07,442.006,0.140%,
383,2025-01-26 10:06:29,2025-01-26 10:13:52,442.845,0.140%,
384,2025-01-26 11:41:13,2025-01-26 11:48:37,443.604,0.141%,
385,2025-01-26 13:15:57,2025-01-26 13:23:21,444.286,0.141%,
386,2025-01-26 14:50:40,2025-01-26 14:58:06,445.295,0.141%,
387,2025-01-26 16:25:25,2025-01-26 16:32:50,445.438,0.141%,
388,2025-01-26 18:00:09,2025-01-26 18:07:34,445.915,0.141%,
389,2025-01-26 19:34:52,2025-01-26 19:42:19,446.329,0.142%,
390,2025-01-26 21:09:36,2025-01-26 21:17:03,446.683,0.142%,
391,2025-01-26 22:44:20,2025-01-26 22:51:47,446.976,0.142%,
392,2025-01-27 00:19:04,2025-01-27 00:26:31,447.214,0.142%,
393,2025-01-27 01:53:48,2025-01-27 02:01:15,447.393,0.142%,
394,2025-01-27 03:28:32,2025-01-27 03:35:59,447.514,0.142%,
395,2025-01-27 05:03:16,2025-01-27 05:10:43,447.665,0.142%,
396,2025-01-27 06:38:00,2025-01-27 06:45:28,448.653,0.142%,
397,2025-01-27 08:12:44,2025-01-27 08:12:44,0.556,0.000%,
398,2025-01-27 08:12:54,2025-01-27 08:20:13,439.229,0.139%,
399,2025-01-27 09:47:32,2025-01-27 09:54:58,445.527,0.141%,
400,2025-01-27 11:22:25,2025-01-27 11:29:42,437.477,0.139%,
401,2025-01-27 12:57:03,2025-01-27 13:04:27,443.734,0.141%,
402,2025-01-27 14:31:56,2025-01-27 14:39:11,435.382,0.138%,
403,2025-01-27 16:06:34,2025-01-27 16:13:56,441.63,0.140%,
404,2025-01-27 17:41:25,2025-01-27 17:48:40,434.812,0.138%,
405,2025-01-27 19:16:05,2025-01-27 19:23:25,439.232,0.139%,
406,2025-01-27 20:50:44,2025-01-27 20:58:09,445.096,0.141%,
407,2025-01-27 22:25:36,2025-01-27 22:32:53,436.557,0.138%,
408,2025-01-28 00:00:15,2025-01-28 00:07:37,442.427,0.140%,
409,2025-01-28 01:35:06,2025-01-28 01:42:21,435.158,0.138%,
410,2025-01-28 03:09:46,2025-01-28 03:17:05,439.494,0.139%,
411,2025-01-28 04:44:24,2025-01-28 04:51:49,445.019,0.141%,
412,2025-01-28 06:19:17,2025-01-28 06:26:34,437.247,0.139%,
413,2025-01-28 07:53:55,2025-01-28 08:01:19,443.711,0.141%,
414,2025-01-28 09:28:45,2025-01-28 09:36:04,438.489,0.139%,
415,2025-01-28 11:03:26,2025-01-28 11:10:48,442.066,0.140%,
416,2025-01-28 12:38:13,2025-01-28 12:45:33,440.038,0.140%,
417,2025-01-28 14:12:57,2025-01-28 14:20:17,440.699,0.140%,
418,2025-01-28 15:47:36,2025-01-28 15:55:02,446.102,0.142%,
419,2025-01-28 17:22:24,2025-01-28 17:29:46,441.813,0.140%,
420,2025-01-28 18:57:07,2025-01-28 19:04:30,443.802,0.141%,
421,2025-01-28 20:31:52,2025-01-28 20:39:15,442.669,0.140%,
422,2025-01-28 22:06:36,2025-01-28 22:13:59,443.005,0.141%,
423,2025-01-28 23:41:20,2025-01-28 23:48:43,443.282,0.141%,
424,2025-01-29 01:16:04,2025-01-29 01:23:27,443.499,0.141%,
425,2025-01-29 02:50:47,2025-01-29 02:58:11,444.043,0.141%,
426,2025-01-29 04:25:31,2025-01-29 04:32:55,443.761,0.141%,
427,2025-01-29 06:00:15,2025-01-29 06:07:40,444.623,0.141%,
428,2025-01-29 07:34:59,2025-01-29 07:42:25,445.559,0.141%,
429,2025-01-29 09:09:43,2025-01-29 09:17:09,446.405,0.142%,
430,2025-01-29 10:44:27,2025-01-29 10:51:54,447.167,0.142%,
431,2025-01-29 12:19:11,2025-01-29 12:26:39,447.855,0.142%,
432,2025-01-29 13:53:55,2025-01-29 14:01:23,448.469,0.142%,
433,2025-01-29 15:28:38,2025-01-29 15:36:07,449.014,0.142%,
434,2025-01-29 17:03:22,2025-01-29 17:10:52,449.495,0.143%,
435,2025-01-29 18:38:06,2025-01-29 18:45:36,449.912,0.143%,
436,2025-01-29 20:12:50,2025-01-29 20:20:20,450.268,0.143%,
437,2025-01-29 21:47:39,2025-01-29 21:55:05,445.733,0.141%,
438,2025-01-29 23:22:32,2025-01-29 23:29:49,437.204,0.139%,
439,2025-01-30 00:57:10,2025-01-30 01:04:33,442.992,0.141%,
440,2025-01-30 02:32:03,2025-01-30 02:39:17,434.193,0.138%,
441,2025-01-30 04:06:41,2025-01-30 04:14:01,439.996,0.140%,
442,2025-01-30 05:41:32,2025-01-30 05:48:45,433.42,0.137%,
443,2025-01-30 07:16:12,2025-01-30 07:23:30,438.387,0.139%,
444,2025-01-30 08:50:50,2025-01-30 08:58:15,444.743,0.141%,
445,2025-01-30 10:25:43,2025-01-30 10:33:00,436.681,0.139%,
446,2025-01-30 12:00:21,2025-01-30 12:07:44,443.001,0.141%,
447,2025-01-30 13:35:13,2025-01-30 13:42:29,436.193,0.138%,
448,2025-01-30 15:09:52,2025-01-30 15:17:13,440.93,0.140%,
449,2025-01-30 16:44:31,2025-01-30 16:51:58,446.87,0.142%,
450,2025-01-30 18:19:23,2025-01-30 18:26:42,438.57,0.139%,
451,2025-01-30 19:54:02,2025-01-30 20:01:26,444.492,0.141%,
452,2025-01-30 21:28:52,2025-01-30 21:36:10,438.781,0.139%,
453,2025-01-30 23:03:33,2025-01-30 23:10:55,441.852,0.140%,
454,2025-01-31 00:38:19,2025-01-31 00:45:39,439.374,0.139%,
455,2025-01-31 02:13:03,2025-01-31 02:20:23,439.581,0.139%,
456,2025-01-31 03:47:42,2025-01-31 03:55:07,444.522,0.141%,
457,2025-01-31 05:22:31,2025-01-31 05:29:51,440.385,0.140%,
458,2025-01-31 06:57:13,2025-01-31 07:04:36,442.888,0.140%,
459,2025-01-31 08:31:59,2025-01-31 08:39:21,442.271,0.140%,
460,2025-01-31 10:06:42,2025-01-31 10:14:05,443.081,0.141%,
461,2025-01-31 11:41:26,2025-01-31 11:48:50,443.812,0.141%,
462,2025-01-31 13:16:10,2025-01-31 13:23:35,444.468,0.141%,
463,2025-01-31 14:50:54,2025-01-31 14:58:19,445.424,0.141%,
464,2025-01-31 16:25:38,2025-01-31 16:33:03,445.572,0.141%,
465,2025-01-31 18:00:22,2025-01-31 18:07:48,446.027,0.141%,
466,2025-01-31 19:35:06,2025-01-31 19:42:32,446.419,0.142%,
467,2025-01-31 21:09:49,2025-01-31 21:17:16,446.751,0.142%,
468,2025-01-31 22:44:33,2025-01-31 22:52:00,447.027,0.142%,
469,2025-02-01 00:19:17,2025-02-01 00:26:45,447.242,0.142%,
470,2025-02-01 01:54:01,2025-02-01 02:01:29,447.4,0.142%,
471,2025-02-01 03:28:45,2025-02-01 03:36:13,447.501,0.142%,
472,2025-02-01 05:03:29,2025-02-01 05:10:57,447.989,0.142%,
473,2025-02-01 06:38:13,2025-02-01 06:45:42,448.941,0.142%,
474,2025-02-01 08:12:57,2025-02-01 08:20:27,449.801,0.143%,
475,2025-02-01 09:47:45,2025-02-01 09:55:11,445.732,0.141%,
476,2025-02-01 11:22:38,2025-02-01 11:29:56,437.665,0.139%,
477,2025-02-01 12:57:16,2025-02-01 13:04:40,443.891,0.141%,
478,2025-02-01 14:32:09,2025-02-01 14:39:25,435.524,0.138%,
479,2025-02-01 16:06:47,2025-02-01 16:14:09,441.743,0.140%,
480,2025-02-01 17:41:39,2025-02-01 17:48:54,434.868,0.138%,
481,2025-02-01 19:16:19,2025-02-01 19:23:38,439.305,0.139%,
482,2025-02-01 20:50:57,2025-02-01 20:58:22,445.142,0.141%,
483,2025-02-01 22:25:50,2025-02-01 22:33:06,436.592,0.138%,
484,2025-02-02 00:00:28,2025-02-02 00:07:50,442.436,0.140%,
485,2025-02-02 01:35:19,2025-02-02 01:42:34,435.195,0.138%,
486,2025-02-02 03:09:59,2025-02-02 03:17:18,439.466,0.139%,
487,2025-02-02 04:44:37,2025-02-02 04:52:03,445.28,0.141%,
488,2025-02-02 06:19:30,2025-02-02 06:26:48,437.525,0.139%,
489,2025-02-02 07:54:08,2025-02-02 08:01:32,443.952,0.141%,
490,2025-02-02 09:28:58,2025-02-02 09:36:17,438.741,0.139%,
491,2025-02-02 11:03:39,2025-02-02 11:11:02,442.253,0.140%,
492,2025-02-02 12:38:26,2025-02-02 12:45:46,440.235,0.140%,
493,2025-02-02 14:13:10,2025-02-02 14:20:31,440.871,0.140%,
494,2025-02-02 15:47:49,2025-02-02 15:55:15,446.213,0.142%,
495,2025-02-02 17:22:37,2025-02-02 17:29:59,441.938,0.140%,
496,2025-02-02 18:57:20,2025-02-02 19:04:44,443.873,0.141%,
497,2025-02-02 20:32:05,2025-02-02 20:39:28,442.75,0.140%,
498,2025-02-02 22:06:49,2025-02-02 22:14:12,443.065,0.141%,
499,2025-02-02 23:41:33,2025-02-02 23:48:56,443.321,0.141%,
500,2025-02-03 01:16:17,2025-02-03 01:23:40,443.518,0.141%,
501,2025-02-03 02:51:00,2025-02-03 02:58:24,444.013,0.141%,
502,2025-02-03 04:25:44,2025-02-03 04:33:08,443.924,0.141%,
503,2025-02-03 06:00:28,2025-02-03 06:07:53,444.924,0.141%,
504,2025-02-03 07:35:12,2025-02-03 07:42:38,445.827,0.141%,
505,2025-02-03 09:09:56,2025-02-03 09:17:23,446.643,0.142%,
506,2025-02-03 10:44:40,2025-02-03 10:52:07,447.38,0.142%,
507,2025-02-03 12:19:24,2025-02-03 12:26:52,448.039,0.142%,
508,2025-02-03 13:54:08,2025-02-03 14:01:36,448.628,0.142%,
509,2025-02-03 15:28:52,2025-02-03 15:36:21,449.15,0.142%,
510,2025-02-03 17:03:36,2025-02-03 17:11:05,449.609,0.143%,
511,2025-02-03 18:38:19,2025-02-03 18:45:49,450.004,0.143%,
512,2025-02-03 20:13:03,2025-02-03 20:20:34,450.339,0.143%,
513,2025-02-03 21:47:52,2025-02-03 21:55:18,445.763,0.141%,
514,2025-02-03 23:22:45,2025-02-03 23:30:02,437.223,0.139%,
515,2025-02-04 00:57:23,2025-02-04 01:04:46,442.986,0.141%,
516,2025-02-04 02:32:16,2025-02-04 02:39:30,434.176,0.138%,
517,2025-02-04 04:06:54,2025-02-04 04:14:14,440.01,0.140%,
518,2025-02-04 05:41:33,2025-02-04 05:41:35,2.039,0.001%,
519,2025-02-04 05:41:45,2025-02-04 05:48:59,433.669,0.138%,
520,2025-02-04 07:16:25,2025-02-04 07:23:44,438.64,0.139%,
521,2025-02-04 08:51:04,2025-02-04 08:58:28,444.963,0.141%,
522,2025-02-04 10:25:56,2025-02-04 10:33:13,436.879,0.139%,
523,2025-02-04 12:00:34,2025-02-04 12:07:58,443.168,0.141%,
524,2025-02-04 13:35:26,2025-02-04 13:42:42,436.382,0.138%,
525,2025-02-04 15:10:06,2025-02-04 15:17:27,441.052,0.140%,
526,2025-02-04 16:44:44,2025-02-04 16:52:11,446.965,0.142%,
527,2025-02-04 18:19:37,2025-02-04 18:26:55,438.651,0.139%,
528,2025-02-04 19:54:15,2025-02-04 20:01:39,444.547,0.141%,
529,2025-02-04 21:29:05,2025-02-04 21:36:24,438.856,0.139%,
530,2025-02-04 23:03:46,2025-02-04 23:11:08,441.869,0.140%,
531,2025-02-05 00:38:32,2025-02-05 00:45:52,439.406,0.139%,
532,2025-02-05 02:13:16,2025-02-05 02:20:36,439.592,0.139%,
533,2025-02-05 03:47:55,2025-02-05 03:55:20,444.477,0.141%,
534,2025-02-05 05:22:44,2025-02-05 05:30:05,440.703,0.140%,
535,2025-02-05 06:57:26,2025-02-05 07:04:50,443.141,0.141%,
536,2025-02-05 08:32:12,2025-02-05 08:39:34,442.524,0.140%,
537,2025-02-05 10:06:56,2025-02-05 10:14:19,443.305,0.141%,
538,2025-02-05 11:41:36,2025-02-05 11:49:03,447.569,0.142%,
539,2025-02-05 13:16:23,2025-02-05 13:23:48,444.64,0.141%,
540,2025-02-05 14:51:07,2025-02-05 14:58:32,445.547,0.141%,
541,2025-02-05 16:25:51,2025-02-05 16:33:17,445.697,0.141%,
542,2025-02-05 18:00:35,2025-02-05 18:08:01,446.13,0.142%,
543,2025-02-05 19:35:19,2025-02-05 19:42:45,446.501,0.142%,
544,2025-02-05 21:10:03,2025-02-05 21:17:29,446.812,0.142%,
545,2025-02-05 22:44:47,2025-02-05 22:52:14,447.067,0.142%,
546,2025-02-06 00:19:30,2025-02-06 00:26:58,447.262,0.142%,
547,2025-02-06 01:54:14,2025-02-06 02:01:42,447.399,0.142%,
548,2025-02-06 03:28:58,2025-02-06 03:36:26,447.48,0.142%,
549,2025-02-06 05:03:42,2025-02-06 05:11:10,448.298,0.142%,
550,2025-02-06 06:38:26,2025-02-06 06:45:55,449.216,0.142%,
551,2025-02-06 08:13:10,2025-02-06 08:20:40,450.045,0.143%,
552,2025-02-06 09:47:54,2025-02-06 09:47:58,3.919,0.001%,
553,2025-02-06 09:47:59,2025-02-06 09:55:25,445.928,0.141%,
554,2025-02-06 11:22:51,2025-02-06 11:30:09,437.846,0.139%,
555,2025-02-06 12:57:30,2025-02-06 13:04:54,444.039,0.141%,
556,2025-02-06 14:32:22,2025-02-06 14:39:38,435.658,0.138%,
557,2025-02-06 16:07:01,2025-02-06 16:14:23,441.848,0.140%,
558,2025-02-06 17:41:39,2025-02-06 17:41:46,6.51,0.002%,
559,2025-02-06 17:41:52,2025-02-06 17:49:07,434.917,0.138%,
560,2025-02-06 19:16:32,2025-02-06 19:23:51,439.37,0.139%,
561,2025-02-06 20:51:10,2025-02-06 20:58:35,445.184,0.141%,
562,2025-02-06 22:26:03,2025-02-06 22:33:19,436.619,0.139%,
563,2025-02-07 00:00:41,2025-02-07 00:08:04,442.439,0.140%,
564,2025-02-07 01:35:32,2025-02-07 01:42:48,435.225,0.138%,
565,2025-02-07 03:10:12,2025-02-07 03:17:32,439.431,0.139%,
566,2025-02-07 04:44:51,2025-02-07 04:52:16,445.574,0.141%,
567,2025-02-07 06:19:43,2025-02-07 06:27:01,437.792,0.139%,
568,2025-02-07 07:54:22,2025-02-07 08:01:46,444.182,0.141%,
569,2025-02-07 09:29:11,2025-02-07 09:36:30,438.983,0.139%,
570,2025-02-07 11:03:53,2025-02-07 11:11:15,442.431,0.140%,
571,2025-02-07 12:38:39,2025-02-07 12:45:59,440.423,0.140%,
572,2025-02-07 14:13:23,2025-02-07 14:20:44,441.034,0.140%,
573,2025-02-07 15:48:02,2025-02-07 15:55:28,446.316,0.142%,
574,2025-02-07 17:22:51,2025-02-07 17:30:13,442.055,0.140%,
575,2025-02-07 18:57:33,2025-02-07 19:04:57,443.937,0.141%,
576,2025-02-07 20:32:18,2025-02-07 20:39:41,442.824,0.140%,
577,2025-02-07 22:07:02,2025-02-07 22:14:25,443.118,0.141%,
578,2025-02-07 23:41:42,2025-02-07 23:49:09,446.897,0.142%,
579,2025-02-08 01:16:30,2025-02-08 01:23:53,443.53,0.141%,
580,2025-02-08 02:51:13,2025-02-08 02:58:37,443.979,0.141%,
581,2025-02-08 04:25:58,2025-02-08 04:33:22,444.25,0.141%,
582,2025-02-08 06:00:42,2025-02-08 06:08:07,445.214,0.141%,
583,2025-02-08 07:35:25,2025-02-08 07:42:51,446.085,0.142%,
584,2025-02-08 09:10:09,2025-02-08 09:17:36,446.871,0.142%,
585,2025-02-08 10:44:53,2025-02-08 10:52:21,447.581,0.142%,
586,2025-02-08 12:19:37,2025-02-08 12:27:05,448.215,0.142%,
587,2025-02-08 13:54:21,2025-02-08 14:01:50,448.78,0.142%,
588,2025-02-08 15:29:05,2025-02-08 15:36:34,449.278,0.143%,
589,2025-02-08 17:03:49,2025-02-08 17:11:18,449.715,0.143%,
590,2025-02-08 18:38:33,2025-02-08 18:46:03,450.089,0.143%,
591,2025-02-08 20:13:17,2025-02-08 20:20:47,450.403,0.143%,
592,2025-02-08 21:48:00,2025-02-08 21:48:04,3.968,0.001%,
593,2025-02-08 21:48:05,2025-02-08 21:55:31,445.786,0.141%,
594,2025-02-08 23:22:58,2025-02-08 23:30:15,437.238,0.139%,
595,2025-02-09 00:57:36,2025-02-09 01:04:59,442.973,0.141%,
596,2025-02-09 02:32:29,2025-02-09 02:39:43,434.153,0.138%,
597,2025-02-09 04:07:07,2025-02-09 04:14:28,440.317,0.140%,
598,2025-02-09 05:41:46,2025-02-09 05:41:52,5.885,0.002%,
599,2025-02-09 05:41:59,2025-02-09 05:49:12,433.906,0.138%,
600,2025-02-09 07:16:38,2025-02-09 07:23:57,438.883,0.139%,
601,2025-02-09 08:51:17,2025-02-09 08:58:42,445.171,0.141%,
602,2025-02-09 10:26:09,2025-02-09 10:33:26,437.069,0.139%,
603,2025-02-09 12:00:48,2025-02-09 12:08:11,443.326,0.141%,
604,2025-02-09 13:35:39,2025-02-09 13:42:55,436.565,0.138%,
605,2025-02-09 15:10:19,2025-02-09 15:17:40,441.167,0.140%,
606,2025-02-09 16:44:57,2025-02-09 16:52:24,447.053,0.142%,
607,2025-02-09 18:19:50,2025-02-09 18:27:09,438.725,0.139%,
608,2025-02-09 19:54:28,2025-02-09 20:01:53,444.595,0.141%,
609,2025-02-09 21:29:18,2025-02-09 21:36:37,438.924,0.139%,
610,2025-02-09 23:03:59,2025-02-09 23:11:21,441.88,0.140%,
611,2025-02-10 00:38:46,2025-02-10 00:46:05,439.433,0.139%,
612,2025-02-10 02:13:29,2025-02-10 02:20:49,439.598,0.139%,
613,2025-02-10 03:48:09,2025-02-10 03:55:33,444.711,0.141%,
614,2025-02-10 05:22:57,2025-02-10 05:30:18,441.011,0.140%,
615,2025-02-10 06:57:40,2025-02-10 07:05:03,443.384,0.141%,
616,2025-02-10 08:32:25,2025-02-10 08:39:48,442.768,0.140%,
617,2025-02-10 10:07:09,2025-02-10 10:14:32,443.521,0.141%,
618,2025-02-10 11:41:49,2025-02-10 11:49:17,447.727,0.142%,
619,2025-02-10 13:16:36,2025-02-10 13:24:01,444.805,0.141%,
620,2025-02-10 14:51:20,2025-02-10 14:58:46,445.66,0.141%,
621,2025-02-10 16:26:04,2025-02-10 16:33:30,445.816,0.141%,
622,2025-02-10 18:00:48,2025-02-10 18:08:14,446.226,0.142%,
623,2025-02-10 19:35:32,2025-02-10 19:42:59,446.576,0.142%,
624,2025-02-10 21:10:16,2025-02-10 21:17:43,446.866,0.142%,
625,2025-02-10 22:45:00,2025-02-10 22:52:27,447.101,0.142%,
626,2025-02-11 00:19:44,2025-02-11 00:27:11,447.275,0.142%,
627,2025-02-11 01:54:28,2025-02-11 02:01:55,447.393,0.142%,
628,2025-02-11 03:29:11,2025-02-11 03:36:39,447.612,0.142%,
629,2025-02-11 05:03:55,2025-02-11 05:11:24,448.596,0.142%,
630,2025-02-11 06:38:39,2025-02-11 06:46:09,449.481,0.143%,
631,2025-02-11 08:13:23,2025-02-11 08:20:53,450.279,0.143%,
632,2025-02-11 09:48:12,2025-02-11 09:55:38,446.117,0.142%,
633,2025-02-11 11:23:05,2025-02-11 11:30:23,438.016,0.139%,
634,2025-02-11 12:57:43,2025-02-11 13:05:07,444.179,0.141%,
635,2025-02-11 14:32:36,2025-02-11 14:39:51,435.785,0.138%,
636,2025-02-11 16:07:14,2025-02-11 16:14:36,441.945,0.140%,
637,2025-02-11 17:41:52,2025-02-11 17:41:53,0.309,0.000%,
638,2025-02-11 17:42:05,2025-02-11 17:49:20,434.958,0.138%,
639,2025-02-11 19:16:45,2025-02-11 19:24:04,439.428,0.139%,
640,2025-02-11 20:51:23,2025-02-11 20:58:49,445.216,0.141%,
641,2025-02-11 22:26:16,2025-02-11 22:33:33,436.64,0.139%,
642,2025-02-12 00:00:54,2025-02-12 00:08:17,442.434,0.140%,
643,2025-02-12 01:35:46,2025-02-12 01:43:01,435.248,0.138%,
644,2025-02-12 03:10:25,2025-02-12 03:17:45,439.419,0.139%,
645,2025-02-12 04:45:04,2025-02-12 04:52:30,445.855,0.141%,
646,2025-02-12 06:19:56,2025-02-12 06:27:14,438.047,0.139%,
647,2025-02-12 07:54:35,2025-02-12 08:01:59,444.402,0.141%,
648,2025-02-12 09:29:25,2025-02-12 09:36:44,439.215,0.139%,
649,2025-02-12 11:04:06,2025-02-12 11:11:28,442.599,0.140%,
650,2025-02-12 12:38:52,2025-02-12 12:46:13,440.603,0.140%,
651,2025-02-12 14:13:36,2025-02-12 14:20:57,441.19,0.140%,
652,2025-02-12 15:48:15,2025-02-12 15:55:42,446.413,0.142%,
653,2025-02-12 17:23:04,2025-02-12 17:30:26,442.165,0.140%,
654,2025-02-12 18:57:46,2025-02-12 19:05:10,443.993,0.141%,
655,2025-02-12 20:32:31,2025-02-12 20:39:54,442.891,0.140%,
656,2025-02-12 22:07:15,2025-02-12 22:14:38,443.164,0.141%,
657,2025-02-12 23:41:59,2025-02-12 23:49:23,443.378,0.141%,
658,2025-02-13 01:16:43,2025-02-13 01:24:07,443.534,0.141%,
659,2025-02-13 02:51:27,2025-02-13 02:58:51,443.936,0.141%,
660,2025-02-13 04:26:11,2025-02-13 04:33:35,444.563,0.141%,
661,2025-02-13 06:00:55,2025-02-13 06:08:20,445.493,0.141%,
662,2025-02-13 07:35:39,2025-02-13 07:43:05,446.333,0.142%,
663,2025-02-13 09:10:22,2025-02-13 09:17:50,447.09,0.142%,
664,2025-02-13 10:45:06,2025-02-13 10:52:34,447.774,0.142%,
665,2025-02-13 12:19:50,2025-02-13 12:27:19,448.382,0.142%,
666,2025-02-13 13:54:34,2025-02-13 14:02:03,448.923,0.142%,
667,2025-02-13 15:29:18,2025-02-13 15:36:47,449.398,0.143%,
668,2025-02-13 17:04:02,2025-02-13 17:11:32,449.814,0.143%,
669,2025-02-13 18:38:46,2025-02-13 18:46:16,450.166,0.143%,
670,2025-02-13 20:13:30,2025-02-13 20:21:00,450.459,0.143%,
671,2025-02-13 21:48:19,2025-02-13 21:55:44,445.804,0.141%,
672,2025-02-13 23:23:11,2025-02-13 23:30:28,437.243,0.139%,
673,2025-02-14 00:57:49,2025-02-14 01:05:12,442.953,0.141%,
674,2025-02-14 02:32:42,2025-02-14 02:39:56,434.122,0.138%,
675,2025-02-14 04:07:20,2025-02-14 04:14:41,440.611,0.140%,
676,2025-02-14 05:42:12,2025-02-14 05:49:26,434.131,0.138%,
677,2025-02-14 07:16:52,2025-02-14 07:24:11,439.114,0.139%,
678,2025-02-14 08:51:30,2025-02-14 08:58:55,445.369,0.141%,
679,2025-02-14 10:26:23,2025-02-14 10:33:40,437.249,0.139%,
680,2025-02-14 12:01:01,2025-02-14 12:08:24,443.476,0.141%,
681,2025-02-14 13:35:52,2025-02-14 13:43:09,436.737,0.139%,
682,2025-02-14 15:10:32,2025-02-14 15:17:53,441.273,0.140%,
683,2025-02-14 16:45:10,2025-02-14 16:52:38,447.133,0.142%,
684,2025-02-14 18:20:03,2025-02-14 18:27:22,438.792,0.139%,
685,2025-02-14 19:54:41,2025-02-14 20:02:06,444.636,0.141%,
686,2025-02-14 21:29:31,2025-02-14 21:36:50,438.984,0.139%,
687,2025-02-14 23:04:12,2025-02-14 23:11:34,441.883,0.140%,
688,2025-02-15 00:38:59,2025-02-15 00:46:18,439.451,0.139%,
689,2025-02-15 02:13:43,2025-02-15 02:21:02,439.595,0.139%,
690,2025-02-15 03:48:22,2025-02-15 03:55:47,445.007,0.141%,
691,2025-02-15 05:23:10,2025-02-15 05:30:32,441.305,0.140%,
692,2025-02-15 06:57:53,2025-02-15 07:05:16,443.615,0.141%,
693,2025-02-15 08:32:38,2025-02-15 08:40:01,443,0.141%,
694,2025-02-15 10:07:22,2025-02-15 10:14:46,443.726,0.141%,
695,2025-02-15 11:42:06,2025-02-15 11:49:30,444.378,0.141%,
696,2025-02-15 13:16:50,2025-02-15 13:24:15,444.96,0.141%,
697,2025-02-15 14:51:33,2025-02-15 14:58:59,445.764,0.141%,
698,2025-02-15 16:26:17,2025-02-15 16:33:43,445.925,0.141%,
699,2025-02-15 18:01:01,2025-02-15 18:08:28,446.314,0.142%,
700,2025-02-15 19:35:45,2025-02-15 19:43:12,446.642,0.142%,
701,2025-02-15 21:10:29,2025-02-15 21:17:56,446.914,0.142%,
702,2025-02-15 22:45:13,2025-02-15 22:52:40,447.126,0.142%,
703,2025-02-16 00:19:57,2025-02-16 00:27:24,447.28,0.142%,
704,2025-02-16 01:54:41,2025-02-16 02:02:08,447.378,0.142%,
705,2025-02-16 03:29:25,2025-02-16 03:36:53,447.932,0.142%,
706,2025-02-16 05:04:09,2025-02-16 05:11:37,448.88,0.142%,
707,2025-02-16 06:38:52,2025-02-16 06:46:22,449.734,0.143%,
708,2025-02-16 08:13:36,2025-02-16 08:21:07,450.503,0.143%,
709,2025-02-16 09:48:25,2025-02-16 09:55:51,446.294,0.142%,
710,2025-02-16 11:23:18,2025-02-16 11:30:36,438.177,0.139%,
711,2025-02-16 12:57:56,2025-02-16 13:05:20,444.311,0.141%,
712,2025-02-16 14:32:49,2025-02-16 14:40:05,435.903,0.138%,
713,2025-02-16 16:07:27,2025-02-16 16:14:49,442.035,0.140%,
714,2025-02-16 17:42:18,2025-02-16 17:49:33,434.992,0.138%,
715,2025-02-16 19:16:58,2025-02-16 19:24:18,439.479,0.139%,
716,2025-02-16 20:51:37,2025-02-16 20:59:02,445.241,0.141%,
717,2025-02-16 22:26:29,2025-02-16 22:33:46,436.656,0.139%,
718,2025-02-17 00:01:08,2025-02-17 00:08:30,442.421,0.140%,
719,2025-02-17 01:35:59,2025-02-17 01:43:14,435.262,0.138%,
720,2025-02-17 03:10:39,2025-02-17 03:17:58,439.73,0.139%,
721,2025-02-17 04:45:17,2025-02-17 04:52:43,446.122,0.142%,
722,2025-02-17 06:20:10,2025-02-17 06:27:28,438.291,0.139%,
723,2025-02-17 07:54:48,2025-02-17 08:02:13,444.611,0.141%,
724,2025-02-17 09:29:38,2025-02-17 09:36:57,439.436,0.139%,
725,2025-02-17 11:04:19,2025-02-17 11:11:42,442.758,0.140%,
726,2025-02-17 12:39:05,2025-02-17 12:46:26,440.772,0.140%,
727,2025-02-17 14:13:49,2025-02-17 14:21:11,441.335,0.140%,
728,2025-02-17 15:48:28,2025-02-17 15:55:55,446.501,0.142%,
729,2025-02-17 17:23:17,2025-02-17 17:30:39,442.266,0.140%,
730,2025-02-17 18:57:59,2025-02-17 19:05:23,444.042,0.141%,
731,2025-02-17 20:32:45,2025-02-17 20:40:08,442.949,0.141%,
732,2025-02-17 22:07:29,2025-02-17 22:14:52,443.201,0.141%,
733,2025-02-17 23:42:12,2025-02-17 23:49:36,443.395,0.141%,
734,2025-02-18 01:16:56,2025-02-18 01:24:20,443.531,0.141%,
735,2025-02-18 02:51:40,2025-02-18 02:59:04,444.144,0.141%,
736,2025-02-18 04:26:24,2025-02-18 04:33:49,444.861,0.141%,
737,2025-02-18 06:01:08,2025-02-18 06:08:34,445.759,0.141%,
738,2025-02-18 07:35:52,2025-02-18 07:43:18,446.568,0.142%,
739,2025-02-18 09:10:36,2025-02-18 09:18:03,447.301,0.142%,
740,2025-02-18 10:45:20,2025-02-18 10:52:47,447.956,0.142%,
741,2025-02-18 12:20:03,2025-02-18 12:27:32,448.54,0.142%,
742,2025-02-18 13:54:47,2025-02-18 14:02:16,449.057,0.142%,
743,2025-02-18 15:29:31,2025-02-18 15:37:01,449.512,0.143%,
744,2025-02-18 17:04:15,2025-02-18 17:11:45,449.903,0.143%,
745,2025-02-18 18:38:59,2025-02-18 18:46:29,450.234,0.143%,
746,2025-02-18 20:13:43,2025-02-18 20:13:49,5.967,0.002%,
747,2025-02-18 20:13:53,2025-02-18 20:21:13,440.128,0.140%,
748,2025-02-18 21:48:32,2025-02-18 21:55:58,445.814,0.141%,
749,2025-02-18 23:23:24,2025-02-18 23:30:42,437.241,0.139%,
750,2025-02-19 00:58:03,2025-02-19 01:05:26,442.926,0.141%,
751,2025-02-19 02:32:55,2025-02-19 02:40:10,434.215,0.138%,
752,2025-02-19 04:07:34,2025-02-19 04:14:55,440.892,0.140%,
753,2025-02-19 05:42:25,2025-02-19 05:49:39,434.345,0.138%,
754,2025-02-19 07:17:05,2025-02-19 07:24:24,439.335,0.139%,
755,2025-02-19 08:51:43,2025-02-19 08:59:09,445.557,0.141%,
756,2025-02-19 10:26:36,2025-02-19 10:33:53,437.422,0.139%,
757,2025-02-19 12:01:14,2025-02-19 12:08:38,443.616,0.141%,
758,2025-02-19 13:36:05,2025-02-19 13:43:22,436.9,0.139%,
759,2025-02-19 15:10:45,2025-02-19 15:18:07,441.374,0.140%,
760,2025-02-19 16:45:24,2025-02-19 16:52:51,447.204,0.142%,
761,2025-02-19 18:20:16,2025-02-19 18:27:35,438.851,0.139%,
762,2025-02-19 19:54:55,2025-02-19 20:02:19,444.669,0.141%,
763,2025-02-19 21:29:44,2025-02-19 21:37:03,439.036,0.139%,
764,2025-02-19 23:04:26,2025-02-19 23:11:47,441.879,0.140%,
765,2025-02-20 00:39:12,2025-02-20 00:46:31,439.461,0.139%,
766,2025-02-20 02:13:56,2025-02-20 02:21:15,439.587,0.139%,
767,2025-02-20 03:48:35,2025-02-20 03:56:00,445.288,0.141%,
768,2025-02-20 05:23:24,2025-02-20 05:30:45,441.586,0.140%,
769,2025-02-20 06:58:06,2025-02-20 07:05:30,443.835,0.141%,
770,2025-02-20 08:32:51,2025-02-20 08:40:14,443.222,0.141%,
771,2025-02-20 10:07:35,2025-02-20 10:14:59,443.921,0.141%,
772,2025-02-20 11:42:19,2025-02-20 11:49:44,444.548,0.141%,
773,2025-02-20 13:17:03,2025-02-20 13:24:28,445.106,0.141%,
774,2025-02-20 14:51:46,2025-02-20 14:59:12,445.861,0.141%,
775,2025-02-20 16:26:31,2025-02-20 16:33:57,446.026,0.141%,
776,2025-02-20 18:01:14,2025-02-20 18:08:41,446.394,0.142%,
777,2025-02-20 19:35:58,2025-02-20 19:43:25,446.701,0.142%,
778,2025-02-20 21:10:42,2025-02-20 21:18:09,446.953,0.142%,
779,2025-02-20 22:45:26,2025-02-20 22:52:53,447.144,0.142%,
780,2025-02-21 00:20:10,2025-02-21 00:27:37,447.278,0.142%,
781,2025-02-21 01:54:54,2025-02-21 02:02:21,447.355,0.142%,
782,2025-02-21 03:29:38,2025-02-21 03:37:06,448.241,0.142%,
783,2025-02-21 05:04:22,2025-02-21 05:11:51,449.153,0.142%,
784,2025-02-21 06:39:06,2025-02-21 06:46:36,449.976,0.143%,
785,2025-02-21 08:14:00,2025-02-21 08:21:20,440.33,0.140%,
786,2025-02-21 09:48:38,2025-02-21 09:56:05,446.462,0.142%,
787,2025-02-21 11:23:31,2025-02-21 11:30:49,438.329,0.139%,
788,2025-02-21 12:58:09,2025-02-21 13:05:34,444.434,0.141%,
789,2025-02-21 14:33:02,2025-02-21 14:40:18,436.012,0.138%,
790,2025-02-21 16:07:40,2025-02-21 16:15:02,442.116,0.140%,
791,2025-02-21 17:42:32,2025-02-21 17:49:47,435.018,0.138%,
792,2025-02-21 19:17:11,2025-02-21 19:24:31,439.522,0.139%,
793,2025-02-21 20:51:50,2025-02-21 20:59:15,445.258,0.141%,
794,2025-02-21 22:26:42,2025-02-21 22:33:59,436.662,0.139%,
795,2025-02-22 00:01:21,2025-02-22 00:08:43,442.402,0.140%,
796,2025-02-22 01:36:12,2025-02-22 01:43:27,435.268,0.138%,
797,2025-02-22 03:10:52,2025-02-22 03:18:12,440.024,0.140%,
798,2025-02-22 04:45:30,2025-02-22 04:52:57,446.377,0.142%,
799,2025-02-22 06:20:23,2025-02-22 06:27:41,438.523,0.139%,
800,2025-02-22 07:55:01,2025-02-22 08:02:26,444.81,0.141%,
801,2025-02-22 09:29:51,2025-02-22 09:37:11,439.648,0.139%,
802,2025-02-22 11:04:32,2025-02-22 11:11:55,442.909,0.140%,
803,2025-02-22 12:39:19,2025-02-22 12:46:40,440.933,0.140%,
804,2025-02-22 14:14:02,2025-02-22 14:21:24,441.473,0.140%,
805,2025-02-22 15:48:42,2025-02-22 15:56:08,446.581,0.142%,
806,2025-02-22 17:23:30,2025-02-22 17:30:52,442.359,0.140%,
807,2025-02-22 18:58:13,2025-02-22 19:05:37,444.084,0.141%,
808,2025-02-22 20:32:58,2025-02-22 20:40:21,443,0.141%,
809,2025-02-22 22:07:42,2025-02-22 22:15:05,443.231,0.141%,
810,2025-02-22 23:42:26,2025-02-22 23:49:49,443.405,0.141%,
811,2025-02-23 01:17:09,2025-02-23 01:24:33,443.52,0.141%,
812,2025-02-23 02:51:53,2025-02-23 02:59:17,444.44,0.141%,
813,2025-02-23 04:26:37,2025-02-23 04:34:02,445.148,0.141%,
814,2025-02-23 06:01:21,2025-02-23 06:08:47,446.014,0.141%,
815,2025-02-23 07:36:05,2025-02-23 07:43:32,446.794,0.142%,
816,2025-02-23 09:10:49,2025-02-23 09:18:16,447.5,0.142%,
817,2025-02-23 10:45:33,2025-02-23 10:53:01,448.129,0.142%,
818,2025-02-23 12:20:17,2025-02-23 12:27:45,448.689,0.142%,
819,2025-02-23 13:55:00,2025-02-23 14:02:30,449.183,0.142%,
820,2025-02-23 15:29:44,2025-02-23 15:37:14,449.617,0.143%,
821,2025-02-23 17:04:28,2025-02-23 17:11:58,449.986,0.143%,
822,2025-02-23 18:39:12,2025-02-23 18:39:19,6.588,0.002%,
823,2025-02-23 18:39:28,2025-02-23 18:46:42,434.124,0.138%,
824,2025-02-23 20:14:06,2025-02-23 20:21:27,440.156,0.140%,
825,2025-02-23 21:48:45,2025-02-23 21:56:11,445.816,0.141%,
826,2025-02-23 23:23:38,2025-02-23 23:30:55,437.232,0.139%,
827,2025-02-24 00:58:16,2025-02-24 01:05:39,442.891,0.140%,
828,2025-02-24 02:33:09,2025-02-24 02:40:23,434.526,0.138%,
829,2025-02-24 04:07:47,2025-02-24 04:15:08,441.161,0.140%,
830,2025-02-24 05:42:38,2025-02-24 05:49:53,434.547,0.138%,
831,2025-02-24 07:17:18,2025-02-24 07:24:37,439.546,0.139%,
832,2025-02-24 08:51:56,2025-02-24 08:59:22,445.736,0.141%,
833,2025-02-24 10:26:49,2025-02-24 10:34:07,437.584,0.139%,
834,2025-02-24 12:01:27,2025-02-24 12:08:51,443.749,0.141%,
835,2025-02-24 13:36:18,2025-02-24 13:43:35,437.056,0.139%,
836,2025-02-24 15:10:58,2025-02-24 15:18:20,441.464,0.140%,
837,2025-02-24 16:45:46,2025-02-24 16:53:04,438.055,0.139%,
838,2025-02-24 18:20:29,2025-02-24 18:27:48,438.902,0.139%,
839,2025-02-24 19:55:08,2025-02-24 20:02:32,444.695,0.141%,
840,2025-02-24 21:29:57,2025-02-24 21:37:17,439.081,0.139%,
841,2025-02-24 23:04:39,2025-02-24 23:12:01,441.868,0.140%,
842,2025-02-25 00:39:25,2025-02-25 00:46:45,439.465,0.139%,
843,2025-02-25 02:14:09,2025-02-25 02:21:29,439.928,0.140%,
844,2025-02-25 03:48:48,2025-02-25 03:56:14,445.557,0.141%,
845,2025-02-25 05:23:37,2025-02-25 05:30:59,441.858,0.140%,
846,2025-02-25 06:58:19,2025-02-25 07:05:43,444.046,0.141%,
847,2025-02-25 08:33:04,2025-02-25 08:40:28,443.436,0.141%,
848,2025-02-25 10:07:48,2025-02-25 10:15:12,444.109,0.141%,
849,2025-02-25 11:42:32,2025-02-25 11:49:57,444.711,0.141%,
850,2025-02-25 13:17:16,2025-02-25 13:24:41,445.245,0.141%,
851,2025-02-25 14:52:00,2025-02-25 14:59:26,445.95,0.141%,
852,2025-02-25 16:26:44,2025-02-25 16:34:10,446.121,0.142%,
853,2025-02-25 18:01:28,2025-02-25 18:08:54,446.467,0.142%,
854,2025-02-25 19:36:12,2025-02-25 19:43:38,446.753,0.142%,
855,2025-02-25 21:10:55,2025-02-25 21:18:22,446.985,0.142%,
856,2025-02-25 22:45:39,2025-02-25 22:53:06,447.156,0.142%,
857,2025-02-26 00:20:23,2025-02-26 00:27:50,447.27,0.142%,
858,2025-02-26 01:55:07,2025-02-26 02:02:35,447.559,0.142%,
859,2025-02-26 03:29:51,2025-02-26 03:37:20,448.536,0.142%,
860,2025-02-26 05:04:35,2025-02-26 05:12:04,449.415,0.143%,
861,2025-02-26 06:39:35,2025-02-26 06:46:49,434.031,0.138%,
862,2025-02-26 08:14:13,2025-02-26 08:21:34,440.521,0.140%,
863,2025-02-26 09:48:52,2025-02-26 09:56:18,446.622,0.142%,
864,2025-02-26 11:23:44,2025-02-26 11:31:03,438.473,0.139%,
865,2025-02-26 12:58:23,2025-02-26 13:05:47,444.549,0.141%,
866,2025-02-26 14:33:15,2025-02-26 14:40:31,436.115,0.138%,
867,2025-02-26 16:07:54,2025-02-26 16:15:16,442.191,0.140%,
868,2025-02-26 17:42:45,2025-02-26 17:50:00,435.037,0.138%,
869,2025-02-26 19:17:25,2025-02-26 19:24:44,439.558,0.139%,
870,2025-02-26 20:52:03,2025-02-26 20:59:28,445.269,0.141%,
871,2025-02-26 22:26:56,2025-02-26 22:34:12,436.661,0.139%,
872,2025-02-27 00:01:34,2025-02-27 00:08:56,442.376,0.140%,
873,2025-02-27 01:36:25,2025-02-27 01:43:40,435.372,0.138%,
874,2025-02-27 03:11:05,2025-02-27 03:18:25,440.307,0.140%,
875,2025-02-27 04:45:53,2025-02-27 04:53:10,437.432,0.139%,
876,2025-02-27 06:20:36,2025-02-27 06:27:55,438.746,0.139%,
877,2025-02-27 07:55:14,2025-02-27 08:02:39,445,0.141%,
878,2025-02-27 09:30:04,2025-02-27 09:37:24,439.851,0.140%,
879,2025-02-27 11:04:45,2025-02-27 11:12:08,443.051,0.141%,
880,2025-02-27 12:39:32,2025-02-27 12:46:53,441.087,0.140%,
881,2025-02-27 14:14:16,2025-02-27 14:21:37,441.603,0.140%,
882,2025-02-27 15:48:55,2025-02-27 15:56:21,446.656,0.142%,
883,2025-02-27 17:23:43,2025-02-27 17:31:06,442.445,0.140%,
884,2025-02-27 18:58:26,2025-02-27 19:05:50,444.118,0.141%,
885,2025-02-27 20:33:11,2025-02-27 20:40:34,443.044,0.141%,
886,2025-02-27 22:07:55,2025-02-27 22:15:18,443.255,0.141%,
887,2025-02-27 23:42:39,2025-02-27 23:50:02,443.408,0.141%,
888,2025-02-28 01:17:23,2025-02-28 01:24:46,443.503,0.141%,
889,2025-02-28 02:52:06,2025-02-28 02:59:31,444.723,0.141%,
890,2025-02-28 04:26:50,2025-02-28 04:34:16,445.424,0.141%,
891,2025-02-28 06:01:34,2025-02-28 06:09:01,446.259,0.142%,
892,2025-02-28 07:36:18,2025-02-28 07:43:45,447.011,0.142%,
893,2025-02-28 09:11:02,2025-02-28 09:18:30,447.69,0.142%,
894,2025-02-28 10:45:46,2025-02-28 10:53:14,448.294,0.142%,
895,2025-02-28 12:20:30,2025-02-28 12:27:59,448.83,0.142%,
896,2025-02-28 13:55:14,2025-02-28 14:02:43,449.302,0.143%,
897,2025-02-28 15:29:58,2025-02-28 15:37:27,449.714,0.143%,
898,2025-02-28 17:04:49,2025-02-28 17:12:12,442.878,0.140%,
899,2025-02-28 18:39:42,2025-02-28 18:46:56,434.172,0.138%,
900,2025-02-28 20:14:20,2025-02-28 20:21:40,440.177,0.140%,
901,2025-02-28 21:48:58,2025-02-28 21:56:24,445.814,0.141%,
902,2025-02-28 23:23:51,2025-02-28 23:31:08,437.216,0.139%,
903,2025-03-01 00:58:29,2025-03-01 01:05:52,442.85,0.140%,
904,2025-03-01 02:33:22,2025-03-01 02:40:37,434.823,0.138%,
905,2025-03-01 04:08:00,2025-03-01 04:15:22,441.418,0.140%,
906,2025-03-01 05:42:52,2025-03-01 05:50:06,434.739,0.138%,
907,2025-03-01 07:17:31,2025-03-01 07:24:51,439.747,0.139%,
908,2025-03-01 08:52:10,2025-03-01 08:59:35,445.906,0.141%,
909,2025-03-01 10:27:02,2025-03-01 10:34:20,437.737,0.139%,
910,2025-03-01 12:01:41,2025-03-01 12:09:04,443.873,0.141%,
911,2025-03-01 13:36:32,2025-03-01 13:43:49,437.203,0.139%,
912,2025-03-01 15:11:12,2025-03-01 15:18:33,441.547,0.140%,
913,2025-03-01 16:45:59,2025-03-01 16:53:17,438.156,0.139%,
914,2025-03-01 18:20:43,2025-03-01 18:28:02,438.947,0.139%,
915,2025-03-01 19:55:21,2025-03-01 20:02:46,444.715,0.141%,
916,2025-03-01 21:30:11,2025-03-01 21:37:30,439.119,0.139%,
917,2025-03-01 23:04:52,2025-03-01 23:12:14,441.85,0.140%,
918,2025-03-02 00:39:38,2025-03-02 00:46:58,439.461,0.139%,
919,2025-03-02 02:14:22,2025-03-02 02:21:42,440.254,0.140%,
920,2025-03-02 03:49:01,2025-03-02 03:49:02,1.012,0.000%,
921,2025-03-02 03:49:06,2025-03-02 03:56:27,441.232,0.140%,
922,2025-03-02 05:23:50,2025-03-02 05:31:12,442.117,0.140%,
923,2025-03-02 06:58:32,2025-03-02 07:05:57,444.246,0.141%,
924,2025-03-02 08:33:18,2025-03-02 08:40:41,443.639,0.141%,
925,2025-03-02 10:08:01,2025-03-02 10:15:26,444.286,0.141%,
926,2025-03-02 11:42:45,2025-03-02 11:50:10,444.864,0.141%,
927,2025-03-02 13:17:29,2025-03-02 13:24:55,445.375,0.141%,
928,2025-03-02 14:52:13,2025-03-02 14:59:39,446.032,0.141%,
929,2025-03-02 16:26:57,2025-03-02 16:34:23,446.207,0.142%,
930,2025-03-02 18:01:41,2025-03-02 18:09:07,446.532,0.142%,
931,2025-03-02 19:36:25,2025-03-02 19:43:52,446.8,0.142%,
932,2025-03-02 21:11:09,2025-03-02 21:18:36,447.009,0.142%,
933,2025-03-02 22:45:52,2025-03-02 22:53:20,447.16,0.142%,
934,2025-03-03 00:20:36,2025-03-03 00:28:04,447.253,0.142%,
935,2025-03-03 01:55:20,2025-03-03 02:02:48,447.878,0.142%,
936,2025-03-03 03:30:04,2025-03-03 03:30:11,6.369,0.002%,
937,2025-03-03 03:30:17,2025-03-03 03:37:33,435.988,0.138%,
938,2025-03-03 05:04:55,2025-03-03 05:12:18,442.473,0.140%,
939,2025-03-03 06:39:48,2025-03-03 06:47:02,434.246,0.138%,
940,2025-03-03 08:14:26,2025-03-03 08:21:47,440.701,0.140%,
941,2025-03-03 09:49:17,2025-03-03 09:56:32,434.603,0.138%,
942,2025-03-03 11:23:57,2025-03-03 11:31:16,438.608,0.139%,
943,2025-03-03 12:58:36,2025-03-03 13:06:00,444.656,0.141%,
944,2025-03-03 14:33:28,2025-03-03 14:40:45,436.209,0.138%,
945,2025-03-03 16:08:07,2025-03-03 16:15:29,442.257,0.140%,
946,2025-03-03 17:42:59,2025-03-03 17:50:13,433.944,0.138%,
947,2025-03-03 19:17:38,2025-03-03 19:24:57,439.587,0.139%,
948,2025-03-03 20:52:16,2025-03-03 20:59:41,445.273,0.141%,
949,2025-03-03 22:27:09,2025-03-03 22:34:25,436.653,0.139%,
950,2025-03-04 00:01:47,2025-03-04 00:09:09,442.343,0.140%,
951,2025-03-04 01:36:38,2025-03-04 01:43:54,435.718,0.138%,
952,2025-03-04 03:11:18,2025-03-04 03:18:39,440.577,0.140%,
953,2025-03-04 04:46:06,2025-03-04 04:53:23,437.708,0.139%,
954,2025-03-04 06:20:49,2025-03-04 06:28:08,438.958,0.139%,
955,2025-03-04 07:55:28,2025-03-04 08:02:53,445.18,0.141%,
956,2025-03-04 09:30:17,2025-03-04 09:37:37,440.043,0.140%,
957,2025-03-04 11:04:59,2025-03-04 11:12:22,443.184,0.141%,
958,2025-03-04 12:39:45,2025-03-04 12:47:06,441.23,0.140%,
959,2025-03-04 14:14:29,2025-03-04 14:21:50,441.724,0.140%,
960,2025-03-04 15:49:13,2025-03-04 15:56:35,442.154,0.140%,
961,2025-03-04 17:23:56,2025-03-04 17:31:19,442.522,0.140%,
962,2025-03-04 18:58:39,2025-03-04 19:06:03,444.145,0.141%,
963,2025-03-04 20:33:24,2025-03-04 20:40:47,443.08,0.141%,
964,2025-03-04 22:08:08,2025-03-04 22:15:31,443.27,0.141%,
965,2025-03-04 23:42:52,2025-03-04 23:50:15,443.403,0.141%,
966,2025-03-05 01:17:36,2025-03-05 01:25:00,443.808,0.141%,
967,2025-03-05 02:52:19,2025-03-05 02:59:44,444.992,0.141%,
968,2025-03-05 04:27:04,2025-03-05 04:34:29,445.687,0.141%,
969,2025-03-05 06:01:47,2025-03-05 06:09:14,446.492,0.142%,
970,2025-03-05 07:36:31,2025-03-05 07:43:59,447.219,0.142%,
971,2025-03-05 09:11:15,2025-03-05 09:18:43,447.869,0.142%,
972,2025-03-05 10:45:59,2025-03-05 10:53:28,448.449,0.142%,
973,2025-03-05 12:20:43,2025-03-05 12:28:12,448.962,0.142%,
974,2025-03-05 13:55:27,2025-03-05 14:02:56,449.414,0.143%,
975,2025-03-05 15:30:24,2025-03-05 15:37:41,436.967,0.139%,
976,2025-03-05 17:05:02,2025-03-05 17:12:25,442.929,0.141%,
977,2025-03-05 18:39:55,2025-03-05 18:47:09,434.212,0.138%,
978,2025-03-05 20:14:33,2025-03-05 20:21:53,440.19,0.140%,
979,2025-03-05 21:49:24,2025-03-05 21:56:37,433.617,0.138%,
980,2025-03-05 23:24:04,2025-03-05 23:31:21,437.193,0.139%,
981,2025-03-06 00:58:42,2025-03-06 01:06:05,443.005,0.141%,
982,2025-03-06 02:33:35,2025-03-06 02:40:50,435.107,0.138%,
983,2025-03-06 04:08:13,2025-03-06 04:15:35,441.663,0.140%,
984,2025-03-06 05:43:06,2025-03-06 05:50:20,433.859,0.138%,
985,2025-03-06 07:17:44,2025-03-06 07:25:04,439.938,0.140%,
986,2025-03-06 08:52:23,2025-03-06 08:59:49,446.066,0.141%,
987,2025-03-06 10:27:15,2025-03-06 10:34:33,437.882,0.139%,
988,2025-03-06 12:01:54,2025-03-06 12:09:18,443.989,0.141%,
989,2025-03-06 13:36:45,2025-03-06 13:44:02,437.34,0.139%,
990,2025-03-06 15:11:25,2025-03-06 15:18:46,441.621,0.140%,
991,2025-03-06 16:46:12,2025-03-06 16:53:31,438.249,0.139%,
992,2025-03-06 18:20:56,2025-03-06 18:28:15,438.984,0.139%,
993,2025-03-06 19:55:34,2025-03-06 20:02:59,444.727,0.141%,
994,2025-03-06 21:30:24,2025-03-06 21:37:43,439.148,0.139%,
995,2025-03-06 23:05:05,2025-03-06 23:12:27,441.824,0.140%,
996,2025-03-07 00:39:52,2025-03-07 00:47:11,439.523,0.139%,
997,2025-03-07 02:14:35,2025-03-07 02:21:56,440.566,0.140%,
998,2025-03-07 03:49:19,2025-03-07 03:56:41,441.511,0.140%,
999,2025-03-07 05:24:03,2025-03-07 05:31:25,442.365,0.140%,
1000,2025-03-07 06:58:46,2025-03-07 07:06:10,444.437,0.141%,
1001,2025-03-07 08:33:31,2025-03-07 08:40:55,443.832,0.141%,
1002,2025-03-07 10:08:15,2025-03-07 10:15:39,444.454,0.141%,
