3UCubedIntegratedSim/Reports & Plots/North Cusp @ 1 Degree/CSV/Sat12.csv

Number,Coverage Start (UTCG),Coverage End (UTCG),Duration (sec),Percent,
1,2025-01-01 16:26:10,2025-01-01 16:31:43,333.605,0.106%,
2,2025-01-01 18:00:56,2025-01-01 18:06:28,331.906,0.105%,
3,2025-01-01 19:35:42,2025-01-01 19:41:12,330.031,0.105%,
4,2025-01-01 21:10:28,2025-01-01 21:15:56,327.945,0.104%,
5,2025-01-01 22:45:14,2025-01-01 22:50:40,325.598,0.103%,
6,2025-01-02 00:20:01,2025-01-02 00:25:24,322.884,0.102%,
7,2025-01-02 01:54:48,2025-01-02 02:00:08,319.67,0.101%,
8,2025-01-02 03:29:29,2025-01-02 03:34:53,324.068,0.103%,
9,2025-01-02 05:04:27,2025-01-02 05:09:38,310.983,0.099%,
10,2025-01-02 06:39:03,2025-01-02 06:44:22,318.942,0.101%,
11,2025-01-02 08:13:42,2025-01-02 08:19:07,324.847,0.103%,
12,2025-01-02 09:48:40,2025-01-02 09:53:52,311.477,0.099%,
13,2025-01-02 11:23:17,2025-01-02 11:28:36,319.206,0.101%,
14,2025-01-02 12:57:56,2025-01-02 13:03:21,324.96,0.103%,
15,2025-01-02 14:32:29,2025-01-02 14:38:05,335.477,0.106%,
16,2025-01-02 16:07:15,2025-01-02 16:12:49,333.968,0.106%,
17,2025-01-02 17:42:01,2025-01-02 17:47:33,332.306,0.105%,
18,2025-01-02 19:16:47,2025-01-02 19:22:18,330.466,0.105%,
19,2025-01-02 20:51:33,2025-01-02 20:57:02,328.428,0.104%,
20,2025-01-02 22:26:20,2025-01-02 22:31:46,326.139,0.103%,
21,2025-01-03 00:01:06,2025-01-03 00:06:30,323.522,0.103%,
22,2025-01-03 01:35:53,2025-01-03 01:41:14,320.397,0.102%,
23,2025-01-03 03:10:36,2025-01-03 03:15:59,323.03,0.102%,
24,2025-01-03 04:45:30,2025-01-03 04:50:43,313.203,0.099%,
25,2025-01-03 06:20:11,2025-01-03 06:25:28,317.634,0.101%,
26,2025-01-03 07:54:49,2025-01-03 08:00:13,323.832,0.103%,
27,2025-01-03 09:29:41,2025-01-03 09:34:57,316.524,0.100%,
28,2025-01-03 11:04:24,2025-01-03 11:09:42,317.914,0.101%,
29,2025-01-03 12:39:02,2025-01-03 12:44:26,323.963,0.103%,
30,2025-01-03 14:13:35,2025-01-03 14:19:11,335.811,0.107%,
31,2025-01-03 15:48:21,2025-01-03 15:53:55,334.326,0.106%,
32,2025-01-03 17:23:07,2025-01-03 17:28:39,332.695,0.106%,
33,2025-01-03 18:57:53,2025-01-03 19:03:23,330.892,0.105%,
34,2025-01-03 20:32:39,2025-01-03 20:38:08,328.899,0.104%,
35,2025-01-03 22:07:25,2025-01-03 22:12:52,326.669,0.104%,
36,2025-01-03 23:42:09,2025-01-03 23:47:36,327.064,0.104%,
37,2025-01-04 01:16:59,2025-01-04 01:22:20,321.149,0.102%,
38,2025-01-04 02:51:42,2025-01-04 02:57:04,321.947,0.102%,
39,2025-01-04 04:26:22,2025-01-04 04:31:49,327.259,0.104%,
40,2025-01-04 06:01:02,2025-01-04 06:01:05,2.961,0.001%,
41,2025-01-04 06:01:18,2025-01-04 06:06:34,316.252,0.100%,
42,2025-01-04 07:35:56,2025-01-04 07:41:19,322.773,0.102%,
43,2025-01-04 09:10:35,2025-01-04 09:16:03,327.883,0.104%,
44,2025-01-04 10:45:31,2025-01-04 10:50:48,316.542,0.100%,
45,2025-01-04 12:20:09,2025-01-04 12:25:32,322.921,0.102%,
46,2025-01-04 13:54:40,2025-01-04 14:00:16,336.134,0.107%,
47,2025-01-04 15:29:26,2025-01-04 15:35:01,334.677,0.106%,
48,2025-01-04 17:04:12,2025-01-04 17:09:45,333.077,0.106%,
49,2025-01-04 18:38:58,2025-01-04 18:44:29,331.309,0.105%,
50,2025-01-04 20:13:44,2025-01-04 20:19:13,329.359,0.104%,
51,2025-01-04 21:48:30,2025-01-04 21:53:57,327.184,0.104%,
52,2025-01-04 23:23:15,2025-01-04 23:28:42,326.258,0.104%,
53,2025-01-05 00:58:04,2025-01-05 01:03:25,321.86,0.102%,
54,2025-01-05 02:32:49,2025-01-05 02:38:10,320.817,0.102%,
55,2025-01-05 04:07:29,2025-01-05 04:12:55,326.347,0.104%,
56,2025-01-05 05:42:24,2025-01-05 05:47:40,315.67,0.100%,
57,2025-01-05 07:17:03,2025-01-05 07:22:24,321.664,0.102%,
58,2025-01-05 08:51:42,2025-01-05 08:57:09,326.994,0.104%,
59,2025-01-05 10:26:38,2025-01-05 10:31:53,315.069,0.100%,
60,2025-01-05 12:01:16,2025-01-05 12:06:38,321.829,0.102%,
61,2025-01-05 13:35:46,2025-01-05 13:41:22,336.453,0.107%,
62,2025-01-05 15:10:32,2025-01-05 15:16:07,335.022,0.106%,
63,2025-01-05 16:45:17,2025-01-05 16:50:51,333.452,0.106%,
64,2025-01-05 18:20:03,2025-01-05 18:25:35,331.719,0.105%,
65,2025-01-05 19:54:49,2025-01-05 20:00:19,329.809,0.105%,
66,2025-01-05 21:29:36,2025-01-05 21:35:03,327.684,0.104%,
67,2025-01-05 23:04:22,2025-01-05 23:09:47,325.417,0.103%,
68,2025-01-06 00:39:09,2025-01-06 00:44:31,322.534,0.102%,
69,2025-01-06 02:13:56,2025-01-06 02:19:16,319.733,0.101%,
70,2025-01-06 03:48:35,2025-01-06 03:54:01,325.399,0.103%,
71,2025-01-06 05:23:32,2025-01-06 05:28:45,313.184,0.099%,
72,2025-01-06 06:58:10,2025-01-06 07:03:30,320.502,0.102%,
73,2025-01-06 08:32:49,2025-01-06 08:38:15,326.073,0.103%,
74,2025-01-06 10:07:44,2025-01-06 10:12:59,315.461,0.100%,
75,2025-01-06 11:42:23,2025-01-06 11:47:44,320.685,0.102%,
76,2025-01-06 13:16:51,2025-01-06 13:22:28,336.767,0.107%,
77,2025-01-06 14:51:37,2025-01-06 14:57:12,335.367,0.106%,
78,2025-01-06 16:26:23,2025-01-06 16:31:57,333.82,0.106%,
79,2025-01-06 18:01:08,2025-01-06 18:06:41,332.881,0.106%,
80,2025-01-06 19:35:55,2025-01-06 19:41:25,330.249,0.105%,
81,2025-01-06 21:10:41,2025-01-06 21:16:09,328.175,0.104%,
82,2025-01-06 22:45:27,2025-01-06 22:50:53,325.847,0.103%,
83,2025-01-07 00:20:14,2025-01-07 00:25:37,323.182,0.103%,
84,2025-01-07 01:54:47,2025-01-07 01:54:57,9.514,0.003%,
85,2025-01-07 01:55:01,2025-01-07 02:00:22,320.427,0.102%,
86,2025-01-07 03:29:42,2025-01-07 03:35:06,324.414,0.103%,
87,2025-01-07 05:04:34,2025-01-07 05:09:51,316.779,0.100%,
88,2025-01-07 06:39:17,2025-01-07 06:44:36,319.281,0.101%,
89,2025-01-07 08:13:55,2025-01-07 08:19:20,325.107,0.103%,
90,2025-01-07 09:48:27,2025-01-07 09:48:40,12.552,0.004%,
91,2025-01-07 09:48:53,2025-01-07 09:54:05,311.759,0.099%,
92,2025-01-07 11:23:30,2025-01-07 11:28:49,319.475,0.101%,
93,2025-01-07 12:57:57,2025-01-07 13:03:34,337.076,0.107%,
94,2025-01-07 14:32:42,2025-01-07 14:38:18,335.702,0.107%,
95,2025-01-07 16:07:28,2025-01-07 16:13:02,334.182,0.106%,
96,2025-01-07 17:42:08,2025-01-07 17:47:47,338.692,0.107%,
97,2025-01-07 19:17:00,2025-01-07 19:22:31,330.681,0.105%,
98,2025-01-07 20:51:46,2025-01-07 20:57:15,328.652,0.104%,
99,2025-01-07 22:26:33,2025-01-07 22:31:59,326.383,0.104%,
100,2025-01-08 00:01:15,2025-01-08 00:06:43,327.855,0.104%,
101,2025-01-08 01:36:06,2025-01-08 01:41:27,321.066,0.102%,
102,2025-01-08 03:10:49,2025-01-08 03:16:12,323.388,0.103%,
103,2025-01-08 04:45:28,2025-01-08 04:50:57,328.425,0.104%,
104,2025-01-08 06:20:24,2025-01-08 06:25:42,317.99,0.101%,
105,2025-01-08 07:55:02,2025-01-08 08:00:26,324.104,0.103%,
106,2025-01-08 09:29:42,2025-01-08 09:35:11,328.946,0.104%,
107,2025-01-08 11:04:17,2025-01-08 11:04:23,6.526,0.002%,
108,2025-01-08 11:04:37,2025-01-08 11:09:55,318.197,0.101%,
109,2025-01-08 12:39:02,2025-01-08 12:44:40,337.381,0.107%,
110,2025-01-08 14:13:48,2025-01-08 14:19:24,336.028,0.107%,
111,2025-01-08 15:48:34,2025-01-08 15:54:08,334.539,0.106%,
112,2025-01-08 17:23:20,2025-01-08 17:28:52,332.905,0.106%,
113,2025-01-08 18:58:06,2025-01-08 19:03:37,331.103,0.105%,
114,2025-01-08 20:32:52,2025-01-08 20:38:21,329.118,0.104%,
115,2025-01-08 22:07:38,2025-01-08 22:13:05,326.904,0.104%,
116,2025-01-08 23:42:22,2025-01-08 23:47:49,327.088,0.104%,
117,2025-01-09 01:17:11,2025-01-09 01:22:33,321.66,0.102%,
118,2025-01-09 02:51:56,2025-01-09 02:57:18,322.318,0.102%,
119,2025-01-09 04:26:35,2025-01-09 04:32:03,327.558,0.104%,
120,2025-01-09 06:01:14,2025-01-09 06:01:20,6.029,0.002%,
121,2025-01-09 06:01:31,2025-01-09 06:06:47,316.626,0.100%,
122,2025-01-09 07:36:09,2025-01-09 07:41:32,323.057,0.102%,
123,2025-01-09 09:10:48,2025-01-09 09:16:17,328.101,0.104%,
124,2025-01-09 10:45:22,2025-01-09 10:45:36,13.508,0.004%,
125,2025-01-09 10:45:44,2025-01-09 10:51:01,316.845,0.101%,
126,2025-01-09 12:20:08,2025-01-09 12:25:45,337.684,0.107%,
127,2025-01-09 13:54:53,2025-01-09 14:00:30,336.352,0.107%,
128,2025-01-09 15:29:39,2025-01-09 15:35:14,334.889,0.106%,
129,2025-01-09 17:04:25,2025-01-09 17:09:58,333.285,0.106%,
130,2025-01-09 18:39:11,2025-01-09 18:44:42,331.518,0.105%,
131,2025-01-09 20:13:57,2025-01-09 20:19:27,329.573,0.105%,
132,2025-01-09 21:48:34,2025-01-09 21:54:11,336.836,0.107%,
133,2025-01-09 23:23:28,2025-01-09 23:28:55,326.292,0.104%,
134,2025-01-10 00:58:16,2025-01-10 01:03:39,322.22,0.102%,
135,2025-01-10 02:33:02,2025-01-10 02:38:24,321.2,0.102%,
136,2025-01-10 04:07:42,2025-01-10 04:13:08,326.657,0.104%,
137,2025-01-10 05:42:14,2025-01-10 05:42:30,15.376,0.005%,
138,2025-01-10 05:42:37,2025-01-10 05:47:53,315.903,0.100%,
139,2025-01-10 07:17:16,2025-01-10 07:22:38,321.963,0.102%,
140,2025-01-10 08:51:55,2025-01-10 08:57:22,327.223,0.104%,
141,2025-01-10 10:26:28,2025-01-10 10:26:48,19.939,0.006%,
142,2025-01-10 10:26:48,2025-01-10 10:32:07,318.598,0.101%,
143,2025-01-10 12:01:13,2025-01-10 12:06:51,337.977,0.107%,
144,2025-01-10 13:35:55,2025-01-10 13:41:36,340.468,0.108%,
145,2025-01-10 15:10:45,2025-01-10 15:16:20,335.238,0.106%,
146,2025-01-10 16:45:30,2025-01-10 16:51:04,333.659,0.106%,
147,2025-01-10 18:20:16,2025-01-10 18:25:48,331.925,0.105%,
148,2025-01-10 19:55:02,2025-01-10 20:00:32,330.02,0.105%,
149,2025-01-10 21:29:36,2025-01-10 21:35:17,340.585,0.108%,
150,2025-01-10 23:04:35,2025-01-10 23:10:01,325.541,0.103%,
151,2025-01-11 00:39:22,2025-01-11 00:44:45,322.829,0.102%,
152,2025-01-11 02:14:09,2025-01-11 02:19:29,320.484,0.102%,
153,2025-01-11 03:48:48,2025-01-11 03:54:14,325.72,0.103%,
154,2025-01-11 05:23:17,2025-01-11 05:23:20,3.156,0.001%,
155,2025-01-11 05:23:45,2025-01-11 05:28:59,313.611,0.099%,
156,2025-01-11 06:58:23,2025-01-11 07:03:43,320.814,0.102%,
157,2025-01-11 08:33:02,2025-01-11 08:38:28,326.309,0.104%,
158,2025-01-11 10:07:33,2025-01-11 10:13:13,339.427,0.108%,
159,2025-01-11 11:42:19,2025-01-11 11:47:57,338.27,0.107%,
160,2025-01-11 13:17:04,2025-01-11 13:22:41,336.986,0.107%,
161,2025-01-11 14:51:50,2025-01-11 14:57:26,335.578,0.106%,
162,2025-01-11 16:26:36,2025-01-11 16:32:10,334.026,0.106%,
163,2025-01-11 18:01:20,2025-01-11 18:06:54,334.063,0.106%,
164,2025-01-11 19:36:08,2025-01-11 19:41:38,330.457,0.105%,
165,2025-01-11 21:10:54,2025-01-11 21:16:22,328.392,0.104%,
166,2025-01-11 22:45:40,2025-01-11 22:51:06,326.085,0.103%,
167,2025-01-12 00:20:22,2025-01-12 00:25:50,328.587,0.104%,
168,2025-01-12 01:55:00,2025-01-12 01:55:11,10.853,0.003%,
169,2025-01-12 01:55:14,2025-01-12 02:00:35,321.145,0.102%,
170,2025-01-12 03:29:55,2025-01-12 03:35:20,324.746,0.103%,
171,2025-01-12 05:04:35,2025-01-12 05:10:05,329.531,0.105%,
172,2025-01-12 06:39:30,2025-01-12 06:44:49,319.608,0.101%,
173,2025-01-12 08:14:08,2025-01-12 08:19:34,325.358,0.103%,
174,2025-01-12 09:48:39,2025-01-12 09:54:18,339.693,0.108%,
175,2025-01-12 11:23:24,2025-01-12 11:29:03,338.559,0.107%,
176,2025-01-12 12:58:10,2025-01-12 13:03:47,337.295,0.107%,
177,2025-01-12 14:32:56,2025-01-12 14:38:31,335.912,0.107%,
178,2025-01-12 16:07:41,2025-01-12 16:13:16,334.387,0.106%,
179,2025-01-12 17:42:21,2025-01-12 17:48:00,339.142,0.108%,
180,2025-01-12 19:17:13,2025-01-12 19:22:44,330.885,0.105%,
181,2025-01-12 20:51:59,2025-01-12 20:57:28,328.864,0.104%,
182,2025-01-12 22:26:46,2025-01-12 22:32:12,326.612,0.104%,
183,2025-01-13 00:01:28,2025-01-13 00:06:56,327.862,0.104%,
184,2025-01-13 01:36:02,2025-01-13 01:41:41,339.249,0.108%,
185,2025-01-13 03:11:02,2025-01-13 03:16:26,323.733,0.103%,
186,2025-01-13 04:45:42,2025-01-13 04:51:10,328.705,0.104%,
187,2025-01-13 06:20:37,2025-01-13 06:25:55,318.335,0.101%,
188,2025-01-13 07:55:15,2025-01-13 08:00:40,324.366,0.103%,
189,2025-01-13 09:29:42,2025-01-13 09:35:24,341.736,0.108%,
190,2025-01-13 11:04:30,2025-01-13 11:10:09,338.838,0.107%,
191,2025-01-13 12:39:15,2025-01-13 12:44:53,337.604,0.107%,
192,2025-01-13 14:14:01,2025-01-13 14:19:37,336.239,0.107%,
193,2025-01-13 15:48:47,2025-01-13 15:54:22,334.743,0.106%,
194,2025-01-13 17:23:23,2025-01-13 17:29:06,342.444,0.109%,
195,2025-01-13 18:58:19,2025-01-13 19:03:50,331.305,0.105%,
196,2025-01-13 20:33:05,2025-01-13 20:38:34,329.326,0.104%,
197,2025-01-13 22:07:51,2025-01-13 22:13:18,327.129,0.104%,
198,2025-01-13 23:42:35,2025-01-13 23:48:02,327.105,0.104%,
199,2025-01-14 01:17:04,2025-01-14 01:22:47,342.206,0.109%,
200,2025-01-14 02:52:09,2025-01-14 02:57:31,322.675,0.102%,
201,2025-01-14 04:26:48,2025-01-14 04:32:16,327.845,0.104%,
202,2025-01-14 06:01:26,2025-01-14 06:01:34,8,0.003%,
203,2025-01-14 06:01:42,2025-01-14 06:07:01,318.913,0.101%,
204,2025-01-14 07:36:22,2025-01-14 07:41:45,323.331,0.103%,
205,2025-01-14 09:10:45,2025-01-14 09:10:48,2.866,0.001%,
206,2025-01-14 09:10:50,2025-01-14 09:16:30,340.214,0.108%,
207,2025-01-14 10:45:35,2025-01-14 10:51:14,339.117,0.108%,
208,2025-01-14 12:20:21,2025-01-14 12:25:59,337.901,0.107%,
209,2025-01-14 13:55:06,2025-01-14 14:00:43,336.892,0.107%,
210,2025-01-14 15:29:52,2025-01-14 15:35:27,335.092,0.106%,
211,2025-01-14 17:04:38,2025-01-14 17:10:12,333.485,0.106%,
212,2025-01-14 18:39:24,2025-01-14 18:44:56,331.717,0.105%,
213,2025-01-14 20:14:10,2025-01-14 20:19:40,329.778,0.105%,
214,2025-01-14 21:48:47,2025-01-14 21:54:24,337.298,0.107%,
215,2025-01-14 23:23:42,2025-01-14 23:29:08,326.317,0.104%,
216,2025-01-15 00:58:29,2025-01-15 01:03:52,322.87,0.102%,
217,2025-01-15 02:33:16,2025-01-15 02:38:37,321.572,0.102%,
218,2025-01-15 04:07:55,2025-01-15 04:13:22,326.955,0.104%,
219,2025-01-15 05:42:27,2025-01-15 05:42:43,16.293,0.005%,
220,2025-01-15 05:42:50,2025-01-15 05:48:07,316.123,0.100%,
221,2025-01-15 07:17:29,2025-01-15 07:22:51,322.248,0.102%,
222,2025-01-15 08:51:55,2025-01-15 08:57:36,340.465,0.108%,
223,2025-01-15 10:26:41,2025-01-15 10:32:20,339.392,0.108%,
224,2025-01-15 12:01:26,2025-01-15 12:07:05,338.199,0.107%,
225,2025-01-15 13:36:08,2025-01-15 13:41:49,340.903,0.108%,
226,2025-01-15 15:10:58,2025-01-15 15:16:33,335.441,0.106%,
227,2025-01-15 16:45:44,2025-01-15 16:51:17,333.857,0.106%,
228,2025-01-15 18:20:29,2025-01-15 18:26:02,332.126,0.105%,
229,2025-01-15 19:55:15,2025-01-15 20:00:46,330.558,0.105%,
230,2025-01-15 21:29:49,2025-01-15 21:35:30,340.882,0.108%,
231,2025-01-15 23:04:48,2025-01-15 23:10:14,325.773,0.103%,
232,2025-01-16 00:39:28,2025-01-16 00:44:58,329.545,0.105%,
233,2025-01-16 02:14:22,2025-01-16 02:19:43,321.197,0.102%,
234,2025-01-16 03:49:02,2025-01-16 03:54:28,326.029,0.103%,
235,2025-01-16 05:23:30,2025-01-16 05:29:12,342.506,0.109%,
236,2025-01-16 06:58:36,2025-01-16 07:03:57,321.113,0.102%,
237,2025-01-16 08:33:01,2025-01-16 08:38:41,340.715,0.108%,
238,2025-01-16 10:07:46,2025-01-16 10:13:26,339.661,0.108%,
239,2025-01-16 11:42:32,2025-01-16 11:48:10,338.492,0.107%,
240,2025-01-16 13:17:11,2025-01-16 13:22:55,343.89,0.109%,
241,2025-01-16 14:52:03,2025-01-16 14:57:39,335.779,0.107%,
242,2025-01-16 16:26:49,2025-01-16 16:32:23,334.222,0.106%,
243,2025-01-16 18:01:32,2025-01-16 18:07:07,334.941,0.106%,
244,2025-01-16 19:36:21,2025-01-16 19:41:51,330.653,0.105%,
245,2025-01-16 21:10:52,2025-01-16 21:16:36,343.715,0.109%,
246,2025-01-16 22:45:53,2025-01-16 22:51:20,326.308,0.104%,
247,2025-01-17 00:20:35,2025-01-17 00:26:04,328.73,0.104%,
248,2025-01-17 01:55:13,2025-01-17 01:55:25,12.034,0.004%,
249,2025-01-17 01:55:27,2025-01-17 02:00:49,321.823,0.102%,
250,2025-01-17 03:30:08,2025-01-17 03:35:33,325.068,0.103%,
251,2025-01-17 05:04:33,2025-01-17 05:10:18,345.104,0.109%,
252,2025-01-17 06:39:43,2025-01-17 06:45:03,319.927,0.101%,
253,2025-01-17 08:14:06,2025-01-17 08:19:47,340.961,0.108%,
254,2025-01-17 09:48:52,2025-01-17 09:54:32,339.925,0.108%,
255,2025-01-17 11:23:37,2025-01-17 11:29:16,338.775,0.107%,
256,2025-01-17 12:58:23,2025-01-17 13:04:00,337.505,0.107%,
257,2025-01-17 14:33:09,2025-01-17 14:38:45,336.111,0.107%,
258,2025-01-17 16:07:54,2025-01-17 16:13:29,334.582,0.106%,
259,2025-01-17 17:42:34,2025-01-17 17:48:13,339.559,0.108%,
260,2025-01-17 19:17:26,2025-01-17 19:22:57,331.078,0.105%,
261,2025-01-17 20:52:12,2025-01-17 20:57:41,329.064,0.104%,
262,2025-01-17 22:26:59,2025-01-17 22:32:25,326.828,0.104%,
263,2025-01-18 00:01:41,2025-01-18 00:07:09,327.885,0.104%,
264,2025-01-18 01:36:14,2025-01-18 01:41:54,339.867,0.108%,
265,2025-01-18 03:11:15,2025-01-18 03:16:39,324.063,0.103%,
266,2025-01-18 04:45:55,2025-01-18 04:51:24,328.971,0.104%,
267,2025-01-18 06:20:50,2025-01-18 06:26:08,318.667,0.101%,
268,2025-01-18 07:55:12,2025-01-18 08:00:53,341.203,0.108%,
269,2025-01-18 09:29:55,2025-01-18 09:35:37,342.178,0.109%,
270,2025-01-18 11:04:43,2025-01-18 11:10:22,339.059,0.108%,
271,2025-01-18 12:39:28,2025-01-18 12:45:06,337.814,0.107%,
272,2025-01-18 14:14:14,2025-01-18 14:19:51,336.439,0.107%,
273,2025-01-18 15:49:00,2025-01-18 15:54:35,334.936,0.106%,
274,2025-01-18 17:23:36,2025-01-18 17:29:19,342.752,0.109%,
275,2025-01-18 18:58:32,2025-01-18 19:04:03,331.495,0.105%,
276,2025-01-18 20:33:18,2025-01-18 20:38:47,329.521,0.105%,
277,2025-01-18 22:07:59,2025-01-18 22:13:31,331.903,0.105%,
278,2025-01-18 23:42:48,2025-01-18 23:48:15,327.113,0.104%,
279,2025-01-19 01:17:17,2025-01-19 01:23:00,342.743,0.109%,
280,2025-01-19 02:52:22,2025-01-19 02:57:45,323.019,0.102%,
281,2025-01-19 04:27:01,2025-01-19 04:32:30,328.121,0.104%,
282,2025-01-19 06:01:39,2025-01-19 06:01:49,9.944,0.003%,
283,2025-01-19 06:01:55,2025-01-19 06:07:14,319.092,0.101%,
284,2025-01-19 07:36:17,2025-01-19 07:41:59,341.441,0.108%,
285,2025-01-19 09:10:58,2025-01-19 09:16:43,344.922,0.109%,
286,2025-01-19 10:45:48,2025-01-19 10:51:28,339.338,0.108%,
287,2025-01-19 12:20:34,2025-01-19 12:26:12,338.112,0.107%,
288,2025-01-19 13:55:19,2025-01-19 14:00:56,337.507,0.107%,
289,2025-01-19 15:30:05,2025-01-19 15:35:41,335.289,0.106%,
290,2025-01-19 17:04:39,2025-01-19 17:10:25,345.385,0.110%,
291,2025-01-19 18:39:37,2025-01-19 18:45:09,331.908,0.105%,
292,2025-01-19 20:14:22,2025-01-19 20:19:53,331.257,0.105%,
293,2025-01-19 21:48:59,2025-01-19 21:54:37,337.712,0.107%,
294,2025-01-19 23:23:55,2025-01-19 23:29:21,326.334,0.104%,
295,2025-01-20 00:58:21,2025-01-20 01:04:06,345.159,0.109%,
296,2025-01-20 02:33:29,2025-01-20 02:38:51,321.93,0.102%,
297,2025-01-20 04:08:08,2025-01-20 04:13:35,327.24,0.104%,
298,2025-01-20 05:42:40,2025-01-20 05:48:20,339.892,0.108%,
299,2025-01-20 07:17:23,2025-01-20 07:23:05,341.674,0.108%,
300,2025-01-20 08:52:02,2025-01-20 08:57:49,347.28,0.110%,
301,2025-01-20 10:26:54,2025-01-20 10:32:33,339.611,0.108%,
302,2025-01-20 12:01:39,2025-01-20 12:07:18,338.409,0.107%,
303,2025-01-20 13:36:21,2025-01-20 13:42:02,341.311,0.108%,
304,2025-01-20 15:11:11,2025-01-20 15:16:46,335.632,0.106%,
305,2025-01-20 16:45:57,2025-01-20 16:51:31,334.042,0.106%,
306,2025-01-20 18:20:42,2025-01-20 18:26:15,332.31,0.105%,
307,2025-01-20 19:55:28,2025-01-20 20:00:59,330.59,0.105%,
308,2025-01-20 21:30:02,2025-01-20 21:35:43,341.156,0.108%,
309,2025-01-20 23:05:01,2025-01-20 23:10:27,325.987,0.103%,
310,2025-01-21 00:39:42,2025-01-21 00:45:11,329.873,0.105%,
311,2025-01-21 02:14:34,2025-01-21 02:19:56,321.863,0.102%,
312,2025-01-21 03:49:15,2025-01-21 03:54:41,326.325,0.104%,
313,2025-01-21 05:23:43,2025-01-21 05:29:26,342.974,0.109%,
314,2025-01-21 06:58:28,2025-01-21 07:04:10,341.905,0.108%,
315,2025-01-21 08:33:14,2025-01-21 08:38:55,340.951,0.108%,
316,2025-01-21 10:07:59,2025-01-21 10:13:39,339.883,0.108%,
317,2025-01-21 11:42:45,2025-01-21 11:48:24,338.702,0.107%,
318,2025-01-21 13:17:24,2025-01-21 13:23:08,344.218,0.109%,
319,2025-01-21 14:52:16,2025-01-21 14:57:52,335.967,0.107%,
320,2025-01-21 16:27:02,2025-01-21 16:32:36,334.406,0.106%,
321,2025-01-21 18:01:45,2025-01-21 18:07:21,335.655,0.106%,
322,2025-01-21 19:36:34,2025-01-21 19:42:05,330.837,0.105%,
323,2025-01-21 21:11:05,2025-01-21 21:16:49,343.926,0.109%,
324,2025-01-21 22:46:06,2025-01-21 22:51:33,326.514,0.104%,
325,2025-01-22 00:20:48,2025-01-22 00:26:17,329.068,0.104%,
326,2025-01-22 01:55:25,2025-01-22 01:55:38,13.096,0.004%,
327,2025-01-22 01:55:40,2025-01-22 02:01:02,322.465,0.102%,
328,2025-01-22 03:30:21,2025-01-22 03:35:47,325.375,0.103%,
329,2025-01-22 05:04:46,2025-01-22 05:10:31,345.52,0.110%,
330,2025-01-22 06:39:34,2025-01-22 06:45:16,342.133,0.109%,
331,2025-01-22 08:14:19,2025-01-22 08:20:01,341.198,0.108%,
332,2025-01-22 09:49:05,2025-01-22 09:54:45,340.149,0.108%,
333,2025-01-22 11:23:50,2025-01-22 11:29:29,338.985,0.108%,
334,2025-01-22 12:58:27,2025-01-22 13:04:14,346.684,0.110%,
335,2025-01-22 14:33:22,2025-01-22 14:38:58,336.3,0.107%,
336,2025-01-22 16:08:07,2025-01-22 16:13:42,334.765,0.106%,
337,2025-01-22 17:42:46,2025-01-22 17:48:26,339.944,0.108%,
338,2025-01-22 19:17:39,2025-01-22 19:23:11,331.259,0.105%,
339,2025-01-22 20:52:08,2025-01-22 20:57:55,346.321,0.110%,
340,2025-01-22 22:27:12,2025-01-22 22:32:39,327.029,0.104%,
341,2025-01-23 00:01:55,2025-01-23 00:07:23,328.233,0.104%,
342,2025-01-23 01:36:27,2025-01-23 01:42:08,340.454,0.108%,
343,2025-01-23 03:11:28,2025-01-23 03:16:53,324.382,0.103%,
344,2025-01-23 04:45:49,2025-01-23 04:46:05,15.477,0.005%,
345,2025-01-23 04:46:08,2025-01-23 04:51:37,329.224,0.104%,
346,2025-01-23 06:20:39,2025-01-23 06:26:22,342.357,0.109%,
347,2025-01-23 07:55:25,2025-01-23 08:01:06,341.441,0.108%,
348,2025-01-23 09:30:08,2025-01-23 09:35:51,342.598,0.109%,
349,2025-01-23 11:04:56,2025-01-23 11:10:35,339.269,0.108%,
350,2025-01-23 12:39:42,2025-01-23 12:45:20,338.01,0.107%,
351,2025-01-23 14:14:27,2025-01-23 14:20:04,336.628,0.107%,
352,2025-01-23 15:49:13,2025-01-23 15:54:48,335.118,0.106%,
353,2025-01-23 17:23:49,2025-01-23 17:29:32,343.041,0.109%,
354,2025-01-23 18:58:45,2025-01-23 19:04:16,331.677,0.105%,
355,2025-01-23 20:33:28,2025-01-23 20:39:00,331.906,0.105%,
356,2025-01-23 22:08:11,2025-01-23 22:13:44,332.998,0.106%,
357,2025-01-23 23:43:01,2025-01-23 23:48:29,327.364,0.104%,
358,2025-01-24 01:17:30,2025-01-24 01:23:13,343.257,0.109%,
359,2025-01-24 02:52:35,2025-01-24 02:57:58,323.35,0.103%,
360,2025-01-24 04:27:15,2025-01-24 04:32:43,328.384,0.104%,
361,2025-01-24 06:01:45,2025-01-24 06:07:28,342.575,0.109%,
362,2025-01-24 07:36:30,2025-01-24 07:42:12,341.678,0.108%,
363,2025-01-24 09:11:11,2025-01-24 09:16:57,345.282,0.110%,
364,2025-01-24 10:46:01,2025-01-24 10:51:41,339.547,0.108%,
365,2025-01-24 12:20:47,2025-01-24 12:26:25,338.311,0.107%,
366,2025-01-24 13:55:32,2025-01-24 14:01:10,338.067,0.107%,
367,2025-01-24 15:30:18,2025-01-24 15:35:54,335.471,0.106%,
368,2025-01-24 17:04:52,2025-01-24 17:10:38,345.624,0.110%,
369,2025-01-24 18:39:50,2025-01-24 18:45:22,332.084,0.105%,
370,2025-01-24 20:14:35,2025-01-24 20:20:06,331.273,0.105%,
371,2025-01-24 21:49:12,2025-01-24 21:54:50,338.089,0.107%,
372,2025-01-24 23:24:08,2025-01-24 23:29:34,326.466,0.104%,
373,2025-01-25 00:58:34,2025-01-25 01:04:19,345.632,0.110%,
374,2025-01-25 02:33:42,2025-01-25 02:39:04,322.273,0.102%,
375,2025-01-25 04:08:21,2025-01-25 04:13:49,327.514,0.104%,
376,2025-01-25 05:42:51,2025-01-25 05:48:33,342.793,0.109%,
377,2025-01-25 07:17:36,2025-01-25 07:23:18,341.915,0.108%,
378,2025-01-25 08:52:15,2025-01-25 08:58:02,347.603,0.110%,
379,2025-01-25 10:27:07,2025-01-25 10:32:47,339.823,0.108%,
380,2025-01-25 12:01:53,2025-01-25 12:07:31,338.609,0.107%,
381,2025-01-25 13:36:34,2025-01-25 13:42:15,341.696,0.108%,
382,2025-01-25 15:11:24,2025-01-25 15:17:00,335.811,0.107%,
383,2025-01-25 16:45:56,2025-01-25 16:51:44,347.897,0.110%,
384,2025-01-25 18:20:56,2025-01-25 18:26:28,332.484,0.105%,
385,2025-01-25 19:55:41,2025-01-25 20:01:12,330.615,0.105%,
386,2025-01-25 21:30:15,2025-01-25 21:35:56,341.412,0.108%,
387,2025-01-25 23:05:14,2025-01-25 23:10:40,326.187,0.103%,
388,2025-01-26 00:39:37,2025-01-26 00:39:53,16.208,0.005%,
389,2025-01-26 00:39:55,2025-01-26 00:45:25,330.187,0.105%,
390,2025-01-26 02:14:47,2025-01-26 02:20:10,322.497,0.102%,
391,2025-01-26 03:49:28,2025-01-26 03:54:54,326.609,0.104%,
392,2025-01-26 05:23:56,2025-01-26 05:29:39,343.424,0.109%,
393,2025-01-26 06:58:42,2025-01-26 07:04:24,342.148,0.109%,
394,2025-01-26 08:33:27,2025-01-26 08:39:08,341.177,0.108%,
395,2025-01-26 10:08:12,2025-01-26 10:13:53,340.095,0.108%,
396,2025-01-26 11:42:58,2025-01-26 11:48:37,338.897,0.108%,
397,2025-01-26 13:17:37,2025-01-26 13:23:21,344.533,0.109%,
398,2025-01-26 14:52:29,2025-01-26 14:58:05,336.148,0.107%,
399,2025-01-26 16:27:15,2025-01-26 16:32:50,334.581,0.106%,
400,2025-01-26 18:01:58,2025-01-26 18:07:34,336.271,0.107%,
401,2025-01-26 19:36:47,2025-01-26 19:42:18,331.01,0.105%,
402,2025-01-26 21:11:18,2025-01-26 21:17:02,344.123,0.109%,
403,2025-01-26 22:46:19,2025-01-26 22:51:46,326.707,0.104%,
404,2025-01-27 00:21:01,2025-01-27 00:26:31,329.392,0.104%,
405,2025-01-27 01:55:38,2025-01-27 01:55:52,14.072,0.005%,
406,2025-01-27 01:55:52,2025-01-27 02:01:15,323.078,0.102%,
407,2025-01-27 03:30:35,2025-01-27 03:36:00,325.672,0.103%,
408,2025-01-27 05:04:59,2025-01-27 05:10:45,345.923,0.110%,
409,2025-01-27 06:39:47,2025-01-27 06:45:29,342.377,0.109%,
410,2025-01-27 08:14:32,2025-01-27 08:20:14,341.426,0.108%,
411,2025-01-27 09:49:18,2025-01-27 09:54:58,340.365,0.108%,
412,2025-01-27 11:24:04,2025-01-27 11:29:43,339.186,0.108%,
413,2025-01-27 12:58:40,2025-01-27 13:04:27,346.957,0.110%,
414,2025-01-27 14:33:35,2025-01-27 14:39:11,336.481,0.107%,
415,2025-01-27 16:08:21,2025-01-27 16:13:55,334.944,0.106%,
416,2025-01-27 17:42:59,2025-01-27 17:48:40,340.306,0.108%,
417,2025-01-27 19:17:52,2025-01-27 19:23:24,331.429,0.105%,
418,2025-01-27 20:52:21,2025-01-27 20:58:08,346.483,0.110%,
419,2025-01-27 22:27:25,2025-01-27 22:32:52,327.216,0.104%,
420,2025-01-28 00:02:08,2025-01-28 00:07:36,328.568,0.104%,
421,2025-01-28 01:36:40,2025-01-28 01:42:21,341.019,0.108%,
422,2025-01-28 03:11:41,2025-01-28 03:17:06,324.69,0.103%,
423,2025-01-28 04:46:02,2025-01-28 04:51:51,348.121,0.110%,
424,2025-01-28 06:20:53,2025-01-28 06:26:35,342.601,0.109%,
425,2025-01-28 07:55:38,2025-01-28 08:01:20,341.668,0.108%,
426,2025-01-28 09:30:21,2025-01-28 09:36:04,343.001,0.109%,
427,2025-01-28 11:05:09,2025-01-28 11:10:49,339.471,0.108%,
428,2025-01-28 12:39:44,2025-01-28 12:45:33,349.116,0.111%,
429,2025-01-28 14:14:40,2025-01-28 14:20:17,336.809,0.107%,
430,2025-01-28 15:49:26,2025-01-28 15:55:01,335.297,0.106%,
431,2025-01-28 17:24:02,2025-01-28 17:29:45,343.317,0.109%,
432,2025-01-28 18:58:58,2025-01-28 19:04:30,331.845,0.105%,
433,2025-01-28 20:33:25,2025-01-28 20:33:36,10.604,0.003%,
434,2025-01-28 20:33:42,2025-01-28 20:39:14,331.907,0.105%,
435,2025-01-28 22:08:24,2025-01-28 22:13:58,333.8,0.106%,
436,2025-01-28 23:43:14,2025-01-28 23:48:42,327.712,0.104%,
437,2025-01-29 01:17:43,2025-01-29 01:23:27,343.755,0.109%,
438,2025-01-29 02:52:48,2025-01-29 02:58:12,323.67,0.103%,
439,2025-01-29 04:27:13,2025-01-29 04:32:56,343.63,0.109%,
440,2025-01-29 06:01:58,2025-01-29 06:07:41,342.824,0.109%,
441,2025-01-29 07:36:44,2025-01-29 07:42:25,341.909,0.108%,
442,2025-01-29 09:11:24,2025-01-29 09:17:10,345.629,0.110%,
443,2025-01-29 10:46:15,2025-01-29 10:51:54,339.75,0.108%,
444,2025-01-29 12:21:00,2025-01-29 12:26:39,338.503,0.107%,
445,2025-01-29 13:55:44,2025-01-29 14:01:23,338.581,0.107%,
446,2025-01-29 15:30:31,2025-01-29 15:36:07,335.644,0.106%,
447,2025-01-29 17:05:05,2025-01-29 17:10:51,345.852,0.110%,
448,2025-01-29 18:40:03,2025-01-29 18:45:35,332.25,0.105%,
449,2025-01-29 20:14:48,2025-01-29 20:20:19,331.282,0.105%,
450,2025-01-29 21:49:25,2025-01-29 21:55:03,338.438,0.107%,
451,2025-01-29 23:24:21,2025-01-29 23:29:48,326.823,0.104%,
452,2025-01-30 00:58:47,2025-01-30 01:04:33,346.092,0.110%,
453,2025-01-30 02:33:55,2025-01-30 02:39:17,322.606,0.102%,
454,2025-01-30 04:08:18,2025-01-30 04:08:27,8.439,0.003%,
455,2025-01-30 04:08:34,2025-01-30 04:14:02,327.777,0.104%,
456,2025-01-30 05:43:04,2025-01-30 05:48:47,343.043,0.109%,
457,2025-01-30 07:17:49,2025-01-30 07:23:31,342.147,0.109%,
458,2025-01-30 08:52:28,2025-01-30 08:58:16,347.916,0.110%,
459,2025-01-30 10:27:20,2025-01-30 10:33:00,340.025,0.108%,
460,2025-01-30 12:02:06,2025-01-30 12:07:44,338.796,0.107%,
461,2025-01-30 13:36:47,2025-01-30 13:42:29,342.063,0.109%,
462,2025-01-30 15:11:37,2025-01-30 15:17:13,335.984,0.107%,
463,2025-01-30 16:46:09,2025-01-30 16:51:57,348.092,0.110%,
464,2025-01-30 18:21:09,2025-01-30 18:26:41,332.648,0.106%,
465,2025-01-30 19:55:55,2025-01-30 20:01:25,330.748,0.105%,
466,2025-01-30 21:30:28,2025-01-30 21:36:09,341.653,0.108%,
467,2025-01-30 23:05:27,2025-01-30 23:10:54,326.726,0.104%,
468,2025-01-31 00:39:50,2025-01-31 00:45:38,348.169,0.110%,
469,2025-01-31 02:14:51,2025-01-31 02:14:56,4.875,0.002%,
470,2025-01-31 02:15:00,2025-01-31 02:20:23,323.101,0.103%,
471,2025-01-31 03:49:24,2025-01-31 03:49:24,0.014,0.000%,
472,2025-01-31 03:49:41,2025-01-31 03:55:08,326.883,0.104%,
473,2025-01-31 05:24:09,2025-01-31 05:29:52,343.858,0.109%,
474,2025-01-31 06:58:55,2025-01-31 07:04:37,342.381,0.109%,
475,2025-01-31 08:33:32,2025-01-31 08:39:21,349.974,0.111%,
476,2025-01-31 10:08:26,2025-01-31 10:14:06,340.3,0.108%,
477,2025-01-31 11:43:11,2025-01-31 11:48:50,339.089,0.108%,
478,2025-01-31 13:17:50,2025-01-31 13:23:35,344.834,0.109%,
479,2025-01-31 14:52:42,2025-01-31 14:58:19,336.321,0.107%,
480,2025-01-31 16:27:28,2025-01-31 16:33:03,334.747,0.106%,
481,2025-01-31 18:02:10,2025-01-31 18:07:47,336.822,0.107%,
482,2025-01-31 19:37:00,2025-01-31 19:42:31,331.173,0.105%,
483,2025-01-31 21:11:31,2025-01-31 21:17:15,344.309,0.109%,
484,2025-01-31 22:46:32,2025-01-31 22:51:59,327.112,0.104%,
485,2025-02-01 00:21:14,2025-02-01 00:26:44,329.703,0.105%,
486,2025-02-01 01:55:51,2025-02-01 02:01:29,338.211,0.107%,
487,2025-02-01 03:30:48,2025-02-01 03:36:14,325.952,0.103%,
488,2025-02-01 05:05:12,2025-02-01 05:10:58,346.311,0.110%,
489,2025-02-01 06:40:00,2025-02-01 06:45:43,342.612,0.109%,
490,2025-02-01 08:14:46,2025-02-01 08:20:27,341.641,0.108%,
491,2025-02-01 09:49:31,2025-02-01 09:55:12,340.565,0.108%,
492,2025-02-01 11:24:17,2025-02-01 11:29:56,339.378,0.108%,
493,2025-02-01 12:58:53,2025-02-01 13:04:40,347.218,0.110%,
494,2025-02-01 14:33:48,2025-02-01 14:39:25,336.653,0.107%,
495,2025-02-01 16:08:34,2025-02-01 16:14:09,335.109,0.106%,
496,2025-02-01 17:43:12,2025-02-01 17:48:53,340.645,0.108%,
497,2025-02-01 19:18:05,2025-02-01 19:23:37,331.589,0.105%,
498,2025-02-01 20:52:34,2025-02-01 20:58:21,346.636,0.110%,
499,2025-02-01 22:27:38,2025-02-01 22:33:05,327.487,0.104%,
500,2025-02-02 00:02:21,2025-02-02 00:07:50,328.889,0.104%,
501,2025-02-02 01:36:53,2025-02-02 01:42:35,341.56,0.108%,
502,2025-02-02 03:11:54,2025-02-02 03:17:19,324.985,0.103%,
503,2025-02-02 04:46:16,2025-02-02 04:52:04,348.477,0.111%,
504,2025-02-02 06:21:06,2025-02-02 06:26:49,342.837,0.109%,
505,2025-02-02 07:55:51,2025-02-02 08:01:33,341.887,0.108%,
506,2025-02-02 09:30:34,2025-02-02 09:36:17,343.386,0.109%,
507,2025-02-02 11:05:22,2025-02-02 11:11:02,339.661,0.108%,
508,2025-02-02 12:39:57,2025-02-02 12:45:46,349.35,0.111%,
509,2025-02-02 14:14:53,2025-02-02 14:20:30,336.98,0.107%,
510,2025-02-02 15:49:39,2025-02-02 15:55:15,335.46,0.106%,
511,2025-02-02 17:24:15,2025-02-02 17:29:59,343.576,0.109%,
512,2025-02-02 18:59:11,2025-02-02 19:04:43,332.003,0.105%,
513,2025-02-02 20:33:38,2025-02-02 20:39:27,348.735,0.111%,
514,2025-02-02 22:08:36,2025-02-02 22:14:11,334.446,0.106%,
515,2025-02-02 23:43:28,2025-02-02 23:48:56,328.043,0.104%,
516,2025-02-03 01:17:56,2025-02-03 01:23:40,344.233,0.109%,
517,2025-02-03 02:53:01,2025-02-03 02:58:25,323.976,0.103%,
518,2025-02-03 04:27:19,2025-02-03 04:33:10,350.439,0.111%,
519,2025-02-03 06:02:11,2025-02-03 06:07:54,343.061,0.109%,
520,2025-02-03 07:36:57,2025-02-03 07:42:39,342.129,0.109%,
521,2025-02-03 09:11:37,2025-02-03 09:17:23,345.961,0.110%,
522,2025-02-03 10:46:28,2025-02-03 10:52:08,339.94,0.108%,
523,2025-02-03 12:21:13,2025-02-03 12:26:52,338.679,0.107%,
524,2025-02-03 13:55:57,2025-02-03 14:01:36,339.057,0.108%,
525,2025-02-03 15:30:45,2025-02-03 15:36:20,335.804,0.107%,
526,2025-02-03 17:05:18,2025-02-03 17:11:05,346.066,0.110%,
527,2025-02-03 18:40:16,2025-02-03 18:45:49,332.404,0.105%,
528,2025-02-03 20:15:01,2025-02-03 20:20:33,331.284,0.105%,
529,2025-02-03 21:49:38,2025-02-03 21:55:17,338.755,0.107%,
530,2025-02-03 23:24:34,2025-02-03 23:30:01,327.164,0.104%,
531,2025-02-04 00:59:00,2025-02-04 01:04:46,346.531,0.110%,
532,2025-02-04 02:34:08,2025-02-04 02:39:31,323.1,0.103%,
533,2025-02-04 04:08:31,2025-02-04 04:14:16,344.083,0.109%,
534,2025-02-04 05:43:17,2025-02-04 05:49:00,343.279,0.109%,
535,2025-02-04 07:18:02,2025-02-04 07:23:45,342.368,0.109%,
536,2025-02-04 08:52:41,2025-02-04 08:58:29,348.219,0.110%,
537,2025-02-04 10:27:33,2025-02-04 10:33:13,340.219,0.108%,
538,2025-02-04 12:02:19,2025-02-04 12:07:58,338.976,0.108%,
539,2025-02-04 13:37:00,2025-02-04 13:42:42,342.408,0.109%,
540,2025-02-04 15:11:50,2025-02-04 15:17:26,336.145,0.107%,
541,2025-02-04 16:46:22,2025-02-04 16:52:10,348.277,0.110%,
542,2025-02-04 18:21:22,2025-02-04 18:26:54,332.8,0.106%,
543,2025-02-04 19:56:08,2025-02-04 20:01:38,330.901,0.105%,
544,2025-02-04 21:30:41,2025-02-04 21:36:22,341.874,0.108%,
545,2025-02-04 23:05:40,2025-02-04 23:11:07,327.248,0.104%,
546,2025-02-05 00:40:03,2025-02-05 00:45:52,348.585,0.111%,
547,2025-02-05 02:15:03,2025-02-05 02:15:10,7.148,0.002%,
548,2025-02-05 02:15:13,2025-02-05 02:20:37,323.674,0.103%,
549,2025-02-05 03:49:37,2025-02-05 03:55:21,344.282,0.109%,
550,2025-02-05 05:24:22,2025-02-05 05:30:06,344.272,0.109%,
551,2025-02-05 06:59:08,2025-02-05 07:04:50,342.603,0.109%,
552,2025-02-05 08:33:45,2025-02-05 08:39:35,350.249,0.111%,
553,2025-02-05 10:08:39,2025-02-05 10:14:19,340.489,0.108%,
554,2025-02-05 11:43:24,2025-02-05 11:49:04,339.27,0.108%,
555,2025-02-05 13:18:03,2025-02-05 13:23:48,345.118,0.109%,
556,2025-02-05 14:52:56,2025-02-05 14:58:32,336.482,0.107%,
557,2025-02-05 16:27:26,2025-02-05 16:33:16,350.289,0.111%,
558,2025-02-05 18:02:23,2025-02-05 18:08:00,337.306,0.107%,
559,2025-02-05 19:37:13,2025-02-05 19:42:44,331.327,0.105%,
560,2025-02-05 21:11:44,2025-02-05 21:17:28,344.479,0.109%,
561,2025-02-05 22:46:45,2025-02-05 22:52:13,327.632,0.104%,
562,2025-02-06 00:21:28,2025-02-06 00:26:58,330,0.105%,
563,2025-02-06 01:56:04,2025-02-06 02:01:42,338.845,0.107%,
564,2025-02-06 03:30:43,2025-02-06 03:30:50,7.423,0.002%,
565,2025-02-06 03:31:01,2025-02-06 03:36:27,326.223,0.103%,
566,2025-02-06 05:05:25,2025-02-06 05:11:12,346.682,0.110%,
567,2025-02-06 06:40:13,2025-02-06 06:45:56,342.833,0.109%,
568,2025-02-06 08:14:59,2025-02-06 08:20:41,341.849,0.108%,
569,2025-02-06 09:49:44,2025-02-06 09:55:25,340.758,0.108%,
570,2025-02-06 11:24:30,2025-02-06 11:30:09,339.557,0.108%,
571,2025-02-06 12:59:06,2025-02-06 13:04:54,347.464,0.110%,
572,2025-02-06 14:34:01,2025-02-06 14:39:38,336.813,0.107%,
573,2025-02-06 16:08:47,2025-02-06 16:14:22,335.262,0.106%,
574,2025-02-06 17:43:25,2025-02-06 17:49:06,340.959,0.108%,
575,2025-02-06 19:18:18,2025-02-06 19:23:50,331.741,0.105%,
576,2025-02-06 20:52:47,2025-02-06 20:58:34,346.774,0.110%,
577,2025-02-06 22:27:51,2025-02-06 22:33:19,328.001,0.104%,
578,2025-02-07 00:02:34,2025-02-07 00:08:03,329.195,0.104%,
579,2025-02-07 01:37:06,2025-02-07 01:42:48,342.074,0.109%,
580,2025-02-07 03:12:08,2025-02-07 03:17:33,325.266,0.103%,
581,2025-02-07 04:46:29,2025-02-07 04:52:17,348.824,0.111%,
582,2025-02-07 06:21:19,2025-02-07 06:27:02,343.062,0.109%,
583,2025-02-07 07:56:04,2025-02-07 08:01:46,342.096,0.109%,
584,2025-02-07 09:30:47,2025-02-07 09:36:31,343.751,0.109%,
585,2025-02-07 11:05:35,2025-02-07 11:11:15,339.843,0.108%,
586,2025-02-07 12:40:10,2025-02-07 12:45:59,349.572,0.111%,
587,2025-02-07 14:15:06,2025-02-07 14:20:44,337.14,0.107%,
588,2025-02-07 15:49:52,2025-02-07 15:55:28,335.611,0.106%,
589,2025-02-07 17:24:28,2025-02-07 17:30:12,343.819,0.109%,
590,2025-02-07 18:59:24,2025-02-07 19:04:56,332.148,0.105%,
591,2025-02-07 20:33:51,2025-02-07 20:39:40,348.854,0.111%,
592,2025-02-07 22:08:49,2025-02-07 22:14:24,335.318,0.106%,
593,2025-02-07 23:43:41,2025-02-07 23:49:09,328.36,0.104%,
594,2025-02-08 01:18:09,2025-02-08 01:23:54,344.692,0.109%,
595,2025-02-08 02:53:14,2025-02-08 02:58:39,324.27,0.103%,
596,2025-02-08 04:27:32,2025-02-08 04:33:23,350.764,0.111%,
597,2025-02-08 06:02:24,2025-02-08 06:08:08,343.285,0.109%,
598,2025-02-08 07:37:10,2025-02-08 07:42:52,342.339,0.109%,
599,2025-02-08 09:11:50,2025-02-08 09:17:37,346.278,0.110%,
600,2025-02-08 10:46:41,2025-02-08 10:52:21,340.124,0.108%,
601,2025-02-08 12:21:26,2025-02-08 12:27:05,338.85,0.107%,
602,2025-02-08 13:56:10,2025-02-08 14:01:49,339.497,0.108%,
603,2025-02-08 15:30:58,2025-02-08 15:36:34,335.957,0.107%,
604,2025-02-08 17:05:31,2025-02-08 17:11:18,346.267,0.110%,
605,2025-02-08 18:40:29,2025-02-08 18:46:02,332.549,0.106%,
606,2025-02-08 20:15:15,2025-02-08 20:20:46,331.277,0.105%,
607,2025-02-08 21:49:51,2025-02-08 21:55:30,339.244,0.108%,
608,2025-02-08 23:24:47,2025-02-08 23:30:15,327.492,0.104%,
609,2025-02-09 00:59:13,2025-02-09 01:05:00,346.956,0.110%,
610,2025-02-09 02:34:21,2025-02-09 02:39:44,323.666,0.103%,
611,2025-02-09 04:08:45,2025-02-09 04:14:29,344.33,0.109%,
612,2025-02-09 05:43:30,2025-02-09 05:49:13,343.508,0.109%,
613,2025-02-09 07:18:15,2025-02-09 07:23:58,342.579,0.109%,
614,2025-02-09 08:52:54,2025-02-09 08:58:42,348.506,0.111%,
615,2025-02-09 10:27:46,2025-02-09 10:33:27,340.4,0.108%,
616,2025-02-09 12:02:32,2025-02-09 12:08:11,339.148,0.108%,
617,2025-02-09 13:37:13,2025-02-09 13:42:55,342.736,0.109%,
618,2025-02-09 15:12:03,2025-02-09 15:17:39,336.298,0.107%,
619,2025-02-09 16:46:35,2025-02-09 16:52:24,348.451,0.111%,
620,2025-02-09 18:21:35,2025-02-09 18:27:08,332.943,0.106%,
621,2025-02-09 19:56:21,2025-02-09 20:01:52,331.048,0.105%,
622,2025-02-09 21:30:54,2025-02-09 21:36:36,342.149,0.109%,
623,2025-02-09 23:05:53,2025-02-09 23:11:21,327.754,0.104%,
624,2025-02-10 00:40:16,2025-02-10 00:46:05,348.987,0.111%,
625,2025-02-10 02:15:15,2025-02-10 02:15:24,8.856,0.003%,
626,2025-02-10 02:15:26,2025-02-10 02:20:50,324.223,0.103%,
627,2025-02-10 03:49:50,2025-02-10 03:55:35,344.53,0.109%,
628,2025-02-10 05:24:35,2025-02-10 05:30:19,344.67,0.109%,
629,2025-02-10 06:59:21,2025-02-10 07:05:04,342.814,0.109%,
630,2025-02-10 08:33:58,2025-02-10 08:39:48,350.516,0.111%,
631,2025-02-10 10:08:52,2025-02-10 10:14:33,340.673,0.108%,
632,2025-02-10 11:43:37,2025-02-10 11:49:17,339.44,0.108%,
633,2025-02-10 13:18:16,2025-02-10 13:24:01,345.39,0.110%,
634,2025-02-10 14:53:09,2025-02-10 14:58:45,336.634,0.107%,
635,2025-02-10 16:27:39,2025-02-10 16:27:54,15.235,0.005%,
636,2025-02-10 16:27:54,2025-02-10 16:33:29,335.052,0.106%,
637,2025-02-10 18:02:36,2025-02-10 18:08:13,337.752,0.107%,
638,2025-02-10 19:37:26,2025-02-10 19:42:57,331.467,0.105%,
639,2025-02-10 21:11:57,2025-02-10 21:17:41,344.639,0.109%,
640,2025-02-10 22:46:58,2025-02-10 22:52:26,328.133,0.104%,
641,2025-02-11 00:21:41,2025-02-11 00:27:11,330.286,0.105%,
642,2025-02-11 01:56:16,2025-02-11 02:01:56,339.449,0.108%,
643,2025-02-11 03:30:56,2025-02-11 03:30:59,3.634,0.001%,
644,2025-02-11 03:31:14,2025-02-11 03:36:40,326.484,0.104%,
645,2025-02-11 05:05:38,2025-02-11 05:11:25,347.041,0.110%,
646,2025-02-11 06:40:26,2025-02-11 06:46:10,343.047,0.109%,
647,2025-02-11 08:15:12,2025-02-11 08:20:54,342.048,0.109%,
648,2025-02-11 09:49:57,2025-02-11 09:55:38,341.163,0.108%,
649,2025-02-11 11:24:43,2025-02-11 11:30:23,339.73,0.108%,
650,2025-02-11 12:59:19,2025-02-11 13:05:07,347.701,0.110%,
651,2025-02-11 14:34:14,2025-02-11 14:39:51,336.966,0.107%,
652,2025-02-11 16:09:00,2025-02-11 16:14:35,335.406,0.106%,
653,2025-02-11 17:43:38,2025-02-11 17:49:19,341.256,0.108%,
654,2025-02-11 19:18:31,2025-02-11 19:24:03,331.88,0.105%,
655,2025-02-11 20:53:00,2025-02-11 20:58:47,346.903,0.110%,
656,2025-02-11 22:28:04,2025-02-11 22:33:32,328.499,0.104%,
657,2025-02-12 00:02:47,2025-02-12 00:08:17,329.491,0.105%,
658,2025-02-12 01:37:19,2025-02-12 01:43:02,342.572,0.109%,
659,2025-02-12 03:12:21,2025-02-12 03:17:46,325.539,0.103%,
660,2025-02-12 04:46:42,2025-02-12 04:52:31,349.157,0.111%,
661,2025-02-12 06:21:32,2025-02-12 06:27:15,343.278,0.109%,
662,2025-02-12 07:56:17,2025-02-12 08:02:00,342.296,0.109%,
663,2025-02-12 09:31:00,2025-02-12 09:36:44,344.102,0.109%,
664,2025-02-12 11:05:48,2025-02-12 11:11:28,340.015,0.108%,
665,2025-02-12 12:40:23,2025-02-12 12:46:13,349.785,0.111%,
666,2025-02-12 14:15:20,2025-02-12 14:20:57,337.296,0.107%,
667,2025-02-12 15:50:05,2025-02-12 15:55:41,335.756,0.107%,
668,2025-02-12 17:24:41,2025-02-12 17:30:25,344.05,0.109%,
669,2025-02-12 18:59:37,2025-02-12 19:05:09,332.285,0.105%,
670,2025-02-12 20:34:04,2025-02-12 20:39:53,348.961,0.111%,
671,2025-02-12 22:09:02,2025-02-12 22:14:38,336.147,0.107%,
672,2025-02-12 23:43:54,2025-02-12 23:49:23,328.665,0.104%,
673,2025-02-13 01:18:22,2025-02-13 01:24:07,345.136,0.109%,
674,2025-02-13 02:53:27,2025-02-13 02:58:52,324.552,0.103%,
675,2025-02-13 04:27:45,2025-02-13 04:33:37,351.078,0.111%,
676,2025-02-13 06:02:38,2025-02-13 06:08:21,343.503,0.109%,
677,2025-02-13 07:37:23,2025-02-13 07:43:06,342.54,0.109%,
678,2025-02-13 09:12:03,2025-02-13 09:17:50,346.583,0.110%,
679,2025-02-13 10:46:54,2025-02-13 10:52:34,340.299,0.108%,
680,2025-02-13 12:21:39,2025-02-13 12:27:18,339.013,0.108%,
681,2025-02-13 13:56:23,2025-02-13 14:02:03,339.911,0.108%,
682,2025-02-13 15:31:11,2025-02-13 15:36:47,336.102,0.107%,
683,2025-02-13 17:05:44,2025-02-13 17:11:31,346.459,0.110%,
684,2025-02-13 18:40:42,2025-02-13 18:46:15,332.683,0.106%,
685,2025-02-13 20:15:28,2025-02-13 20:20:59,331.261,0.105%,
686,2025-02-13 21:50:04,2025-02-13 21:55:43,339.869,0.108%,
687,2025-02-13 23:25:00,2025-02-13 23:30:28,327.854,0.104%,
688,2025-02-14 00:59:26,2025-02-14 01:05:13,347.367,0.110%,
689,2025-02-14 02:34:34,2025-02-14 02:39:58,324.207,0.103%,
690,2025-02-14 04:08:58,2025-02-14 04:14:42,344.566,0.109%,
691,2025-02-14 05:43:43,2025-02-14 05:49:27,343.728,0.109%,
692,2025-02-14 07:18:29,2025-02-14 07:24:11,342.779,0.109%,
693,2025-02-14 08:53:07,2025-02-14 08:58:56,348.778,0.111%,
694,2025-02-14 10:27:59,2025-02-14 10:33:40,340.574,0.108%,
695,2025-02-14 12:02:45,2025-02-14 12:08:24,339.311,0.108%,
696,2025-02-14 13:37:25,2025-02-14 13:43:08,343.047,0.109%,
697,2025-02-14 15:12:16,2025-02-14 15:17:53,336.442,0.107%,
698,2025-02-14 16:46:48,2025-02-14 16:52:37,348.616,0.111%,
699,2025-02-14 18:21:48,2025-02-14 18:27:21,333.076,0.106%,
700,2025-02-14 19:56:34,2025-02-14 20:02:05,331.18,0.105%,
701,2025-02-14 21:31:06,2025-02-14 21:36:49,342.697,0.109%,
702,2025-02-14 23:06:06,2025-02-14 23:11:34,328.24,0.104%,
703,2025-02-15 00:40:29,2025-02-15 00:46:19,349.377,0.111%,
704,2025-02-15 02:15:28,2025-02-15 02:15:38,10.272,0.003%,
705,2025-02-15 02:15:39,2025-02-15 02:21:03,324.748,0.103%,
706,2025-02-15 03:50:03,2025-02-15 03:50:05,1.604,0.001%,
707,2025-02-15 03:50:20,2025-02-15 03:55:48,327.634,0.104%,
708,2025-02-15 05:24:48,2025-02-15 05:30:33,345.053,0.109%,
709,2025-02-15 06:59:34,2025-02-15 07:05:17,343.017,0.109%,
710,2025-02-15 08:34:11,2025-02-15 08:40:01,350.77,0.111%,
711,2025-02-15 10:09:05,2025-02-15 10:14:46,340.848,0.108%,
712,2025-02-15 11:43:50,2025-02-15 11:49:30,339.603,0.108%,
713,2025-02-15 13:18:29,2025-02-15 13:24:14,345.648,0.110%,
714,2025-02-15 14:53:22,2025-02-15 14:58:58,336.777,0.107%,
715,2025-02-15 16:28:07,2025-02-15 16:33:43,335.186,0.106%,
716,2025-02-15 18:02:48,2025-02-15 18:08:27,338.159,0.107%,
717,2025-02-15 19:37:39,2025-02-15 19:43:11,331.597,0.105%,
718,2025-02-15 21:12:10,2025-02-15 21:17:55,345.082,0.109%,
719,2025-02-15 22:47:11,2025-02-15 22:52:40,328.615,0.104%,
720,2025-02-16 00:21:54,2025-02-16 00:27:25,330.558,0.105%,
721,2025-02-16 01:56:29,2025-02-16 02:02:09,340.019,0.108%,
722,2025-02-16 03:31:27,2025-02-16 03:36:54,326.734,0.104%,
723,2025-02-16 05:05:51,2025-02-16 05:11:38,347.385,0.110%,
724,2025-02-16 06:40:40,2025-02-16 06:46:23,343.252,0.109%,
725,2025-02-16 08:15:25,2025-02-16 08:21:07,342.237,0.109%,
726,2025-02-16 09:50:10,2025-02-16 09:55:52,341.571,0.108%,
727,2025-02-16 11:24:56,2025-02-16 11:30:36,339.892,0.108%,
728,2025-02-16 12:59:32,2025-02-16 13:05:20,347.928,0.110%,
729,2025-02-16 14:34:27,2025-02-16 14:40:04,337.111,0.107%,
730,2025-02-16 16:09:13,2025-02-16 16:14:48,335.541,0.106%,
731,2025-02-16 17:43:51,2025-02-16 17:49:32,341.532,0.108%,
732,2025-02-16 19:18:44,2025-02-16 19:24:16,332.007,0.105%,
733,2025-02-16 20:53:13,2025-02-16 20:59:01,347.189,0.110%,
734,2025-02-16 22:28:17,2025-02-16 22:33:45,328.978,0.104%,
735,2025-02-17 00:03:01,2025-02-17 00:08:30,329.772,0.105%,
736,2025-02-17 01:37:32,2025-02-17 01:43:15,343.047,0.109%,
737,2025-02-17 03:12:34,2025-02-17 03:18:00,325.8,0.103%,
738,2025-02-17 04:46:55,2025-02-17 04:52:44,349.472,0.111%,
739,2025-02-17 06:21:45,2025-02-17 06:27:29,343.481,0.109%,
740,2025-02-17 07:56:31,2025-02-17 08:02:13,342.485,0.109%,
741,2025-02-17 09:31:13,2025-02-17 09:36:57,344.435,0.109%,
742,2025-02-17 11:06:02,2025-02-17 11:11:42,340.18,0.108%,
743,2025-02-17 12:40:36,2025-02-17 12:46:26,349.991,0.111%,
744,2025-02-17 14:15:33,2025-02-17 14:21:10,337.435,0.107%,
745,2025-02-17 15:50:18,2025-02-17 15:55:54,335.89,0.107%,
746,2025-02-17 17:24:54,2025-02-17 17:30:38,344.265,0.109%,
747,2025-02-17 18:59:50,2025-02-17 19:05:22,332.41,0.105%,
748,2025-02-17 20:34:17,2025-02-17 20:34:28,11.124,0.004%,
749,2025-02-17 20:34:34,2025-02-17 20:40:06,331.873,0.105%,
750,2025-02-17 22:09:14,2025-02-17 22:14:51,336.913,0.107%,
751,2025-02-17 23:44:07,2025-02-17 23:49:36,328.956,0.104%,
752,2025-02-18 01:18:35,2025-02-18 01:24:21,345.561,0.110%,
753,2025-02-18 02:53:41,2025-02-18 02:59:05,324.823,0.103%,
754,2025-02-18 04:28:05,2025-02-18 04:28:16,11.077,0.004%,
755,2025-02-18 04:28:20,2025-02-18 04:33:50,329.542,0.105%,
756,2025-02-18 06:02:51,2025-02-18 06:08:34,343.71,0.109%,
757,2025-02-18 07:37:36,2025-02-18 07:43:19,342.731,0.109%,
758,2025-02-18 09:12:16,2025-02-18 09:18:03,346.873,0.110%,
759,2025-02-18 10:47:07,2025-02-18 10:52:47,340.459,0.108%,
760,2025-02-18 12:21:53,2025-02-18 12:27:32,339.165,0.108%,
761,2025-02-18 13:56:36,2025-02-18 14:02:16,340.293,0.108%,
762,2025-02-18 15:31:24,2025-02-18 15:37:00,336.235,0.107%,
763,2025-02-18 17:05:58,2025-02-18 17:11:44,346.636,0.110%,
764,2025-02-18 18:40:55,2025-02-18 18:46:28,332.807,0.106%,
765,2025-02-18 20:15:41,2025-02-18 20:21:12,331.238,0.105%,
766,2025-02-18 21:50:16,2025-02-18 21:55:57,340.462,0.108%,
767,2025-02-18 23:25:13,2025-02-18 23:30:42,328.324,0.104%,
768,2025-02-19 00:59:39,2025-02-19 01:05:26,347.763,0.110%,
769,2025-02-19 02:34:46,2025-02-19 02:40:11,324.72,0.103%,
770,2025-02-19 04:09:27,2025-02-19 04:14:56,328.717,0.104%,
771,2025-02-19 05:43:56,2025-02-19 05:49:40,343.936,0.109%,
772,2025-02-19 07:18:42,2025-02-19 07:24:25,342.971,0.109%,
773,2025-02-19 08:53:20,2025-02-19 08:59:09,349.044,0.111%,
774,2025-02-19 10:28:13,2025-02-19 10:33:53,340.737,0.108%,
775,2025-02-19 12:02:58,2025-02-19 12:08:38,339.461,0.108%,
776,2025-02-19 13:37:38,2025-02-19 13:43:22,343.338,0.109%,
777,2025-02-19 15:12:29,2025-02-19 15:18:06,336.575,0.107%,
778,2025-02-19 16:47:01,2025-02-19 16:52:50,348.768,0.111%,
779,2025-02-19 18:22:00,2025-02-19 18:27:34,333.695,0.106%,
780,2025-02-19 19:56:47,2025-02-19 20:02:18,331.3,0.105%,
781,2025-02-19 21:31:19,2025-02-19 21:37:03,343.221,0.109%,
782,2025-02-19 23:06:19,2025-02-19 23:11:47,328.706,0.104%,
783,2025-02-20 00:40:42,2025-02-20 00:46:32,349.749,0.111%,
784,2025-02-20 02:15:40,2025-02-20 02:21:17,336.591,0.107%,
785,2025-02-20 03:50:34,2025-02-20 03:56:01,327.862,0.104%,
786,2025-02-20 05:25:01,2025-02-20 05:30:46,345.417,0.110%,
787,2025-02-20 06:59:47,2025-02-20 07:05:30,343.21,0.109%,
788,2025-02-20 08:34:33,2025-02-20 08:40:15,342.162,0.109%,
789,2025-02-20 10:09:18,2025-02-20 10:14:59,341.012,0.108%,
790,2025-02-20 11:44:04,2025-02-20 11:49:43,339.754,0.108%,
791,2025-02-20 13:18:42,2025-02-20 13:24:28,345.891,0.110%,
792,2025-02-20 14:53:35,2025-02-20 14:59:12,336.91,0.107%,
793,2025-02-20 16:28:20,2025-02-20 16:33:56,335.312,0.106%,
794,2025-02-20 18:03:01,2025-02-20 18:08:40,338.527,0.107%,
795,2025-02-20 19:37:52,2025-02-20 19:43:24,331.714,0.105%,
796,2025-02-20 21:12:23,2025-02-20 21:18:08,345.566,0.110%,
797,2025-02-20 22:47:24,2025-02-20 22:52:53,329.077,0.104%,
798,2025-02-21 00:22:07,2025-02-21 00:27:38,330.819,0.105%,
799,2025-02-21 01:56:42,2025-02-21 02:02:23,340.558,0.108%,
800,2025-02-21 03:31:40,2025-02-21 03:37:07,326.972,0.104%,
801,2025-02-21 05:06:04,2025-02-21 05:11:52,347.715,0.110%,
802,2025-02-21 06:40:53,2025-02-21 06:46:36,343.444,0.109%,
803,2025-02-21 08:15:38,2025-02-21 08:21:21,342.415,0.109%,
804,2025-02-21 09:50:23,2025-02-21 09:56:05,341.956,0.108%,
805,2025-02-21 11:25:09,2025-02-21 11:30:49,340.047,0.108%,
806,2025-02-21 12:59:45,2025-02-21 13:05:33,348.14,0.110%,
807,2025-02-21 14:34:40,2025-02-21 14:40:18,337.245,0.107%,
808,2025-02-21 16:09:26,2025-02-21 16:15:02,335.666,0.106%,
809,2025-02-21 17:44:04,2025-02-21 17:49:46,341.788,0.108%,
810,2025-02-21 19:18:58,2025-02-21 19:24:30,332.123,0.105%,
811,2025-02-21 20:53:26,2025-02-21 20:59:14,347.648,0.110%,
812,2025-02-21 22:28:28,2025-02-21 22:33:59,331.307,0.105%,
813,2025-02-22 00:03:14,2025-02-22 00:08:44,330.042,0.105%,
814,2025-02-22 01:37:45,2025-02-22 01:43:28,343.501,0.109%,
815,2025-02-22 03:12:47,2025-02-22 03:18:13,326.05,0.103%,
816,2025-02-22 04:47:08,2025-02-22 04:52:58,349.782,0.111%,
817,2025-02-22 06:21:58,2025-02-22 06:27:42,343.677,0.109%,
818,2025-02-22 07:56:44,2025-02-22 08:02:26,342.665,0.109%,
819,2025-02-22 09:31:26,2025-02-22 09:37:11,344.753,0.109%,
820,2025-02-22 11:06:15,2025-02-22 11:11:55,340.331,0.108%,
821,2025-02-22 12:40:49,2025-02-22 12:40:50,0.629,0.000%,
822,2025-02-22 12:41:00,2025-02-22 12:46:39,339.006,0.108%,
823,2025-02-22 14:15:46,2025-02-22 14:21:23,337.57,0.107%,
824,2025-02-22 15:50:31,2025-02-22 15:56:07,336.015,0.107%,
825,2025-02-22 17:25:07,2025-02-22 17:30:52,344.465,0.109%,
826,2025-02-22 19:00:03,2025-02-22 19:05:36,332.524,0.105%,
827,2025-02-22 20:34:48,2025-02-22 20:40:20,332.19,0.105%,
828,2025-02-22 22:09:27,2025-02-22 22:15:05,337.623,0.107%,
829,2025-02-22 23:44:20,2025-02-22 23:49:49,329.236,0.104%,
830,2025-02-23 01:18:48,2025-02-23 01:24:34,345.97,0.110%,
831,2025-02-23 02:53:54,2025-02-23 02:59:19,325.083,0.103%,
832,2025-02-23 04:28:34,2025-02-23 04:34:03,329.742,0.105%,
833,2025-02-23 06:03:04,2025-02-23 06:08:48,343.908,0.109%,
834,2025-02-23 07:37:49,2025-02-23 07:43:32,342.91,0.109%,
835,2025-02-23 09:12:29,2025-02-23 09:18:16,347.15,0.110%,
836,2025-02-23 10:47:20,2025-02-23 10:53:01,340.613,0.108%,
837,2025-02-23 12:22:06,2025-02-23 12:27:45,339.307,0.108%,
838,2025-02-23 13:56:49,2025-02-23 14:02:29,340.651,0.108%,
839,2025-02-23 15:31:37,2025-02-23 15:37:13,336.36,0.107%,
840,2025-02-23 17:06:11,2025-02-23 17:11:57,346.803,0.110%,
841,2025-02-23 18:41:08,2025-02-23 18:46:41,332.92,0.106%,
842,2025-02-23 20:15:54,2025-02-23 20:21:26,331.474,0.105%,
843,2025-02-23 21:50:29,2025-02-23 21:56:10,341.03,0.108%,
844,2025-02-23 23:25:26,2025-02-23 23:30:55,328.777,0.104%,
845,2025-02-24 00:59:52,2025-02-24 01:05:40,348.146,0.110%,
846,2025-02-24 02:34:59,2025-02-24 02:40:25,325.211,0.103%,
847,2025-02-24 04:09:40,2025-02-24 04:15:09,328.926,0.104%,
848,2025-02-24 05:44:09,2025-02-24 05:49:54,344.131,0.109%,
849,2025-02-24 07:18:55,2025-02-24 07:24:38,343.154,0.109%,
850,2025-02-24 08:53:33,2025-02-24 08:59:22,349.291,0.111%,
851,2025-02-24 10:28:26,2025-02-24 10:34:07,340.893,0.108%,
852,2025-02-24 12:03:11,2025-02-24 12:08:51,339.606,0.108%,
853,2025-02-24 13:37:51,2025-02-24 13:43:35,343.616,0.109%,
854,2025-02-24 15:12:42,2025-02-24 15:18:19,336.699,0.107%,
855,2025-02-24 16:47:14,2025-02-24 16:47:22,8.223,0.003%,
856,2025-02-24 16:47:28,2025-02-24 16:53:03,335.071,0.106%,
857,2025-02-24 18:22:13,2025-02-24 18:27:47,334.413,0.106%,
858,2025-02-24 19:57:00,2025-02-24 20:02:31,331.55,0.105%,
859,2025-02-24 21:31:32,2025-02-24 21:37:16,343.727,0.109%,
860,2025-02-24 23:06:32,2025-02-24 23:12:01,329.157,0.104%,
861,2025-02-25 00:41:14,2025-02-25 00:46:46,331.808,0.105%,
862,2025-02-25 02:15:53,2025-02-25 02:21:30,337.315,0.107%,
863,2025-02-25 03:50:47,2025-02-25 03:56:15,328.081,0.104%,
864,2025-02-25 05:25:14,2025-02-25 05:30:59,345.769,0.110%,
865,2025-02-25 07:00:00,2025-02-25 07:05:44,343.392,0.109%,
866,2025-02-25 08:34:46,2025-02-25 08:40:28,342.332,0.109%,
867,2025-02-25 10:09:31,2025-02-25 10:15:12,341.168,0.108%,
868,2025-02-25 11:44:17,2025-02-25 11:49:57,339.9,0.108%,
869,2025-02-25 13:18:55,2025-02-25 13:24:41,346.123,0.110%,
870,2025-02-25 14:53:48,2025-02-25 14:59:25,337.039,0.107%,
871,2025-02-25 16:28:34,2025-02-25 16:34:09,335.429,0.106%,
872,2025-02-25 18:03:14,2025-02-25 18:08:53,338.87,0.108%,
873,2025-02-25 19:38:05,2025-02-25 19:43:37,331.834,0.105%,
874,2025-02-25 21:12:36,2025-02-25 21:18:22,346.036,0.110%,
875,2025-02-25 22:47:37,2025-02-25 22:53:07,329.526,0.105%,
876,2025-02-26 00:22:20,2025-02-26 00:27:51,331.068,0.105%,
877,2025-02-26 01:56:55,2025-02-26 02:02:36,341.074,0.108%,
878,2025-02-26 03:31:53,2025-02-26 03:37:21,327.201,0.104%,
879,2025-02-26 05:06:17,2025-02-26 05:12:05,348.034,0.110%,
880,2025-02-26 06:41:06,2025-02-26 06:46:50,343.63,0.109%,
881,2025-02-26 08:15:51,2025-02-26 08:21:34,342.586,0.109%,
882,2025-02-26 09:50:36,2025-02-26 09:56:18,342.323,0.109%,
883,2025-02-26 11:25:22,2025-02-26 11:31:02,340.19,0.108%,
884,2025-02-26 12:59:58,2025-02-26 13:05:47,348.347,0.111%,
885,2025-02-26 14:34:53,2025-02-26 14:40:31,337.367,0.107%,
886,2025-02-26 16:09:39,2025-02-26 16:15:15,335.783,0.107%,
887,2025-02-26 17:44:17,2025-02-26 17:49:59,342.03,0.109%,
888,2025-02-26 19:19:11,2025-02-26 19:24:43,332.23,0.105%,
889,2025-02-26 20:53:40,2025-02-26 20:53:53,13.126,0.004%,
890,2025-02-26 20:53:57,2025-02-26 20:59:28,331.107,0.105%,
891,2025-02-26 22:28:39,2025-02-26 22:34:12,333.018,0.106%,
892,2025-02-27 00:03:27,2025-02-27 00:08:57,330.301,0.105%,
893,2025-02-27 01:37:58,2025-02-27 01:43:42,343.941,0.109%,
894,2025-02-27 03:13:00,2025-02-27 03:18:26,326.286,0.104%,
895,2025-02-27 04:47:40,2025-02-27 04:53:11,330.708,0.105%,
896,2025-02-27 06:22:11,2025-02-27 06:22:16,4.505,0.001%,
897,2025-02-27 06:22:19,2025-02-27 06:22:29,10.267,0.003%,
898,2025-02-27 06:22:34,2025-02-27 06:27:55,320.901,0.102%,
899,2025-02-27 07:56:57,2025-02-27 08:02:40,342.835,0.109%,
900,2025-02-27 09:31:39,2025-02-27 09:37:24,345.058,0.109%,
901,2025-02-27 11:06:28,2025-02-27 11:12:08,340.476,0.108%,
902,2025-02-27 12:41:13,2025-02-27 12:46:52,339.139,0.108%,
903,2025-02-27 14:15:59,2025-02-27 14:21:37,337.696,0.107%,
904,2025-02-27 15:50:45,2025-02-27 15:56:21,336.132,0.107%,
905,2025-02-27 17:25:20,2025-02-27 17:31:05,344.655,0.109%,
906,2025-02-27 19:00:16,2025-02-27 19:05:49,332.63,0.106%,
907,2025-02-27 20:35:02,2025-02-27 20:40:33,331.415,0.105%,
908,2025-02-27 22:09:40,2025-02-27 22:15:18,338.299,0.107%,
909,2025-02-27 23:44:33,2025-02-27 23:50:03,329.504,0.105%,
910,2025-02-28 01:19:01,2025-02-28 01:24:48,346.366,0.110%,
911,2025-02-28 02:54:07,2025-02-28 02:59:32,325.334,0.103%,
912,2025-02-28 04:28:47,2025-02-28 04:34:17,329.933,0.105%,
913,2025-02-28 06:03:21,2025-02-28 06:03:38,17.382,0.006%,
914,2025-02-28 06:03:41,2025-02-28 06:09:01,320.155,0.102%,
915,2025-02-28 07:38:02,2025-02-28 07:43:45,343.083,0.109%,
916,2025-02-28 09:12:42,2025-02-28 09:18:30,347.417,0.110%,
917,2025-02-28 10:47:33,2025-02-28 10:53:14,340.76,0.108%,
918,2025-02-28 12:22:19,2025-02-28 12:27:58,339.443,0.108%,
919,2025-02-28 13:57:01,2025-02-28 14:02:42,340.989,0.108%,
920,2025-02-28 15:31:50,2025-02-28 15:37:26,336.476,0.107%,
921,2025-02-28 17:06:24,2025-02-28 17:12:11,346.964,0.110%,
922,2025-02-28 18:41:21,2025-02-28 18:46:55,333.025,0.106%,
923,2025-02-28 20:16:07,2025-02-28 20:21:39,331.788,0.105%,
924,2025-02-28 21:50:42,2025-02-28 21:56:24,341.578,0.108%,
925,2025-02-28 23:25:39,2025-02-28 23:31:09,329.215,0.104%,
926,2025-03-01 01:00:05,2025-03-01 01:00:20,15.474,0.005%,
927,2025-03-01 01:00:21,2025-03-01 01:05:53,332.742,0.106%,
928,2025-03-01 02:35:12,2025-03-01 02:40:38,325.683,0.103%,
929,2025-03-01 04:09:53,2025-03-01 04:15:22,329.128,0.104%,
930,2025-03-01 05:44:23,2025-03-01 05:50:07,343.563,0.109%,
931,2025-03-01 07:19:08,2025-03-01 07:24:51,343.328,0.109%,
932,2025-03-01 08:53:53,2025-03-01 08:59:36,342.234,0.109%,
933,2025-03-01 10:28:39,2025-03-01 10:34:20,341.039,0.108%,
934,2025-03-01 12:03:24,2025-03-01 12:09:04,339.74,0.108%,
935,2025-03-01 13:38:04,2025-03-01 13:43:48,343.879,0.109%,
936,2025-03-01 15:12:55,2025-03-01 15:18:32,336.819,0.107%,
937,2025-03-01 16:47:41,2025-03-01 16:53:16,335.179,0.106%,
938,2025-03-01 18:22:25,2025-03-01 18:28:00,335.017,0.106%,
939,2025-03-01 19:57:13,2025-03-01 20:02:45,332.005,0.105%,
940,2025-03-01 21:31:45,2025-03-01 21:37:30,344.215,0.109%,
941,2025-03-01 23:06:45,2025-03-01 23:12:14,329.591,0.105%,
942,2025-03-02 00:41:27,2025-03-02 00:46:59,332.037,0.105%,
943,2025-03-02 02:16:06,2025-03-02 02:21:44,337.976,0.107%,
944,2025-03-02 03:51:00,2025-03-02 03:56:28,328.289,0.104%,
945,2025-03-02 05:25:27,2025-03-02 05:31:13,346.107,0.110%,
946,2025-03-02 07:00:34,2025-03-02 07:05:57,323.32,0.103%,
947,2025-03-02 08:34:59,2025-03-02 08:40:41,342.492,0.109%,
948,2025-03-02 10:09:44,2025-03-02 10:15:26,341.315,0.108%,
949,2025-03-02 11:44:30,2025-03-02 11:50:10,340.038,0.108%,
950,2025-03-02 13:19:08,2025-03-02 13:24:54,346.343,0.110%,
951,2025-03-02 14:54:01,2025-03-02 14:59:38,337.151,0.107%,
952,2025-03-02 16:28:47,2025-03-02 16:34:22,335.537,0.106%,
953,2025-03-02 18:03:27,2025-03-02 18:09:06,339.184,0.108%,
954,2025-03-02 19:38:18,2025-03-02 19:43:51,332.289,0.105%,
955,2025-03-02 21:12:49,2025-03-02 21:18:35,346.487,0.110%,
956,2025-03-02 22:47:50,2025-03-02 22:53:20,329.957,0.105%,
957,2025-03-03 00:22:34,2025-03-03 00:28:05,331.306,0.105%,
958,2025-03-03 01:57:08,2025-03-03 02:02:49,341.565,0.108%,
959,2025-03-03 03:32:07,2025-03-03 03:37:34,327.419,0.104%,
960,2025-03-03 05:06:30,2025-03-03 05:06:45,15.391,0.005%,
961,2025-03-03 05:06:47,2025-03-03 05:12:18,331.617,0.105%,
962,2025-03-03 06:41:41,2025-03-03 06:47:03,322.254,0.102%,
963,2025-03-03 08:16:04,2025-03-03 08:21:47,342.745,0.109%,
964,2025-03-03 09:50:49,2025-03-03 09:56:31,342.67,0.109%,
965,2025-03-03 11:25:35,2025-03-03 11:31:16,340.325,0.108%,
966,2025-03-03 13:00:21,2025-03-03 13:06:00,338.957,0.108%,
967,2025-03-03 14:35:06,2025-03-03 14:40:44,337.483,0.107%,
968,2025-03-03 16:09:52,2025-03-03 16:15:28,335.89,0.107%,
969,2025-03-03 17:44:30,2025-03-03 17:50:12,342.254,0.109%,
970,2025-03-03 19:19:24,2025-03-03 19:24:56,332.566,0.106%,
971,2025-03-03 20:54:10,2025-03-03 20:59:41,331.544,0.105%,
972,2025-03-03 22:28:52,2025-03-03 22:34:26,334.192,0.106%,
973,2025-03-04 00:03:40,2025-03-04 00:09:11,330.547,0.105%,
974,2025-03-04 01:38:11,2025-03-04 01:43:55,344.36,0.109%,
975,2025-03-04 03:13:13,2025-03-04 03:18:40,326.514,0.104%,
976,2025-03-04 04:47:53,2025-03-04 04:53:24,330.879,0.105%,
977,2025-03-04 06:22:32,2025-03-04 06:22:43,11.487,0.004%,
978,2025-03-04 06:22:47,2025-03-04 06:28:09,321.131,0.102%,
979,2025-03-04 07:57:10,2025-03-04 07:57:16,5.679,0.002%,
980,2025-03-04 07:57:27,2025-03-04 08:02:53,326.413,0.104%,
981,2025-03-04 09:31:52,2025-03-04 09:37:37,345.346,0.110%,
982,2025-03-04 11:06:41,2025-03-04 11:12:21,340.612,0.108%,
983,2025-03-04 12:41:26,2025-03-04 12:47:06,339.265,0.108%,
984,2025-03-04 14:16:12,2025-03-04 14:21:50,337.811,0.107%,
985,2025-03-04 15:50:58,2025-03-04 15:56:34,336.238,0.107%,
986,2025-03-04 17:25:33,2025-03-04 17:31:18,344.83,0.109%,
987,2025-03-04 19:00:29,2025-03-04 19:06:02,332.835,0.106%,
988,2025-03-04 20:35:15,2025-03-04 20:40:47,331.851,0.105%,
989,2025-03-04 22:09:53,2025-03-04 22:15:32,338.931,0.108%,
990,2025-03-04 23:44:47,2025-03-04 23:50:16,329.759,0.105%,
991,2025-03-05 01:19:14,2025-03-05 01:25:01,346.744,0.110%,
992,2025-03-05 02:54:20,2025-03-05 02:59:46,325.617,0.103%,
993,2025-03-05 04:29:00,2025-03-05 04:34:30,330.113,0.105%,
994,2025-03-05 06:03:33,2025-03-05 06:03:52,18.091,0.006%,
995,2025-03-05 06:03:54,2025-03-05 06:09:14,320.245,0.102%,
996,2025-03-05 07:38:33,2025-03-05 07:43:59,325.489,0.103%,
997,2025-03-05 09:12:55,2025-03-05 09:18:43,347.669,0.110%,
998,2025-03-05 10:47:46,2025-03-05 10:53:27,340.896,0.108%,
999,2025-03-05 12:22:32,2025-03-05 12:28:11,339.566,0.108%,
1000,2025-03-05 13:57:14,2025-03-05 14:02:56,341.302,0.108%,
1001,2025-03-05 15:32:03,2025-03-05 15:37:40,336.584,0.107%,
1002,2025-03-05 17:06:49,2025-03-05 17:12:24,334.915,0.106%,
1003,2025-03-05 18:41:35,2025-03-05 18:47:08,333.117,0.106%,
