3UCubedIntegratedSim/Reports & Plots/North Cusp @ 1 Degree/CSV/Sat11.csv

Number,Coverage Start (UTCG),Coverage End (UTCG),Duration (sec),Percent,
1,2025-01-01 16:25:12,2025-01-01 16:31:42,390.029,0.124%,
2,2025-01-01 17:59:54,2025-01-01 18:00:03,9.051,0.003%,
3,2025-01-01 18:00:07,2025-01-01 18:06:26,379.866,0.121%,
4,2025-01-01 19:34:33,2025-01-01 19:41:11,397.962,0.126%,
5,2025-01-01 21:09:20,2025-01-01 21:15:56,395.607,0.125%,
6,2025-01-01 22:44:09,2025-01-01 22:50:41,391.337,0.124%,
7,2025-01-02 00:18:53,2025-01-02 00:25:25,392.198,0.124%,
8,2025-01-02 01:53:48,2025-01-02 02:00:10,382.259,0.121%,
9,2025-01-02 03:28:14,2025-01-02 03:34:54,400.358,0.127%,
10,2025-01-02 05:02:58,2025-01-02 05:09:39,400.444,0.127%,
11,2025-01-02 06:37:50,2025-01-02 06:44:23,393.327,0.125%,
12,2025-01-02 08:12:34,2025-01-02 08:19:07,393.259,0.125%,
13,2025-01-02 09:47:27,2025-01-02 09:53:51,384.281,0.122%,
14,2025-01-02 11:21:54,2025-01-02 11:28:36,401.105,0.127%,
15,2025-01-02 12:56:42,2025-01-02 13:03:20,397.596,0.126%,
16,2025-01-02 14:31:30,2025-01-02 14:38:04,393.76,0.125%,
17,2025-01-02 16:06:11,2025-01-02 16:12:48,396.889,0.126%,
18,2025-01-02 17:41:07,2025-01-02 17:47:32,385.298,0.122%,
19,2025-01-02 19:15:52,2025-01-02 19:22:17,385.209,0.122%,
20,2025-01-02 20:50:23,2025-01-02 20:57:02,399.237,0.127%,
21,2025-01-02 22:25:10,2025-01-02 22:31:46,396.15,0.126%,
22,2025-01-02 23:59:57,2025-01-03 00:06:31,394.037,0.125%,
23,2025-01-03 01:34:47,2025-01-03 01:41:16,388.693,0.123%,
24,2025-01-03 03:09:24,2025-01-03 03:16:00,396.341,0.126%,
25,2025-01-03 04:44:03,2025-01-03 04:50:44,401.291,0.127%,
26,2025-01-03 06:18:51,2025-01-03 06:25:29,397.986,0.126%,
27,2025-01-03 07:53:39,2025-01-03 08:00:13,394.335,0.125%,
28,2025-01-03 09:28:27,2025-01-03 09:34:57,390.255,0.124%,
29,2025-01-03 11:03:01,2025-01-03 11:09:41,399.94,0.127%,
30,2025-01-03 12:37:56,2025-01-03 12:44:25,389.614,0.124%,
31,2025-01-03 14:12:31,2025-01-03 14:19:09,398.271,0.126%,
32,2025-01-03 15:47:19,2025-01-03 15:53:53,394.481,0.125%,
33,2025-01-03 17:22:07,2025-01-03 17:28:38,390.791,0.124%,
34,2025-01-03 18:56:55,2025-01-03 19:03:23,387.346,0.123%,
35,2025-01-03 20:31:37,2025-01-03 20:38:08,390.42,0.124%,
36,2025-01-03 22:06:12,2025-01-03 22:12:52,400.43,0.127%,
37,2025-01-03 23:40:59,2025-01-03 23:47:37,397.357,0.126%,
38,2025-01-04 01:15:47,2025-01-04 01:22:21,393.924,0.125%,
39,2025-01-04 02:50:36,2025-01-04 02:57:06,390.027,0.124%,
40,2025-01-04 04:25:18,2025-01-04 04:31:50,391.799,0.124%,
41,2025-01-04 05:59:52,2025-01-04 06:06:35,402.257,0.128%,
42,2025-01-04 07:34:40,2025-01-04 07:41:19,398.876,0.127%,
43,2025-01-04 09:09:27,2025-01-04 09:16:03,396.113,0.126%,
44,2025-01-04 10:44:16,2025-01-04 10:50:47,391.263,0.124%,
45,2025-01-04 12:19:00,2025-01-04 12:25:31,391.613,0.124%,
46,2025-01-04 13:53:42,2025-01-04 13:53:51,9.239,0.003%,
47,2025-01-04 13:53:54,2025-01-04 14:00:15,381.299,0.121%,
48,2025-01-04 15:28:20,2025-01-04 15:34:59,398.888,0.127%,
49,2025-01-04 17:03:05,2025-01-04 17:09:44,398.967,0.127%,
50,2025-01-04 18:37:56,2025-01-04 18:44:28,392.343,0.124%,
51,2025-01-04 20:12:40,2025-01-04 20:19:13,392.943,0.125%,
52,2025-01-04 21:47:34,2025-01-04 21:53:58,384.318,0.122%,
53,2025-01-04 23:22:01,2025-01-04 23:28:43,401.544,0.127%,
54,2025-01-05 00:56:49,2025-01-05 01:03:27,398.485,0.126%,
55,2025-01-05 02:31:36,2025-01-05 02:38:12,395.087,0.125%,
56,2025-01-05 04:06:17,2025-01-05 04:12:56,398.702,0.126%,
57,2025-01-05 05:41:13,2025-01-05 05:47:40,386.865,0.123%,
58,2025-01-05 07:15:42,2025-01-05 07:15:46,4.362,0.001%,
59,2025-01-05 07:15:58,2025-01-05 07:22:25,386.181,0.123%,
60,2025-01-05 08:50:29,2025-01-05 08:57:09,399.697,0.127%,
61,2025-01-05 10:25:17,2025-01-05 10:31:53,396.125,0.126%,
62,2025-01-05 11:59:56,2025-01-05 12:06:37,401.583,0.127%,
63,2025-01-05 13:34:53,2025-01-05 13:41:21,387.758,0.123%,
64,2025-01-05 15:09:30,2025-01-05 15:16:05,395.039,0.125%,
65,2025-01-05 16:44:10,2025-01-05 16:50:49,399.682,0.127%,
66,2025-01-05 18:18:57,2025-01-05 18:25:34,396.923,0.126%,
67,2025-01-05 19:53:45,2025-01-05 20:00:19,394.081,0.125%,
68,2025-01-05 21:28:33,2025-01-05 21:35:04,390.203,0.124%,
69,2025-01-05 23:03:08,2025-01-05 23:09:48,400.39,0.127%,
70,2025-01-06 00:37:50,2025-01-06 00:44:33,402.587,0.128%,
71,2025-01-06 02:12:38,2025-01-06 02:19:17,399.534,0.127%,
72,2025-01-06 03:47:26,2025-01-06 03:54:02,396.171,0.126%,
73,2025-01-06 05:22:14,2025-01-06 05:28:46,392.413,0.124%,
74,2025-01-06 06:57:02,2025-01-06 07:03:30,388.382,0.123%,
75,2025-01-06 08:31:44,2025-01-06 08:38:15,390.928,0.124%,
76,2025-01-06 10:06:18,2025-01-06 10:12:59,400.458,0.127%,
77,2025-01-06 11:41:06,2025-01-06 11:47:43,396.915,0.126%,
78,2025-01-06 13:15:54,2025-01-06 13:22:27,393.029,0.125%,
79,2025-01-06 14:50:42,2025-01-06 14:57:11,388.699,0.123%,
80,2025-01-06 16:25:25,2025-01-06 16:31:55,390.097,0.124%,
81,2025-01-06 17:59:59,2025-01-06 18:06:40,401.171,0.127%,
82,2025-01-06 19:34:46,2025-01-06 19:41:25,398.254,0.126%,
83,2025-01-06 21:09:33,2025-01-06 21:16:09,396.084,0.126%,
84,2025-01-06 22:44:22,2025-01-06 22:50:54,391.608,0.124%,
85,2025-01-07 00:19:06,2025-01-07 00:25:39,392.368,0.124%,
86,2025-01-07 01:53:40,2025-01-07 01:53:47,7.574,0.002%,
87,2025-01-07 01:53:48,2025-01-07 02:00:23,394.89,0.125%,
88,2025-01-07 03:28:27,2025-01-07 03:35:08,400.518,0.127%,
89,2025-01-07 05:03:11,2025-01-07 05:09:52,400.709,0.127%,
90,2025-01-07 06:38:03,2025-01-07 06:44:36,393.476,0.125%,
91,2025-01-07 08:12:47,2025-01-07 08:19:20,393.702,0.125%,
92,2025-01-07 09:47:30,2025-01-07 09:47:35,5.857,0.002%,
93,2025-01-07 09:47:40,2025-01-07 09:54:05,384.457,0.122%,
94,2025-01-07 11:22:08,2025-01-07 11:28:49,401.155,0.127%,
95,2025-01-07 12:56:50,2025-01-07 13:03:33,403.046,0.128%,
96,2025-01-07 14:31:43,2025-01-07 14:38:17,393.802,0.125%,
97,2025-01-07 16:06:24,2025-01-07 16:13:01,397.044,0.126%,
98,2025-01-07 17:41:20,2025-01-07 17:47:46,385.698,0.122%,
99,2025-01-07 19:15:48,2025-01-07 19:22:30,402.279,0.128%,
100,2025-01-07 20:50:36,2025-01-07 20:57:15,399.503,0.127%,
101,2025-01-07 22:25:23,2025-01-07 22:32:00,396.403,0.126%,
102,2025-01-08 00:00:02,2025-01-08 00:06:44,402.349,0.128%,
103,2025-01-08 01:35:00,2025-01-08 01:41:29,388.938,0.123%,
104,2025-01-08 03:09:37,2025-01-08 03:16:13,396.718,0.126%,
105,2025-01-08 04:44:16,2025-01-08 04:50:58,401.43,0.127%,
106,2025-01-08 06:19:04,2025-01-08 06:25:42,398.114,0.126%,
107,2025-01-08 07:53:52,2025-01-08 08:00:26,394.715,0.125%,
108,2025-01-08 09:28:40,2025-01-08 09:35:10,390.381,0.124%,
109,2025-01-08 11:03:14,2025-01-08 11:09:55,400.124,0.127%,
110,2025-01-08 12:37:57,2025-01-08 12:44:39,401.794,0.127%,
111,2025-01-08 14:12:44,2025-01-08 14:19:23,398.296,0.126%,
112,2025-01-08 15:47:32,2025-01-08 15:54:07,394.501,0.125%,
113,2025-01-08 17:22:20,2025-01-08 17:28:51,391.159,0.124%,
114,2025-01-08 18:56:53,2025-01-08 19:03:36,403.176,0.128%,
115,2025-01-08 20:31:37,2025-01-08 20:31:47,9.146,0.003%,
116,2025-01-08 20:31:50,2025-01-08 20:38:21,390.654,0.124%,
117,2025-01-08 22:06:25,2025-01-08 22:13:06,400.67,0.127%,
118,2025-01-08 23:41:13,2025-01-08 23:47:50,397.581,0.126%,
119,2025-01-09 01:16:01,2025-01-09 01:22:35,394.139,0.125%,
120,2025-01-09 02:50:49,2025-01-09 02:57:19,390.244,0.124%,
121,2025-01-09 04:25:32,2025-01-09 04:32:03,391.908,0.124%,
122,2025-01-09 06:00:05,2025-01-09 06:06:48,402.479,0.128%,
123,2025-01-09 07:34:53,2025-01-09 07:41:32,398.98,0.127%,
124,2025-01-09 09:09:40,2025-01-09 09:16:16,396.406,0.126%,
125,2025-01-09 10:44:29,2025-01-09 10:51:00,391.362,0.124%,
126,2025-01-09 12:19:13,2025-01-09 12:25:44,391.618,0.124%,
127,2025-01-09 13:53:46,2025-01-09 14:00:29,402.373,0.128%,
128,2025-01-09 15:28:34,2025-01-09 15:35:12,398.894,0.127%,
129,2025-01-09 17:03:18,2025-01-09 17:09:57,399.428,0.127%,
130,2025-01-09 18:38:09,2025-01-09 18:44:42,392.676,0.125%,
131,2025-01-09 20:12:53,2025-01-09 20:19:27,393.544,0.125%,
132,2025-01-09 21:47:36,2025-01-09 21:54:11,395.179,0.125%,
133,2025-01-09 23:22:14,2025-01-09 23:28:56,401.76,0.127%,
134,2025-01-10 00:56:56,2025-01-10 01:03:40,404.127,0.128%,
135,2025-01-10 02:31:50,2025-01-10 02:38:25,395.278,0.125%,
136,2025-01-10 04:06:30,2025-01-10 04:13:09,399.006,0.127%,
137,2025-01-10 05:41:27,2025-01-10 05:47:54,387.064,0.123%,
138,2025-01-10 07:15:55,2025-01-10 07:22:38,403.066,0.128%,
139,2025-01-10 08:50:42,2025-01-10 08:57:22,399.785,0.127%,
140,2025-01-10 10:25:30,2025-01-10 10:32:06,396.205,0.126%,
141,2025-01-10 12:00:09,2025-01-10 12:06:50,401.726,0.127%,
142,2025-01-10 13:35:07,2025-01-10 13:41:34,387.842,0.123%,
143,2025-01-10 15:09:35,2025-01-10 15:16:18,402.896,0.128%,
144,2025-01-10 16:44:23,2025-01-10 16:51:03,400.02,0.127%,
145,2025-01-10 18:19:10,2025-01-10 18:25:48,397.237,0.126%,
146,2025-01-10 19:53:47,2025-01-10 19:53:54,6.761,0.002%,
147,2025-01-10 19:53:58,2025-01-10 20:00:32,394.31,0.125%,
148,2025-01-10 21:28:47,2025-01-10 21:35:17,390.499,0.124%,
149,2025-01-10 23:03:21,2025-01-10 23:10:02,400.732,0.127%,
150,2025-01-11 00:38:03,2025-01-11 00:44:46,402.776,0.128%,
151,2025-01-11 02:12:51,2025-01-11 02:19:31,399.71,0.127%,
152,2025-01-11 03:47:39,2025-01-11 03:54:15,396.336,0.126%,
153,2025-01-11 05:22:27,2025-01-11 05:28:59,392.578,0.125%,
154,2025-01-11 06:57:00,2025-01-11 07:03:44,404.075,0.128%,
155,2025-01-11 08:31:44,2025-01-11 08:38:28,403.794,0.128%,
156,2025-01-11 10:06:32,2025-01-11 10:13:12,400.523,0.127%,
157,2025-01-11 11:41:19,2025-01-11 11:47:56,396.974,0.126%,
158,2025-01-11 13:16:07,2025-01-11 13:22:40,393.086,0.125%,
159,2025-01-11 14:50:55,2025-01-11 14:57:24,388.757,0.123%,
160,2025-01-11 16:25:38,2025-01-11 16:32:09,390.407,0.124%,
161,2025-01-11 18:00:12,2025-01-11 18:06:53,401.581,0.127%,
162,2025-01-11 19:35:00,2025-01-11 19:41:38,398.539,0.126%,
163,2025-01-11 21:09:46,2025-01-11 21:16:23,396.543,0.126%,
164,2025-01-11 22:44:36,2025-01-11 22:51:07,391.872,0.124%,
165,2025-01-12 00:19:19,2025-01-12 00:25:52,392.529,0.125%,
166,2025-01-12 01:53:51,2025-01-12 02:00:36,405.756,0.129%,
167,2025-01-12 03:28:40,2025-01-12 03:35:21,400.67,0.127%,
168,2025-01-12 05:03:24,2025-01-12 05:10:05,400.961,0.127%,
169,2025-01-12 06:38:16,2025-01-12 06:44:49,393.617,0.125%,
170,2025-01-12 08:13:00,2025-01-12 08:19:34,394.11,0.125%,
171,2025-01-12 09:47:33,2025-01-12 09:47:40,6.889,0.002%,
172,2025-01-12 09:47:43,2025-01-12 09:54:18,395.073,0.125%,
173,2025-01-12 11:22:21,2025-01-12 11:29:02,401.201,0.127%,
174,2025-01-12 12:57:03,2025-01-12 13:03:46,403.158,0.128%,
175,2025-01-12 14:31:56,2025-01-12 14:38:30,393.835,0.125%,
176,2025-01-12 16:06:37,2025-01-12 16:13:14,397.528,0.126%,
177,2025-01-12 17:41:24,2025-01-12 17:47:59,395.028,0.125%,
178,2025-01-12 19:16:01,2025-01-12 19:22:44,402.554,0.128%,
179,2025-01-12 20:50:49,2025-01-12 20:57:29,399.76,0.127%,
180,2025-01-12 22:25:37,2025-01-12 22:32:13,396.646,0.126%,
181,2025-01-13 00:00:15,2025-01-13 00:06:58,402.65,0.128%,
182,2025-01-13 01:35:13,2025-01-13 01:41:42,389.175,0.123%,
183,2025-01-13 03:09:42,2025-01-13 03:16:27,404.613,0.128%,
184,2025-01-13 04:44:29,2025-01-13 04:51:11,401.561,0.127%,
185,2025-01-13 06:19:17,2025-01-13 06:25:55,398.236,0.126%,
186,2025-01-13 07:53:54,2025-01-13 08:00:39,405.527,0.129%,
187,2025-01-13 09:28:53,2025-01-13 09:35:24,390.5,0.124%,
188,2025-01-13 11:03:27,2025-01-13 11:10:08,400.298,0.127%,
189,2025-01-13 12:38:10,2025-01-13 12:44:52,401.82,0.127%,
190,2025-01-13 14:12:58,2025-01-13 14:19:36,398.314,0.126%,
191,2025-01-13 15:47:45,2025-01-13 15:54:20,394.719,0.125%,
192,2025-01-13 17:22:33,2025-01-13 17:29:05,391.516,0.124%,
193,2025-01-13 18:57:06,2025-01-13 19:03:50,403.545,0.128%,
194,2025-01-13 20:31:51,2025-01-13 20:38:34,403.701,0.128%,
195,2025-01-13 22:06:38,2025-01-13 22:13:19,400.9,0.127%,
196,2025-01-13 23:41:26,2025-01-13 23:48:04,397.798,0.126%,
197,2025-01-14 01:16:14,2025-01-14 01:22:48,394.35,0.125%,
198,2025-01-14 02:51:02,2025-01-14 02:57:32,390.452,0.124%,
199,2025-01-14 04:25:31,2025-01-14 04:25:34,2.836,0.001%,
200,2025-01-14 04:25:45,2025-01-14 04:32:17,392.009,0.124%,
201,2025-01-14 06:00:18,2025-01-14 06:07:01,402.693,0.128%,
202,2025-01-14 07:35:06,2025-01-14 07:41:45,399.081,0.127%,
203,2025-01-14 09:09:53,2025-01-14 09:16:29,396.686,0.126%,
204,2025-01-14 10:44:42,2025-01-14 10:51:14,391.458,0.124%,
205,2025-01-14 12:19:26,2025-01-14 12:25:58,391.616,0.124%,
206,2025-01-14 13:53:57,2025-01-14 14:00:42,404.448,0.128%,
207,2025-01-14 15:28:47,2025-01-14 15:35:26,398.971,0.127%,
208,2025-01-14 17:03:31,2025-01-14 17:10:11,399.872,0.127%,
209,2025-01-14 18:38:22,2025-01-14 18:44:55,392.999,0.125%,
210,2025-01-14 20:13:06,2025-01-14 20:19:40,394.113,0.125%,
211,2025-01-14 21:47:40,2025-01-14 21:54:25,404.772,0.128%,
212,2025-01-14 23:22:27,2025-01-14 23:29:09,401.962,0.128%,
213,2025-01-15 00:57:09,2025-01-15 01:03:54,404.393,0.128%,
214,2025-01-15 02:32:03,2025-01-15 02:38:38,395.463,0.125%,
215,2025-01-15 04:06:43,2025-01-15 04:13:23,399.296,0.127%,
216,2025-01-15 05:41:31,2025-01-15 05:48:07,396.135,0.126%,
217,2025-01-15 07:16:08,2025-01-15 07:22:51,403.155,0.128%,
218,2025-01-15 08:50:48,2025-01-15 08:57:35,406.863,0.129%,
219,2025-01-15 10:25:43,2025-01-15 10:32:19,396.279,0.126%,
220,2025-01-15 12:00:22,2025-01-15 12:07:04,401.863,0.127%,
221,2025-01-15 13:35:12,2025-01-15 13:41:48,395.425,0.125%,
222,2025-01-15 15:09:49,2025-01-15 15:16:31,402.883,0.128%,
223,2025-01-15 16:44:36,2025-01-15 16:51:16,400.342,0.127%,
224,2025-01-15 18:19:24,2025-01-15 18:26:01,397.544,0.126%,
225,2025-01-15 19:54:01,2025-01-15 20:00:46,405.351,0.129%,
226,2025-01-15 21:29:00,2025-01-15 21:35:31,390.78,0.124%,
227,2025-01-15 23:03:34,2025-01-15 23:10:15,401.063,0.127%,
228,2025-01-16 00:38:17,2025-01-16 00:45:00,402.959,0.128%,
229,2025-01-16 02:13:04,2025-01-16 02:19:44,399.878,0.127%,
230,2025-01-16 03:47:52,2025-01-16 03:54:28,396.497,0.126%,
231,2025-01-16 05:22:40,2025-01-16 05:29:13,392.735,0.125%,
232,2025-01-16 06:57:13,2025-01-16 07:03:57,404.256,0.128%,
233,2025-01-16 08:31:57,2025-01-16 08:38:41,403.863,0.128%,
234,2025-01-16 10:06:45,2025-01-16 10:13:25,400.585,0.127%,
235,2025-01-16 11:41:32,2025-01-16 11:48:09,397.028,0.126%,
236,2025-01-16 13:16:20,2025-01-16 13:22:53,393.133,0.125%,
237,2025-01-16 14:50:52,2025-01-16 14:57:37,405.624,0.129%,
238,2025-01-16 16:25:38,2025-01-16 16:32:22,404.143,0.128%,
239,2025-01-16 18:00:25,2025-01-16 18:07:07,401.977,0.128%,
240,2025-01-16 19:35:13,2025-01-16 19:41:52,398.813,0.127%,
241,2025-01-16 21:09:59,2025-01-16 21:16:36,396.982,0.126%,
242,2025-01-16 22:44:49,2025-01-16 22:51:21,392.126,0.124%,
243,2025-01-17 00:19:33,2025-01-17 00:26:05,392.681,0.125%,
244,2025-01-17 01:54:04,2025-01-17 02:00:50,405.99,0.129%,
245,2025-01-17 03:28:53,2025-01-17 03:35:34,400.816,0.127%,
246,2025-01-17 05:03:37,2025-01-17 05:10:18,401.202,0.127%,
247,2025-01-17 06:38:29,2025-01-17 06:45:03,393.75,0.125%,
248,2025-01-17 08:13:12,2025-01-17 08:19:47,394.486,0.125%,
249,2025-01-17 09:47:47,2025-01-17 09:54:31,404.511,0.128%,
250,2025-01-17 11:22:34,2025-01-17 11:29:15,401.24,0.127%,
251,2025-01-17 12:57:16,2025-01-17 13:03:59,403.261,0.128%,
252,2025-01-17 14:32:09,2025-01-17 14:38:43,393.862,0.125%,
253,2025-01-17 16:06:50,2025-01-17 16:13:28,398.012,0.126%,
254,2025-01-17 17:41:37,2025-01-17 17:48:13,395.281,0.125%,
255,2025-01-17 19:16:15,2025-01-17 19:22:57,402.817,0.128%,
256,2025-01-17 20:50:55,2025-01-17 20:57:42,407.03,0.129%,
257,2025-01-17 22:25:50,2025-01-17 22:32:27,396.878,0.126%,
258,2025-01-18 00:00:28,2025-01-18 00:07:11,402.939,0.128%,
259,2025-01-18 01:35:19,2025-01-18 01:41:56,396.854,0.126%,
260,2025-01-18 03:09:55,2025-01-18 03:16:40,404.748,0.128%,
261,2025-01-18 04:44:43,2025-01-18 04:51:24,401.684,0.127%,
262,2025-01-18 06:19:30,2025-01-18 06:26:09,398.352,0.126%,
263,2025-01-18 07:54:07,2025-01-18 08:00:53,405.678,0.129%,
264,2025-01-18 09:29:00,2025-01-18 09:35:37,396.809,0.126%,
265,2025-01-18 11:03:36,2025-01-18 11:10:21,405.103,0.129%,
266,2025-01-18 12:38:23,2025-01-18 12:45:05,401.838,0.127%,
267,2025-01-18 14:13:11,2025-01-18 14:19:49,398.324,0.126%,
268,2025-01-18 15:47:58,2025-01-18 15:54:34,395.077,0.125%,
269,2025-01-18 17:22:47,2025-01-18 17:29:18,391.858,0.124%,
270,2025-01-18 18:57:19,2025-01-18 19:04:03,403.899,0.128%,
271,2025-01-18 20:32:04,2025-01-18 20:38:48,403.937,0.128%,
272,2025-01-18 22:06:51,2025-01-18 22:13:32,401.116,0.127%,
273,2025-01-18 23:41:39,2025-01-18 23:48:17,398.006,0.126%,
274,2025-01-19 01:16:27,2025-01-19 01:23:01,394.547,0.125%,
275,2025-01-19 02:50:58,2025-01-19 02:57:46,407.469,0.129%,
276,2025-01-19 04:25:45,2025-01-19 04:32:30,405.55,0.129%,
277,2025-01-19 06:00:31,2025-01-19 06:07:14,402.894,0.128%,
278,2025-01-19 07:35:19,2025-01-19 07:41:59,399.173,0.127%,
279,2025-01-19 09:10:06,2025-01-19 09:16:43,396.944,0.126%,
280,2025-01-19 10:44:55,2025-01-19 10:51:27,391.543,0.124%,
281,2025-01-19 12:19:39,2025-01-19 12:26:11,391.606,0.124%,
282,2025-01-19 13:54:10,2025-01-19 14:00:55,404.522,0.128%,
283,2025-01-19 15:29:00,2025-01-19 15:35:39,399.318,0.127%,
284,2025-01-19 17:03:44,2025-01-19 17:10:24,400.297,0.127%,
285,2025-01-19 18:38:36,2025-01-19 18:45:09,393.305,0.125%,
286,2025-01-19 20:13:19,2025-01-19 20:19:54,394.642,0.125%,
287,2025-01-19 21:47:53,2025-01-19 21:54:38,404.981,0.128%,
288,2025-01-19 23:22:41,2025-01-19 23:29:23,402.159,0.128%,
289,2025-01-20 00:57:22,2025-01-20 01:04:07,404.646,0.128%,
290,2025-01-20 02:32:16,2025-01-20 02:38:52,395.636,0.126%,
291,2025-01-20 04:06:56,2025-01-20 04:13:36,399.57,0.127%,
292,2025-01-20 05:41:34,2025-01-20 05:48:20,406.293,0.129%,
293,2025-01-20 07:16:21,2025-01-20 07:23:04,403.235,0.128%,
294,2025-01-20 08:51:02,2025-01-20 08:57:49,406.987,0.129%,
295,2025-01-20 10:25:56,2025-01-20 10:32:33,396.343,0.126%,
296,2025-01-20 12:00:35,2025-01-20 12:07:17,401.986,0.128%,
297,2025-01-20 13:35:25,2025-01-20 13:42:01,395.385,0.125%,
298,2025-01-20 15:10:02,2025-01-20 15:16:45,403.172,0.128%,
299,2025-01-20 16:44:49,2025-01-20 16:51:30,400.657,0.127%,
300,2025-01-20 18:19:37,2025-01-20 18:26:15,397.835,0.126%,
301,2025-01-20 19:54:14,2025-01-20 20:00:59,405.669,0.129%,
302,2025-01-20 21:29:07,2025-01-20 21:35:44,397.201,0.126%,
303,2025-01-20 23:03:42,2025-01-20 23:10:28,405.956,0.129%,
304,2025-01-21 00:38:30,2025-01-21 00:45:13,403.126,0.128%,
305,2025-01-21 02:13:17,2025-01-21 02:19:57,400.04,0.127%,
306,2025-01-21 03:47:53,2025-01-21 03:54:42,408.845,0.130%,
307,2025-01-21 05:22:53,2025-01-21 05:29:26,392.882,0.125%,
308,2025-01-21 06:57:26,2025-01-21 07:04:10,404.424,0.128%,
309,2025-01-21 08:32:10,2025-01-21 08:38:54,403.923,0.128%,
310,2025-01-21 10:06:58,2025-01-21 10:13:38,400.633,0.127%,
311,2025-01-21 11:41:45,2025-01-21 11:48:23,397.071,0.126%,
312,2025-01-21 13:16:33,2025-01-21 13:23:07,393.174,0.125%,
313,2025-01-21 14:51:05,2025-01-21 14:57:51,405.854,0.129%,
314,2025-01-21 16:25:51,2025-01-21 16:32:36,404.446,0.128%,
315,2025-01-21 18:00:38,2025-01-21 18:07:20,402.355,0.128%,
316,2025-01-21 19:35:26,2025-01-21 19:42:05,399.075,0.127%,
317,2025-01-21 21:10:12,2025-01-21 21:16:50,397.397,0.126%,
318,2025-01-21 22:45:02,2025-01-21 22:51:34,392.368,0.124%,
319,2025-01-22 00:19:32,2025-01-22 00:19:46,13.966,0.004%,
320,2025-01-22 00:19:46,2025-01-22 00:26:19,392.824,0.125%,
321,2025-01-22 01:54:17,2025-01-22 02:01:03,406.212,0.129%,
322,2025-01-22 03:29:07,2025-01-22 03:35:47,400.952,0.127%,
323,2025-01-22 05:03:50,2025-01-22 05:10:32,401.429,0.127%,
324,2025-01-22 06:38:42,2025-01-22 06:45:16,393.872,0.125%,
325,2025-01-22 08:13:25,2025-01-22 08:20:00,394.828,0.125%,
326,2025-01-22 09:47:56,2025-01-22 09:54:44,408.197,0.129%,
327,2025-01-22 11:22:47,2025-01-22 11:29:28,401.274,0.127%,
328,2025-01-22 12:57:29,2025-01-22 13:04:12,403.353,0.128%,
329,2025-01-22 14:32:22,2025-01-22 14:38:56,393.929,0.125%,
330,2025-01-22 16:07:03,2025-01-22 16:13:41,398.477,0.126%,
331,2025-01-22 17:41:40,2025-01-22 17:48:26,405.635,0.129%,
332,2025-01-22 19:16:28,2025-01-22 19:23:11,403.069,0.128%,
333,2025-01-22 20:51:08,2025-01-22 20:57:55,407.316,0.129%,
334,2025-01-22 22:26:03,2025-01-22 22:32:40,397.101,0.126%,
335,2025-01-23 00:00:41,2025-01-23 00:07:24,403.214,0.128%,
336,2025-01-23 01:35:32,2025-01-23 01:42:09,396.964,0.126%,
337,2025-01-23 03:10:08,2025-01-23 03:16:53,404.874,0.128%,
338,2025-01-23 04:44:56,2025-01-23 04:51:38,401.798,0.127%,
339,2025-01-23 06:19:43,2025-01-23 06:26:22,398.457,0.126%,
340,2025-01-23 07:54:20,2025-01-23 08:01:06,405.818,0.129%,
341,2025-01-23 09:29:13,2025-01-23 09:35:50,396.813,0.126%,
342,2025-01-23 11:03:49,2025-01-23 11:10:34,405.124,0.129%,
343,2025-01-23 12:38:36,2025-01-23 12:45:18,401.849,0.127%,
344,2025-01-23 14:13:24,2025-01-23 14:20:02,398.329,0.126%,
345,2025-01-23 15:47:59,2025-01-23 15:54:47,407.635,0.129%,
346,2025-01-23 17:22:55,2025-01-23 17:29:32,397.125,0.126%,
347,2025-01-23 18:57:32,2025-01-23 19:04:17,404.239,0.128%,
348,2025-01-23 20:32:17,2025-01-23 20:39:01,404.162,0.128%,
349,2025-01-23 22:07:04,2025-01-23 22:13:46,401.325,0.127%,
350,2025-01-23 23:41:52,2025-01-23 23:48:30,398.203,0.126%,
351,2025-01-24 01:16:40,2025-01-24 01:23:15,394.736,0.125%,
352,2025-01-24 02:51:11,2025-01-24 02:57:59,407.664,0.129%,
353,2025-01-24 04:25:58,2025-01-24 04:32:43,405.655,0.129%,
354,2025-01-24 06:00:45,2025-01-24 06:07:28,403.085,0.128%,
355,2025-01-24 07:35:33,2025-01-24 07:42:12,399.261,0.127%,
356,2025-01-24 09:10:19,2025-01-24 09:16:56,397.186,0.126%,
357,2025-01-24 10:45:08,2025-01-24 10:51:40,391.621,0.124%,
358,2025-01-24 12:19:38,2025-01-24 12:26:24,405.643,0.129%,
359,2025-01-24 13:54:23,2025-01-24 14:01:08,404.587,0.128%,
360,2025-01-24 15:29:13,2025-01-24 15:35:53,399.649,0.127%,
361,2025-01-24 17:03:57,2025-01-24 17:10:38,400.706,0.127%,
362,2025-01-24 18:38:49,2025-01-24 18:45:22,393.602,0.125%,
363,2025-01-24 20:13:32,2025-01-24 20:20:07,395.142,0.125%,
364,2025-01-24 21:48:03,2025-01-24 21:54:52,408.856,0.130%,
365,2025-01-24 23:22:54,2025-01-24 23:29:36,402.34,0.128%,
366,2025-01-25 00:57:36,2025-01-25 01:04:20,404.888,0.128%,
367,2025-01-25 02:32:29,2025-01-25 02:39:05,395.8,0.126%,
368,2025-01-25 04:07:09,2025-01-25 04:13:49,399.833,0.127%,
369,2025-01-25 05:41:47,2025-01-25 05:48:33,406.378,0.129%,
370,2025-01-25 07:16:34,2025-01-25 07:23:18,403.308,0.128%,
371,2025-01-25 08:51:15,2025-01-25 08:58:02,407.103,0.129%,
372,2025-01-25 10:26:09,2025-01-25 10:32:46,396.401,0.126%,
373,2025-01-25 12:00:48,2025-01-25 12:07:30,402.1,0.128%,
374,2025-01-25 13:35:39,2025-01-25 13:42:14,395.337,0.125%,
375,2025-01-25 15:10:15,2025-01-25 15:16:58,403.496,0.128%,
376,2025-01-25 16:45:02,2025-01-25 16:51:43,400.953,0.127%,
377,2025-01-25 18:19:50,2025-01-25 18:26:28,398.115,0.126%,
378,2025-01-25 19:54:27,2025-01-25 20:01:13,405.977,0.129%,
379,2025-01-25 21:29:20,2025-01-25 21:35:57,397.366,0.126%,
380,2025-01-25 23:03:56,2025-01-25 23:10:42,406.133,0.129%,
381,2025-01-26 00:38:43,2025-01-26 00:45:26,403.288,0.128%,
382,2025-01-26 02:13:30,2025-01-26 02:20:11,400.187,0.127%,
383,2025-01-26 03:48:06,2025-01-26 03:54:55,409.016,0.130%,
384,2025-01-26 05:23:01,2025-01-26 05:29:39,397.916,0.126%,
385,2025-01-26 06:57:36,2025-01-26 07:04:23,407.046,0.129%,
386,2025-01-26 08:32:24,2025-01-26 08:39:08,403.977,0.128%,
387,2025-01-26 10:07:11,2025-01-26 10:13:52,400.676,0.127%,
388,2025-01-26 11:41:59,2025-01-26 11:48:36,397.106,0.126%,
389,2025-01-26 13:16:47,2025-01-26 13:23:20,393.207,0.125%,
390,2025-01-26 14:51:18,2025-01-26 14:58:04,406.249,0.129%,
391,2025-01-26 16:26:04,2025-01-26 16:32:49,404.738,0.128%,
392,2025-01-26 18:00:51,2025-01-26 18:07:34,402.722,0.128%,
393,2025-01-26 19:35:39,2025-01-26 19:42:18,399.33,0.127%,
394,2025-01-26 21:10:25,2025-01-26 21:17:03,397.797,0.126%,
395,2025-01-26 22:44:57,2025-01-26 22:44:58,0.523,0.000%,
396,2025-01-26 22:45:15,2025-01-26 22:51:48,392.601,0.125%,
397,2025-01-27 00:19:45,2025-01-27 00:26:32,407.023,0.129%,
398,2025-01-27 01:54:30,2025-01-27 02:01:16,406.426,0.129%,
399,2025-01-27 03:29:20,2025-01-27 03:36:01,401.08,0.127%,
400,2025-01-27 05:04:03,2025-01-27 05:10:45,401.647,0.127%,
401,2025-01-27 06:38:55,2025-01-27 06:45:29,393.989,0.125%,
402,2025-01-27 08:13:38,2025-01-27 08:20:13,395.15,0.125%,
403,2025-01-27 09:48:09,2025-01-27 09:54:58,408.29,0.130%,
404,2025-01-27 11:23:00,2025-01-27 11:29:42,401.294,0.127%,
405,2025-01-27 12:57:42,2025-01-27 13:04:26,403.438,0.128%,
406,2025-01-27 14:32:36,2025-01-27 14:39:10,394.298,0.125%,
407,2025-01-27 16:07:16,2025-01-27 16:13:55,398.926,0.127%,
408,2025-01-27 17:41:54,2025-01-27 17:48:40,405.898,0.129%,
409,2025-01-27 19:16:41,2025-01-27 19:23:24,403.311,0.128%,
410,2025-01-27 20:51:21,2025-01-27 20:58:09,407.594,0.129%,
411,2025-01-27 22:26:16,2025-01-27 22:32:53,397.314,0.126%,
412,2025-01-28 00:00:54,2025-01-28 00:07:38,403.48,0.128%,
413,2025-01-28 01:35:34,2025-01-28 01:35:38,3.711,0.001%,
414,2025-01-28 01:35:45,2025-01-28 01:42:22,397.065,0.126%,
415,2025-01-28 03:10:22,2025-01-28 03:17:07,404.993,0.128%,
416,2025-01-28 04:45:01,2025-01-28 04:51:51,410.281,0.130%,
417,2025-01-28 06:19:57,2025-01-28 06:26:35,398.555,0.126%,
418,2025-01-28 07:54:33,2025-01-28 08:01:19,405.952,0.129%,
419,2025-01-28 09:29:27,2025-01-28 09:36:03,396.81,0.126%,
420,2025-01-28 11:04:02,2025-01-28 11:10:47,405.138,0.129%,
421,2025-01-28 12:38:50,2025-01-28 12:45:31,401.852,0.127%,
422,2025-01-28 14:13:37,2025-01-28 14:20:16,398.605,0.126%,
423,2025-01-28 15:48:13,2025-01-28 15:55:00,407.996,0.129%,
424,2025-01-28 17:23:08,2025-01-28 17:29:45,397.354,0.126%,
425,2025-01-28 18:57:43,2025-01-28 19:04:30,406.983,0.129%,
426,2025-01-28 20:32:30,2025-01-28 20:39:15,404.378,0.128%,
427,2025-01-28 22:07:18,2025-01-28 22:13:59,401.525,0.127%,
428,2025-01-28 23:42:05,2025-01-28 23:48:44,398.389,0.126%,
429,2025-01-29 01:16:53,2025-01-29 01:23:28,394.922,0.125%,
430,2025-01-29 02:51:24,2025-01-29 02:58:12,407.852,0.129%,
431,2025-01-29 04:26:11,2025-01-29 04:32:57,405.753,0.129%,
432,2025-01-29 06:00:58,2025-01-29 06:07:41,403.268,0.128%,
433,2025-01-29 07:35:46,2025-01-29 07:42:25,399.335,0.127%,
434,2025-01-29 09:10:32,2025-01-29 09:17:09,397.414,0.126%,
435,2025-01-29 10:45:04,2025-01-29 10:51:53,409.392,0.130%,
436,2025-01-29 12:19:52,2025-01-29 12:26:37,405.638,0.129%,
437,2025-01-29 13:54:37,2025-01-29 14:01:21,404.8,0.128%,
438,2025-01-29 15:29:26,2025-01-29 15:36:06,399.969,0.127%,
439,2025-01-29 17:04:10,2025-01-29 17:10:51,401.107,0.127%,
440,2025-01-29 18:39:02,2025-01-29 18:45:36,393.89,0.125%,
441,2025-01-29 20:13:45,2025-01-29 20:20:20,395.621,0.126%,
442,2025-01-29 21:48:16,2025-01-29 21:55:05,409.107,0.130%,
443,2025-01-29 23:23:07,2025-01-29 23:29:49,402.517,0.128%,
444,2025-01-30 00:57:49,2025-01-30 01:04:34,405.122,0.129%,
445,2025-01-30 02:32:42,2025-01-30 02:39:18,395.959,0.126%,
446,2025-01-30 04:07:22,2025-01-30 04:14:02,400.084,0.127%,
447,2025-01-30 05:42:00,2025-01-30 05:48:47,406.455,0.129%,
448,2025-01-30 07:16:47,2025-01-30 07:23:31,403.374,0.128%,
449,2025-01-30 08:51:28,2025-01-30 08:58:15,407.211,0.129%,
450,2025-01-30 10:26:23,2025-01-30 10:32:59,396.451,0.126%,
451,2025-01-30 12:01:01,2025-01-30 12:07:43,402.206,0.128%,
452,2025-01-30 13:35:41,2025-01-30 13:42:27,406.108,0.129%,
453,2025-01-30 15:10:28,2025-01-30 15:17:12,403.808,0.128%,
454,2025-01-30 16:45:07,2025-01-30 16:51:57,409.637,0.130%,
455,2025-01-30 18:20:03,2025-01-30 18:26:41,398.385,0.126%,
456,2025-01-30 19:54:40,2025-01-30 20:01:26,406.274,0.129%,
457,2025-01-30 21:29:33,2025-01-30 21:36:11,397.521,0.126%,
458,2025-01-30 23:04:09,2025-01-30 23:10:55,406.301,0.129%,
459,2025-01-31 00:38:56,2025-01-31 00:45:40,403.441,0.128%,
460,2025-01-31 02:13:44,2025-01-31 02:20:24,400.332,0.127%,
461,2025-01-31 03:48:19,2025-01-31 03:55:08,409.179,0.130%,
462,2025-01-31 05:23:15,2025-01-31 05:29:52,397.958,0.126%,
463,2025-01-31 06:57:50,2025-01-31 07:04:37,407.104,0.129%,
464,2025-01-31 08:32:37,2025-01-31 08:39:21,404.023,0.128%,
465,2025-01-31 10:07:24,2025-01-31 10:14:05,400.712,0.127%,
466,2025-01-31 11:42:12,2025-01-31 11:48:49,397.136,0.126%,
467,2025-01-31 13:16:56,2025-01-31 13:23:33,396.953,0.126%,
468,2025-01-31 14:51:31,2025-01-31 14:58:18,406.631,0.129%,
469,2025-01-31 16:26:17,2025-01-31 16:33:02,405.018,0.128%,
470,2025-01-31 18:01:04,2025-01-31 18:07:47,403.077,0.128%,
471,2025-01-31 19:35:52,2025-01-31 19:42:32,399.571,0.127%,
472,2025-01-31 21:10:38,2025-01-31 21:17:16,398.18,0.126%,
473,2025-01-31 22:45:10,2025-01-31 22:52:01,410.525,0.130%,
474,2025-02-01 00:19:58,2025-02-01 00:26:45,407.168,0.129%,
475,2025-02-01 01:54:43,2025-02-01 02:01:30,406.63,0.129%,
476,2025-02-01 03:29:33,2025-02-01 03:36:14,401.199,0.127%,
477,2025-02-01 05:04:16,2025-02-01 05:10:58,401.858,0.127%,
478,2025-02-01 06:39:08,2025-02-01 06:45:42,394.095,0.125%,
479,2025-02-01 08:13:51,2025-02-01 08:20:27,395.452,0.125%,
480,2025-02-01 09:48:22,2025-02-01 09:55:11,408.378,0.130%,
481,2025-02-01 11:23:13,2025-02-01 11:29:55,401.31,0.127%,
482,2025-02-01 12:57:55,2025-02-01 13:04:39,403.514,0.128%,
483,2025-02-01 14:32:49,2025-02-01 14:39:23,394.653,0.125%,
484,2025-02-01 16:07:29,2025-02-01 16:14:08,399.357,0.127%,
485,2025-02-01 17:42:07,2025-02-01 17:48:53,406.149,0.129%,
486,2025-02-01 19:16:54,2025-02-01 19:23:38,403.545,0.128%,
487,2025-02-01 20:51:34,2025-02-01 20:58:22,407.861,0.129%,
488,2025-02-01 22:26:29,2025-02-01 22:33:07,397.517,0.126%,
489,2025-02-02 00:01:07,2025-02-02 00:07:51,403.735,0.128%,
490,2025-02-02 01:35:48,2025-02-02 01:42:36,407.973,0.129%,
491,2025-02-02 03:10:35,2025-02-02 03:17:20,405.103,0.129%,
492,2025-02-02 04:45:14,2025-02-02 04:52:04,410.418,0.130%,
493,2025-02-02 06:20:10,2025-02-02 06:26:48,398.642,0.126%,
494,2025-02-02 07:54:46,2025-02-02 08:01:32,406.076,0.129%,
495,2025-02-02 09:29:40,2025-02-02 09:36:17,396.799,0.126%,
496,2025-02-02 11:04:15,2025-02-02 11:11:01,405.145,0.129%,
497,2025-02-02 12:39:03,2025-02-02 12:45:45,401.848,0.127%,
498,2025-02-02 14:13:50,2025-02-02 14:20:29,398.944,0.127%,
499,2025-02-02 15:48:26,2025-02-02 15:55:14,408.345,0.130%,
500,2025-02-02 17:23:21,2025-02-02 17:29:59,397.571,0.126%,
501,2025-02-02 18:57:56,2025-02-02 19:04:43,407.207,0.129%,
502,2025-02-02 20:32:43,2025-02-02 20:39:28,404.584,0.128%,
503,2025-02-02 22:07:31,2025-02-02 22:14:12,401.716,0.127%,
504,2025-02-02 23:42:18,2025-02-02 23:48:57,398.571,0.126%,
505,2025-02-03 01:17:03,2025-02-03 01:23:41,398.773,0.126%,
506,2025-02-03 02:51:38,2025-02-03 02:58:26,408.029,0.129%,
507,2025-02-03 04:26:24,2025-02-03 04:33:10,405.843,0.129%,
508,2025-02-03 06:01:11,2025-02-03 06:07:54,403.44,0.128%,
509,2025-02-03 07:35:59,2025-02-03 07:42:38,399.404,0.127%,
510,2025-02-03 09:10:45,2025-02-03 09:17:22,397.627,0.126%,
511,2025-02-03 10:45:17,2025-02-03 10:52:06,409.454,0.130%,
512,2025-02-03 12:20:05,2025-02-03 12:26:50,405.626,0.129%,
513,2025-02-03 13:54:50,2025-02-03 14:01:35,405.202,0.129%,
514,2025-02-03 15:29:39,2025-02-03 15:36:20,400.277,0.127%,
515,2025-02-03 17:04:23,2025-02-03 17:11:04,401.487,0.127%,
516,2025-02-03 18:39:15,2025-02-03 18:45:49,394.163,0.125%,
517,2025-02-03 20:13:46,2025-02-03 20:13:51,5.308,0.002%,
518,2025-02-03 20:13:58,2025-02-03 20:20:34,396.074,0.126%,
519,2025-02-03 21:48:29,2025-02-03 21:55:18,409.346,0.130%,
520,2025-02-03 23:23:20,2025-02-03 23:30:03,402.684,0.128%,
521,2025-02-04 00:58:02,2025-02-04 01:04:47,405.342,0.129%,
522,2025-02-04 02:32:55,2025-02-04 02:39:31,396.108,0.126%,
523,2025-02-04 04:07:35,2025-02-04 04:14:16,400.319,0.127%,
524,2025-02-04 05:42:13,2025-02-04 05:49:00,406.525,0.129%,
525,2025-02-04 07:17:01,2025-02-04 07:23:44,403.434,0.128%,
526,2025-02-04 08:51:41,2025-02-04 08:58:28,407.31,0.129%,
527,2025-02-04 10:26:36,2025-02-04 10:33:12,396.491,0.126%,
528,2025-02-04 12:01:14,2025-02-04 12:07:56,402.301,0.128%,
529,2025-02-04 13:35:54,2025-02-04 13:42:41,406.433,0.129%,
530,2025-02-04 15:10:41,2025-02-04 15:17:25,404.105,0.128%,
531,2025-02-04 16:45:20,2025-02-04 16:52:10,409.952,0.130%,
532,2025-02-04 18:20:16,2025-02-04 18:26:55,398.638,0.126%,
533,2025-02-04 19:54:53,2025-02-04 20:01:39,406.558,0.129%,
534,2025-02-04 21:29:46,2025-02-04 21:36:24,397.666,0.126%,
535,2025-02-04 23:04:22,2025-02-04 23:11:08,406.459,0.129%,
536,2025-02-05 00:39:09,2025-02-05 00:45:53,403.585,0.128%,
537,2025-02-05 02:13:57,2025-02-05 02:20:37,400.463,0.127%,
538,2025-02-05 03:48:32,2025-02-05 03:55:22,409.336,0.130%,
539,2025-02-05 05:23:28,2025-02-05 05:30:06,397.993,0.126%,
540,2025-02-05 06:58:03,2025-02-05 07:04:50,407.154,0.129%,
541,2025-02-05 08:32:50,2025-02-05 08:39:34,404.061,0.128%,
542,2025-02-05 10:07:37,2025-02-05 10:14:18,400.743,0.127%,
543,2025-02-05 11:42:25,2025-02-05 11:49:02,397.155,0.126%,
544,2025-02-05 13:17:09,2025-02-05 13:23:46,397.143,0.126%,
545,2025-02-05 14:51:44,2025-02-05 14:58:31,406.996,0.129%,
546,2025-02-05 16:26:31,2025-02-05 16:33:16,405.286,0.129%,
547,2025-02-05 18:01:17,2025-02-05 18:08:01,403.418,0.128%,
548,2025-02-05 19:36:05,2025-02-05 19:42:45,399.8,0.127%,
549,2025-02-05 21:10:51,2025-02-05 21:17:30,398.545,0.126%,
550,2025-02-05 22:45:24,2025-02-05 22:52:14,410.739,0.130%,
551,2025-02-06 00:20:11,2025-02-06 00:26:59,407.305,0.129%,
552,2025-02-06 01:54:56,2025-02-06 02:01:43,406.823,0.129%,
553,2025-02-06 03:29:46,2025-02-06 03:36:27,401.313,0.127%,
554,2025-02-06 05:04:30,2025-02-06 05:11:12,402.052,0.128%,
555,2025-02-06 06:39:22,2025-02-06 06:45:56,394.195,0.125%,
556,2025-02-06 08:13:52,2025-02-06 08:14:03,10.604,0.003%,
557,2025-02-06 08:14:04,2025-02-06 08:20:40,395.726,0.126%,
558,2025-02-06 09:48:35,2025-02-06 09:55:24,408.454,0.130%,
559,2025-02-06 11:23:27,2025-02-06 11:30:08,401.318,0.127%,
560,2025-02-06 12:58:08,2025-02-06 13:04:52,403.704,0.128%,
561,2025-02-06 14:33:02,2025-02-06 14:39:37,394.992,0.125%,
562,2025-02-06 16:07:42,2025-02-06 16:14:22,399.77,0.127%,
563,2025-02-06 17:42:20,2025-02-06 17:49:06,406.389,0.129%,
564,2025-02-06 19:17:07,2025-02-06 19:23:51,403.766,0.128%,
565,2025-02-06 20:51:47,2025-02-06 20:58:36,408.116,0.129%,
566,2025-02-06 22:26:42,2025-02-06 22:33:20,397.711,0.126%,
567,2025-02-07 00:01:20,2025-02-07 00:08:04,403.98,0.128%,
568,2025-02-07 01:36:01,2025-02-07 01:42:49,408.088,0.129%,
569,2025-02-07 03:10:48,2025-02-07 03:17:33,405.205,0.129%,
570,2025-02-07 04:45:27,2025-02-07 04:52:17,410.549,0.130%,
571,2025-02-07 06:20:23,2025-02-07 06:27:02,398.724,0.126%,
572,2025-02-07 07:54:59,2025-02-07 08:01:46,406.19,0.129%,
573,2025-02-07 09:29:53,2025-02-07 09:36:30,396.781,0.126%,
574,2025-02-07 11:04:29,2025-02-07 11:11:14,405.145,0.129%,
575,2025-02-07 12:39:16,2025-02-07 12:45:58,401.836,0.127%,
576,2025-02-07 14:14:03,2025-02-07 14:20:43,399.272,0.127%,
577,2025-02-07 15:48:39,2025-02-07 15:55:27,408.68,0.130%,
578,2025-02-07 17:23:34,2025-02-07 17:30:12,397.777,0.126%,
579,2025-02-07 18:58:09,2025-02-07 19:04:57,407.421,0.129%,
580,2025-02-07 20:32:57,2025-02-07 20:39:41,404.78,0.128%,
581,2025-02-07 22:07:44,2025-02-07 22:14:26,401.897,0.127%,
582,2025-02-07 23:42:32,2025-02-07 23:49:10,398.74,0.126%,
583,2025-02-08 01:17:16,2025-02-08 01:23:55,398.855,0.127%,
584,2025-02-08 02:51:51,2025-02-08 02:58:39,408.197,0.129%,
585,2025-02-08 04:26:37,2025-02-08 04:33:23,405.924,0.129%,
586,2025-02-08 06:01:24,2025-02-08 06:08:07,403.604,0.128%,
587,2025-02-08 07:36:12,2025-02-08 07:42:51,399.465,0.127%,
588,2025-02-08 09:10:58,2025-02-08 09:17:36,397.824,0.126%,
589,2025-02-08 10:45:30,2025-02-08 10:52:20,409.507,0.130%,
590,2025-02-08 12:20:18,2025-02-08 12:27:04,405.606,0.129%,
591,2025-02-08 13:55:03,2025-02-08 14:01:48,405.591,0.129%,
592,2025-02-08 15:29:53,2025-02-08 15:36:33,400.569,0.127%,
593,2025-02-08 17:04:36,2025-02-08 17:11:18,401.854,0.127%,
594,2025-02-08 18:39:28,2025-02-08 18:46:03,394.427,0.125%,
595,2025-02-08 20:13:59,2025-02-08 20:14:10,10.784,0.003%,
596,2025-02-08 20:14:11,2025-02-08 20:20:47,396.502,0.126%,
597,2025-02-08 21:48:42,2025-02-08 21:55:32,409.577,0.130%,
598,2025-02-08 23:23:33,2025-02-08 23:30:16,402.843,0.128%,
599,2025-02-09 00:58:15,2025-02-09 01:05:00,405.555,0.129%,
600,2025-02-09 02:33:08,2025-02-09 02:39:45,396.246,0.126%,
601,2025-02-09 04:07:48,2025-02-09 04:14:29,400.548,0.127%,
602,2025-02-09 05:42:27,2025-02-09 05:49:13,406.587,0.129%,
603,2025-02-09 07:17:14,2025-02-09 07:23:57,403.485,0.128%,
604,2025-02-09 08:51:54,2025-02-09 08:58:41,407.4,0.129%,
605,2025-02-09 10:26:49,2025-02-09 10:33:25,396.525,0.126%,
606,2025-02-09 12:01:27,2025-02-09 12:08:09,402.389,0.128%,
607,2025-02-09 13:36:07,2025-02-09 13:42:54,406.746,0.129%,
608,2025-02-09 15:10:55,2025-02-09 15:17:39,404.392,0.128%,
609,2025-02-09 16:45:33,2025-02-09 16:52:24,410.256,0.130%,
610,2025-02-09 18:20:29,2025-02-09 18:27:08,398.887,0.127%,
611,2025-02-09 19:55:06,2025-02-09 20:01:53,406.832,0.129%,
612,2025-02-09 21:30:00,2025-02-09 21:36:37,397.803,0.126%,
613,2025-02-09 23:04:35,2025-02-09 23:11:22,406.61,0.129%,
614,2025-02-10 00:39:22,2025-02-10 00:46:06,403.722,0.128%,
615,2025-02-10 02:14:10,2025-02-10 02:20:51,400.59,0.127%,
616,2025-02-10 03:48:45,2025-02-10 03:55:35,409.479,0.130%,
617,2025-02-10 05:23:41,2025-02-10 05:30:19,398.02,0.126%,
618,2025-02-10 06:58:16,2025-02-10 07:05:03,407.196,0.129%,
619,2025-02-10 08:33:03,2025-02-10 08:39:47,404.092,0.128%,
620,2025-02-10 10:07:51,2025-02-10 10:14:31,400.761,0.127%,
621,2025-02-10 11:42:38,2025-02-10 11:49:15,397.17,0.126%,
622,2025-02-10 13:17:22,2025-02-10 13:24:00,397.424,0.126%,
623,2025-02-10 14:51:57,2025-02-10 14:58:45,407.351,0.129%,
624,2025-02-10 16:26:44,2025-02-10 16:33:29,405.544,0.129%,
625,2025-02-10 18:01:30,2025-02-10 18:08:14,403.747,0.128%,
626,2025-02-10 19:36:19,2025-02-10 19:42:59,400.024,0.127%,
627,2025-02-10 21:11:04,2025-02-10 21:17:43,398.895,0.127%,
628,2025-02-10 22:45:37,2025-02-10 22:52:28,410.944,0.130%,
629,2025-02-11 00:20:25,2025-02-11 00:27:12,407.434,0.129%,
630,2025-02-11 01:55:09,2025-02-11 02:01:56,407.009,0.129%,
631,2025-02-11 03:29:59,2025-02-11 03:36:41,401.414,0.127%,
632,2025-02-11 05:04:43,2025-02-11 05:11:25,402.239,0.128%,
633,2025-02-11 06:39:35,2025-02-11 06:46:09,394.288,0.125%,
634,2025-02-11 08:14:05,2025-02-11 08:14:11,5.991,0.002%,
635,2025-02-11 08:14:17,2025-02-11 08:20:53,395.985,0.126%,
636,2025-02-11 09:48:49,2025-02-11 09:55:37,408.52,0.130%,
637,2025-02-11 11:23:40,2025-02-11 11:30:21,401.319,0.127%,
638,2025-02-11 12:58:21,2025-02-11 13:05:06,404.118,0.128%,
639,2025-02-11 14:33:15,2025-02-11 14:39:50,395.317,0.125%,
640,2025-02-11 16:07:55,2025-02-11 16:14:35,400.174,0.127%,
641,2025-02-11 17:42:33,2025-02-11 17:49:20,406.619,0.129%,
642,2025-02-11 19:17:20,2025-02-11 19:24:04,403.978,0.128%,
643,2025-02-11 20:52:01,2025-02-11 20:58:49,408.363,0.130%,
644,2025-02-11 22:26:55,2025-02-11 22:33:33,397.896,0.126%,
645,2025-02-12 00:01:34,2025-02-12 00:08:18,404.215,0.128%,
646,2025-02-12 01:36:14,2025-02-12 01:43:02,408.196,0.129%,
647,2025-02-12 03:11:01,2025-02-12 03:17:46,405.299,0.129%,
648,2025-02-12 04:45:40,2025-02-12 04:52:31,410.672,0.130%,
649,2025-02-12 06:20:36,2025-02-12 06:27:15,398.798,0.127%,
650,2025-02-12 07:55:13,2025-02-12 08:01:59,406.298,0.129%,
651,2025-02-12 09:30:06,2025-02-12 09:36:43,396.756,0.126%,
652,2025-02-12 11:04:42,2025-02-12 11:11:27,405.137,0.129%,
653,2025-02-12 12:39:29,2025-02-12 12:46:11,402.174,0.128%,
654,2025-02-12 14:14:17,2025-02-12 14:20:56,399.585,0.127%,
655,2025-02-12 15:48:52,2025-02-12 15:55:41,409.001,0.130%,
656,2025-02-12 17:23:48,2025-02-12 17:30:26,397.973,0.126%,
657,2025-02-12 18:58:23,2025-02-12 19:05:10,407.626,0.129%,
658,2025-02-12 20:33:10,2025-02-12 20:39:55,404.967,0.128%,
659,2025-02-12 22:07:57,2025-02-12 22:14:39,402.071,0.128%,
660,2025-02-12 23:42:45,2025-02-12 23:49:24,398.905,0.127%,
661,2025-02-13 01:17:29,2025-02-13 01:24:08,398.929,0.127%,
662,2025-02-13 02:52:04,2025-02-13 02:58:52,408.358,0.130%,
663,2025-02-13 04:26:50,2025-02-13 04:33:36,405.999,0.129%,
664,2025-02-13 06:01:37,2025-02-13 06:08:21,403.757,0.128%,
665,2025-02-13 07:36:25,2025-02-13 07:43:05,399.521,0.127%,
666,2025-02-13 09:11:11,2025-02-13 09:17:49,398.012,0.126%,
667,2025-02-13 10:45:43,2025-02-13 10:52:33,409.553,0.130%,
668,2025-02-13 12:20:31,2025-02-13 12:27:17,405.808,0.129%,
669,2025-02-13 13:55:16,2025-02-13 14:02:02,405.966,0.129%,
670,2025-02-13 15:30:06,2025-02-13 15:36:47,400.852,0.127%,
671,2025-02-13 17:04:49,2025-02-13 17:11:31,402.209,0.128%,
672,2025-02-13 18:39:41,2025-02-13 18:46:16,394.681,0.125%,
673,2025-02-13 20:14:24,2025-02-13 20:21:00,396.912,0.126%,
674,2025-02-13 21:48:55,2025-02-13 21:55:45,409.797,0.130%,
675,2025-02-13 23:23:46,2025-02-13 23:30:29,402.993,0.128%,
676,2025-02-14 00:58:28,2025-02-14 01:05:14,405.758,0.129%,
677,2025-02-14 02:33:22,2025-02-14 02:39:58,396.376,0.126%,
678,2025-02-14 04:08:01,2025-02-14 04:14:42,400.762,0.127%,
679,2025-02-14 05:42:40,2025-02-14 05:49:26,406.641,0.129%,
680,2025-02-14 07:17:27,2025-02-14 07:24:11,403.528,0.128%,
681,2025-02-14 08:52:07,2025-02-14 08:58:55,407.483,0.129%,
682,2025-02-14 10:27:02,2025-02-14 10:33:39,396.553,0.126%,
683,2025-02-14 12:01:40,2025-02-14 12:08:23,402.566,0.128%,
684,2025-02-14 13:36:21,2025-02-14 13:43:08,407.046,0.129%,
685,2025-02-14 15:11:08,2025-02-14 15:17:52,404.667,0.128%,
686,2025-02-14 16:45:47,2025-02-14 16:52:37,410.548,0.130%,
687,2025-02-14 18:20:43,2025-02-14 18:27:22,399.125,0.127%,
688,2025-02-14 19:55:19,2025-02-14 20:02:06,407.096,0.129%,
689,2025-02-14 21:30:13,2025-02-14 21:36:51,397.931,0.126%,
690,2025-02-14 23:04:48,2025-02-14 23:11:35,406.751,0.129%,
691,2025-02-15 00:39:36,2025-02-15 00:46:20,403.85,0.128%,
692,2025-02-15 02:14:23,2025-02-15 02:21:04,400.707,0.127%,
693,2025-02-15 03:48:58,2025-02-15 03:55:48,409.615,0.130%,
694,2025-02-15 05:23:54,2025-02-15 05:30:32,398.04,0.126%,
695,2025-02-15 06:58:29,2025-02-15 07:05:16,407.232,0.129%,
696,2025-02-15 08:33:16,2025-02-15 08:40:00,404.115,0.128%,
697,2025-02-15 10:08:04,2025-02-15 10:14:44,400.774,0.127%,
698,2025-02-15 11:42:51,2025-02-15 11:49:28,397.175,0.126%,
699,2025-02-15 13:17:36,2025-02-15 13:24:13,397.692,0.126%,
700,2025-02-15 14:52:10,2025-02-15 14:58:58,407.691,0.129%,
701,2025-02-15 16:26:57,2025-02-15 16:33:43,405.789,0.129%,
702,2025-02-15 18:01:43,2025-02-15 18:08:27,404.062,0.128%,
703,2025-02-15 19:36:32,2025-02-15 19:43:12,400.234,0.127%,
704,2025-02-15 21:11:17,2025-02-15 21:17:57,399.232,0.127%,
705,2025-02-15 22:45:50,2025-02-15 22:52:41,411.138,0.130%,
706,2025-02-16 00:20:38,2025-02-16 00:27:25,407.554,0.129%,
707,2025-02-16 01:55:22,2025-02-16 02:02:10,407.184,0.129%,
708,2025-02-16 03:30:12,2025-02-16 03:36:54,401.51,0.127%,
709,2025-02-16 05:04:56,2025-02-16 05:11:38,402.413,0.128%,
710,2025-02-16 06:39:48,2025-02-16 06:46:22,394.37,0.125%,
711,2025-02-16 08:14:30,2025-02-16 08:21:06,396.222,0.126%,
712,2025-02-16 09:49:02,2025-02-16 09:55:50,408.58,0.130%,
713,2025-02-16 11:23:53,2025-02-16 11:30:34,401.312,0.127%,
714,2025-02-16 12:58:35,2025-02-16 13:05:19,404.514,0.128%,
715,2025-02-16 14:33:28,2025-02-16 14:40:04,395.631,0.126%,
716,2025-02-16 16:08:08,2025-02-16 16:14:49,400.557,0.127%,
717,2025-02-16 17:42:46,2025-02-16 17:49:33,406.838,0.129%,
718,2025-02-16 19:17:34,2025-02-16 19:24:18,404.179,0.128%,
719,2025-02-16 20:52:14,2025-02-16 20:59:02,408.598,0.130%,
720,2025-02-16 22:27:09,2025-02-16 22:33:47,398.074,0.126%,
721,2025-02-17 00:01:47,2025-02-17 00:08:31,404.436,0.128%,
722,2025-02-17 01:36:27,2025-02-17 01:43:15,408.296,0.130%,
723,2025-02-17 03:11:14,2025-02-17 03:18:00,405.386,0.129%,
724,2025-02-17 04:45:53,2025-02-17 04:52:44,410.784,0.130%,
725,2025-02-17 06:20:49,2025-02-17 06:27:28,398.867,0.127%,
726,2025-02-17 07:55:26,2025-02-17 08:02:12,406.394,0.129%,
727,2025-02-17 09:30:19,2025-02-17 09:36:56,396.724,0.126%,
728,2025-02-17 11:04:55,2025-02-17 11:11:40,405.121,0.129%,
729,2025-02-17 12:39:42,2025-02-17 12:46:25,402.498,0.128%,
730,2025-02-17 14:14:30,2025-02-17 14:21:10,399.887,0.127%,
731,2025-02-17 15:49:05,2025-02-17 15:55:54,409.31,0.130%,
732,2025-02-17 17:24:01,2025-02-17 17:30:39,398.159,0.126%,
733,2025-02-17 18:58:36,2025-02-17 19:05:24,407.82,0.129%,
734,2025-02-17 20:33:23,2025-02-17 20:40:08,405.145,0.129%,
735,2025-02-17 22:08:10,2025-02-17 22:14:53,402.234,0.128%,
736,2025-02-17 23:42:58,2025-02-17 23:49:37,399.057,0.127%,
737,2025-02-18 01:17:46,2025-02-18 01:24:21,395.555,0.125%,
738,2025-02-18 02:52:17,2025-02-18 02:59:05,408.507,0.130%,
739,2025-02-18 04:27:04,2025-02-18 04:33:50,406.065,0.129%,
740,2025-02-18 06:01:50,2025-02-18 06:08:34,403.899,0.128%,
741,2025-02-18 07:36:38,2025-02-18 07:43:18,399.567,0.127%,
742,2025-02-18 09:11:24,2025-02-18 09:18:02,398.18,0.126%,
743,2025-02-18 10:45:56,2025-02-18 10:46:09,13.128,0.004%,
744,2025-02-18 10:46:14,2025-02-18 10:52:46,391.887,0.124%,
745,2025-02-18 12:20:44,2025-02-18 12:27:30,406.127,0.129%,
746,2025-02-18 13:55:29,2025-02-18 14:02:15,406.325,0.129%,
747,2025-02-18 15:30:19,2025-02-18 15:37:00,401.122,0.127%,
748,2025-02-18 17:05:02,2025-02-18 17:11:45,402.547,0.128%,
749,2025-02-18 18:39:54,2025-02-18 18:46:29,394.925,0.125%,
750,2025-02-18 20:14:37,2025-02-18 20:21:14,397.297,0.126%,
751,2025-02-18 21:49:08,2025-02-18 21:55:58,410.007,0.130%,
752,2025-02-18 23:24:00,2025-02-18 23:30:43,403.133,0.128%,
753,2025-02-19 00:58:41,2025-02-19 01:05:27,405.95,0.129%,
754,2025-02-19 02:33:35,2025-02-19 02:40:11,396.499,0.126%,
755,2025-02-19 04:08:15,2025-02-19 04:14:55,400.961,0.127%,
756,2025-02-19 05:42:53,2025-02-19 05:49:40,406.688,0.129%,
757,2025-02-19 07:17:40,2025-02-19 07:24:24,403.563,0.128%,
758,2025-02-19 08:52:20,2025-02-19 08:59:08,407.555,0.129%,
759,2025-02-19 10:27:15,2025-02-19 10:33:52,396.57,0.126%,
760,2025-02-19 12:01:53,2025-02-19 12:08:36,402.986,0.128%,
761,2025-02-19 13:36:45,2025-02-19 13:43:21,396.41,0.126%,
762,2025-02-19 15:11:21,2025-02-19 15:18:06,404.929,0.128%,
763,2025-02-19 16:46:00,2025-02-19 16:46:02,2.66,0.001%,
764,2025-02-19 16:46:08,2025-02-19 16:52:50,402.278,0.128%,
765,2025-02-19 18:20:56,2025-02-19 18:27:35,399.355,0.127%,
766,2025-02-19 19:55:32,2025-02-19 20:02:20,407.347,0.129%,
767,2025-02-19 21:30:26,2025-02-19 21:37:04,398.05,0.126%,
768,2025-02-19 23:05:02,2025-02-19 23:11:48,406.887,0.129%,
769,2025-02-20 00:39:49,2025-02-20 00:46:33,403.969,0.128%,
770,2025-02-20 02:14:36,2025-02-20 02:21:17,400.815,0.127%,
771,2025-02-20 03:49:12,2025-02-20 03:56:01,409.742,0.130%,
772,2025-02-20 05:24:07,2025-02-20 05:30:45,398.052,0.126%,
773,2025-02-20 06:58:42,2025-02-20 07:05:30,407.259,0.129%,
774,2025-02-20 08:33:30,2025-02-20 08:40:14,404.131,0.128%,
775,2025-02-20 10:08:17,2025-02-20 10:14:58,400.78,0.127%,
776,2025-02-20 11:43:04,2025-02-20 11:49:42,397.5,0.126%,
777,2025-02-20 13:17:52,2025-02-20 13:24:27,394.544,0.125%,
778,2025-02-20 14:52:24,2025-02-20 14:59:12,408.017,0.129%,
779,2025-02-20 16:27:10,2025-02-20 16:33:56,406.024,0.129%,
780,2025-02-20 18:01:56,2025-02-20 18:08:41,404.364,0.128%,
781,2025-02-20 19:36:45,2025-02-20 19:43:25,400.437,0.127%,
782,2025-02-20 21:11:30,2025-02-20 21:18:10,399.549,0.127%,
783,2025-02-20 22:46:21,2025-02-20 22:52:54,393.621,0.125%,
784,2025-02-21 00:20:51,2025-02-21 00:27:39,407.666,0.129%,
785,2025-02-21 01:55:36,2025-02-21 02:02:23,407.349,0.129%,
786,2025-02-21 03:30:26,2025-02-21 03:37:07,401.598,0.127%,
787,2025-02-21 05:05:09,2025-02-21 05:11:51,402.576,0.128%,
788,2025-02-21 06:40:01,2025-02-21 06:46:35,394.446,0.125%,
789,2025-02-21 08:14:43,2025-02-21 08:21:19,396.441,0.126%,
790,2025-02-21 09:49:15,2025-02-21 09:56:03,408.631,0.130%,
791,2025-02-21 11:24:06,2025-02-21 11:30:48,401.497,0.127%,
792,2025-02-21 12:58:48,2025-02-21 13:05:33,404.895,0.128%,
793,2025-02-21 14:33:41,2025-02-21 14:40:17,395.931,0.126%,
794,2025-02-21 16:08:21,2025-02-21 16:15:02,400.924,0.127%,
795,2025-02-21 17:43:00,2025-02-21 17:49:47,407.05,0.129%,
796,2025-02-21 19:17:47,2025-02-21 19:24:31,404.371,0.128%,
797,2025-02-21 20:52:27,2025-02-21 20:59:16,408.822,0.130%,
798,2025-02-21 22:27:22,2025-02-21 22:34:00,398.24,0.126%,
799,2025-02-22 00:02:00,2025-02-22 00:08:44,404.648,0.128%,
800,2025-02-22 01:36:51,2025-02-22 01:43:29,397.45,0.126%,
801,2025-02-22 03:11:27,2025-02-22 03:18:13,405.464,0.129%,
802,2025-02-22 04:46:15,2025-02-22 04:52:57,402.321,0.128%,
803,2025-02-22 06:21:02,2025-02-22 06:27:41,398.927,0.127%,
804,2025-02-22 07:55:39,2025-02-22 08:02:25,406.482,0.129%,
805,2025-02-22 09:30:33,2025-02-22 09:37:09,396.684,0.126%,
806,2025-02-22 11:05:08,2025-02-22 11:11:53,405.172,0.129%,
807,2025-02-22 12:39:55,2025-02-22 12:46:38,402.812,0.128%,
808,2025-02-22 14:14:43,2025-02-22 14:21:23,400.175,0.127%,
809,2025-02-22 15:49:18,2025-02-22 15:56:08,409.607,0.130%,
810,2025-02-22 17:24:14,2025-02-22 17:30:52,398.335,0.126%,
811,2025-02-22 18:58:49,2025-02-22 19:05:37,408.006,0.129%,
812,2025-02-22 20:33:36,2025-02-22 20:40:21,405.313,0.129%,
813,2025-02-22 22:08:23,2025-02-22 22:15:06,402.392,0.128%,
814,2025-02-22 23:43:11,2025-02-22 23:49:50,399.201,0.127%,
815,2025-02-23 01:17:59,2025-02-23 01:24:34,395.691,0.126%,
816,2025-02-23 02:52:30,2025-02-23 02:59:19,408.648,0.130%,
817,2025-02-23 04:27:17,2025-02-23 04:34:03,406.124,0.129%,
818,2025-02-23 06:02:03,2025-02-23 06:08:47,404.031,0.128%,
819,2025-02-23 07:36:52,2025-02-23 07:43:31,399.604,0.127%,
820,2025-02-23 09:11:37,2025-02-23 09:18:15,398.337,0.126%,
821,2025-02-23 10:46:27,2025-02-23 10:52:59,391.917,0.124%,
822,2025-02-23 12:20:58,2025-02-23 12:27:44,406.432,0.129%,
823,2025-02-23 13:55:42,2025-02-23 14:02:29,406.672,0.129%,
824,2025-02-23 15:30:32,2025-02-23 15:37:13,401.382,0.127%,
825,2025-02-23 17:05:15,2025-02-23 17:11:58,402.874,0.128%,
826,2025-02-23 18:40:08,2025-02-23 18:46:43,395.156,0.125%,
827,2025-02-23 20:14:50,2025-02-23 20:21:27,397.667,0.126%,
828,2025-02-23 21:49:21,2025-02-23 21:56:12,410.206,0.130%,
829,2025-02-23 23:24:13,2025-02-23 23:30:56,403.266,0.128%,
830,2025-02-24 00:58:54,2025-02-24 01:05:40,406.133,0.129%,
831,2025-02-24 02:33:48,2025-02-24 02:40:25,396.613,0.126%,
832,2025-02-24 04:08:28,2025-02-24 04:15:09,401.151,0.127%,
833,2025-02-24 05:43:06,2025-02-24 05:49:53,406.73,0.129%,
834,2025-02-24 07:17:53,2025-02-24 07:24:37,403.591,0.128%,
835,2025-02-24 08:52:33,2025-02-24 08:59:21,407.621,0.129%,
836,2025-02-24 10:27:28,2025-02-24 10:34:05,396.581,0.126%,
837,2025-02-24 12:02:06,2025-02-24 12:08:50,403.393,0.128%,
838,2025-02-24 13:36:58,2025-02-24 13:43:35,396.655,0.126%,
839,2025-02-24 15:11:34,2025-02-24 15:18:19,405.181,0.129%,
840,2025-02-24 16:46:21,2025-02-24 16:53:04,402.515,0.128%,
841,2025-02-24 18:21:09,2025-02-24 18:27:48,399.573,0.127%,
842,2025-02-24 19:55:45,2025-02-24 20:02:33,407.589,0.129%,
843,2025-02-24 21:30:39,2025-02-24 21:37:17,398.161,0.126%,
844,2025-02-24 23:05:15,2025-02-24 23:12:02,407.012,0.129%,
845,2025-02-25 00:40:02,2025-02-25 00:46:46,404.084,0.128%,
846,2025-02-25 02:14:49,2025-02-25 02:21:30,400.916,0.127%,
847,2025-02-25 03:49:25,2025-02-25 03:56:15,409.861,0.130%,
848,2025-02-25 05:24:25,2025-02-25 05:30:59,393.68,0.125%,
849,2025-02-25 06:58:57,2025-02-25 07:05:43,405.352,0.129%,
850,2025-02-25 08:33:43,2025-02-25 08:40:27,404.139,0.128%,
851,2025-02-25 10:08:30,2025-02-25 10:15:11,400.778,0.127%,
852,2025-02-25 11:43:18,2025-02-25 11:49:55,397.842,0.126%,
853,2025-02-25 13:18:05,2025-02-25 13:24:40,394.867,0.125%,
854,2025-02-25 14:52:37,2025-02-25 14:59:25,408.333,0.130%,
855,2025-02-25 16:27:23,2025-02-25 16:34:10,406.25,0.129%,
856,2025-02-25 18:02:10,2025-02-25 18:08:54,404.657,0.128%,
857,2025-02-25 19:36:58,2025-02-25 19:43:39,400.629,0.127%,
858,2025-02-25 21:11:43,2025-02-25 21:18:23,399.859,0.127%,
859,2025-02-25 22:46:34,2025-02-25 22:53:08,393.799,0.125%,
860,2025-02-26 00:21:04,2025-02-26 00:21:09,5.201,0.002%,
861,2025-02-26 00:21:18,2025-02-26 00:27:52,393.591,0.125%,
862,2025-02-26 01:55:49,2025-02-26 02:02:36,407.507,0.129%,
863,2025-02-26 03:30:39,2025-02-26 03:37:20,401.678,0.127%,
864,2025-02-26 05:05:22,2025-02-26 05:12:05,402.731,0.128%,
865,2025-02-26 06:40:14,2025-02-26 06:46:49,394.512,0.125%,
866,2025-02-26 08:14:56,2025-02-26 08:21:33,396.647,0.126%,
867,2025-02-26 09:49:28,2025-02-26 09:56:17,408.673,0.130%,
868,2025-02-26 11:24:19,2025-02-26 11:31:01,401.834,0.127%,
869,2025-02-26 12:59:01,2025-02-26 13:05:46,405.265,0.129%,
870,2025-02-26 14:33:55,2025-02-26 14:40:31,396.223,0.126%,
871,2025-02-26 16:08:34,2025-02-26 16:15:15,401.281,0.127%,
872,2025-02-26 17:43:13,2025-02-26 17:50:00,407.25,0.129%,
873,2025-02-26 19:18:00,2025-02-26 19:24:45,404.554,0.128%,
874,2025-02-26 20:52:40,2025-02-26 20:59:29,409.039,0.130%,
875,2025-02-26 22:27:35,2025-02-26 22:34:13,398.4,0.126%,
876,2025-02-27 00:02:13,2025-02-27 00:08:58,404.851,0.128%,
877,2025-02-27 01:37:04,2025-02-27 01:43:42,397.504,0.126%,
878,2025-02-27 03:11:41,2025-02-27 03:18:26,405.536,0.129%,
879,2025-02-27 04:46:28,2025-02-27 04:53:10,402.381,0.128%,
880,2025-02-27 06:21:15,2025-02-27 06:27:54,398.974,0.127%,
881,2025-02-27 07:55:52,2025-02-27 08:02:38,406.564,0.129%,
882,2025-02-27 09:30:46,2025-02-27 09:37:22,396.637,0.126%,
883,2025-02-27 11:05:21,2025-02-27 11:12:07,405.499,0.129%,
884,2025-02-27 12:40:09,2025-02-27 12:46:52,403.112,0.128%,
885,2025-02-27 14:14:56,2025-02-27 14:21:36,400.453,0.127%,
886,2025-02-27 15:49:44,2025-02-27 15:56:21,397.489,0.126%,
887,2025-02-27 17:24:32,2025-02-27 17:31:06,394.167,0.125%,
888,2025-02-27 18:59:04,2025-02-27 19:05:50,406.297,0.129%,
889,2025-02-27 20:33:49,2025-02-27 20:40:35,405.474,0.129%,
890,2025-02-27 22:08:37,2025-02-27 22:15:19,402.536,0.128%,
891,2025-02-27 23:43:24,2025-02-27 23:50:03,399.337,0.127%,
892,2025-02-28 01:18:12,2025-02-28 01:24:48,395.822,0.126%,
893,2025-02-28 02:52:43,2025-02-28 02:59:32,408.782,0.130%,
894,2025-02-28 04:27:30,2025-02-28 04:34:16,406.176,0.129%,
895,2025-02-28 06:02:16,2025-02-28 06:09:00,404.156,0.128%,
896,2025-02-28 07:37:05,2025-02-28 07:43:44,399.635,0.127%,
897,2025-02-28 09:11:50,2025-02-28 09:18:28,398.487,0.126%,
898,2025-02-28 10:46:40,2025-02-28 10:53:13,392.239,0.124%,
899,2025-02-28 12:21:25,2025-02-28 12:27:57,392.537,0.125%,
900,2025-02-28 13:55:55,2025-02-28 14:02:42,407.007,0.129%,
901,2025-02-28 15:30:45,2025-02-28 15:37:27,401.631,0.127%,
902,2025-02-28 17:05:28,2025-02-28 17:12:12,403.19,0.128%,
903,2025-02-28 18:40:21,2025-02-28 18:46:56,395.381,0.125%,
904,2025-02-28 20:15:03,2025-02-28 20:21:41,398.021,0.126%,
905,2025-02-28 21:49:39,2025-02-28 21:56:25,406.33,0.129%,
906,2025-02-28 23:24:26,2025-02-28 23:31:09,403.391,0.128%,
907,2025-03-01 00:59:07,2025-03-01 01:05:54,406.308,0.129%,
908,2025-03-01 02:34:01,2025-03-01 02:40:38,396.722,0.126%,
909,2025-03-01 04:08:41,2025-03-01 04:15:22,401.332,0.127%,
910,2025-03-01 05:43:19,2025-03-01 05:43:20,0.727,0.000%,
911,2025-03-01 05:43:30,2025-03-01 05:50:06,396.408,0.126%,
912,2025-03-01 07:18:07,2025-03-01 07:24:50,403.612,0.128%,
913,2025-03-01 08:52:46,2025-03-01 08:59:34,407.678,0.129%,
914,2025-03-01 10:27:42,2025-03-01 10:34:18,396.757,0.126%,
915,2025-03-01 12:02:19,2025-03-01 12:09:03,403.786,0.128%,
916,2025-03-01 13:37:11,2025-03-01 13:43:48,396.887,0.126%,
917,2025-03-01 15:11:47,2025-03-01 15:18:33,405.422,0.129%,
918,2025-03-01 16:46:35,2025-03-01 16:53:17,402.734,0.128%,
919,2025-03-01 18:21:22,2025-03-01 18:28:02,399.781,0.127%,
920,2025-03-01 19:55:58,2025-03-01 20:02:46,407.822,0.129%,
921,2025-03-01 21:30:52,2025-03-01 21:30:55,2.759,0.001%,
922,2025-03-01 21:30:58,2025-03-01 21:37:31,392.862,0.125%,
923,2025-03-01 23:05:28,2025-03-01 23:12:15,407.129,0.129%,
924,2025-03-02 00:40:15,2025-03-02 00:46:59,404.188,0.128%,
925,2025-03-02 02:15:03,2025-03-02 02:21:44,401.009,0.127%,
926,2025-03-02 03:49:50,2025-03-02 03:56:28,397.556,0.126%,
927,2025-03-02 05:24:38,2025-03-02 05:31:12,393.76,0.125%,
928,2025-03-02 06:59:11,2025-03-02 07:05:56,405.449,0.129%,
929,2025-03-02 08:33:56,2025-03-02 08:40:40,404.14,0.128%,
930,2025-03-02 10:08:43,2025-03-02 10:15:24,400.815,0.127%,
931,2025-03-02 11:43:31,2025-03-02 11:50:09,398.167,0.126%,
932,2025-03-02 13:18:19,2025-03-02 13:24:54,395.178,0.125%,
933,2025-03-02 14:52:50,2025-03-02 14:59:38,408.636,0.130%,
934,2025-03-02 16:27:37,2025-03-02 16:34:23,406.464,0.129%,
935,2025-03-02 18:02:23,2025-03-02 18:09:08,404.937,0.128%,
936,2025-03-02 19:37:11,2025-03-02 19:43:52,400.814,0.127%,
937,2025-03-02 21:11:56,2025-03-02 21:18:37,400.151,0.127%,
938,2025-03-02 22:46:47,2025-03-02 22:53:21,393.967,0.125%,
939,2025-03-03 00:21:32,2025-03-03 00:28:05,393.668,0.125%,
940,2025-03-03 01:56:02,2025-03-03 02:02:49,407.655,0.129%,
941,2025-03-03 03:30:52,2025-03-03 03:37:34,401.751,0.127%,
942,2025-03-03 05:05:35,2025-03-03 05:12:18,402.875,0.128%,
943,2025-03-03 06:40:27,2025-03-03 06:47:02,394.572,0.125%,
944,2025-03-03 08:15:09,2025-03-03 08:21:46,396.834,0.126%,
945,2025-03-03 09:49:45,2025-03-03 09:56:30,404.613,0.128%,
946,2025-03-03 11:24:32,2025-03-03 11:31:15,402.148,0.128%,
947,2025-03-03 12:59:14,2025-03-03 13:05:59,405.618,0.129%,
948,2025-03-03 14:34:08,2025-03-03 14:40:44,396.501,0.126%,
949,2025-03-03 16:08:47,2025-03-03 16:15:29,401.625,0.127%,
950,2025-03-03 17:43:36,2025-03-03 17:50:13,397.07,0.126%,
951,2025-03-03 19:18:13,2025-03-03 19:24:58,404.728,0.128%,
952,2025-03-03 20:52:53,2025-03-03 20:59:42,409.244,0.130%,
953,2025-03-03 22:27:48,2025-03-03 22:34:27,398.55,0.126%,
954,2025-03-04 00:02:26,2025-03-04 00:09:11,405.043,0.128%,
955,2025-03-04 01:37:18,2025-03-04 01:43:55,397.55,0.126%,
956,2025-03-04 03:11:54,2025-03-04 03:18:39,405.599,0.129%,
957,2025-03-04 04:46:41,2025-03-04 04:53:24,402.433,0.128%,
958,2025-03-04 06:21:29,2025-03-04 06:28:08,399.02,0.127%,
959,2025-03-04 07:56:05,2025-03-04 08:02:52,406.634,0.129%,
960,2025-03-04 09:31:04,2025-03-04 09:37:36,391.227,0.124%,
961,2025-03-04 11:05:38,2025-03-04 11:12:20,402.217,0.128%,
962,2025-03-04 12:40:22,2025-03-04 12:47:05,403.398,0.128%,
963,2025-03-04 14:15:09,2025-03-04 14:21:50,400.717,0.127%,
964,2025-03-04 15:49:57,2025-03-04 15:56:35,397.74,0.126%,
965,2025-03-04 17:24:45,2025-03-04 17:31:19,394.405,0.125%,
966,2025-03-04 18:59:17,2025-03-04 19:06:04,406.545,0.129%,
967,2025-03-04 20:34:02,2025-03-04 20:40:48,405.625,0.129%,
968,2025-03-04 22:08:50,2025-03-04 22:15:32,402.673,0.128%,
969,2025-03-04 23:43:37,2025-03-04 23:50:17,399.462,0.127%,
970,2025-03-05 01:18:25,2025-03-05 01:25:01,395.943,0.126%,
971,2025-03-05 02:52:56,2025-03-05 02:53:01,5.115,0.002%,
972,2025-03-05 02:53:13,2025-03-05 02:59:45,392.036,0.124%,
973,2025-03-05 04:27:43,2025-03-05 04:34:29,406.219,0.129%,
974,2025-03-05 06:02:29,2025-03-05 06:09:13,404.269,0.128%,
975,2025-03-05 07:37:18,2025-03-05 07:43:58,399.656,0.127%,
976,2025-03-05 09:12:03,2025-03-05 09:18:42,398.618,0.126%,
977,2025-03-05 10:46:53,2025-03-05 10:53:26,392.6,0.125%,
978,2025-03-05 12:21:38,2025-03-05 12:28:11,392.798,0.125%,
979,2025-03-05 13:56:08,2025-03-05 14:02:56,407.327,0.129%,
980,2025-03-05 15:30:58,2025-03-05 15:37:40,401.869,0.127%,
981,2025-03-05 17:05:41,2025-03-05 17:12:25,403.491,0.128%,
982,2025-03-05 18:40:34,2025-03-05 18:47:09,395.592,0.125%,
983,2025-03-05 20:15:16,2025-03-05 20:21:54,398.353,0.126%,
984,2025-03-05 21:49:52,2025-03-05 21:56:38,406.459,0.129%,
985,2025-03-05 23:24:39,2025-03-05 23:31:23,403.507,0.128%,
986,2025-03-06 00:59:20,2025-03-06 01:06:07,406.471,0.129%,
987,2025-03-06 02:34:14,2025-03-06 02:40:51,396.82,0.126%,
988,2025-03-06 04:08:54,2025-03-06 04:15:35,401.501,0.127%,
989,2025-03-06 05:43:43,2025-03-06 05:50:19,396.401,0.126%,
990,2025-03-06 07:18:20,2025-03-06 07:25:03,403.624,0.128%,
991,2025-03-06 08:53:07,2025-03-06 08:59:47,400.234,0.127%,
992,2025-03-06 10:27:55,2025-03-06 10:34:32,397.104,0.126%,
993,2025-03-06 12:02:32,2025-03-06 12:09:17,404.161,0.128%,
994,2025-03-06 13:37:31,2025-03-06 13:44:01,390.625,0.124%,
995,2025-03-06 15:12:00,2025-03-06 15:18:46,405.652,0.129%,
996,2025-03-06 16:46:48,2025-03-06 16:53:31,402.946,0.128%,
997,2025-03-06 18:21:35,2025-03-06 18:28:15,399.974,0.127%,
998,2025-03-06 19:56:12,2025-03-06 20:03:00,408.042,0.129%,
999,2025-03-06 21:31:11,2025-03-06 21:37:44,393.045,0.125%,
1000,2025-03-06 23:05:45,2025-03-06 23:12:28,403.695,0.128%,
1001,2025-03-07 00:40:28,2025-03-07 00:47:13,404.283,0.128%,
1002,2025-03-07 02:15:16,2025-03-07 02:21:57,401.093,0.127%,
