3UCubedIntegratedSim/Reports & Plots/North Cusp @ 1 Degree/CSV/Sat13.csv

Number,Coverage Start (UTCG),Coverage End (UTCG),Duration (sec),Percent,
1,2025-01-01 16:29:00,2025-01-01 16:31:43,163.217,0.052%,
2,2025-01-01 18:03:43,2025-01-01 18:03:48,4.463,0.001%,
3,2025-01-01 18:04:12,2025-01-01 18:06:28,135.672,0.043%,
4,2025-01-01 19:38:54,2025-01-01 19:41:12,137.913,0.044%,
5,2025-01-01 21:13:13,2025-01-01 21:13:29,16.048,0.005%,
6,2025-01-01 21:13:37,2025-01-01 21:15:57,139.784,0.044%,
7,2025-01-01 22:47:53,2025-01-01 22:50:41,168.475,0.053%,
8,2025-01-02 00:22:30,2025-01-02 00:25:25,175.339,0.056%,
9,2025-01-02 01:57:08,2025-01-02 01:57:17,8.842,0.003%,
10,2025-01-02 01:57:38,2025-01-02 02:00:10,151.237,0.048%,
11,2025-01-02 03:32:21,2025-01-02 03:34:54,153.042,0.049%,
12,2025-01-02 05:07:04,2025-01-02 05:09:38,154.527,0.049%,
13,2025-01-02 06:41:46,2025-01-02 06:44:22,155.775,0.049%,
14,2025-01-02 08:16:29,2025-01-02 08:19:06,156.825,0.050%,
15,2025-01-02 09:51:12,2025-01-02 09:53:50,157.707,0.050%,
16,2025-01-02 11:25:56,2025-01-02 11:28:35,158.843,0.050%,
17,2025-01-02 13:00:34,2025-01-02 13:03:19,165.261,0.052%,
18,2025-01-02 14:35:14,2025-01-02 14:38:04,169.656,0.054%,
19,2025-01-02 16:09:50,2025-01-02 16:12:49,178.708,0.057%,
20,2025-01-02 17:44:49,2025-01-02 17:47:33,164.19,0.052%,
21,2025-01-02 19:19:33,2025-01-02 19:19:35,2.109,0.001%,
22,2025-01-02 19:20:00,2025-01-02 19:22:18,137.649,0.044%,
23,2025-01-02 20:54:43,2025-01-02 20:57:02,139.56,0.044%,
24,2025-01-02 22:29:22,2025-01-02 22:31:47,145.212,0.046%,
25,2025-01-03 00:04:03,2025-01-03 00:06:31,148.621,0.047%,
26,2025-01-03 01:38:44,2025-01-03 01:41:15,150.977,0.048%,
27,2025-01-03 03:13:16,2025-01-03 03:16:00,163.527,0.052%,
28,2025-01-03 04:47:56,2025-01-03 04:50:44,168.106,0.053%,
29,2025-01-03 06:22:33,2025-01-03 06:25:28,174.969,0.056%,
30,2025-01-03 07:57:11,2025-01-03 08:00:12,180.666,0.057%,
31,2025-01-03 09:32:18,2025-01-03 09:34:56,157.606,0.050%,
32,2025-01-03 11:07:02,2025-01-03 11:09:40,158.63,0.050%,
33,2025-01-03 12:41:45,2025-01-03 12:44:25,160.215,0.051%,
34,2025-01-03 14:16:28,2025-01-03 14:19:10,161.64,0.051%,
35,2025-01-03 15:51:12,2025-01-03 15:53:55,162.916,0.052%,
36,2025-01-03 17:25:55,2025-01-03 17:28:39,164.053,0.052%,
37,2025-01-03 19:00:37,2025-01-03 19:03:24,166.472,0.053%,
38,2025-01-03 20:35:18,2025-01-03 20:35:46,28.001,0.009%,
39,2025-01-03 20:35:49,2025-01-03 20:38:08,139.334,0.044%,
40,2025-01-03 22:09:53,2025-01-03 22:12:53,179.395,0.057%,
41,2025-01-03 23:44:33,2025-01-03 23:44:50,16.763,0.005%,
42,2025-01-03 23:45:09,2025-01-03 23:47:37,148.26,0.047%,
43,2025-01-04 01:19:51,2025-01-04 01:22:21,150.708,0.048%,
44,2025-01-04 02:54:33,2025-01-04 02:57:05,152.612,0.048%,
45,2025-01-04 04:29:15,2025-01-04 04:31:50,154.173,0.049%,
46,2025-01-04 06:03:58,2025-01-04 06:06:34,155.476,0.049%,
47,2025-01-04 07:38:41,2025-01-04 07:41:18,156.574,0.050%,
48,2025-01-04 09:13:19,2025-01-04 09:16:02,162.617,0.052%,
49,2025-01-04 10:47:59,2025-01-04 10:50:46,167.05,0.053%,
50,2025-01-04 12:22:36,2025-01-04 12:25:31,174.877,0.056%,
51,2025-01-04 13:57:15,2025-01-04 14:00:16,181.127,0.057%,
52,2025-01-04 15:32:18,2025-01-04 15:35:00,162.756,0.052%,
53,2025-01-04 17:07:01,2025-01-04 17:09:45,163.917,0.052%,
54,2025-01-04 18:41:45,2025-01-04 18:44:30,164.945,0.052%,
55,2025-01-04 20:16:28,2025-01-04 20:19:14,165.859,0.053%,
56,2025-01-04 21:51:35,2025-01-04 21:53:58,143.899,0.046%,
57,2025-01-04 23:26:02,2025-01-04 23:26:13,10.506,0.003%,
58,2025-01-04 23:26:15,2025-01-04 23:28:43,147.887,0.047%,
59,2025-01-05 01:00:40,2025-01-05 01:03:27,166.65,0.053%,
60,2025-01-05 02:35:21,2025-01-05 02:38:11,170.422,0.054%,
61,2025-01-05 04:09:56,2025-01-05 04:12:55,179.147,0.057%,
62,2025-01-05 05:44:36,2025-01-05 05:47:40,183.356,0.058%,
63,2025-01-05 07:19:47,2025-01-05 07:22:24,156.44,0.050%,
64,2025-01-05 08:54:30,2025-01-05 08:57:08,157.385,0.050%,
65,2025-01-05 10:29:13,2025-01-05 10:31:52,158.192,0.050%,
66,2025-01-05 12:03:57,2025-01-05 12:06:37,159.824,0.051%,
67,2025-01-05 13:38:40,2025-01-05 13:41:21,161.287,0.051%,
68,2025-01-05 15:13:22,2025-01-05 15:16:06,163.738,0.052%,
69,2025-01-05 16:48:02,2025-01-05 16:50:51,168.626,0.054%,
70,2025-01-05 18:22:39,2025-01-05 18:25:35,176.31,0.056%,
71,2025-01-05 19:57:18,2025-01-05 20:00:20,182.105,0.058%,
72,2025-01-05 21:31:58,2025-01-05 21:35:04,185.901,0.059%,
73,2025-01-05 23:07:21,2025-01-05 23:09:49,147.493,0.047%,
74,2025-01-06 00:42:03,2025-01-06 00:44:33,150.145,0.048%,
75,2025-01-06 02:16:45,2025-01-06 02:19:17,152.162,0.048%,
76,2025-01-06 03:51:28,2025-01-06 03:54:01,153.8,0.049%,
77,2025-01-06 05:26:05,2025-01-06 05:28:45,160.245,0.051%,
78,2025-01-06 07:00:44,2025-01-06 07:03:30,165.951,0.053%,
79,2025-01-06 08:35:24,2025-01-06 08:38:14,169.463,0.054%,
80,2025-01-06 10:09:59,2025-01-06 10:12:58,178.057,0.057%,
81,2025-01-06 11:44:39,2025-01-06 11:47:42,182.865,0.058%,
82,2025-01-06 13:19:17,2025-01-06 13:19:18,0.861,0.000%,
83,2025-01-06 13:19:46,2025-01-06 13:22:27,161.112,0.051%,
84,2025-01-06 14:54:29,2025-01-06 14:57:12,162.437,0.052%,
85,2025-01-06 16:29:13,2025-01-06 16:31:56,163.628,0.052%,
86,2025-01-06 18:03:56,2025-01-06 18:06:41,164.692,0.052%,
87,2025-01-06 19:38:40,2025-01-06 19:41:26,165.634,0.053%,
88,2025-01-06 21:13:24,2025-01-06 21:16:10,166.467,0.053%,
89,2025-01-06 22:48:05,2025-01-06 22:50:54,169.082,0.054%,
90,2025-01-07 00:22:42,2025-01-07 00:25:39,176.684,0.056%,
91,2025-01-07 01:57:21,2025-01-07 02:00:23,182.096,0.058%,
92,2025-01-07 03:32:01,2025-01-07 03:35:07,185.62,0.059%,
93,2025-01-07 05:07:16,2025-01-07 05:09:51,155.002,0.049%,
94,2025-01-07 06:41:59,2025-01-07 06:44:35,156.17,0.050%,
95,2025-01-07 08:16:42,2025-01-07 08:19:19,157.159,0.050%,
96,2025-01-07 09:51:25,2025-01-07 09:54:03,157.986,0.050%,
97,2025-01-07 11:26:08,2025-01-07 11:28:48,159.853,0.051%,
98,2025-01-07 13:00:47,2025-01-07 13:03:33,166.134,0.053%,
99,2025-01-07 14:35:27,2025-01-07 14:38:18,170.311,0.054%,
100,2025-01-07 16:10:03,2025-01-07 16:13:02,179.665,0.057%,
101,2025-01-07 17:44:43,2025-01-07 17:47:47,184.193,0.058%,
102,2025-01-07 19:19:20,2025-01-07 19:22:31,190.87,0.061%,
103,2025-01-07 20:54:29,2025-01-07 20:57:16,166.368,0.053%,
104,2025-01-07 22:29:13,2025-01-07 22:32:00,167.11,0.053%,
105,2025-01-08 00:03:57,2025-01-08 00:04:14,17.693,0.006%,
106,2025-01-08 00:04:15,2025-01-08 00:06:44,149.541,0.047%,
107,2025-01-08 01:38:57,2025-01-08 01:41:29,151.685,0.048%,
108,2025-01-08 03:13:29,2025-01-08 03:16:13,164.37,0.052%,
109,2025-01-08 04:48:08,2025-01-08 04:50:57,168.627,0.054%,
110,2025-01-08 06:22:45,2025-01-08 06:25:41,176.159,0.056%,
111,2025-01-08 07:57:24,2025-01-08 08:00:25,181.227,0.058%,
112,2025-01-08 09:32:05,2025-01-08 09:35:09,184.497,0.059%,
113,2025-01-08 11:06:41,2025-01-08 11:06:47,6.428,0.002%,
114,2025-01-08 11:07:15,2025-01-08 11:09:54,159.215,0.051%,
115,2025-01-08 12:41:58,2025-01-08 12:44:39,160.745,0.051%,
116,2025-01-08 14:16:41,2025-01-08 14:19:23,162.113,0.051%,
117,2025-01-08 15:51:25,2025-01-08 15:54:08,163.335,0.052%,
118,2025-01-08 17:26:08,2025-01-08 17:28:53,164.429,0.052%,
119,2025-01-08 19:00:50,2025-01-08 19:03:37,167.228,0.053%,
120,2025-01-08 20:35:30,2025-01-08 20:38:22,171.079,0.054%,
121,2025-01-08 22:10:06,2025-01-08 22:13:06,180.242,0.057%,
122,2025-01-08 23:44:46,2025-01-08 23:47:50,184.454,0.059%,
123,2025-01-09 01:19:23,2025-01-09 01:22:35,191.097,0.061%,
124,2025-01-09 02:54:46,2025-01-09 02:57:19,153.205,0.049%,
125,2025-01-09 04:29:28,2025-01-09 04:32:03,154.666,0.049%,
126,2025-01-09 06:04:11,2025-01-09 06:06:47,155.889,0.049%,
127,2025-01-09 07:38:54,2025-01-09 07:41:31,156.922,0.050%,
128,2025-01-09 09:13:32,2025-01-09 09:16:15,163.363,0.052%,
129,2025-01-09 10:48:12,2025-01-09 10:50:59,167.842,0.053%,
130,2025-01-09 12:22:48,2025-01-09 12:25:44,176.269,0.056%,
131,2025-01-09 13:57:27,2025-01-09 14:00:29,181.93,0.058%,
132,2025-01-09 15:32:08,2025-01-09 15:35:14,185.849,0.059%,
133,2025-01-09 17:06:44,2025-01-09 17:09:58,194.475,0.062%,
134,2025-01-09 18:41:58,2025-01-09 18:44:43,165.285,0.052%,
135,2025-01-09 20:16:41,2025-01-09 20:19:27,166.16,0.053%,
136,2025-01-09 21:51:25,2025-01-09 21:54:12,166.927,0.053%,
137,2025-01-09 23:26:08,2025-01-09 23:28:56,167.595,0.053%,
138,2025-01-10 01:00:52,2025-01-10 01:03:40,168.164,0.053%,
139,2025-01-10 02:35:33,2025-01-10 02:38:25,171.351,0.054%,
140,2025-01-10 04:10:09,2025-01-10 04:13:09,179.896,0.057%,
141,2025-01-10 05:44:49,2025-01-10 05:47:53,183.826,0.058%,
142,2025-01-10 07:19:26,2025-01-10 07:22:37,190.439,0.060%,
143,2025-01-10 08:54:05,2025-01-10 08:54:14,8.763,0.003%,
144,2025-01-10 08:54:43,2025-01-10 08:57:21,157.685,0.050%,
145,2025-01-10 10:29:26,2025-01-10 10:32:05,158.798,0.050%,
146,2025-01-10 12:04:10,2025-01-10 12:06:50,160.366,0.051%,
147,2025-01-10 13:38:53,2025-01-10 13:41:35,161.776,0.051%,
148,2025-01-10 15:13:35,2025-01-10 15:16:20,164.713,0.052%,
149,2025-01-10 16:48:15,2025-01-10 16:51:04,169.295,0.054%,
150,2025-01-10 18:22:51,2025-01-10 18:25:49,177.544,0.056%,
151,2025-01-10 19:57:30,2025-01-10 20:00:33,182.801,0.058%,
152,2025-01-10 21:32:11,2025-01-10 21:35:18,186.413,0.059%,
153,2025-01-10 23:06:47,2025-01-10 23:10:02,194.869,0.062%,
154,2025-01-11 00:41:58,2025-01-11 00:44:46,168.095,0.053%,
155,2025-01-11 02:16:42,2025-01-11 02:19:30,168.582,0.054%,
156,2025-01-11 03:51:40,2025-01-11 03:54:15,154.316,0.049%,
157,2025-01-11 05:26:17,2025-01-11 05:28:59,161.424,0.051%,
158,2025-01-11 07:00:56,2025-01-11 07:03:43,166.523,0.053%,
159,2025-01-11 08:35:36,2025-01-11 08:38:27,171.215,0.054%,
160,2025-01-11 10:10:12,2025-01-11 10:13:11,178.962,0.057%,
161,2025-01-11 11:44:52,2025-01-11 11:47:56,183.598,0.058%,
162,2025-01-11 13:19:29,2025-01-11 13:22:41,191.103,0.061%,
163,2025-01-11 14:54:08,2025-01-11 14:57:25,196.844,0.062%,
164,2025-01-11 16:29:26,2025-01-11 16:32:10,164.025,0.052%,
165,2025-01-11 18:04:09,2025-01-11 18:06:54,165.044,0.052%,
166,2025-01-11 19:38:53,2025-01-11 19:41:39,165.945,0.053%,
167,2025-01-11 21:13:37,2025-01-11 21:16:23,166.739,0.053%,
168,2025-01-11 22:48:18,2025-01-11 22:51:08,169.655,0.054%,
169,2025-01-12 00:22:54,2025-01-12 00:25:52,177.781,0.056%,
170,2025-01-12 01:57:33,2025-01-12 02:00:36,182.699,0.058%,
171,2025-01-12 03:32:14,2025-01-12 03:35:20,186.047,0.059%,
172,2025-01-12 05:06:50,2025-01-12 05:10:04,194.364,0.062%,
173,2025-01-12 06:41:30,2025-01-12 06:41:39,8.457,0.003%,
174,2025-01-12 06:42:12,2025-01-12 06:44:49,156.545,0.050%,
175,2025-01-12 08:16:55,2025-01-12 08:19:33,157.473,0.050%,
176,2025-01-12 09:51:38,2025-01-12 09:54:17,158.366,0.050%,
177,2025-01-12 11:26:20,2025-01-12 11:29:02,161.246,0.051%,
178,2025-01-12 13:00:59,2025-01-12 13:03:46,166.956,0.053%,
179,2025-01-12 14:35:38,2025-01-12 14:38:31,172.884,0.055%,
180,2025-01-12 16:10:15,2025-01-12 16:13:16,180.547,0.057%,
181,2025-01-12 17:44:55,2025-01-12 17:48:00,184.81,0.059%,
182,2025-01-12 19:19:32,2025-01-12 19:22:45,192.181,0.061%,
183,2025-01-12 20:54:12,2025-01-12 20:57:29,197.515,0.063%,
184,2025-01-12 22:29:26,2025-01-12 22:32:13,167.35,0.053%,
185,2025-01-13 00:04:10,2025-01-13 00:06:58,167.954,0.053%,
186,2025-01-13 01:38:54,2025-01-13 01:41:42,168.465,0.053%,
187,2025-01-13 03:13:37,2025-01-13 03:16:26,168.884,0.054%,
188,2025-01-13 04:48:21,2025-01-13 04:51:10,169.214,0.054%,
189,2025-01-13 06:22:57,2025-01-13 06:25:54,177.142,0.056%,
190,2025-01-13 07:57:37,2025-01-13 08:00:38,181.745,0.058%,
191,2025-01-13 09:32:18,2025-01-13 09:35:22,184.845,0.059%,
192,2025-01-13 11:06:53,2025-01-13 11:10:07,194.006,0.062%,
193,2025-01-13 12:41:33,2025-01-13 12:42:07,33.332,0.011%,
194,2025-01-13 12:42:11,2025-01-13 12:44:52,161.254,0.051%,
195,2025-01-13 14:16:54,2025-01-13 14:19:37,162.565,0.052%,
196,2025-01-13 15:51:38,2025-01-13 15:54:21,163.746,0.052%,
197,2025-01-13 17:26:21,2025-01-13 17:29:06,164.794,0.052%,
198,2025-01-13 19:01:03,2025-01-13 19:03:50,167.937,0.053%,
199,2025-01-13 20:35:41,2025-01-13 20:38:35,173.997,0.055%,
200,2025-01-13 22:10:18,2025-01-13 22:13:19,181.019,0.057%,
201,2025-01-13 23:44:59,2025-01-13 23:48:04,184.981,0.059%,
202,2025-01-14 01:19:36,2025-01-14 01:22:48,192.261,0.061%,
203,2025-01-14 02:54:15,2025-01-14 02:57:32,197.246,0.063%,
204,2025-01-14 04:28:56,2025-01-14 04:29:01,5.566,0.002%,
205,2025-01-14 04:29:27,2025-01-14 04:32:16,169.18,0.054%,
206,2025-01-14 06:04:11,2025-01-14 06:04:20,9.435,0.003%,
207,2025-01-14 06:04:24,2025-01-14 06:07:00,156.281,0.050%,
208,2025-01-14 07:39:07,2025-01-14 07:41:44,157.254,0.050%,
209,2025-01-14 09:13:44,2025-01-14 09:16:28,164.034,0.052%,
210,2025-01-14 10:48:24,2025-01-14 10:51:13,168.6,0.054%,
211,2025-01-14 12:23:00,2025-01-14 12:25:58,177.478,0.056%,
212,2025-01-14 13:57:40,2025-01-14 14:00:43,182.689,0.058%,
213,2025-01-14 15:32:21,2025-01-14 15:35:27,186.555,0.059%,
214,2025-01-14 17:06:56,2025-01-14 17:10:12,195.356,0.062%,
215,2025-01-14 18:41:37,2025-01-14 18:44:56,199.599,0.063%,
216,2025-01-14 20:16:54,2025-01-14 20:19:41,166.451,0.053%,
217,2025-01-14 21:51:38,2025-01-14 21:54:25,167.178,0.053%,
218,2025-01-14 23:26:22,2025-01-14 23:29:09,167.808,0.053%,
219,2025-01-15 01:01:05,2025-01-15 01:03:54,168.345,0.053%,
220,2025-01-15 02:35:44,2025-01-15 02:38:38,174.093,0.055%,
221,2025-01-15 04:10:21,2025-01-15 04:13:22,180.58,0.057%,
222,2025-01-15 05:45:02,2025-01-15 05:48:06,184.272,0.058%,
223,2025-01-15 07:19:39,2025-01-15 07:22:50,191.475,0.061%,
224,2025-01-15 08:54:18,2025-01-15 08:57:34,196.135,0.062%,
225,2025-01-15 10:28:59,2025-01-15 10:29:28,28.882,0.009%,
226,2025-01-15 10:29:39,2025-01-15 10:32:19,159.381,0.051%,
227,2025-01-15 12:04:23,2025-01-15 12:07:04,160.89,0.051%,
228,2025-01-15 13:39:06,2025-01-15 13:41:48,162.242,0.051%,
229,2025-01-15 15:13:47,2025-01-15 15:16:33,165.612,0.053%,
230,2025-01-15 16:48:28,2025-01-15 16:51:17,169.932,0.054%,
231,2025-01-15 18:23:03,2025-01-15 18:26:02,178.613,0.057%,
232,2025-01-15 19:57:43,2025-01-15 20:00:46,183.454,0.058%,
233,2025-01-15 21:32:23,2025-01-15 21:35:31,187.934,0.060%,
234,2025-01-15 23:07:00,2025-01-15 23:10:15,195.645,0.062%,
235,2025-01-16 00:41:40,2025-01-16 00:44:59,199.591,0.063%,
236,2025-01-16 02:16:19,2025-01-16 02:16:21,2.139,0.001%,
237,2025-01-16 02:16:55,2025-01-16 02:19:44,168.734,0.054%,
238,2025-01-16 03:51:39,2025-01-16 03:54:28,169.098,0.054%,
239,2025-01-16 05:26:22,2025-01-16 05:29:12,169.375,0.054%,
240,2025-01-16 07:01:06,2025-01-16 07:03:56,169.562,0.054%,
241,2025-01-16 08:35:47,2025-01-16 08:38:40,173.293,0.055%,
242,2025-01-16 10:10:25,2025-01-16 10:13:24,179.911,0.057%,
243,2025-01-16 11:45:05,2025-01-16 11:48:09,184.302,0.058%,
244,2025-01-16 13:19:42,2025-01-16 13:22:54,192.344,0.061%,
245,2025-01-16 14:54:21,2025-01-16 14:57:39,197.588,0.063%,
246,2025-01-16 16:29:02,2025-01-16 16:32:23,201.29,0.064%,
247,2025-01-16 18:04:22,2025-01-16 18:07:08,165.381,0.052%,
248,2025-01-16 19:39:06,2025-01-16 19:41:52,166.244,0.053%,
249,2025-01-16 21:13:50,2025-01-16 21:16:37,167.001,0.053%,
250,2025-01-16 22:48:31,2025-01-16 22:51:21,170.197,0.054%,
251,2025-01-17 00:23:06,2025-01-17 00:26:05,178.736,0.057%,
252,2025-01-17 01:57:46,2025-01-17 02:00:49,183.262,0.058%,
253,2025-01-17 03:32:26,2025-01-17 03:35:34,188.057,0.060%,
254,2025-01-17 05:07:03,2025-01-17 05:10:18,195.043,0.062%,
255,2025-01-17 06:41:43,2025-01-17 06:45:02,198.724,0.063%,
256,2025-01-17 08:16:22,2025-01-17 08:16:46,24.137,0.008%,
257,2025-01-17 08:16:56,2025-01-17 08:19:46,169.659,0.054%,
258,2025-01-17 09:51:51,2025-01-17 09:54:30,158.965,0.050%,
259,2025-01-17 11:26:33,2025-01-17 11:29:15,162.46,0.052%,
260,2025-01-17 13:01:12,2025-01-17 13:04:00,167.727,0.053%,
261,2025-01-17 14:35:50,2025-01-17 14:38:44,174.908,0.056%,
262,2025-01-17 16:10:28,2025-01-17 16:13:29,181.366,0.058%,
263,2025-01-17 17:45:08,2025-01-17 17:48:14,185.401,0.059%,
264,2025-01-17 19:19:45,2025-01-17 19:22:58,193.28,0.061%,
265,2025-01-17 20:54:24,2025-01-17 20:57:42,198.156,0.063%,
266,2025-01-17 22:29:05,2025-01-17 22:32:27,201.57,0.064%,
267,2025-01-18 00:04:23,2025-01-18 00:07:11,168.152,0.053%,
268,2025-01-18 01:39:07,2025-01-18 01:41:55,168.627,0.054%,
269,2025-01-18 03:13:50,2025-01-18 03:16:39,169.013,0.054%,
270,2025-01-18 04:48:34,2025-01-18 04:51:24,169.573,0.054%,
271,2025-01-18 06:23:10,2025-01-18 06:26:08,177.99,0.056%,
272,2025-01-18 07:57:49,2025-01-18 08:00:52,182.224,0.058%,
273,2025-01-18 09:32:28,2025-01-18 09:35:36,187.565,0.060%,
274,2025-01-18 11:07:06,2025-01-18 11:10:21,194.936,0.062%,
275,2025-01-18 12:41:46,2025-01-18 12:45:05,199.287,0.063%,
276,2025-01-18 14:16:25,2025-01-18 14:19:50,205.304,0.065%,
277,2025-01-18 15:51:51,2025-01-18 15:54:35,164.135,0.052%,
278,2025-01-18 17:26:34,2025-01-18 17:29:19,165.142,0.052%,
279,2025-01-18 19:01:15,2025-01-18 19:04:04,168.599,0.054%,
280,2025-01-18 20:35:52,2025-01-18 20:38:48,175.732,0.056%,
281,2025-01-18 22:10:31,2025-01-18 22:13:33,181.734,0.058%,
282,2025-01-18 23:45:11,2025-01-18 23:48:17,185.48,0.059%,
283,2025-01-19 01:19:48,2025-01-19 01:23:01,193.235,0.061%,
284,2025-01-19 02:54:27,2025-01-19 02:57:45,197.797,0.063%,
285,2025-01-19 04:29:08,2025-01-19 04:32:29,200.956,0.064%,
286,2025-01-19 06:03:45,2025-01-19 06:04:02,16.855,0.005%,
287,2025-01-19 06:04:24,2025-01-19 06:07:13,169.504,0.054%,
288,2025-01-19 07:39:08,2025-01-19 07:41:57,169.641,0.054%,
289,2025-01-19 09:13:52,2025-01-19 09:16:42,169.911,0.054%,
290,2025-01-19 10:48:37,2025-01-19 10:51:26,169.32,0.054%,
291,2025-01-19 12:23:13,2025-01-19 12:26:11,178.552,0.057%,
292,2025-01-19 13:57:53,2025-01-19 14:00:56,183.406,0.058%,
293,2025-01-19 15:32:31,2025-01-19 15:35:41,189.409,0.060%,
294,2025-01-19 17:07:09,2025-01-19 17:10:25,196.161,0.062%,
295,2025-01-19 18:41:49,2025-01-19 18:45:10,200.173,0.064%,
296,2025-01-19 20:16:28,2025-01-19 20:19:54,206.145,0.065%,
297,2025-01-19 21:51:51,2025-01-19 21:54:38,167.414,0.053%,
298,2025-01-19 23:26:35,2025-01-19 23:29:23,168.01,0.053%,
299,2025-01-20 01:01:18,2025-01-20 01:04:07,168.512,0.053%,
300,2025-01-20 02:35:55,2025-01-20 02:38:51,175.6,0.056%,
301,2025-01-20 04:10:34,2025-01-20 04:13:35,181.204,0.058%,
302,2025-01-20 05:45:15,2025-01-20 05:48:19,184.689,0.059%,
303,2025-01-20 07:19:51,2025-01-20 07:23:03,192.34,0.061%,
304,2025-01-20 08:54:31,2025-01-20 08:57:47,196.692,0.062%,
305,2025-01-20 10:29:12,2025-01-20 10:32:32,200.59,0.064%,
306,2025-01-20 12:03:48,2025-01-20 12:04:24,35.848,0.011%,
307,2025-01-20 12:04:36,2025-01-20 12:07:17,161.391,0.051%,
308,2025-01-20 13:39:19,2025-01-20 13:42:02,162.691,0.052%,
309,2025-01-20 15:14:00,2025-01-20 15:16:46,166.442,0.053%,
310,2025-01-20 16:48:40,2025-01-20 16:51:31,170.535,0.054%,
311,2025-01-20 18:23:16,2025-01-20 18:26:15,179.559,0.057%,
312,2025-01-20 19:57:56,2025-01-20 20:01:00,184.067,0.058%,
313,2025-01-20 21:32:34,2025-01-20 21:35:44,190.099,0.060%,
314,2025-01-20 23:07:12,2025-01-20 23:10:28,196.349,0.062%,
315,2025-01-21 00:41:53,2025-01-21 00:45:13,200.076,0.063%,
316,2025-01-21 02:16:31,2025-01-21 02:19:57,206.028,0.065%,
317,2025-01-21 03:51:10,2025-01-21 03:51:15,5.623,0.002%,
318,2025-01-21 03:51:52,2025-01-21 03:54:41,169.207,0.054%,
319,2025-01-21 05:26:36,2025-01-21 05:29:25,169.455,0.054%,
320,2025-01-21 07:01:19,2025-01-21 07:04:09,169.614,0.054%,
321,2025-01-21 08:35:58,2025-01-21 08:38:53,174.614,0.055%,
322,2025-01-21 10:10:37,2025-01-21 10:13:38,180.792,0.057%,
323,2025-01-21 11:45:18,2025-01-21 11:48:23,184.972,0.059%,
324,2025-01-21 13:19:54,2025-01-21 13:23:07,193.429,0.061%,
325,2025-01-21 14:54:34,2025-01-21 14:57:52,198.284,0.063%,
326,2025-01-21 16:29:15,2025-01-21 16:32:37,201.829,0.064%,
327,2025-01-21 18:03:51,2025-01-21 18:07:21,209.792,0.067%,
328,2025-01-21 19:39:19,2025-01-21 19:42:06,166.527,0.053%,
329,2025-01-21 21:14:03,2025-01-21 21:16:50,167.247,0.053%,
330,2025-01-21 22:48:44,2025-01-21 22:51:34,170.708,0.054%,
331,2025-01-22 00:23:19,2025-01-22 00:26:18,179.575,0.057%,
332,2025-01-22 01:57:59,2025-01-22 02:01:03,183.786,0.058%,
333,2025-01-22 03:32:37,2025-01-22 03:35:47,189.849,0.060%,
334,2025-01-22 05:07:15,2025-01-22 05:10:31,195.66,0.062%,
335,2025-01-22 06:41:56,2025-01-22 06:45:15,199.127,0.063%,
336,2025-01-22 08:16:34,2025-01-22 08:19:59,205.053,0.065%,
337,2025-01-22 09:51:13,2025-01-22 09:51:36,22.806,0.007%,
338,2025-01-22 09:51:53,2025-01-22 09:54:44,170.506,0.054%,
339,2025-01-22 11:26:37,2025-01-22 11:29:28,171.374,0.054%,
340,2025-01-22 13:01:25,2025-01-22 13:04:13,168.458,0.053%,
341,2025-01-22 14:36:01,2025-01-22 14:38:58,176.375,0.056%,
342,2025-01-22 16:10:40,2025-01-22 16:13:42,182.123,0.058%,
343,2025-01-22 17:45:21,2025-01-22 17:48:27,185.961,0.059%,
344,2025-01-22 19:19:57,2025-01-22 19:23:11,194.235,0.062%,
345,2025-01-22 20:54:37,2025-01-22 20:57:56,198.752,0.063%,
346,2025-01-22 22:29:18,2025-01-22 22:32:40,202.017,0.064%,
347,2025-01-23 00:03:54,2025-01-23 00:07:24,209.831,0.067%,
348,2025-01-23 01:39:20,2025-01-23 01:42:08,168.778,0.054%,
349,2025-01-23 03:14:04,2025-01-23 03:16:53,169.13,0.054%,
350,2025-01-23 04:48:47,2025-01-23 04:51:37,170.001,0.054%,
351,2025-01-23 06:23:22,2025-01-23 06:26:21,178.729,0.057%,
352,2025-01-23 07:58:02,2025-01-23 08:01:05,182.665,0.058%,
353,2025-01-23 09:32:40,2025-01-23 09:35:49,189.437,0.060%,
354,2025-01-23 11:07:18,2025-01-23 11:10:34,195.802,0.062%,
355,2025-01-23 12:41:59,2025-01-23 12:45:19,199.935,0.063%,
356,2025-01-23 14:16:37,2025-01-23 14:20:04,206.713,0.066%,
357,2025-01-23 15:51:16,2025-01-23 15:51:55,38.8,0.012%,
358,2025-01-23 15:52:04,2025-01-23 15:54:48,164.51,0.052%,
359,2025-01-23 17:26:47,2025-01-23 17:29:33,165.472,0.053%,
360,2025-01-23 19:01:28,2025-01-23 19:04:17,169.224,0.054%,
361,2025-01-23 20:36:04,2025-01-23 20:39:02,177.033,0.056%,
362,2025-01-23 22:10:43,2025-01-23 22:13:46,182.393,0.058%,
363,2025-01-23 23:45:24,2025-01-23 23:48:30,185.951,0.059%,
364,2025-01-24 01:20:00,2025-01-24 01:23:14,194.085,0.062%,
365,2025-01-24 02:54:40,2025-01-24 02:57:58,198.307,0.063%,
366,2025-01-24 04:29:21,2025-01-24 04:32:43,201.322,0.064%,
367,2025-01-24 06:03:58,2025-01-24 06:07:27,209.004,0.066%,
368,2025-01-24 07:38:38,2025-01-24 07:38:44,6.52,0.002%,
369,2025-01-24 07:39:21,2025-01-24 07:42:11,169.67,0.054%,
370,2025-01-24 09:14:05,2025-01-24 09:16:55,170.263,0.054%,
371,2025-01-24 10:48:49,2025-01-24 10:51:40,171.162,0.054%,
372,2025-01-24 12:23:25,2025-01-24 12:26:25,179.523,0.057%,
373,2025-01-24 13:58:05,2025-01-24 14:01:09,184.084,0.058%,
374,2025-01-24 15:32:43,2025-01-24 15:35:54,191.026,0.061%,
375,2025-01-24 17:07:22,2025-01-24 17:10:38,196.91,0.062%,
376,2025-01-24 18:42:02,2025-01-24 18:45:23,200.717,0.064%,
377,2025-01-24 20:16:40,2025-01-24 20:20:07,207.388,0.066%,
378,2025-01-24 21:51:19,2025-01-24 21:54:52,212.532,0.067%,
379,2025-01-24 23:26:48,2025-01-24 23:29:36,168.205,0.053%,
380,2025-01-25 01:01:31,2025-01-25 01:04:20,169.033,0.054%,
381,2025-01-25 02:36:08,2025-01-25 02:39:04,176.754,0.056%,
382,2025-01-25 04:10:47,2025-01-25 04:13:48,181.776,0.058%,
383,2025-01-25 05:45:27,2025-01-25 05:48:32,185.078,0.059%,
384,2025-01-25 07:20:03,2025-01-25 07:23:16,193.092,0.061%,
385,2025-01-25 08:54:43,2025-01-25 08:58:01,197.478,0.063%,
386,2025-01-25 10:29:24,2025-01-25 10:32:46,201.217,0.064%,
387,2025-01-25 12:04:01,2025-01-25 12:07:30,209.701,0.067%,
388,2025-01-25 13:38:41,2025-01-25 13:39:02,20.65,0.007%,
389,2025-01-25 13:39:23,2025-01-25 13:39:25,2.61,0.001%,
390,2025-01-25 13:39:32,2025-01-25 13:42:15,163.121,0.052%,
391,2025-01-25 15:14:12,2025-01-25 15:17:00,167.217,0.053%,
392,2025-01-25 16:48:53,2025-01-25 16:51:44,171.413,0.054%,
393,2025-01-25 18:23:28,2025-01-25 18:26:29,180.412,0.057%,
394,2025-01-25 19:58:08,2025-01-25 20:01:13,184.645,0.059%,
395,2025-01-25 21:32:46,2025-01-25 21:35:57,191.52,0.061%,
396,2025-01-25 23:07:25,2025-01-25 23:10:42,197.002,0.063%,
397,2025-01-26 00:42:05,2025-01-26 00:45:26,200.533,0.064%,
398,2025-01-26 02:16:43,2025-01-26 02:20:10,207.13,0.066%,
399,2025-01-26 03:51:22,2025-01-26 03:54:54,211.936,0.067%,
400,2025-01-26 05:26:49,2025-01-26 05:29:38,169.518,0.054%,
401,2025-01-26 07:01:33,2025-01-26 07:04:22,169.651,0.054%,
402,2025-01-26 08:36:11,2025-01-26 08:39:07,175.96,0.056%,
403,2025-01-26 10:10:50,2025-01-26 10:13:51,181.625,0.058%,
404,2025-01-26 11:45:31,2025-01-26 11:48:36,185.612,0.059%,
405,2025-01-26 13:20:06,2025-01-26 13:23:21,194.405,0.062%,
406,2025-01-26 14:54:47,2025-01-26 14:58:05,198.946,0.063%,
407,2025-01-26 16:29:28,2025-01-26 16:32:50,202.344,0.064%,
408,2025-01-26 18:04:04,2025-01-26 18:07:34,210.616,0.067%,
409,2025-01-26 19:38:44,2025-01-26 19:39:18,33.551,0.011%,
410,2025-01-26 19:39:32,2025-01-26 19:42:19,166.796,0.053%,
411,2025-01-26 21:14:16,2025-01-26 21:17:03,167.583,0.053%,
412,2025-01-26 22:48:55,2025-01-26 22:51:48,172.479,0.055%,
413,2025-01-27 00:23:31,2025-01-27 00:26:32,180.33,0.057%,
414,2025-01-27 01:58:12,2025-01-27 02:01:16,184.279,0.058%,
415,2025-01-27 03:32:49,2025-01-27 03:36:00,191.103,0.061%,
416,2025-01-27 05:07:28,2025-01-27 05:10:44,196.226,0.062%,
417,2025-01-27 06:42:09,2025-01-27 06:45:28,199.506,0.063%,
418,2025-01-27 08:16:46,2025-01-27 08:20:12,206.222,0.065%,
419,2025-01-27 09:51:25,2025-01-27 09:54:57,211.684,0.067%,
420,2025-01-27 11:26:50,2025-01-27 11:29:42,171.656,0.054%,
421,2025-01-27 13:01:34,2025-01-27 13:04:27,172.368,0.055%,
422,2025-01-27 14:36:14,2025-01-27 14:39:11,177.597,0.056%,
423,2025-01-27 16:10:53,2025-01-27 16:13:56,182.837,0.058%,
424,2025-01-27 17:45:34,2025-01-27 17:48:40,186.495,0.059%,
425,2025-01-27 19:20:10,2025-01-27 19:23:25,195.098,0.062%,
426,2025-01-27 20:54:50,2025-01-27 20:58:09,199.318,0.063%,
427,2025-01-27 22:29:30,2025-01-27 22:32:53,203.033,0.064%,
428,2025-01-28 00:04:07,2025-01-28 00:07:38,210.557,0.067%,
429,2025-01-28 01:38:47,2025-01-28 01:39:33,45.207,0.014%,
430,2025-01-28 01:39:33,2025-01-28 01:42:22,168.915,0.054%,
431,2025-01-28 03:14:17,2025-01-28 03:17:06,169.238,0.054%,
432,2025-01-28 04:48:58,2025-01-28 04:51:50,172.29,0.055%,
433,2025-01-28 06:23:35,2025-01-28 06:26:34,179.396,0.057%,
434,2025-01-28 07:58:15,2025-01-28 08:01:18,183.141,0.058%,
435,2025-01-28 09:32:52,2025-01-28 09:36:03,190.894,0.061%,
436,2025-01-28 11:07:31,2025-01-28 11:10:48,196.617,0.062%,
437,2025-01-28 12:42:12,2025-01-28 12:45:32,200.554,0.064%,
438,2025-01-28 14:16:49,2025-01-28 14:20:17,207.889,0.066%,
439,2025-01-28 15:51:29,2025-01-28 15:55:02,212.929,0.068%,
440,2025-01-28 17:26:10,2025-01-28 17:26:20,10.334,0.003%,
441,2025-01-28 17:27:00,2025-01-28 17:29:46,165.793,0.053%,
442,2025-01-28 19:01:41,2025-01-28 19:04:30,169.817,0.054%,
443,2025-01-28 20:36:17,2025-01-28 20:39:15,178.121,0.057%,
444,2025-01-28 22:10:56,2025-01-28 22:13:59,183.012,0.058%,
445,2025-01-28 23:45:37,2025-01-28 23:48:43,186.398,0.059%,
446,2025-01-29 01:20:13,2025-01-29 01:23:28,194.851,0.062%,
447,2025-01-29 02:54:53,2025-01-29 02:58:12,198.789,0.063%,
448,2025-01-29 04:29:33,2025-01-29 04:32:56,202.847,0.064%,
449,2025-01-29 06:04:10,2025-01-29 06:07:40,209.643,0.067%,
450,2025-01-29 07:38:51,2025-01-29 07:42:24,213.169,0.068%,
451,2025-01-29 09:14:18,2025-01-29 09:17:09,170.599,0.054%,
452,2025-01-29 10:49:00,2025-01-29 10:51:53,173.01,0.055%,
453,2025-01-29 12:23:38,2025-01-29 12:26:38,180.424,0.057%,
454,2025-01-29 13:58:18,2025-01-29 14:01:23,184.731,0.059%,
455,2025-01-29 15:32:55,2025-01-29 15:36:07,192.309,0.061%,
456,2025-01-29 17:07:34,2025-01-29 17:10:52,197.612,0.063%,
457,2025-01-29 18:42:15,2025-01-29 18:45:36,201.236,0.064%,
458,2025-01-29 20:16:52,2025-01-29 20:20:21,208.433,0.066%,
459,2025-01-29 21:51:32,2025-01-29 21:55:05,213.129,0.068%,
460,2025-01-29 23:26:13,2025-01-29 23:26:33,20.043,0.006%,
461,2025-01-29 23:27:01,2025-01-29 23:29:49,168.38,0.053%,
462,2025-01-30 01:01:44,2025-01-30 01:04:33,169.539,0.054%,
463,2025-01-30 02:36:20,2025-01-30 02:39:18,177.73,0.056%,
464,2025-01-30 04:10:59,2025-01-30 04:14:02,182.31,0.058%,
465,2025-01-30 05:45:40,2025-01-30 05:48:46,185.446,0.059%,
466,2025-01-30 07:20:16,2025-01-30 07:23:30,193.762,0.061%,
467,2025-01-30 08:54:56,2025-01-30 08:58:14,198.229,0.063%,
468,2025-01-30 10:29:36,2025-01-30 10:32:59,203.451,0.065%,
469,2025-01-30 12:04:13,2025-01-30 12:07:44,210.575,0.067%,
470,2025-01-30 13:38:54,2025-01-30 13:42:29,214.732,0.068%,
471,2025-01-30 15:14:20,2025-01-30 15:17:13,173.296,0.055%,
472,2025-01-30 16:49:03,2025-01-30 16:51:58,174.384,0.055%,
473,2025-01-30 18:23:41,2025-01-30 18:26:42,181.202,0.058%,
474,2025-01-30 19:58:21,2025-01-30 20:01:26,185.194,0.059%,
475,2025-01-30 21:32:58,2025-01-30 21:36:11,192.66,0.061%,
476,2025-01-30 23:07:37,2025-01-30 23:10:55,197.612,0.063%,
477,2025-01-31 00:42:18,2025-01-31 00:45:39,200.97,0.064%,
478,2025-01-31 02:16:55,2025-01-31 02:20:23,208.061,0.066%,
479,2025-01-31 03:51:35,2025-01-31 03:55:07,212.448,0.067%,
480,2025-01-31 05:26:16,2025-01-31 05:26:44,28.479,0.009%,
481,2025-01-31 05:27:02,2025-01-31 05:29:51,169.574,0.054%,
482,2025-01-31 07:01:46,2025-01-31 07:04:35,169.673,0.054%,
483,2025-01-31 08:36:23,2025-01-31 08:39:20,177.176,0.056%,
484,2025-01-31 10:11:02,2025-01-31 10:14:05,182.413,0.058%,
485,2025-01-31 11:45:42,2025-01-31 11:48:50,187.173,0.059%,
486,2025-01-31 13:20:19,2025-01-31 13:23:34,195.3,0.062%,
487,2025-01-31 14:54:59,2025-01-31 14:58:19,199.576,0.063%,
488,2025-01-31 16:29:39,2025-01-31 16:33:03,204.843,0.065%,
489,2025-01-31 18:04:16,2025-01-31 18:07:48,211.38,0.067%,
490,2025-01-31 19:38:57,2025-01-31 19:42:32,215.223,0.068%,
491,2025-01-31 21:14:28,2025-01-31 21:17:17,168.216,0.053%,
492,2025-01-31 22:49:06,2025-01-31 22:52:01,174.705,0.055%,
493,2025-02-01 00:23:44,2025-02-01 00:26:45,181.024,0.057%,
494,2025-02-01 01:58:24,2025-02-01 02:01:29,184.743,0.059%,
495,2025-02-01 03:33:01,2025-02-01 03:36:13,192.118,0.061%,
496,2025-02-01 05:07:41,2025-02-01 05:10:57,196.75,0.062%,
497,2025-02-01 06:42:21,2025-02-01 06:45:41,199.86,0.063%,
498,2025-02-01 08:16:58,2025-02-01 08:20:26,207.399,0.066%,
499,2025-02-01 09:51:38,2025-02-01 09:55:11,212.452,0.067%,
500,2025-02-01 11:26:19,2025-02-01 11:26:55,35.619,0.011%,
501,2025-02-01 11:27:03,2025-02-01 11:29:55,171.923,0.055%,
502,2025-02-01 13:01:47,2025-02-01 13:04:40,172.597,0.055%,
503,2025-02-01 14:36:26,2025-02-01 14:39:25,178.666,0.057%,
504,2025-02-01 16:11:06,2025-02-01 16:14:09,183.51,0.058%,
505,2025-02-01 17:45:45,2025-02-01 17:48:54,188.548,0.060%,
506,2025-02-01 19:20:22,2025-02-01 19:23:38,195.883,0.062%,
507,2025-02-01 20:55:02,2025-02-01 20:58:22,199.853,0.063%,
508,2025-02-01 22:29:41,2025-02-01 22:33:07,205.171,0.065%,
509,2025-02-02 00:04:20,2025-02-02 00:07:51,211.223,0.067%,
510,2025-02-02 01:39:00,2025-02-02 01:42:35,214.795,0.068%,
511,2025-02-02 03:14:30,2025-02-02 03:17:19,169.333,0.054%,
512,2025-02-02 04:49:09,2025-02-02 04:52:03,174.118,0.055%,
513,2025-02-02 06:23:47,2025-02-02 06:26:47,180,0.057%,
514,2025-02-02 07:58:28,2025-02-02 08:01:31,183.879,0.058%,
515,2025-02-02 09:33:04,2025-02-02 09:36:16,192.132,0.061%,
516,2025-02-02 11:07:44,2025-02-02 11:11:01,197.385,0.063%,
517,2025-02-02 12:42:25,2025-02-02 12:45:46,201.15,0.064%,
518,2025-02-02 14:17:01,2025-02-02 14:20:30,208.915,0.066%,
519,2025-02-02 15:51:41,2025-02-02 15:55:15,213.58,0.068%,
520,2025-02-02 17:26:22,2025-02-02 17:27:04,41.457,0.013%,
521,2025-02-02 17:27:13,2025-02-02 17:29:59,166.335,0.053%,
522,2025-02-02 19:01:53,2025-02-02 19:04:44,170.378,0.054%,
523,2025-02-02 20:36:29,2025-02-02 20:39:28,179.069,0.057%,
524,2025-02-02 22:11:09,2025-02-02 22:14:12,183.591,0.058%,
525,2025-02-02 23:45:48,2025-02-02 23:48:57,188.817,0.060%,
526,2025-02-03 01:20:25,2025-02-03 01:23:41,195.54,0.062%,
527,2025-02-03 02:55:06,2025-02-03 02:58:25,199.239,0.063%,
528,2025-02-03 04:29:44,2025-02-03 04:33:09,204.596,0.065%,
529,2025-02-03 06:04:23,2025-02-03 06:07:53,210.219,0.067%,
530,2025-02-03 07:39:03,2025-02-03 07:42:37,213.828,0.068%,
531,2025-02-03 09:13:44,2025-02-03 09:13:48,4.024,0.001%,
532,2025-02-03 09:14:31,2025-02-03 09:17:22,170.919,0.054%,
533,2025-02-03 10:49:12,2025-02-03 10:52:07,174.886,0.056%,
534,2025-02-03 12:23:50,2025-02-03 12:26:52,181.26,0.058%,
535,2025-02-03 13:58:31,2025-02-03 14:01:36,185.34,0.059%,
536,2025-02-03 15:33:07,2025-02-03 15:36:21,193.395,0.061%,
537,2025-02-03 17:07:47,2025-02-03 17:11:05,198.269,0.063%,
538,2025-02-03 18:42:28,2025-02-03 18:45:50,201.73,0.064%,
539,2025-02-03 20:17:05,2025-02-03 20:20:34,209.341,0.066%,
540,2025-02-03 21:51:45,2025-02-03 21:55:18,213.686,0.068%,
541,2025-02-03 23:26:26,2025-02-03 23:27:12,45.994,0.015%,
542,2025-02-03 23:27:14,2025-02-03 23:30:02,168.546,0.053%,
543,2025-02-04 01:01:57,2025-02-04 01:04:47,170.013,0.054%,
544,2025-02-04 02:36:32,2025-02-04 02:39:31,178.573,0.057%,
545,2025-02-04 04:11:12,2025-02-04 04:14:15,182.803,0.058%,
546,2025-02-04 05:45:51,2025-02-04 05:48:59,188.159,0.060%,
547,2025-02-04 07:20:28,2025-02-04 07:23:43,194.526,0.062%,
548,2025-02-04 08:55:09,2025-02-04 08:58:28,198.941,0.063%,
549,2025-02-04 10:29:47,2025-02-04 10:33:13,205.254,0.065%,
550,2025-02-04 12:04:26,2025-02-04 12:07:57,211.384,0.067%,
551,2025-02-04 13:39:07,2025-02-04 13:42:42,215.328,0.068%,
552,2025-02-04 15:13:47,2025-02-04 15:13:55,8.32,0.003%,
553,2025-02-04 15:14:33,2025-02-04 15:17:26,173.466,0.055%,
554,2025-02-04 16:49:15,2025-02-04 16:52:11,176.009,0.056%,
555,2025-02-04 18:23:53,2025-02-04 18:26:55,181.929,0.058%,
556,2025-02-04 19:58:34,2025-02-04 20:01:40,185.707,0.059%,
557,2025-02-04 21:33:10,2025-02-04 21:36:24,193.627,0.061%,
558,2025-02-04 23:07:50,2025-02-04 23:11:08,198.177,0.063%,
559,2025-02-05 00:42:31,2025-02-05 00:45:52,201.377,0.064%,
560,2025-02-05 02:17:08,2025-02-05 02:20:37,208.862,0.066%,
561,2025-02-05 03:51:48,2025-02-05 03:55:21,212.92,0.068%,
562,2025-02-05 05:26:29,2025-02-05 05:30:05,215.801,0.068%,
563,2025-02-05 07:01:59,2025-02-05 07:04:49,169.724,0.054%,
564,2025-02-05 08:36:35,2025-02-05 08:39:34,178.265,0.057%,
565,2025-02-05 10:11:15,2025-02-05 10:14:18,183.156,0.058%,
566,2025-02-05 11:45:54,2025-02-05 11:49:03,189.503,0.060%,
567,2025-02-05 13:20:32,2025-02-05 13:23:48,196.123,0.062%,
568,2025-02-05 14:55:12,2025-02-05 14:58:32,200.171,0.064%,
569,2025-02-05 16:29:50,2025-02-05 16:33:17,206.397,0.065%,
570,2025-02-05 18:04:29,2025-02-05 18:08:01,212.079,0.067%,
571,2025-02-05 19:39:10,2025-02-05 19:42:46,215.723,0.068%,
572,2025-02-05 21:13:50,2025-02-05 21:14:01,11.243,0.004%,
573,2025-02-05 21:14:41,2025-02-05 21:17:30,168.805,0.054%,
574,2025-02-05 22:49:18,2025-02-05 22:52:14,176.129,0.056%,
575,2025-02-06 00:23:57,2025-02-06 00:26:58,181.658,0.058%,
576,2025-02-06 01:58:37,2025-02-06 02:01:42,185.172,0.059%,
577,2025-02-06 03:33:13,2025-02-06 03:36:26,192.974,0.061%,
578,2025-02-06 05:07:53,2025-02-06 05:11:10,197.231,0.063%,
579,2025-02-06 06:42:34,2025-02-06 06:45:54,200.187,0.064%,
580,2025-02-06 08:17:11,2025-02-06 08:20:39,208.45,0.066%,
581,2025-02-06 09:51:51,2025-02-06 09:55:24,213.175,0.068%,
582,2025-02-06 11:26:32,2025-02-06 11:30:09,216.732,0.069%,
583,2025-02-06 13:02:01,2025-02-06 13:04:53,172.812,0.055%,
584,2025-02-06 14:36:38,2025-02-06 14:39:38,179.618,0.057%,
585,2025-02-06 16:11:18,2025-02-06 16:14:22,184.14,0.058%,
586,2025-02-06 17:45:56,2025-02-06 17:49:07,190.468,0.060%,
587,2025-02-06 19:20:35,2025-02-06 19:23:51,196.601,0.062%,
588,2025-02-06 20:55:15,2025-02-06 20:58:36,200.356,0.064%,
589,2025-02-06 22:29:53,2025-02-06 22:33:20,206.535,0.066%,
590,2025-02-07 00:04:32,2025-02-07 00:08:04,211.831,0.067%,
591,2025-02-07 01:39:13,2025-02-07 01:42:48,215.211,0.068%,
592,2025-02-07 03:13:53,2025-02-07 03:14:05,12.826,0.004%,
593,2025-02-07 03:14:43,2025-02-07 03:17:32,169.416,0.054%,
594,2025-02-07 04:49:21,2025-02-07 04:52:16,175.376,0.056%,
595,2025-02-07 06:24:00,2025-02-07 06:27:00,180.548,0.057%,
596,2025-02-07 07:58:40,2025-02-07 08:01:45,184.579,0.059%,
597,2025-02-07 09:33:17,2025-02-07 09:36:30,193.221,0.061%,
598,2025-02-07 11:07:56,2025-02-07 11:11:15,198.108,0.063%,
599,2025-02-07 12:42:37,2025-02-07 12:45:59,201.715,0.064%,
600,2025-02-07 14:17:14,2025-02-07 14:20:44,209.834,0.067%,
601,2025-02-07 15:51:54,2025-02-07 15:55:28,214.193,0.068%,
602,2025-02-07 17:26:35,2025-02-07 17:30:13,217.439,0.069%,
603,2025-02-07 19:02:06,2025-02-07 19:04:57,170.908,0.054%,
604,2025-02-07 20:36:41,2025-02-07 20:39:41,179.913,0.057%,
605,2025-02-07 22:11:22,2025-02-07 22:14:26,184.131,0.058%,
606,2025-02-07 23:45:59,2025-02-07 23:49:10,190.458,0.060%,
607,2025-02-08 01:20:38,2025-02-08 01:23:54,196.165,0.062%,
608,2025-02-08 02:55:18,2025-02-08 02:58:38,199.659,0.063%,
609,2025-02-08 04:29:56,2025-02-08 04:33:22,205.799,0.065%,
610,2025-02-08 06:04:35,2025-02-08 06:08:06,210.741,0.067%,
611,2025-02-08 07:39:16,2025-02-08 07:42:51,214.516,0.068%,
612,2025-02-08 09:13:56,2025-02-08 09:14:09,13.101,0.004%,
613,2025-02-08 09:14:44,2025-02-08 09:17:36,171.222,0.054%,
614,2025-02-08 10:49:24,2025-02-08 10:52:20,176.321,0.056%,
615,2025-02-08 12:24:03,2025-02-08 12:27:05,182.04,0.058%,
616,2025-02-08 13:58:44,2025-02-08 14:01:50,185.924,0.059%,
617,2025-02-08 15:33:20,2025-02-08 15:36:34,194.358,0.062%,
618,2025-02-08 17:08:00,2025-02-08 17:11:18,198.887,0.063%,
619,2025-02-08 18:42:41,2025-02-08 18:46:03,202.199,0.064%,
620,2025-02-08 20:17:17,2025-02-08 20:20:47,210.152,0.067%,
621,2025-02-08 21:51:57,2025-02-08 21:55:31,214.208,0.068%,
622,2025-02-08 23:26:38,2025-02-08 23:30:16,217.196,0.069%,
623,2025-02-09 01:02:09,2025-02-09 01:05:00,170.46,0.054%,
624,2025-02-09 02:36:45,2025-02-09 02:39:44,179.32,0.057%,
625,2025-02-09 04:11:25,2025-02-09 04:14:28,183.261,0.058%,
626,2025-02-09 05:46:02,2025-02-09 05:49:12,189.576,0.060%,
627,2025-02-09 07:20:41,2025-02-09 07:23:56,195.419,0.062%,
628,2025-02-09 08:55:22,2025-02-09 08:58:41,199.619,0.063%,
629,2025-02-09 10:29:59,2025-02-09 10:33:26,206.639,0.066%,
630,2025-02-09 12:04:39,2025-02-09 12:08:11,212.141,0.067%,
631,2025-02-09 13:39:19,2025-02-09 13:42:55,215.899,0.069%,
632,2025-02-09 15:13:59,2025-02-09 15:14:11,12.096,0.004%,
633,2025-02-09 15:14:46,2025-02-09 15:17:40,173.624,0.055%,
634,2025-02-09 16:49:27,2025-02-09 16:52:24,177.281,0.056%,
635,2025-02-09 18:24:06,2025-02-09 18:27:09,182.607,0.058%,
636,2025-02-09 19:58:47,2025-02-09 20:01:53,186.198,0.059%,
637,2025-02-09 21:33:23,2025-02-09 21:36:37,194.479,0.062%,
638,2025-02-09 23:08:03,2025-02-09 23:11:21,198.707,0.063%,
639,2025-02-10 00:42:44,2025-02-10 00:46:06,201.763,0.064%,
640,2025-02-10 02:17:20,2025-02-10 02:20:50,209.58,0.067%,
641,2025-02-10 03:52:00,2025-02-10 03:55:34,213.36,0.068%,
642,2025-02-10 05:26:42,2025-02-10 05:30:18,216.109,0.069%,
643,2025-02-10 07:02:12,2025-02-10 07:05:02,170.084,0.054%,
644,2025-02-10 08:36:48,2025-02-10 08:39:47,179.262,0.057%,
645,2025-02-10 10:11:28,2025-02-10 10:14:32,183.862,0.058%,
646,2025-02-10 11:46:05,2025-02-10 11:49:16,191.057,0.061%,
647,2025-02-10 13:20:44,2025-02-10 13:24:01,196.889,0.062%,
648,2025-02-10 14:55:25,2025-02-10 14:58:46,200.737,0.064%,
649,2025-02-10 16:30:02,2025-02-10 16:33:30,207.618,0.066%,
650,2025-02-10 18:04:42,2025-02-10 18:08:14,212.734,0.068%,
651,2025-02-10 19:39:23,2025-02-10 19:42:59,216.2,0.069%,
652,2025-02-10 21:14:02,2025-02-10 21:14:11,9.833,0.003%,
653,2025-02-10 21:14:54,2025-02-10 21:17:43,169.357,0.054%,
654,2025-02-10 22:49:30,2025-02-10 22:52:27,177.264,0.056%,
655,2025-02-11 00:24:09,2025-02-11 00:27:11,182.248,0.058%,
656,2025-02-11 01:58:50,2025-02-11 02:01:56,185.581,0.059%,
657,2025-02-11 03:33:26,2025-02-11 03:36:40,193.733,0.061%,
658,2025-02-11 05:08:06,2025-02-11 05:11:24,197.679,0.063%,
659,2025-02-11 06:42:47,2025-02-11 06:46:08,200.76,0.064%,
660,2025-02-11 08:17:23,2025-02-11 08:20:53,209.418,0.066%,
661,2025-02-11 09:52:04,2025-02-11 09:55:38,213.866,0.068%,
662,2025-02-11 11:26:45,2025-02-11 11:30:22,217.283,0.069%,
663,2025-02-11 13:02:14,2025-02-11 13:05:07,173.014,0.055%,
664,2025-02-11 14:36:51,2025-02-11 14:39:51,180.486,0.057%,
665,2025-02-11 16:11:31,2025-02-11 16:14:36,184.742,0.059%,
666,2025-02-11 17:46:08,2025-02-11 17:49:20,191.838,0.061%,
667,2025-02-11 19:20:47,2025-02-11 19:24:05,197.268,0.063%,
668,2025-02-11 20:55:28,2025-02-11 20:58:49,200.831,0.064%,
669,2025-02-11 22:30:06,2025-02-11 22:33:33,207.617,0.066%,
670,2025-02-12 00:04:45,2025-02-12 00:08:17,212.398,0.067%,
671,2025-02-12 01:39:26,2025-02-12 01:43:01,215.607,0.068%,
672,2025-02-12 03:14:05,2025-02-12 03:14:11,6.35,0.002%,
673,2025-02-12 03:14:56,2025-02-12 03:17:45,169.488,0.054%,
674,2025-02-12 04:49:33,2025-02-12 04:52:29,176.388,0.056%,
675,2025-02-12 06:24:12,2025-02-12 06:27:14,181.19,0.058%,
676,2025-02-12 07:58:53,2025-02-12 08:01:58,185.254,0.059%,
677,2025-02-12 09:33:29,2025-02-12 09:36:43,194.215,0.062%,
678,2025-02-12 11:08:09,2025-02-12 11:11:28,198.797,0.063%,
679,2025-02-12 12:42:50,2025-02-12 12:46:13,202.745,0.064%,
680,2025-02-12 14:17:26,2025-02-12 14:20:57,210.673,0.067%,
681,2025-02-12 15:52:07,2025-02-12 15:55:42,214.776,0.068%,
682,2025-02-12 17:26:48,2025-02-12 17:27:30,42.097,0.013%,
683,2025-02-12 17:27:38,2025-02-12 17:30:26,167.769,0.053%,
684,2025-02-12 19:02:17,2025-02-12 19:05:10,173.229,0.055%,
685,2025-02-12 20:36:54,2025-02-12 20:39:55,180.678,0.057%,
686,2025-02-12 22:11:34,2025-02-12 22:14:39,184.643,0.059%,
687,2025-02-12 23:46:11,2025-02-12 23:49:23,191.671,0.061%,
688,2025-02-13 01:20:50,2025-02-13 01:24:07,196.746,0.062%,
689,2025-02-13 02:55:31,2025-02-13 02:58:51,200.053,0.063%,
690,2025-02-13 04:30:09,2025-02-13 04:33:35,206.76,0.066%,
691,2025-02-13 06:04:48,2025-02-13 06:08:19,211.229,0.067%,
692,2025-02-13 07:39:29,2025-02-13 07:43:04,215.179,0.068%,
693,2025-02-13 09:14:08,2025-02-13 09:14:09,1.668,0.001%,
694,2025-02-13 09:14:57,2025-02-13 09:17:49,171.514,0.054%,
695,2025-02-13 10:49:36,2025-02-13 10:52:34,177.537,0.056%,
696,2025-02-13 12:24:16,2025-02-13 12:27:18,182.777,0.058%,
697,2025-02-13 13:58:56,2025-02-13 14:02:03,186.484,0.059%,
698,2025-02-13 15:33:32,2025-02-13 15:36:47,195.23,0.062%,
699,2025-02-13 17:08:12,2025-02-13 17:11:32,199.473,0.063%,
700,2025-02-13 18:42:52,2025-02-13 18:46:16,203.751,0.065%,
701,2025-02-13 20:17:30,2025-02-13 20:21:00,210.889,0.067%,
702,2025-02-13 21:52:10,2025-02-13 21:55:45,214.702,0.068%,
703,2025-02-13 23:26:51,2025-02-13 23:27:28,36.675,0.012%,
704,2025-02-13 23:27:40,2025-02-13 23:30:29,168.843,0.054%,
705,2025-02-14 01:02:20,2025-02-14 01:05:13,173.166,0.055%,
706,2025-02-14 02:36:57,2025-02-14 02:39:57,179.993,0.057%,
707,2025-02-14 04:11:37,2025-02-14 04:14:41,183.691,0.058%,
708,2025-02-14 05:46:14,2025-02-14 05:49:25,190.655,0.061%,
709,2025-02-14 07:20:54,2025-02-14 07:24:10,196.264,0.062%,
710,2025-02-14 08:55:34,2025-02-14 08:58:55,200.271,0.064%,
711,2025-02-14 10:30:12,2025-02-14 10:33:39,207.806,0.066%,
712,2025-02-14 12:04:51,2025-02-14 12:08:24,212.851,0.068%,
713,2025-02-14 13:39:32,2025-02-14 13:43:09,216.445,0.069%,
714,2025-02-14 15:14:59,2025-02-14 15:17:53,173.77,0.055%,
715,2025-02-14 16:49:39,2025-02-14 16:52:38,178.359,0.057%,
716,2025-02-14 18:24:19,2025-02-14 18:27:22,183.242,0.058%,
717,2025-02-14 19:59:00,2025-02-14 20:02:06,186.665,0.059%,
718,2025-02-14 21:33:35,2025-02-14 21:36:51,195.251,0.062%,
719,2025-02-14 23:08:16,2025-02-14 23:11:35,199.205,0.063%,
720,2025-02-15 00:42:55,2025-02-15 00:46:19,203.696,0.065%,
721,2025-02-15 02:17:33,2025-02-15 02:21:03,210.223,0.067%,
722,2025-02-15 03:52:13,2025-02-15 03:55:47,213.772,0.068%,
723,2025-02-15 05:26:55,2025-02-15 05:27:25,30.114,0.010%,
724,2025-02-15 05:27:41,2025-02-15 05:30:31,169.676,0.054%,
725,2025-02-15 07:02:23,2025-02-15 07:05:16,172.936,0.055%,
726,2025-02-15 08:37:00,2025-02-15 08:40:00,180.181,0.057%,
727,2025-02-15 10:11:41,2025-02-15 10:14:45,184.534,0.059%,
728,2025-02-15 11:46:18,2025-02-15 11:49:30,192.319,0.061%,
729,2025-02-15 13:20:57,2025-02-15 13:24:14,197.61,0.063%,
730,2025-02-15 14:55:38,2025-02-15 14:58:59,201.279,0.064%,
731,2025-02-15 16:30:15,2025-02-15 16:33:43,208.652,0.066%,
732,2025-02-15 18:04:54,2025-02-15 18:08:28,213.343,0.068%,
733,2025-02-15 19:39:35,2025-02-15 19:43:12,216.654,0.069%,
734,2025-02-15 21:15:06,2025-02-15 21:17:56,169.88,0.054%,
735,2025-02-15 22:49:42,2025-02-15 22:52:41,178.226,0.057%,
736,2025-02-16 00:24:22,2025-02-16 00:27:25,182.793,0.058%,
737,2025-02-16 01:59:02,2025-02-16 02:02:09,186.797,0.059%,
738,2025-02-16 03:33:38,2025-02-16 03:36:53,194.409,0.062%,
739,2025-02-16 05:08:19,2025-02-16 05:11:37,198.095,0.063%,
740,2025-02-16 06:42:58,2025-02-16 06:46:21,203.342,0.065%,
741,2025-02-16 08:17:36,2025-02-16 08:21:06,210.31,0.067%,
742,2025-02-16 09:52:16,2025-02-16 09:55:51,214.522,0.068%,
743,2025-02-16 11:26:58,2025-02-16 11:27:20,22.44,0.007%,
744,2025-02-16 11:27:43,2025-02-16 11:30:36,172.639,0.055%,
745,2025-02-16 13:02:26,2025-02-16 13:05:20,174.617,0.055%,
746,2025-02-16 14:37:03,2025-02-16 14:40:05,181.287,0.058%,
747,2025-02-16 16:11:44,2025-02-16 16:14:49,185.309,0.059%,
748,2025-02-16 17:46:21,2025-02-16 17:49:34,192.959,0.061%,
749,2025-02-16 19:21:00,2025-02-16 19:24:18,197.891,0.063%,
750,2025-02-16 20:55:41,2025-02-16 20:59:02,201.284,0.064%,
751,2025-02-16 22:30:18,2025-02-16 22:33:46,208.536,0.066%,
752,2025-02-17 00:04:58,2025-02-17 00:08:31,212.918,0.068%,
753,2025-02-17 01:39:39,2025-02-17 01:43:15,215.978,0.069%,
754,2025-02-17 03:15:09,2025-02-17 03:17:59,169.55,0.054%,
755,2025-02-17 04:49:45,2025-02-17 04:52:43,177.242,0.056%,
756,2025-02-17 06:24:25,2025-02-17 06:27:27,182.006,0.058%,
757,2025-02-17 07:59:05,2025-02-17 08:02:12,187.359,0.059%,
758,2025-02-17 09:33:42,2025-02-17 09:36:57,195.128,0.062%,
759,2025-02-17 11:08:22,2025-02-17 11:11:41,199.449,0.063%,
760,2025-02-17 12:43:01,2025-02-17 12:46:26,205.048,0.065%,
761,2025-02-17 14:17:39,2025-02-17 14:21:10,211.447,0.067%,
762,2025-02-17 15:52:20,2025-02-17 15:55:55,215.327,0.068%,
763,2025-02-17 17:27:01,2025-02-17 17:27:15,13.684,0.004%,
764,2025-02-17 17:27:51,2025-02-17 17:30:39,168.416,0.053%,
765,2025-02-17 19:02:29,2025-02-17 19:05:24,175.187,0.056%,
766,2025-02-17 20:37:07,2025-02-17 20:40:08,181.38,0.058%,
767,2025-02-17 22:11:47,2025-02-17 22:14:52,185.122,0.059%,
768,2025-02-17 23:46:24,2025-02-17 23:49:36,192.664,0.061%,
769,2025-02-18 01:21:03,2025-02-18 01:24:20,197.282,0.063%,
770,2025-02-18 02:55:44,2025-02-18 02:59:05,200.424,0.064%,
771,2025-02-18 04:30:21,2025-02-18 04:33:49,207.57,0.066%,
772,2025-02-18 06:05:01,2025-02-18 06:08:33,212.025,0.067%,
773,2025-02-18 07:39:42,2025-02-18 07:43:18,215.812,0.068%,
774,2025-02-18 09:15:11,2025-02-18 09:18:02,171.788,0.055%,
775,2025-02-18 10:49:49,2025-02-18 10:52:47,178.606,0.057%,
776,2025-02-18 12:24:28,2025-02-18 12:27:32,183.466,0.058%,
777,2025-02-18 13:59:07,2025-02-18 14:02:16,188.943,0.060%,
778,2025-02-18 15:33:45,2025-02-18 15:37:01,196.025,0.062%,
779,2025-02-18 17:08:25,2025-02-18 17:11:45,200.022,0.063%,
780,2025-02-18 18:43:04,2025-02-18 18:46:29,205.629,0.065%,
781,2025-02-18 20:17:42,2025-02-18 20:21:14,211.563,0.067%,
782,2025-02-18 21:52:23,2025-02-18 21:55:58,215.165,0.068%,
783,2025-02-18 23:27:04,2025-02-18 23:27:08,4.509,0.001%,
784,2025-02-18 23:27:53,2025-02-18 23:30:42,168.974,0.054%,
785,2025-02-19 01:02:31,2025-02-19 01:05:26,174.829,0.055%,
786,2025-02-19 02:37:10,2025-02-19 02:40:10,180.606,0.057%,
787,2025-02-19 04:11:50,2025-02-19 04:14:54,184.089,0.058%,
788,2025-02-19 05:46:27,2025-02-19 05:49:39,191.773,0.061%,
789,2025-02-19 07:21:06,2025-02-19 07:24:23,197.057,0.063%,
790,2025-02-19 08:55:47,2025-02-19 08:59:08,200.892,0.064%,
791,2025-02-19 10:30:24,2025-02-19 10:33:53,208.835,0.066%,
792,2025-02-19 12:05:04,2025-02-19 12:08:37,213.521,0.068%,
793,2025-02-19 13:39:45,2025-02-19 13:40:25,39.564,0.013%,
794,2025-02-19 13:40:29,2025-02-19 13:43:22,173.498,0.055%,
795,2025-02-19 15:15:16,2025-02-19 15:18:07,170.468,0.054%,
796,2025-02-19 16:49:52,2025-02-19 16:52:51,179.304,0.057%,
797,2025-02-19 18:24:31,2025-02-19 18:27:35,183.834,0.058%,
798,2025-02-19 19:59:10,2025-02-19 20:02:20,189.419,0.060%,
799,2025-02-19 21:33:48,2025-02-19 21:37:04,195.947,0.062%,
800,2025-02-19 23:08:28,2025-02-19 23:11:48,199.668,0.063%,
801,2025-02-20 00:43:07,2025-02-20 00:46:32,205.286,0.065%,
802,2025-02-20 02:17:45,2025-02-20 02:21:16,210.809,0.067%,
803,2025-02-20 03:52:26,2025-02-20 03:56:00,214.154,0.068%,
804,2025-02-20 05:27:54,2025-02-20 05:30:44,169.795,0.054%,
805,2025-02-20 07:02:34,2025-02-20 07:05:29,174.713,0.055%,
806,2025-02-20 08:37:13,2025-02-20 08:40:14,181.037,0.057%,
807,2025-02-20 10:11:53,2025-02-20 10:14:59,185.172,0.059%,
808,2025-02-20 11:46:30,2025-02-20 11:49:43,193.405,0.061%,
809,2025-02-20 13:21:10,2025-02-20 13:24:28,198.286,0.063%,
810,2025-02-20 14:55:51,2025-02-20 14:59:12,201.793,0.064%,
811,2025-02-20 16:30:27,2025-02-20 16:33:57,209.56,0.067%,
812,2025-02-20 18:05:07,2025-02-20 18:08:41,213.916,0.068%,
813,2025-02-20 19:39:48,2025-02-20 19:40:17,28.263,0.009%,
814,2025-02-20 19:40:37,2025-02-20 19:43:25,167.952,0.053%,
815,2025-02-20 21:15:19,2025-02-20 21:18:10,170.371,0.054%,
816,2025-02-20 22:49:55,2025-02-20 22:52:54,179.068,0.057%,
817,2025-02-21 00:24:35,2025-02-21 00:27:38,183.301,0.058%,
818,2025-02-21 01:59:13,2025-02-21 02:02:22,188.967,0.060%,
819,2025-02-21 03:33:51,2025-02-21 03:37:06,195.016,0.062%,
820,2025-02-21 05:08:32,2025-02-21 05:11:50,198.477,0.063%,
821,2025-02-21 06:43:10,2025-02-21 06:46:35,205.055,0.065%,
822,2025-02-21 08:17:49,2025-02-21 08:21:20,211.141,0.067%,
823,2025-02-21 09:52:29,2025-02-21 09:56:04,215.146,0.068%,
824,2025-02-21 11:27:56,2025-02-21 11:30:49,172.851,0.055%,
825,2025-02-21 13:02:37,2025-02-21 13:05:34,176.168,0.056%,
826,2025-02-21 14:37:16,2025-02-21 14:40:18,182.029,0.058%,
827,2025-02-21 16:11:57,2025-02-21 16:15:03,185.846,0.059%,
828,2025-02-21 17:46:33,2025-02-21 17:49:47,193.919,0.062%,
829,2025-02-21 19:21:13,2025-02-21 19:24:31,198.472,0.063%,
830,2025-02-21 20:55:54,2025-02-21 20:59:15,201.71,0.064%,
831,2025-02-21 22:30:30,2025-02-21 22:34:00,209.341,0.066%,
832,2025-02-22 00:05:10,2025-02-22 00:08:44,213.406,0.068%,
833,2025-02-22 01:39:52,2025-02-22 01:40:07,15.976,0.005%,
834,2025-02-22 01:40:38,2025-02-22 01:43:28,169.43,0.054%,
835,2025-02-22 03:15:22,2025-02-22 03:18:12,169.6,0.054%,
836,2025-02-22 04:49:58,2025-02-22 04:52:56,177.987,0.056%,
837,2025-02-22 06:24:38,2025-02-22 06:27:41,182.78,0.058%,
838,2025-02-22 07:59:16,2025-02-22 08:02:25,189.446,0.060%,
839,2025-02-22 09:33:54,2025-02-22 09:37:10,195.971,0.062%,
840,2025-02-22 11:08:35,2025-02-22 11:11:55,200.066,0.063%,
841,2025-02-22 12:43:13,2025-02-22 12:46:39,206.536,0.066%,
842,2025-02-22 14:17:52,2025-02-22 14:21:24,212.164,0.067%,
843,2025-02-22 15:52:32,2025-02-22 15:56:08,215.849,0.068%,
844,2025-02-22 17:28:04,2025-02-22 17:30:53,169.023,0.054%,
845,2025-02-22 19:02:40,2025-02-22 19:05:37,176.555,0.056%,
846,2025-02-22 20:37:19,2025-02-22 20:40:21,182.028,0.058%,
847,2025-02-22 22:12:00,2025-02-22 22:15:05,185.575,0.059%,
848,2025-02-22 23:46:36,2025-02-22 23:49:50,193.522,0.061%,
849,2025-02-23 01:21:16,2025-02-23 01:24:34,197.778,0.063%,
850,2025-02-23 02:55:57,2025-02-23 02:59:18,200.769,0.064%,
851,2025-02-23 04:30:33,2025-02-23 04:34:02,208.279,0.066%,
852,2025-02-23 06:05:14,2025-02-23 06:08:46,212.781,0.068%,
853,2025-02-23 07:39:55,2025-02-23 07:39:57,2.744,0.001%,
854,2025-02-23 07:40:40,2025-02-23 07:43:31,171.283,0.054%,
855,2025-02-23 09:15:24,2025-02-23 09:18:16,172.047,0.055%,
856,2025-02-23 10:50:01,2025-02-23 10:53:01,179.57,0.057%,
857,2025-02-23 12:24:41,2025-02-23 12:27:45,184.121,0.058%,
858,2025-02-23 13:59:19,2025-02-23 14:02:30,190.716,0.061%,
859,2025-02-23 15:33:57,2025-02-23 15:37:14,196.759,0.062%,
860,2025-02-23 17:08:38,2025-02-23 17:11:58,200.545,0.064%,
861,2025-02-23 18:43:16,2025-02-23 18:46:43,206.939,0.066%,
862,2025-02-23 20:17:55,2025-02-23 20:21:27,212.187,0.067%,
863,2025-02-23 21:52:36,2025-02-23 21:53:12,36.757,0.012%,
864,2025-02-23 21:53:23,2025-02-23 21:56:11,168.728,0.054%,
865,2025-02-23 23:28:06,2025-02-23 23:30:55,169.093,0.054%,
866,2025-02-24 01:02:43,2025-02-24 01:05:39,176.046,0.056%,
867,2025-02-24 02:37:22,2025-02-24 02:40:24,181.168,0.057%,
868,2025-02-24 04:12:03,2025-02-24 04:15:08,184.46,0.059%,
869,2025-02-24 05:46:39,2025-02-24 05:49:52,192.881,0.061%,
870,2025-02-24 07:21:19,2025-02-24 07:24:37,197.81,0.063%,
871,2025-02-24 08:56:00,2025-02-24 08:59:22,201.484,0.064%,
872,2025-02-24 10:30:37,2025-02-24 10:34:06,209.765,0.067%,
873,2025-02-24 12:05:17,2025-02-24 12:08:51,214.157,0.068%,
874,2025-02-24 13:40:48,2025-02-24 13:43:35,167.145,0.053%,
875,2025-02-24 15:15:29,2025-02-24 15:18:20,171.019,0.054%,
876,2025-02-24 16:50:04,2025-02-24 16:53:04,180.158,0.057%,
877,2025-02-24 18:24:44,2025-02-24 18:27:49,184.394,0.059%,
878,2025-02-24 19:59:22,2025-02-24 20:02:33,190.96,0.061%,
879,2025-02-24 21:34:00,2025-02-24 21:37:17,196.589,0.062%,
880,2025-02-24 23:08:41,2025-02-24 23:12:01,200.107,0.064%,
881,2025-02-25 00:43:19,2025-02-25 00:46:45,206.448,0.066%,
882,2025-02-25 02:17:58,2025-02-25 02:21:29,211.347,0.067%,
883,2025-02-25 03:52:39,2025-02-25 03:53:01,22.187,0.007%,
884,2025-02-25 03:53:24,2025-02-25 03:56:13,169.659,0.054%,
885,2025-02-25 05:28:08,2025-02-25 05:30:58,170.152,0.054%,
886,2025-02-25 07:02:46,2025-02-25 07:05:43,176.132,0.056%,
887,2025-02-25 08:37:26,2025-02-25 08:40:27,181.842,0.058%,
888,2025-02-25 10:12:06,2025-02-25 10:15:12,185.785,0.059%,
889,2025-02-25 11:46:42,2025-02-25 11:49:57,194.375,0.062%,
890,2025-02-25 13:21:22,2025-02-25 13:24:41,198.925,0.063%,
891,2025-02-25 14:56:03,2025-02-25 14:59:26,202.284,0.064%,
892,2025-02-25 16:30:40,2025-02-25 16:34:10,210.379,0.067%,
893,2025-02-25 18:05:20,2025-02-25 18:08:54,214.457,0.068%,
894,2025-02-25 19:40:51,2025-02-25 19:43:39,168.142,0.053%,
895,2025-02-25 21:15:32,2025-02-25 21:18:23,170.836,0.054%,
896,2025-02-25 22:50:07,2025-02-25 22:53:07,179.823,0.057%,
897,2025-02-26 00:24:47,2025-02-26 00:27:51,183.778,0.058%,
898,2025-02-26 01:59:25,2025-02-26 02:02:35,190.315,0.060%,
899,2025-02-26 03:34:04,2025-02-26 03:37:19,195.572,0.062%,
900,2025-02-26 05:08:44,2025-02-26 05:12:03,199.172,0.063%,
901,2025-02-26 06:43:22,2025-02-26 06:46:48,206.424,0.066%,
902,2025-02-26 08:18:01,2025-02-26 08:21:33,211.925,0.067%,
903,2025-02-26 09:52:42,2025-02-26 09:52:49,6.736,0.002%,
904,2025-02-26 09:53:25,2025-02-26 09:56:18,172.459,0.055%,
905,2025-02-26 11:28:13,2025-02-26 11:31:02,169.227,0.054%,
906,2025-02-26 13:02:50,2025-02-26 13:05:47,177.419,0.056%,
907,2025-02-26 14:37:29,2025-02-26 14:40:31,182.725,0.058%,
908,2025-02-26 16:12:09,2025-02-26 16:15:16,186.36,0.059%,
909,2025-02-26 17:46:45,2025-02-26 17:50:00,194.781,0.062%,
910,2025-02-26 19:21:25,2025-02-26 19:24:44,199.02,0.063%,
911,2025-02-26 20:56:07,2025-02-26 20:59:29,202.115,0.064%,
912,2025-02-26 22:30:43,2025-02-26 22:34:13,210.062,0.067%,
913,2025-02-27 00:05:23,2025-02-27 00:06:03,39.581,0.013%,
914,2025-02-27 00:06:08,2025-02-27 00:08:57,169.276,0.054%,
915,2025-02-27 01:40:52,2025-02-27 01:43:41,169.5,0.054%,
916,2025-02-27 03:15:34,2025-02-27 03:18:25,170.85,0.054%,
917,2025-02-27 04:50:10,2025-02-27 04:53:09,178.857,0.057%,
918,2025-02-27 06:24:51,2025-02-27 06:27:54,183.52,0.058%,
919,2025-02-27 07:59:28,2025-02-27 08:02:39,190.957,0.061%,
920,2025-02-27 09:34:07,2025-02-27 09:37:24,196.763,0.062%,
921,2025-02-27 11:08:48,2025-02-27 11:12:08,200.66,0.064%,
922,2025-02-27 12:43:25,2025-02-27 12:46:53,207.74,0.066%,
923,2025-02-27 14:18:04,2025-02-27 14:21:37,212.838,0.068%,
924,2025-02-27 15:53:35,2025-02-27 15:56:22,166.712,0.053%,
925,2025-02-27 17:28:16,2025-02-27 17:31:06,169.598,0.054%,
926,2025-02-27 19:02:53,2025-02-27 19:05:50,177.673,0.056%,
927,2025-02-27 20:37:32,2025-02-27 20:40:34,182.633,0.058%,
928,2025-02-27 22:12:13,2025-02-27 22:15:19,186.002,0.059%,
929,2025-02-27 23:46:49,2025-02-27 23:50:03,194.286,0.062%,
930,2025-02-28 01:21:29,2025-02-28 01:24:47,198.243,0.063%,
931,2025-02-28 02:56:09,2025-02-28 02:59:31,201.443,0.064%,
932,2025-02-28 04:30:46,2025-02-28 04:34:15,208.989,0.066%,
933,2025-02-28 06:05:26,2025-02-28 06:05:49,22.895,0.007%,
934,2025-02-28 06:06:09,2025-02-28 06:09:00,170.73,0.054%,
935,2025-02-28 07:40:53,2025-02-28 07:43:45,171.569,0.054%,
936,2025-02-28 09:15:37,2025-02-28 09:18:29,172.585,0.055%,
937,2025-02-28 10:50:13,2025-02-28 10:53:14,180.456,0.057%,
938,2025-02-28 12:24:54,2025-02-28 12:27:58,184.744,0.059%,
939,2025-02-28 13:59:31,2025-02-28 14:02:43,192.048,0.061%,
940,2025-02-28 15:34:10,2025-02-28 15:37:27,197.444,0.063%,
941,2025-02-28 17:08:51,2025-02-28 17:12:12,201.043,0.064%,
942,2025-02-28 18:43:28,2025-02-28 18:46:56,208.011,0.066%,
943,2025-02-28 20:18:08,2025-02-28 20:21:40,212.769,0.068%,
944,2025-02-28 21:53:36,2025-02-28 21:56:24,168.871,0.054%,
945,2025-02-28 23:28:19,2025-02-28 23:31:09,169.202,0.054%,
946,2025-03-01 01:02:56,2025-03-01 01:05:53,177.043,0.056%,
947,2025-03-01 02:37:35,2025-03-01 02:40:37,181.687,0.058%,
948,2025-03-01 04:12:16,2025-03-01 04:15:21,184.81,0.059%,
949,2025-03-01 05:46:52,2025-03-01 05:50:06,193.895,0.062%,
950,2025-03-01 07:21:32,2025-03-01 07:24:50,198.527,0.063%,
951,2025-03-01 08:56:12,2025-03-01 08:59:35,203.064,0.064%,
952,2025-03-01 10:30:49,2025-03-01 10:34:20,210.621,0.067%,
953,2025-03-01 12:05:29,2025-03-01 12:05:35,5.392,0.002%,
954,2025-03-01 12:06:20,2025-03-01 12:09:04,164.753,0.052%,
955,2025-03-01 13:41:01,2025-03-01 13:43:49,167.859,0.053%,
956,2025-03-01 15:15:39,2025-03-01 15:18:33,173.75,0.055%,
957,2025-03-01 16:50:17,2025-03-01 16:53:18,180.937,0.057%,
958,2025-03-01 18:24:57,2025-03-01 18:28:02,184.924,0.059%,
959,2025-03-01 19:59:34,2025-03-01 20:02:46,192.141,0.061%,
960,2025-03-01 21:34:13,2025-03-01 21:37:30,197.18,0.063%,
961,2025-03-01 23:08:54,2025-03-01 23:12:14,200.522,0.064%,
962,2025-03-02 00:43:31,2025-03-02 00:46:59,207.394,0.066%,
963,2025-03-02 02:18:11,2025-03-02 02:18:48,37.118,0.012%,
964,2025-03-02 02:18:53,2025-03-02 02:21:43,169.594,0.054%,
965,2025-03-02 03:53:37,2025-03-02 03:56:27,169.68,0.054%,
966,2025-03-02 05:28:21,2025-03-02 05:31:11,170.492,0.054%,
967,2025-03-02 07:02:59,2025-03-02 07:05:56,177.347,0.056%,
968,2025-03-02 08:37:38,2025-03-02 08:40:41,182.602,0.058%,
969,2025-03-02 10:12:19,2025-03-02 10:15:25,186.372,0.059%,
970,2025-03-02 11:46:55,2025-03-02 11:50:10,195.258,0.062%,
971,2025-03-02 13:21:35,2025-03-02 13:24:55,199.531,0.063%,
972,2025-03-02 14:56:15,2025-03-02 14:59:39,204.241,0.065%,
973,2025-03-02 16:30:52,2025-03-02 16:34:23,211.127,0.067%,
974,2025-03-02 18:06:20,2025-03-02 18:09:08,167.786,0.053%,
975,2025-03-02 19:41:04,2025-03-02 19:43:52,168.326,0.053%,
976,2025-03-02 21:15:42,2025-03-02 21:18:36,173.88,0.055%,
977,2025-03-02 22:50:20,2025-03-02 22:53:20,180.507,0.057%,
978,2025-03-03 00:25:00,2025-03-03 00:28:04,184.224,0.058%,
979,2025-03-03 01:59:37,2025-03-03 02:02:48,191.365,0.061%,
980,2025-03-03 03:34:16,2025-03-03 03:37:32,196.077,0.062%,
981,2025-03-03 05:08:57,2025-03-03 05:12:17,199.857,0.063%,
982,2025-03-03 06:43:34,2025-03-03 06:47:02,207.593,0.066%,
983,2025-03-03 08:18:14,2025-03-03 08:18:32,18.475,0.006%,
984,2025-03-03 08:18:55,2025-03-03 08:18:56,1.363,0.000%,
985,2025-03-03 08:19:04,2025-03-03 08:21:47,162.187,0.051%,
986,2025-03-03 09:53:46,2025-03-03 09:56:31,165.511,0.053%,
987,2025-03-03 11:28:26,2025-03-03 11:31:16,169.858,0.054%,
988,2025-03-03 13:03:02,2025-03-03 13:06:00,178.491,0.057%,
989,2025-03-03 14:37:41,2025-03-03 14:40:45,183.377,0.058%,
990,2025-03-03 16:12:22,2025-03-03 16:15:29,187.523,0.060%,
991,2025-03-03 17:46:58,2025-03-03 17:50:13,195.554,0.062%,
992,2025-03-03 19:21:38,2025-03-03 19:24:58,199.534,0.063%,
993,2025-03-03 20:56:18,2025-03-03 20:59:42,204.378,0.065%,
994,2025-03-03 22:30:55,2025-03-03 22:34:26,210.718,0.067%,
995,2025-03-04 00:06:21,2025-03-04 00:09:10,169.365,0.054%,
996,2025-03-04 01:41:05,2025-03-04 01:43:54,169.559,0.054%,
997,2025-03-04 03:15:45,2025-03-04 03:18:38,173.104,0.055%,
998,2025-03-04 04:50:23,2025-03-04 04:53:23,179.803,0.057%,
999,2025-03-04 06:25:03,2025-03-04 06:28:08,184.222,0.058%,
1000,2025-03-04 07:59:40,2025-03-04 08:02:52,192.206,0.061%,
1001,2025-03-04 09:34:19,2025-03-04 09:37:37,197.5,0.063%,
1002,2025-03-04 11:09:00,2025-03-04 11:12:22,201.224,0.064%,
1003,2025-03-04 12:43:37,2025-03-04 12:47:06,208.766,0.066%,
