3UCubedIntegratedSim/Reports & Plots/North Cusp @ 1 Degree/CSV/Sat1.csv

Number,Coverage Start (UTCG),Coverage End (UTCG),Duration (sec),Percent,
1,2025-01-01 16:15:40,2025-01-01 16:22:05,384.474,0.122%,
2,2025-01-01 17:50:24,2025-01-01 17:56:47,382.621,0.121%,
3,2025-01-01 19:25:08,2025-01-01 19:31:36,387.792,0.123%,
4,2025-01-01 20:59:52,2025-01-01 21:06:25,392.208,0.124%,
5,2025-01-01 22:34:37,2025-01-01 22:41:04,387.839,0.123%,
6,2025-01-01 22:41:08,2025-01-01 22:41:13,4.943,0.002%,
7,2025-01-02 00:09:21,2025-01-02 00:15:46,385.059,0.122%,
8,2025-01-02 01:44:05,2025-01-02 01:50:27,381.969,0.121%,
9,2025-01-02 03:18:49,2025-01-02 03:25:16,386.607,0.123%,
10,2025-01-02 04:53:34,2025-01-02 05:00:05,390.986,0.124%,
11,2025-01-02 06:28:18,2025-01-02 06:34:53,394.772,0.125%,
12,2025-01-02 08:03:03,2025-01-02 08:09:27,384.175,0.122%,
13,2025-01-02 09:37:47,2025-01-02 09:44:08,380.697,0.121%,
14,2025-01-02 11:12:32,2025-01-02 11:18:56,383.692,0.122%,
15,2025-01-02 12:47:17,2025-01-02 12:53:45,388.371,0.123%,
16,2025-01-02 14:22:02,2025-01-02 14:28:33,391.632,0.124%,
17,2025-01-02 15:56:46,2025-01-02 16:03:08,382.073,0.121%,
18,2025-01-02 17:31:30,2025-01-02 17:37:49,379.121,0.120%,
19,2025-01-02 19:06:14,2025-01-02 19:12:35,381.259,0.121%,
20,2025-01-02 20:40:58,2025-01-02 20:47:26,388.27,0.123%,
21,2025-01-02 22:15:42,2025-01-02 22:22:14,391.23,0.124%,
22,2025-01-02 23:50:27,2025-01-02 23:57:02,395.2,0.125%,
23,2025-01-03 01:25:11,2025-01-03 01:31:30,379.338,0.120%,
24,2025-01-03 02:59:55,2025-01-03 03:06:15,379.387,0.120%,
25,2025-01-03 04:34:40,2025-01-03 04:41:08,388.102,0.123%,
26,2025-01-03 06:09:24,2025-01-03 06:15:54,389.684,0.124%,
27,2025-01-03 07:44:09,2025-01-03 07:50:42,393.545,0.125%,
28,2025-01-03 09:18:53,2025-01-03 09:25:11,378.038,0.120%,
29,2025-01-03 10:53:38,2025-01-03 10:59:54,376.239,0.119%,
30,2025-01-03 12:28:23,2025-01-03 12:34:49,386.298,0.123%,
31,2025-01-03 14:03:07,2025-01-03 14:09:34,386.318,0.123%,
32,2025-01-03 15:37:52,2025-01-03 15:44:22,390.493,0.124%,
33,2025-01-03 17:12:36,2025-01-03 17:18:52,376.315,0.119%,
34,2025-01-03 18:47:20,2025-01-03 18:53:49,388.616,0.123%,
35,2025-01-03 20:22:04,2025-01-03 20:28:30,386.069,0.122%,
36,2025-01-03 21:56:48,2025-01-03 22:03:14,385.476,0.122%,
37,2025-01-03 23:31:32,2025-01-03 23:38:03,390.158,0.124%,
38,2025-01-04 01:06:17,2025-01-04 01:12:51,394.212,0.125%,
39,2025-01-04 02:41:01,2025-01-04 02:47:30,388.785,0.123%,
40,2025-01-04 04:15:45,2025-01-04 04:22:11,385.895,0.122%,
41,2025-01-04 05:50:30,2025-01-04 05:56:53,383.537,0.122%,
42,2025-01-04 07:25:14,2025-01-04 07:31:43,388.276,0.123%,
43,2025-01-04 08:59:59,2025-01-04 09:06:31,392.229,0.124%,
44,2025-01-04 10:34:44,2025-01-04 10:41:11,387.398,0.123%,
45,2025-01-04 12:09:28,2025-01-04 12:15:52,384.092,0.122%,
46,2025-01-04 13:44:13,2025-01-04 13:50:34,380.447,0.121%,
47,2025-01-04 15:18:58,2025-01-04 15:25:23,384.831,0.122%,
48,2025-01-04 16:53:42,2025-01-04 17:00:11,389.645,0.124%,
49,2025-01-04 18:28:26,2025-01-04 18:35:00,393.87,0.125%,
50,2025-01-04 20:03:10,2025-01-04 20:09:34,383.731,0.122%,
51,2025-01-04 21:37:54,2025-01-04 21:44:15,380.696,0.121%,
52,2025-01-04 23:12:38,2025-01-04 23:19:02,384.127,0.122%,
53,2025-01-05 00:47:22,2025-01-05 00:53:51,389,0.123%,
54,2025-01-05 02:22:07,2025-01-05 02:28:40,393.151,0.125%,
55,2025-01-05 03:56:51,2025-01-05 04:03:15,383.546,0.122%,
56,2025-01-05 05:31:36,2025-01-05 05:37:56,380.148,0.121%,
57,2025-01-05 07:06:20,2025-01-05 07:12:42,381.765,0.121%,
58,2025-01-05 08:41:05,2025-01-05 08:47:33,388.384,0.123%,
59,2025-01-05 10:15:49,2025-01-05 10:22:20,390.817,0.124%,
60,2025-01-05 11:50:34,2025-01-05 11:56:56,381.741,0.121%,
61,2025-01-05 13:25:19,2025-01-05 13:31:37,377.879,0.120%,
62,2025-01-05 15:00:04,2025-01-05 15:06:21,377.505,0.120%,
63,2025-01-05 16:34:48,2025-01-05 16:41:14,386.738,0.123%,
64,2025-01-05 18:09:32,2025-01-05 18:16:00,388.711,0.123%,
65,2025-01-05 19:44:16,2025-01-05 19:50:49,393.024,0.125%,
66,2025-01-05 21:19:00,2025-01-05 21:25:18,377.977,0.120%,
67,2025-01-05 22:53:44,2025-01-05 23:00:01,376.691,0.119%,
68,2025-01-06 00:28:28,2025-01-06 00:34:55,387.234,0.123%,
69,2025-01-06 02:03:13,2025-01-06 02:09:40,387.741,0.123%,
70,2025-01-06 03:37:57,2025-01-06 03:44:29,392,0.124%,
71,2025-01-06 05:12:41,2025-01-06 05:18:59,377.385,0.120%,
72,2025-01-06 06:47:26,2025-01-06 06:53:42,376.513,0.119%,
73,2025-01-06 08:22:10,2025-01-06 08:28:37,386.24,0.123%,
74,2025-01-06 09:56:55,2025-01-06 10:03:20,385.108,0.122%,
75,2025-01-06 11:31:40,2025-01-06 11:38:09,389.295,0.123%,
76,2025-01-06 13:06:25,2025-01-06 13:12:57,392.821,0.125%,
77,2025-01-06 14:41:09,2025-01-06 14:47:36,386.952,0.123%,
78,2025-01-06 16:15:53,2025-01-06 16:22:18,384.475,0.122%,
79,2025-01-06 17:50:37,2025-01-06 17:57:00,382.479,0.121%,
80,2025-01-06 19:25:21,2025-01-06 19:31:49,387.678,0.123%,
81,2025-01-06 21:00:06,2025-01-06 21:06:38,392.099,0.124%,
82,2025-01-06 22:34:50,2025-01-06 22:41:18,387.77,0.123%,
83,2025-01-07 00:09:34,2025-01-07 00:15:59,384.958,0.122%,
84,2025-01-07 01:44:18,2025-01-07 01:50:40,381.835,0.121%,
85,2025-01-07 03:19:03,2025-01-07 03:25:29,386.374,0.123%,
86,2025-01-07 04:53:47,2025-01-07 05:00:18,390.764,0.124%,
87,2025-01-07 06:28:32,2025-01-07 06:34:59,387.146,0.123%,
88,2025-01-07 08:03:16,2025-01-07 08:09:40,383.957,0.122%,
89,2025-01-07 09:38:01,2025-01-07 09:44:21,380.433,0.121%,
90,2025-01-07 11:12:46,2025-01-07 11:19:09,383.308,0.122%,
91,2025-01-07 12:47:30,2025-01-07 12:53:58,387.665,0.123%,
92,2025-01-07 14:22:15,2025-01-07 14:28:46,391.251,0.124%,
93,2025-01-07 15:56:59,2025-01-07 16:03:21,382.072,0.121%,
94,2025-01-07 17:31:43,2025-01-07 17:38:02,379.082,0.120%,
95,2025-01-07 19:06:27,2025-01-07 19:12:48,381.079,0.121%,
96,2025-01-07 20:41:11,2025-01-07 20:47:38,386.551,0.123%,
97,2025-01-07 22:15:56,2025-01-07 22:22:27,391.099,0.124%,
98,2025-01-07 23:50:40,2025-01-07 23:57:02,382.537,0.121%,
99,2025-01-08 01:25:24,2025-01-08 01:31:43,379.192,0.120%,
100,2025-01-08 03:00:08,2025-01-08 03:06:28,379.057,0.120%,
101,2025-01-08 04:34:53,2025-01-08 04:41:21,387.95,0.123%,
102,2025-01-08 06:09:37,2025-01-08 06:16:07,389.43,0.124%,
103,2025-01-08 07:44:22,2025-01-08 07:50:55,393.293,0.125%,
104,2025-01-08 09:19:07,2025-01-08 09:25:24,377.767,0.120%,
105,2025-01-08 10:53:51,2025-01-08 11:00:07,376.021,0.119%,
106,2025-01-08 12:28:36,2025-01-08 12:35:02,386.009,0.122%,
107,2025-01-08 14:03:21,2025-01-08 14:09:47,385.907,0.122%,
108,2025-01-08 15:38:05,2025-01-08 15:44:35,390.446,0.124%,
109,2025-01-08 17:12:49,2025-01-08 17:19:05,376.264,0.119%,
110,2025-01-08 18:47:33,2025-01-08 18:53:49,375.866,0.119%,
111,2025-01-08 20:22:17,2025-01-08 20:28:43,386.019,0.122%,
112,2025-01-08 21:57:01,2025-01-08 22:03:27,385.302,0.122%,
113,2025-01-08 23:31:46,2025-01-08 23:38:16,390,0.124%,
114,2025-01-09 01:06:30,2025-01-09 01:12:46,376.331,0.119%,
115,2025-01-09 02:41:14,2025-01-09 02:47:31,376.388,0.119%,
116,2025-01-09 04:15:59,2025-01-09 04:22:24,385.737,0.122%,
117,2025-01-09 05:50:43,2025-01-09 05:57:06,383.233,0.122%,
118,2025-01-09 07:25:28,2025-01-09 07:31:56,387.996,0.123%,
119,2025-01-09 09:00:12,2025-01-09 09:06:44,391.948,0.124%,
120,2025-01-09 10:34:57,2025-01-09 10:41:24,387.147,0.123%,
121,2025-01-09 12:09:42,2025-01-09 12:16:06,383.799,0.122%,
122,2025-01-09 13:44:27,2025-01-09 13:50:47,380.105,0.121%,
123,2025-01-09 15:19:11,2025-01-09 15:25:36,384.746,0.122%,
124,2025-01-09 16:53:55,2025-01-09 17:00:24,389.575,0.124%,
125,2025-01-09 18:28:39,2025-01-09 18:35:05,386.422,0.123%,
126,2025-01-09 20:03:23,2025-01-09 20:09:47,383.675,0.122%,
127,2025-01-09 21:38:07,2025-01-09 21:44:28,380.604,0.121%,
128,2025-01-09 23:12:51,2025-01-09 23:19:15,383.922,0.122%,
129,2025-01-10 00:47:36,2025-01-10 00:54:05,388.816,0.123%,
130,2025-01-10 02:22:20,2025-01-10 02:28:53,392.968,0.125%,
131,2025-01-10 03:57:04,2025-01-10 04:03:28,383.385,0.122%,
132,2025-01-10 05:31:49,2025-01-10 05:38:09,379.941,0.121%,
133,2025-01-10 07:06:33,2025-01-10 07:12:55,381.418,0.121%,
134,2025-01-10 08:41:18,2025-01-10 08:47:45,386.443,0.123%,
135,2025-01-10 10:16:03,2025-01-10 10:22:33,390.506,0.124%,
136,2025-01-10 11:50:48,2025-01-10 11:57:09,381.447,0.121%,
137,2025-01-10 13:25:32,2025-01-10 13:31:50,377.532,0.120%,
138,2025-01-10 15:00:17,2025-01-10 15:06:34,377.318,0.120%,
139,2025-01-10 16:35:01,2025-01-10 16:41:24,383.607,0.122%,
140,2025-01-10 16:41:27,2025-01-10 16:41:27,0.67,0.000%,
141,2025-01-10 18:09:45,2025-01-10 18:16:13,388.613,0.123%,
142,2025-01-10 19:44:29,2025-01-10 19:50:50,381.179,0.121%,
143,2025-01-10 21:19:13,2025-01-10 21:25:31,377.874,0.120%,
144,2025-01-10 22:53:57,2025-01-10 23:00:14,376.651,0.119%,
145,2025-01-11 00:28:42,2025-01-11 00:35:09,387.132,0.123%,
146,2025-01-11 02:03:26,2025-01-11 02:09:53,387.527,0.123%,
147,2025-01-11 03:38:10,2025-01-11 03:44:42,391.799,0.124%,
148,2025-01-11 05:12:55,2025-01-11 05:19:12,377.175,0.120%,
149,2025-01-11 06:47:39,2025-01-11 06:53:56,376.36,0.119%,
150,2025-01-11 08:22:24,2025-01-11 08:28:50,386.018,0.122%,
151,2025-01-11 09:57:08,2025-01-11 10:03:33,384.755,0.122%,
152,2025-01-11 11:31:53,2025-01-11 11:38:22,388.949,0.123%,
153,2025-01-11 13:06:38,2025-01-11 13:12:53,374.736,0.119%,
154,2025-01-11 14:41:23,2025-01-11 14:47:37,374.722,0.119%,
155,2025-01-11 16:16:07,2025-01-11 16:22:31,384.468,0.122%,
156,2025-01-11 17:50:51,2025-01-11 17:57:13,382.325,0.121%,
157,2025-01-11 19:25:35,2025-01-11 19:32:02,387.559,0.123%,
158,2025-01-11 21:00:19,2025-01-11 21:06:51,391.988,0.124%,
159,2025-01-11 22:35:03,2025-01-11 22:41:19,375.905,0.119%,
160,2025-01-12 00:09:47,2025-01-12 00:16:12,384.85,0.122%,
161,2025-01-12 01:44:32,2025-01-12 01:50:53,381.694,0.121%,
162,2025-01-12 03:19:16,2025-01-12 03:25:42,386.131,0.122%,
163,2025-01-12 04:54:00,2025-01-12 05:00:31,390.533,0.124%,
164,2025-01-12 06:28:45,2025-01-12 06:35:12,386.956,0.123%,
165,2025-01-12 08:03:30,2025-01-12 08:09:53,383.732,0.122%,
166,2025-01-12 09:38:14,2025-01-12 09:44:34,380.162,0.121%,
167,2025-01-12 11:12:59,2025-01-12 11:19:22,382.912,0.121%,
168,2025-01-12 12:47:44,2025-01-12 12:54:11,387.279,0.123%,
169,2025-01-12 14:22:28,2025-01-12 14:28:53,384.739,0.122%,
170,2025-01-12 15:57:12,2025-01-12 16:03:34,382.056,0.121%,
171,2025-01-12 17:31:56,2025-01-12 17:38:15,379.039,0.120%,
172,2025-01-12 19:06:41,2025-01-12 19:13:01,380.888,0.121%,
173,2025-01-12 20:41:25,2025-01-12 20:47:51,386.399,0.123%,
174,2025-01-12 22:16:09,2025-01-12 22:22:40,390.955,0.124%,
175,2025-01-12 23:50:53,2025-01-12 23:57:16,382.421,0.121%,
176,2025-01-13 01:25:37,2025-01-13 01:31:56,379.043,0.120%,
177,2025-01-13 03:00:22,2025-01-13 03:06:41,378.708,0.120%,
178,2025-01-13 04:35:06,2025-01-13 04:41:31,384.596,0.122%,
179,2025-01-13 06:09:51,2025-01-13 06:16:20,389.169,0.123%,
180,2025-01-13 07:44:35,2025-01-13 07:50:57,381.292,0.121%,
181,2025-01-13 09:19:20,2025-01-13 09:25:37,377.488,0.120%,
182,2025-01-13 10:54:05,2025-01-13 11:00:21,375.793,0.119%,
183,2025-01-13 12:28:50,2025-01-13 12:35:15,385.705,0.122%,
184,2025-01-13 14:03:34,2025-01-13 14:10:00,385.694,0.122%,
185,2025-01-13 15:38:18,2025-01-13 15:44:49,390.393,0.124%,
186,2025-01-13 17:13:02,2025-01-13 17:19:18,376.205,0.119%,
187,2025-01-13 18:47:46,2025-01-13 18:54:02,375.872,0.119%,
188,2025-01-13 20:22:30,2025-01-13 20:28:56,385.959,0.122%,
189,2025-01-13 21:57:15,2025-01-13 22:03:40,385.119,0.122%,
190,2025-01-13 23:31:59,2025-01-13 23:38:29,389.837,0.124%,
191,2025-01-14 01:06:43,2025-01-14 01:12:59,376.166,0.119%,
192,2025-01-14 02:41:28,2025-01-14 02:47:44,376.29,0.119%,
193,2025-01-14 04:16:12,2025-01-14 04:22:38,385.571,0.122%,
194,2025-01-14 05:50:57,2025-01-14 05:57:19,382.914,0.121%,
195,2025-01-14 07:25:41,2025-01-14 07:32:09,387.702,0.123%,
196,2025-01-14 09:00:26,2025-01-14 09:06:40,374.572,0.119%,
197,2025-01-14 10:35:10,2025-01-14 10:41:26,375.111,0.119%,
198,2025-01-14 12:09:55,2025-01-14 12:16:19,383.49,0.122%,
199,2025-01-14 13:44:40,2025-01-14 13:51:00,379.832,0.120%,
200,2025-01-14 15:19:24,2025-01-14 15:25:49,384.65,0.122%,
201,2025-01-14 16:54:08,2025-01-14 17:00:38,389.493,0.124%,
202,2025-01-14 18:28:52,2025-01-14 18:35:07,375.098,0.119%,
203,2025-01-14 20:03:36,2025-01-14 20:10:00,383.612,0.122%,
204,2025-01-14 21:38:20,2025-01-14 21:44:41,380.506,0.121%,
205,2025-01-14 23:13:05,2025-01-14 23:19:28,383.705,0.122%,
206,2025-01-15 00:47:49,2025-01-15 00:54:18,388.623,0.123%,
207,2025-01-15 02:22:33,2025-01-15 02:29:00,386.34,0.123%,
208,2025-01-15 03:57:18,2025-01-15 04:03:41,383.211,0.122%,
209,2025-01-15 05:32:02,2025-01-15 05:38:22,379.732,0.120%,
210,2025-01-15 07:06:47,2025-01-15 07:13:08,381.054,0.121%,
211,2025-01-15 08:41:31,2025-01-15 08:47:58,386.111,0.122%,
212,2025-01-15 10:16:16,2025-01-15 10:22:46,390.173,0.124%,
213,2025-01-15 11:51:01,2025-01-15 11:57:22,381.131,0.121%,
214,2025-01-15 13:25:46,2025-01-15 13:32:03,377.169,0.120%,
215,2025-01-15 15:00:30,2025-01-15 15:06:47,377.115,0.120%,
216,2025-01-15 16:35:14,2025-01-15 16:41:37,383.475,0.122%,
217,2025-01-15 18:09:58,2025-01-15 18:16:26,388.507,0.123%,
218,2025-01-15 19:44:42,2025-01-15 19:51:03,381.107,0.121%,
219,2025-01-15 21:19:26,2025-01-15 21:25:44,377.763,0.120%,
220,2025-01-15 22:54:11,2025-01-15 23:00:25,374.848,0.119%,
221,2025-01-16 00:28:55,2025-01-16 00:35:17,382.133,0.121%,
222,2025-01-16 02:03:39,2025-01-16 02:10:06,387.309,0.123%,
223,2025-01-16 03:38:24,2025-01-16 03:44:44,380.685,0.121%,
224,2025-01-16 03:44:53,2025-01-16 03:44:55,2.398,0.001%,
225,2025-01-16 05:13:08,2025-01-16 05:19:25,376.951,0.120%,
226,2025-01-16 06:47:53,2025-01-16 06:54:05,372.697,0.118%,
227,2025-01-16 08:22:37,2025-01-16 08:29:03,385.783,0.122%,
228,2025-01-16 09:57:22,2025-01-16 10:03:46,384.384,0.122%,
229,2025-01-16 11:32:07,2025-01-16 11:38:35,388.588,0.123%,
230,2025-01-16 13:06:52,2025-01-16 13:13:06,374.363,0.119%,
231,2025-01-16 14:41:36,2025-01-16 14:47:50,374.772,0.119%,
232,2025-01-16 16:16:20,2025-01-16 16:22:44,384.454,0.122%,
233,2025-01-16 17:51:04,2025-01-16 17:57:26,382.164,0.121%,
234,2025-01-16 19:25:48,2025-01-16 19:32:15,387.427,0.123%,
235,2025-01-16 21:00:32,2025-01-16 21:06:47,374.776,0.119%,
236,2025-01-16 22:35:16,2025-01-16 22:41:32,375.856,0.119%,
237,2025-01-17 00:10:01,2025-01-17 00:16:25,384.731,0.122%,
238,2025-01-17 01:44:45,2025-01-17 01:51:06,381.54,0.121%,
239,2025-01-17 03:19:29,2025-01-17 03:25:55,385.876,0.122%,
240,2025-01-17 04:54:14,2025-01-17 05:00:44,390.288,0.124%,
241,2025-01-17 06:28:58,2025-01-17 06:35:14,375.483,0.119%,
242,2025-01-17 08:03:43,2025-01-17 08:10:06,383.494,0.122%,
243,2025-01-17 09:38:28,2025-01-17 09:44:48,379.882,0.121%,
244,2025-01-17 11:13:12,2025-01-17 11:19:35,382.501,0.121%,
245,2025-01-17 12:47:57,2025-01-17 12:54:24,386.88,0.123%,
246,2025-01-17 14:22:42,2025-01-17 14:28:56,373.969,0.119%,
247,2025-01-17 14:28:56,2025-01-17 14:29:06,10.222,0.003%,
248,2025-01-17 15:57:26,2025-01-17 16:03:48,382.035,0.121%,
249,2025-01-17 17:32:10,2025-01-17 17:38:29,378.981,0.120%,
250,2025-01-17 19:06:54,2025-01-17 19:13:14,380.679,0.121%,
251,2025-01-17 20:41:38,2025-01-17 20:48:04,386.238,0.123%,
252,2025-01-17 22:16:22,2025-01-17 22:22:53,390.807,0.124%,
253,2025-01-17 23:51:06,2025-01-17 23:57:29,382.297,0.121%,
254,2025-01-18 01:25:51,2025-01-18 01:32:10,378.878,0.120%,
255,2025-01-18 03:00:35,2025-01-18 03:06:53,378.341,0.120%,
256,2025-01-18 04:35:20,2025-01-18 04:41:44,384.306,0.122%,
257,2025-01-18 06:10:04,2025-01-18 06:16:33,388.896,0.123%,
258,2025-01-18 07:44:49,2025-01-18 07:51:10,381.045,0.121%,
259,2025-01-18 09:19:33,2025-01-18 09:25:51,377.198,0.120%,
260,2025-01-18 10:54:18,2025-01-18 11:00:32,373.597,0.119%,
261,2025-01-18 12:29:03,2025-01-18 12:35:23,380.433,0.121%,
262,2025-01-18 14:03:47,2025-01-18 14:10:13,385.62,0.122%,
263,2025-01-18 15:38:31,2025-01-18 15:44:51,379.449,0.120%,
264,2025-01-18 17:13:15,2025-01-18 17:19:32,376.137,0.119%,
265,2025-01-18 18:48:00,2025-01-18 18:54:12,372.312,0.118%,
266,2025-01-18 20:22:44,2025-01-18 20:29:03,378.969,0.120%,
267,2025-01-18 21:57:28,2025-01-18 22:03:53,384.927,0.122%,
268,2025-01-18 23:32:12,2025-01-18 23:38:42,389.663,0.124%,
269,2025-01-19 01:06:57,2025-01-19 01:13:13,375.992,0.119%,
270,2025-01-19 02:41:41,2025-01-19 02:47:53,371.737,0.118%,
271,2025-01-19 04:16:25,2025-01-19 04:22:51,385.396,0.122%,
272,2025-01-19 05:51:10,2025-01-19 05:57:32,382.585,0.121%,
273,2025-01-19 07:25:54,2025-01-19 07:32:22,387.399,0.123%,
274,2025-01-19 09:00:39,2025-01-19 09:06:53,374.268,0.119%,
275,2025-01-19 10:35:24,2025-01-19 10:41:33,369.499,0.117%,
276,2025-01-19 10:41:37,2025-01-19 10:41:39,1.912,0.001%,
277,2025-01-19 12:10:09,2025-01-19 12:16:32,383.172,0.122%,
278,2025-01-19 13:44:53,2025-01-19 13:51:13,379.828,0.120%,
279,2025-01-19 15:19:37,2025-01-19 15:26:02,384.546,0.122%,
280,2025-01-19 16:54:21,2025-01-19 17:00:51,389.407,0.124%,
281,2025-01-19 18:29:05,2025-01-19 18:35:20,375.095,0.119%,
282,2025-01-19 20:03:50,2025-01-19 20:10:13,383.541,0.122%,
283,2025-01-19 21:38:34,2025-01-19 21:44:54,380.4,0.121%,
284,2025-01-19 23:13:18,2025-01-19 23:19:41,383.479,0.122%,
285,2025-01-20 00:48:02,2025-01-20 00:54:31,388.421,0.123%,
286,2025-01-20 02:22:47,2025-01-20 02:29:02,375.433,0.119%,
287,2025-01-20 03:57:31,2025-01-20 04:03:54,383.033,0.122%,
288,2025-01-20 05:32:16,2025-01-20 05:38:35,379.512,0.120%,
289,2025-01-20 07:07:00,2025-01-20 07:13:21,380.673,0.121%,
290,2025-01-20 08:41:45,2025-01-20 08:48:11,385.772,0.122%,
291,2025-01-20 10:16:30,2025-01-20 10:22:54,384.419,0.122%,
292,2025-01-20 11:51:14,2025-01-20 11:57:35,380.805,0.121%,
293,2025-01-20 13:25:59,2025-01-20 13:32:16,377.113,0.120%,
294,2025-01-20 15:00:43,2025-01-20 15:07:00,376.897,0.120%,
295,2025-01-20 16:35:27,2025-01-20 16:41:50,383.34,0.122%,
296,2025-01-20 18:10:11,2025-01-20 18:16:40,388.394,0.123%,
297,2025-01-20 19:44:55,2025-01-20 19:51:16,381.025,0.121%,
298,2025-01-20 21:19:40,2025-01-20 21:25:57,377.646,0.120%,
299,2025-01-20 22:54:24,2025-01-20 23:00:38,374.394,0.119%,
300,2025-01-21 00:29:08,2025-01-21 00:35:30,381.87,0.121%,
301,2025-01-21 02:03:52,2025-01-21 02:10:20,387.078,0.123%,
302,2025-01-21 03:38:37,2025-01-21 03:44:57,380.496,0.121%,
303,2025-01-21 05:13:21,2025-01-21 05:19:38,376.72,0.120%,
304,2025-01-21 06:48:06,2025-01-21 06:54:18,372.415,0.118%,
305,2025-01-21 08:22:51,2025-01-21 08:29:09,378.521,0.120%,
306,2025-01-21 09:57:35,2025-01-21 10:03:59,384.006,0.122%,
307,2025-01-21 11:32:20,2025-01-21 11:38:48,388.214,0.123%,
308,2025-01-21 13:07:05,2025-01-21 13:13:19,374.163,0.119%,
309,2025-01-21 14:41:49,2025-01-21 14:47:59,370.312,0.117%,
310,2025-01-21 16:16:33,2025-01-21 16:22:57,384.433,0.122%,
311,2025-01-21 17:51:17,2025-01-21 17:57:39,381.991,0.121%,
312,2025-01-21 19:26:01,2025-01-21 19:32:28,387.288,0.123%,
313,2025-01-21 21:00:45,2025-01-21 21:07:00,374.644,0.119%,
314,2025-01-21 22:35:30,2025-01-21 22:41:40,370.364,0.117%,
315,2025-01-22 00:10:14,2025-01-22 00:16:39,384.607,0.122%,
316,2025-01-22 01:44:58,2025-01-22 01:51:20,381.38,0.121%,
317,2025-01-22 03:19:43,2025-01-22 03:26:08,385.613,0.122%,
318,2025-01-22 04:54:27,2025-01-22 05:00:41,373.669,0.119%,
319,2025-01-22 06:29:12,2025-01-22 06:35:21,368.89,0.117%,
320,2025-01-22 08:03:56,2025-01-22 08:10:20,383.247,0.122%,
321,2025-01-22 09:38:41,2025-01-22 09:45:01,379.589,0.120%,
322,2025-01-22 11:13:26,2025-01-22 11:19:48,382.076,0.121%,
323,2025-01-22 12:48:11,2025-01-22 12:54:37,386.526,0.123%,
324,2025-01-22 14:22:55,2025-01-22 14:29:09,374.01,0.119%,
325,2025-01-22 15:57:39,2025-01-22 16:04:01,382.01,0.121%,
326,2025-01-22 17:32:23,2025-01-22 17:38:42,378.918,0.120%,
327,2025-01-22 19:07:07,2025-01-22 19:13:27,380.469,0.121%,
328,2025-01-22 20:41:51,2025-01-22 20:48:17,386.069,0.122%,
329,2025-01-22 22:16:35,2025-01-22 22:22:50,375.024,0.119%,
330,2025-01-22 22:22:59,2025-01-22 22:23:01,1.943,0.001%,
331,2025-01-22 23:51:20,2025-01-22 23:57:42,382.164,0.121%,
332,2025-01-23 01:26:04,2025-01-23 01:32:23,378.712,0.120%,
333,2025-01-23 03:00:48,2025-01-23 03:07:06,377.964,0.120%,
334,2025-01-23 04:35:33,2025-01-23 04:41:57,384.007,0.122%,
335,2025-01-23 06:10:18,2025-01-23 06:16:46,388.616,0.123%,
336,2025-01-23 07:45:02,2025-01-23 07:51:23,380.789,0.121%,
337,2025-01-23 09:19:47,2025-01-23 09:26:04,376.895,0.120%,
338,2025-01-23 10:54:32,2025-01-23 11:00:45,372.942,0.118%,
339,2025-01-23 12:29:17,2025-01-23 12:35:37,379.958,0.121%,
340,2025-01-23 14:04:01,2025-01-23 14:10:26,385.538,0.122%,
341,2025-01-23 15:38:45,2025-01-23 15:45:04,379.412,0.120%,
342,2025-01-23 17:13:29,2025-01-23 17:19:45,376.063,0.119%,
343,2025-01-23 18:48:13,2025-01-23 18:54:25,372.195,0.118%,
344,2025-01-23 20:22:57,2025-01-23 20:29:16,378.702,0.120%,
345,2025-01-23 21:57:41,2025-01-23 22:04:06,384.727,0.122%,
346,2025-01-23 23:32:25,2025-01-23 23:38:45,379.553,0.120%,
347,2025-01-23 23:38:53,2025-01-23 23:38:55,1.673,0.001%,
348,2025-01-24 01:07:10,2025-01-24 01:13:26,375.809,0.119%,
349,2025-01-24 02:41:54,2025-01-24 02:48:06,371.505,0.118%,
350,2025-01-24 04:16:39,2025-01-24 04:22:54,375.444,0.119%,
351,2025-01-24 05:51:23,2025-01-24 05:57:46,382.244,0.121%,
352,2025-01-24 07:26:08,2025-01-24 07:32:35,387.08,0.123%,
353,2025-01-24 09:00:53,2025-01-24 09:07:07,373.954,0.119%,
354,2025-01-24 10:35:37,2025-01-24 10:41:47,369.125,0.117%,
355,2025-01-24 12:10:22,2025-01-24 12:16:45,382.842,0.121%,
356,2025-01-24 13:45:06,2025-01-24 13:51:26,379.818,0.120%,
357,2025-01-24 15:19:50,2025-01-24 15:26:15,384.435,0.122%,
358,2025-01-24 16:54:34,2025-01-24 17:00:47,372.945,0.118%,
359,2025-01-24 18:29:19,2025-01-24 18:35:27,368.595,0.117%,
360,2025-01-24 20:04:03,2025-01-24 20:10:26,383.46,0.122%,
361,2025-01-24 21:38:47,2025-01-24 21:45:07,380.288,0.121%,
362,2025-01-24 23:13:31,2025-01-24 23:19:55,383.24,0.122%,
363,2025-01-25 00:48:16,2025-01-25 00:54:44,388.214,0.123%,
364,2025-01-25 02:23:00,2025-01-25 02:29:08,367.777,0.117%,
365,2025-01-25 03:57:45,2025-01-25 04:04:07,382.84,0.121%,
366,2025-01-25 05:32:29,2025-01-25 05:38:48,379.285,0.120%,
367,2025-01-25 07:07:14,2025-01-25 07:13:34,380.283,0.121%,
368,2025-01-25 08:41:58,2025-01-25 08:48:24,385.421,0.122%,
369,2025-01-25 10:16:43,2025-01-25 10:22:57,373.912,0.119%,
370,2025-01-25 11:51:28,2025-01-25 11:57:48,380.469,0.121%,
371,2025-01-25 13:26:12,2025-01-25 13:32:29,377.092,0.120%,
372,2025-01-25 15:00:56,2025-01-25 15:07:13,376.666,0.119%,
373,2025-01-25 16:35:40,2025-01-25 16:42:04,383.194,0.122%,
374,2025-01-25 18:10:24,2025-01-25 18:16:53,388.274,0.123%,
375,2025-01-25 19:45:09,2025-01-25 19:51:30,380.94,0.121%,
376,2025-01-25 21:19:53,2025-01-25 21:26:10,377.522,0.120%,
377,2025-01-25 22:54:37,2025-01-25 23:00:51,373.904,0.119%,
378,2025-01-26 00:29:21,2025-01-26 00:35:43,381.592,0.121%,
379,2025-01-26 02:04:06,2025-01-26 02:10:33,386.838,0.123%,
380,2025-01-26 03:38:50,2025-01-26 03:45:11,380.298,0.121%,
381,2025-01-26 05:13:35,2025-01-26 05:19:51,376.479,0.119%,
382,2025-01-26 06:48:19,2025-01-26 06:54:32,372.122,0.118%,
383,2025-01-26 08:23:04,2025-01-26 08:29:22,378.068,0.120%,
384,2025-01-26 09:57:49,2025-01-26 10:04:12,383.615,0.122%,
385,2025-01-26 11:32:34,2025-01-26 11:38:52,377.922,0.120%,
386,2025-01-26 13:07:18,2025-01-26 13:13:32,374.129,0.119%,
387,2025-01-26 14:42:02,2025-01-26 14:48:12,370.23,0.117%,
388,2025-01-26 16:16:46,2025-01-26 16:23:01,374.48,0.119%,
389,2025-01-26 17:51:30,2025-01-26 17:57:52,381.812,0.121%,
390,2025-01-26 19:26:14,2025-01-26 19:32:42,387.136,0.123%,
391,2025-01-26 21:00:59,2025-01-26 21:07:13,374.509,0.119%,
392,2025-01-26 22:35:43,2025-01-26 22:41:53,370.174,0.117%,
393,2025-01-27 00:10:27,2025-01-27 00:16:52,384.473,0.122%,
394,2025-01-27 01:45:12,2025-01-27 01:51:33,381.212,0.121%,
395,2025-01-27 03:19:56,2025-01-27 03:26:21,385.339,0.122%,
396,2025-01-27 04:54:41,2025-01-27 05:00:54,373.413,0.118%,
397,2025-01-27 06:29:25,2025-01-27 06:35:34,368.572,0.117%,
398,2025-01-27 08:04:10,2025-01-27 08:10:33,382.989,0.121%,
399,2025-01-27 09:38:55,2025-01-27 09:45:14,379.286,0.120%,
400,2025-01-27 11:13:39,2025-01-27 11:20:01,381.636,0.121%,
401,2025-01-27 12:48:24,2025-01-27 12:54:50,386.463,0.123%,
402,2025-01-27 14:23:08,2025-01-27 14:29:14,366.432,0.116%,
403,2025-01-27 15:57:52,2025-01-27 16:04:14,381.974,0.121%,
404,2025-01-27 17:32:36,2025-01-27 17:38:55,378.847,0.120%,
405,2025-01-27 19:07:20,2025-01-27 19:13:40,380.235,0.121%,
406,2025-01-27 20:42:04,2025-01-27 20:48:30,385.89,0.122%,
407,2025-01-27 22:16:49,2025-01-27 22:22:55,366.211,0.116%,
408,2025-01-27 23:51:33,2025-01-27 23:57:55,382.025,0.121%,
409,2025-01-28 01:26:17,2025-01-28 01:32:36,378.533,0.120%,
410,2025-01-28 03:01:02,2025-01-28 03:07:19,377.566,0.120%,
411,2025-01-28 04:35:46,2025-01-28 04:42:10,383.696,0.122%,
412,2025-01-28 06:10:31,2025-01-28 06:16:55,384.059,0.122%,
413,2025-01-28 07:45:16,2025-01-28 07:51:36,380.527,0.121%,
414,2025-01-28 09:20:00,2025-01-28 09:26:17,376.583,0.119%,
415,2025-01-28 10:54:45,2025-01-28 11:00:57,372.231,0.118%,
416,2025-01-28 12:29:30,2025-01-28 12:35:50,379.752,0.120%,
417,2025-01-28 14:04:14,2025-01-28 14:10:39,385.446,0.122%,
418,2025-01-28 15:38:58,2025-01-28 15:45:17,379.367,0.120%,
419,2025-01-28 17:13:42,2025-01-28 17:19:58,375.98,0.119%,
420,2025-01-28 18:48:26,2025-01-28 18:54:38,372.062,0.118%,
421,2025-01-28 20:23:10,2025-01-28 20:29:29,378.417,0.120%,
422,2025-01-28 21:57:54,2025-01-28 22:04:19,384.513,0.122%,
423,2025-01-28 23:32:39,2025-01-28 23:38:58,379.401,0.120%,
424,2025-01-29 01:07:23,2025-01-29 01:13:39,375.617,0.119%,
425,2025-01-29 02:42:08,2025-01-29 02:48:19,371.262,0.118%,
426,2025-01-29 04:16:52,2025-01-29 04:23:07,374.933,0.119%,
427,2025-01-29 05:51:37,2025-01-29 05:57:59,381.891,0.121%,
428,2025-01-29 07:26:21,2025-01-29 07:32:48,386.752,0.123%,
429,2025-01-29 09:01:06,2025-01-29 09:07:20,373.63,0.119%,
430,2025-01-29 10:35:51,2025-01-29 10:42:00,368.732,0.117%,
431,2025-01-29 12:10:36,2025-01-29 12:16:43,367.509,0.117%,
432,2025-01-29 12:16:53,2025-01-29 12:16:58,5.109,0.002%,
433,2025-01-29 13:45:20,2025-01-29 13:51:39,379.798,0.120%,
434,2025-01-29 15:20:04,2025-01-29 15:26:28,384.312,0.122%,
435,2025-01-29 16:54:48,2025-01-29 17:01:01,372.846,0.118%,
436,2025-01-29 18:29:32,2025-01-29 18:35:40,368.44,0.117%,
437,2025-01-29 20:04:16,2025-01-29 20:10:39,383.371,0.122%,
438,2025-01-29 21:39:00,2025-01-29 21:45:20,380.166,0.121%,
439,2025-01-29 23:13:45,2025-01-29 23:20:08,382.992,0.121%,
440,2025-01-30 00:48:29,2025-01-30 00:54:57,387.994,0.123%,
441,2025-01-30 02:23:13,2025-01-30 02:29:21,367.504,0.117%,
442,2025-01-30 03:57:58,2025-01-30 04:04:21,382.64,0.121%,
443,2025-01-30 05:32:42,2025-01-30 05:39:01,379.042,0.120%,
444,2025-01-30 07:07:27,2025-01-30 07:13:47,379.874,0.121%,
445,2025-01-30 08:42:12,2025-01-30 08:48:37,385.053,0.122%,
446,2025-01-30 10:16:57,2025-01-30 10:23:01,364.825,0.116%,
447,2025-01-30 11:51:41,2025-01-30 11:58:02,380.147,0.121%,
448,2025-01-30 13:26:25,2025-01-30 13:32:42,377.062,0.120%,
449,2025-01-30 15:01:09,2025-01-30 15:07:26,376.411,0.119%,
450,2025-01-30 16:35:54,2025-01-30 16:42:17,383.039,0.122%,
451,2025-01-30 18:10:38,2025-01-30 18:16:42,364.201,0.116%,
452,2025-01-30 18:16:46,2025-01-30 18:16:52,5.913,0.002%,
453,2025-01-30 19:45:22,2025-01-30 19:51:43,380.841,0.121%,
454,2025-01-30 21:20:06,2025-01-30 21:26:23,377.389,0.120%,
455,2025-01-30 22:54:50,2025-01-30 23:01:04,373.444,0.118%,
456,2025-01-31 00:29:35,2025-01-31 00:35:56,381.301,0.121%,
457,2025-01-31 02:04:19,2025-01-31 02:10:46,386.586,0.123%,
458,2025-01-31 03:39:04,2025-01-31 03:45:24,380.09,0.121%,
459,2025-01-31 05:13:48,2025-01-31 05:20:04,376.227,0.119%,
460,2025-01-31 06:48:33,2025-01-31 06:54:45,371.815,0.118%,
461,2025-01-31 08:23:18,2025-01-31 08:29:35,377.59,0.120%,
462,2025-01-31 09:58:02,2025-01-31 10:04:26,383.203,0.122%,
463,2025-01-31 11:32:47,2025-01-31 11:39:05,377.561,0.120%,
464,2025-01-31 13:07:31,2025-01-31 13:13:45,374.084,0.119%,
465,2025-01-31 14:42:15,2025-01-31 14:48:25,370.138,0.117%,
466,2025-01-31 16:16:59,2025-01-31 16:23:13,374.113,0.119%,
467,2025-01-31 17:51:43,2025-01-31 17:58:05,381.618,0.121%,
468,2025-01-31 19:26:28,2025-01-31 19:32:55,386.98,0.123%,
469,2025-01-31 21:01:12,2025-01-31 21:07:26,374.362,0.119%,
470,2025-01-31 22:35:56,2025-01-31 22:42:06,369.968,0.117%,
471,2025-02-01 00:10:41,2025-02-01 00:16:50,369.198,0.117%,
472,2025-02-01 01:45:25,2025-02-01 01:51:46,381.038,0.121%,
473,2025-02-01 03:20:09,2025-02-01 03:26:34,385.052,0.122%,
474,2025-02-01 04:54:54,2025-02-01 05:01:07,373.145,0.118%,
475,2025-02-01 06:29:39,2025-02-01 06:35:47,368.238,0.117%,
476,2025-02-01 08:04:23,2025-02-01 08:10:46,382.715,0.121%,
477,2025-02-01 09:39:08,2025-02-01 09:45:27,378.976,0.120%,
478,2025-02-01 11:13:53,2025-02-01 11:20:14,381.18,0.121%,
479,2025-02-01 12:48:37,2025-02-01 12:54:48,370.814,0.118%,
480,2025-02-01 12:54:58,2025-02-01 12:55:03,5.446,0.002%,
481,2025-02-01 14:23:21,2025-02-01 14:29:27,366.309,0.116%,
482,2025-02-01 15:58:05,2025-02-01 16:04:27,381.927,0.121%,
483,2025-02-01 17:32:49,2025-02-01 17:39:08,378.769,0.120%,
484,2025-02-01 19:07:33,2025-02-01 19:13:53,379.993,0.121%,
485,2025-02-01 20:42:18,2025-02-01 20:48:43,385.7,0.122%,
486,2025-02-01 22:17:02,2025-02-01 22:23:08,365.972,0.116%,
487,2025-02-01 23:51:46,2025-02-01 23:58:08,381.875,0.121%,
488,2025-02-02 01:26:31,2025-02-02 01:32:49,378.345,0.120%,
489,2025-02-02 03:01:15,2025-02-02 03:07:32,377.143,0.120%,
490,2025-02-02 04:36:00,2025-02-02 04:42:23,383.372,0.122%,
491,2025-02-02 06:10:44,2025-02-02 06:16:48,364.04,0.115%,
492,2025-02-02 07:45:29,2025-02-02 07:51:49,380.246,0.121%,
493,2025-02-02 09:20:14,2025-02-02 09:26:30,376.258,0.119%,
494,2025-02-02 10:54:59,2025-02-02 11:01:10,371.74,0.118%,
495,2025-02-02 12:29:43,2025-02-02 12:36:03,379.602,0.120%,
496,2025-02-02 14:04:27,2025-02-02 14:10:52,385.345,0.122%,
497,2025-02-02 15:39:11,2025-02-02 15:45:30,379.315,0.120%,
498,2025-02-02 17:13:55,2025-02-02 17:20:11,375.892,0.119%,
499,2025-02-02 18:48:39,2025-02-02 18:54:51,371.925,0.118%,
500,2025-02-02 20:23:23,2025-02-02 20:29:42,378.117,0.120%,
501,2025-02-02 21:58:08,2025-02-02 22:04:32,384.289,0.122%,
502,2025-02-02 23:32:52,2025-02-02 23:39:11,379.241,0.120%,
503,2025-02-03 01:07:36,2025-02-03 01:13:52,375.417,0.119%,
504,2025-02-03 02:42:21,2025-02-03 02:48:32,371.009,0.118%,
505,2025-02-03 04:17:05,2025-02-03 04:23:20,374.386,0.119%,
506,2025-02-03 05:51:50,2025-02-03 05:58:12,381.524,0.121%,
507,2025-02-03 07:26:35,2025-02-03 07:33:01,386.415,0.123%,
508,2025-02-03 09:01:20,2025-02-03 09:07:33,373.289,0.118%,
509,2025-02-03 10:36:04,2025-02-03 10:42:13,368.325,0.117%,
510,2025-02-03 12:10:49,2025-02-03 12:16:56,367.529,0.117%,
511,2025-02-03 13:45:33,2025-02-03 13:51:53,379.775,0.120%,
512,2025-02-03 15:20:17,2025-02-03 15:26:41,384.181,0.122%,
513,2025-02-03 16:55:01,2025-02-03 17:01:14,372.739,0.118%,
514,2025-02-03 18:29:45,2025-02-03 18:35:53,368.273,0.117%,
515,2025-02-03 20:04:29,2025-02-03 20:10:53,383.276,0.122%,
516,2025-02-03 21:39:14,2025-02-03 21:45:34,380.036,0.121%,
517,2025-02-03 23:13:58,2025-02-03 23:20:21,382.734,0.121%,
518,2025-02-04 00:48:42,2025-02-04 00:54:54,372.193,0.118%,
519,2025-02-04 02:23:27,2025-02-04 02:29:34,367.22,0.116%,
520,2025-02-04 03:58:11,2025-02-04 04:04:34,382.431,0.121%,
521,2025-02-04 05:32:56,2025-02-04 05:39:15,378.793,0.120%,
522,2025-02-04 07:07:41,2025-02-04 07:14:00,379.455,0.120%,
523,2025-02-04 08:42:25,2025-02-04 08:48:50,384.677,0.122%,
524,2025-02-04 10:17:10,2025-02-04 10:23:14,364.384,0.116%,
525,2025-02-04 11:51:55,2025-02-04 11:58:15,380.145,0.121%,
526,2025-02-04 13:26:39,2025-02-04 13:32:56,377.025,0.120%,
527,2025-02-04 15:01:23,2025-02-04 15:07:39,376.142,0.119%,
528,2025-02-04 16:36:07,2025-02-04 16:42:30,382.877,0.121%,
529,2025-02-04 18:10:51,2025-02-04 18:16:55,363.991,0.115%,
530,2025-02-04 19:45:35,2025-02-04 19:51:56,380.738,0.121%,
531,2025-02-04 21:20:19,2025-02-04 21:26:37,377.249,0.120%,
532,2025-02-04 22:55:04,2025-02-04 23:01:17,373.255,0.118%,
533,2025-02-05 00:29:48,2025-02-05 00:36:09,380.995,0.121%,
534,2025-02-05 02:04:33,2025-02-05 02:10:59,386.326,0.123%,
535,2025-02-05 03:39:17,2025-02-05 03:45:37,379.878,0.121%,
536,2025-02-05 05:14:02,2025-02-05 05:20:18,375.969,0.119%,
537,2025-02-05 06:48:46,2025-02-05 06:54:58,371.499,0.118%,
538,2025-02-05 08:23:31,2025-02-05 08:29:48,377.101,0.120%,
539,2025-02-05 09:58:16,2025-02-05 10:04:39,382.782,0.121%,
540,2025-02-05 11:33:00,2025-02-05 11:39:18,377.45,0.120%,
541,2025-02-05 13:07:44,2025-02-05 13:13:58,374.035,0.119%,
542,2025-02-05 14:42:28,2025-02-05 14:48:39,370.04,0.117%,
543,2025-02-05 16:17:13,2025-02-05 16:23:26,373.715,0.119%,
544,2025-02-05 17:51:57,2025-02-05 17:58:18,381.414,0.121%,
545,2025-02-05 19:26:41,2025-02-05 19:33:08,386.815,0.123%,
546,2025-02-05 21:01:25,2025-02-05 21:07:39,374.205,0.119%,
547,2025-02-05 22:36:09,2025-02-05 22:42:19,369.763,0.117%,
548,2025-02-06 00:10:54,2025-02-06 00:17:03,369.064,0.117%,
549,2025-02-06 01:45:38,2025-02-06 01:51:59,380.848,0.121%,
550,2025-02-06 03:20:23,2025-02-06 03:26:48,384.758,0.122%,
551,2025-02-06 04:55:07,2025-02-06 05:01:20,372.865,0.118%,
552,2025-02-06 06:29:52,2025-02-06 06:36:00,367.897,0.117%,
553,2025-02-06 08:04:37,2025-02-06 08:10:59,382.438,0.121%,
554,2025-02-06 09:39:22,2025-02-06 09:45:40,378.645,0.120%,
555,2025-02-06 11:14:06,2025-02-06 11:20:27,380.84,0.121%,
556,2025-02-06 12:48:50,2025-02-06 12:55:01,370.745,0.118%,
557,2025-02-06 14:23:34,2025-02-06 14:29:40,366.178,0.116%,
558,2025-02-06 15:58:18,2025-02-06 16:04:40,381.876,0.121%,
559,2025-02-06 17:33:03,2025-02-06 17:39:21,378.682,0.120%,
560,2025-02-06 19:07:47,2025-02-06 19:14:06,379.743,0.120%,
561,2025-02-06 20:42:31,2025-02-06 20:48:56,385.507,0.122%,
562,2025-02-06 22:17:15,2025-02-06 22:23:21,365.726,0.116%,
563,2025-02-06 23:52:00,2025-02-06 23:58:21,381.72,0.121%,
564,2025-02-07 01:26:44,2025-02-07 01:33:02,378.149,0.120%,
565,2025-02-07 03:01:29,2025-02-07 03:07:45,376.712,0.120%,
566,2025-02-07 04:36:13,2025-02-07 04:42:36,383.039,0.122%,
567,2025-02-07 06:10:58,2025-02-07 06:17:01,363.651,0.115%,
568,2025-02-07 07:45:42,2025-02-07 07:52:02,379.958,0.121%,
569,2025-02-07 09:20:27,2025-02-07 09:26:43,375.923,0.119%,
570,2025-02-07 10:55:12,2025-02-07 11:01:23,371.342,0.118%,
571,2025-02-07 12:29:56,2025-02-07 12:36:16,379.448,0.120%,
572,2025-02-07 14:04:40,2025-02-07 14:11:05,385.238,0.122%,
573,2025-02-07 15:39:24,2025-02-07 15:45:43,379.256,0.120%,
574,2025-02-07 17:14:08,2025-02-07 17:20:24,375.787,0.119%,
575,2025-02-07 18:48:53,2025-02-07 18:55:04,371.778,0.118%,
576,2025-02-07 20:23:37,2025-02-07 20:29:55,377.805,0.120%,
577,2025-02-07 21:58:21,2025-02-07 22:04:45,384.061,0.122%,
578,2025-02-07 23:33:05,2025-02-07 23:39:24,379.076,0.120%,
579,2025-02-08 01:07:50,2025-02-08 01:14:05,375.209,0.119%,
580,2025-02-08 02:42:34,2025-02-08 02:48:45,370.748,0.118%,
581,2025-02-08 04:17:19,2025-02-08 04:23:33,373.811,0.119%,
582,2025-02-08 05:52:03,2025-02-08 05:58:25,381.148,0.121%,
583,2025-02-08 07:26:48,2025-02-08 07:33:14,386.064,0.122%,
584,2025-02-08 09:01:33,2025-02-08 09:07:46,372.94,0.118%,
585,2025-02-08 10:36:18,2025-02-08 10:42:26,367.912,0.117%,
586,2025-02-08 12:11:02,2025-02-08 12:17:10,367.545,0.117%,
587,2025-02-08 13:45:46,2025-02-08 13:52:06,379.737,0.120%,
588,2025-02-08 15:20:30,2025-02-08 15:26:54,384.042,0.122%,
589,2025-02-08 16:55:14,2025-02-08 17:01:27,372.62,0.118%,
590,2025-02-08 18:29:58,2025-02-08 18:36:06,368.098,0.117%,
591,2025-02-08 20:04:43,2025-02-08 20:11:06,383.175,0.122%,
592,2025-02-08 21:39:27,2025-02-08 21:45:47,379.897,0.121%,
593,2025-02-08 23:14:11,2025-02-08 23:20:34,382.467,0.121%,
594,2025-02-09 00:48:56,2025-02-09 00:55:08,371.966,0.118%,
595,2025-02-09 02:23:40,2025-02-09 02:29:47,366.926,0.116%,
596,2025-02-09 03:58:25,2025-02-09 04:04:47,382.214,0.121%,
597,2025-02-09 05:33:09,2025-02-09 05:39:28,378.536,0.120%,
598,2025-02-09 07:07:54,2025-02-09 07:14:13,379.02,0.120%,
599,2025-02-09 08:42:39,2025-02-09 08:49:03,384.288,0.122%,
600,2025-02-09 10:17:24,2025-02-09 10:23:28,363.93,0.115%,
601,2025-02-09 11:52:08,2025-02-09 11:58:28,380.137,0.121%,
602,2025-02-09 13:26:52,2025-02-09 13:33:09,376.98,0.120%,
603,2025-02-09 15:01:36,2025-02-09 15:07:52,375.857,0.119%,
604,2025-02-09 16:36:20,2025-02-09 16:42:43,382.701,0.121%,
605,2025-02-09 18:11:04,2025-02-09 18:17:08,363.77,0.115%,
606,2025-02-09 19:45:48,2025-02-09 19:52:09,380.628,0.121%,
607,2025-02-09 21:20:33,2025-02-09 21:26:50,377.098,0.120%,
608,2025-02-09 22:55:17,2025-02-09 23:01:30,373.061,0.118%,
609,2025-02-10 00:30:01,2025-02-10 00:36:22,380.68,0.121%,
610,2025-02-10 02:04:46,2025-02-10 02:11:12,386.055,0.122%,
611,2025-02-10 03:39:30,2025-02-10 03:45:50,379.647,0.120%,
612,2025-02-10 05:14:15,2025-02-10 05:20:31,375.695,0.119%,
613,2025-02-10 06:49:00,2025-02-10 06:55:11,371.173,0.118%,
614,2025-02-10 08:23:44,2025-02-10 08:30:01,376.594,0.119%,
615,2025-02-10 09:58:29,2025-02-10 10:04:52,382.347,0.121%,
616,2025-02-10 11:33:14,2025-02-10 11:39:31,377.434,0.120%,
617,2025-02-10 13:07:58,2025-02-10 13:14:12,373.975,0.119%,
618,2025-02-10 14:42:42,2025-02-10 14:48:52,369.932,0.117%,
619,2025-02-10 16:17:26,2025-02-10 16:23:39,373.282,0.118%,
620,2025-02-10 17:52:10,2025-02-10 17:58:31,381.268,0.121%,
621,2025-02-10 19:26:54,2025-02-10 19:33:21,386.64,0.123%,
622,2025-02-10 21:01:38,2025-02-10 21:07:52,374.041,0.119%,
623,2025-02-10 22:36:23,2025-02-10 22:42:32,369.542,0.117%,
624,2025-02-11 00:11:07,2025-02-11 00:17:16,368.921,0.117%,
625,2025-02-11 01:45:52,2025-02-11 01:52:12,380.653,0.121%,
626,2025-02-11 03:20:36,2025-02-11 03:27:01,384.446,0.122%,
627,2025-02-11 04:55:21,2025-02-11 05:01:33,372.579,0.118%,
628,2025-02-11 06:30:05,2025-02-11 06:36:13,367.543,0.117%,
629,2025-02-11 08:04:50,2025-02-11 08:11:12,382.141,0.121%,
630,2025-02-11 09:39:35,2025-02-11 09:45:53,378.303,0.120%,
631,2025-02-11 11:14:19,2025-02-11 11:20:40,380.715,0.121%,
632,2025-02-11 12:49:03,2025-02-11 12:55:14,370.668,0.118%,
633,2025-02-11 14:23:48,2025-02-11 14:29:54,366.036,0.116%,
634,2025-02-11 15:58:32,2025-02-11 16:04:53,381.818,0.121%,
635,2025-02-11 17:33:16,2025-02-11 17:39:34,378.589,0.120%,
636,2025-02-11 19:08:00,2025-02-11 19:14:19,379.481,0.120%,
637,2025-02-11 20:42:44,2025-02-11 20:49:10,385.3,0.122%,
638,2025-02-11 22:17:29,2025-02-11 22:23:34,365.463,0.116%,
639,2025-02-11 23:52:13,2025-02-11 23:58:35,381.554,0.121%,
640,2025-02-12 01:26:57,2025-02-12 01:33:15,377.944,0.120%,
641,2025-02-12 03:01:42,2025-02-12 03:07:58,376.25,0.119%,
642,2025-02-12 04:36:27,2025-02-12 04:42:49,382.69,0.121%,
643,2025-02-12 06:11:11,2025-02-12 06:17:14,363.246,0.115%,
644,2025-02-12 07:45:56,2025-02-12 07:52:16,379.658,0.120%,
645,2025-02-12 09:20:41,2025-02-12 09:26:56,375.571,0.119%,
646,2025-02-12 10:55:25,2025-02-12 11:01:37,371.291,0.118%,
647,2025-02-12 12:30:09,2025-02-12 12:36:29,379.28,0.120%,
648,2025-02-12 14:04:53,2025-02-12 14:11:18,385.119,0.122%,
649,2025-02-12 15:39:37,2025-02-12 15:45:57,379.188,0.120%,
650,2025-02-12 17:14:22,2025-02-12 17:20:37,375.682,0.119%,
651,2025-02-12 18:49:06,2025-02-12 18:55:17,371.624,0.118%,
652,2025-02-12 20:23:50,2025-02-12 20:30:08,377.469,0.120%,
653,2025-02-12 21:58:34,2025-02-12 22:04:58,383.82,0.122%,
654,2025-02-12 23:33:19,2025-02-12 23:39:38,378.901,0.120%,
655,2025-02-13 01:08:03,2025-02-13 01:14:18,374.989,0.119%,
656,2025-02-13 02:42:48,2025-02-13 02:48:58,370.475,0.118%,
657,2025-02-13 04:17:32,2025-02-13 04:23:45,373.189,0.118%,
658,2025-02-13 05:52:17,2025-02-13 05:58:38,380.881,0.121%,
659,2025-02-13 07:27:02,2025-02-13 07:33:27,385.7,0.122%,
660,2025-02-13 09:01:46,2025-02-13 09:07:59,372.578,0.118%,
661,2025-02-13 10:36:31,2025-02-13 10:42:39,367.709,0.117%,
662,2025-02-13 12:11:15,2025-02-13 12:17:23,367.551,0.117%,
663,2025-02-13 13:45:59,2025-02-13 13:52:19,379.696,0.120%,
664,2025-02-13 15:20:43,2025-02-13 15:27:07,383.888,0.122%,
665,2025-02-13 16:55:27,2025-02-13 17:01:40,372.494,0.118%,
666,2025-02-13 18:30:12,2025-02-13 18:36:20,367.915,0.117%,
667,2025-02-13 20:04:56,2025-02-13 20:11:19,383.064,0.122%,
668,2025-02-13 21:39:40,2025-02-13 21:46:00,379.752,0.120%,
669,2025-02-13 23:14:25,2025-02-13 23:20:47,382.184,0.121%,
670,2025-02-14 00:49:09,2025-02-14 00:55:21,371.728,0.118%,
671,2025-02-14 00:55:31,2025-02-14 00:55:36,5.568,0.002%,
672,2025-02-14 02:23:53,2025-02-14 02:30:00,366.619,0.116%,
673,2025-02-14 03:58:38,2025-02-14 04:05:00,381.985,0.121%,
674,2025-02-14 05:33:23,2025-02-14 05:39:41,378.261,0.120%,
675,2025-02-14 07:08:07,2025-02-14 07:14:26,378.565,0.120%,
676,2025-02-14 08:42:52,2025-02-14 08:49:16,383.88,0.122%,
677,2025-02-14 10:17:37,2025-02-14 10:23:41,363.553,0.115%,
678,2025-02-14 11:52:21,2025-02-14 11:58:41,380.12,0.121%,
679,2025-02-14 13:27:05,2025-02-14 13:33:22,376.927,0.120%,
680,2025-02-14 15:01:49,2025-02-14 15:08:05,375.548,0.119%,
681,2025-02-14 16:36:33,2025-02-14 16:42:56,382.516,0.121%,
682,2025-02-14 18:11:17,2025-02-14 18:17:21,363.532,0.115%,
683,2025-02-14 19:46:02,2025-02-14 19:52:22,380.514,0.121%,
684,2025-02-14 21:20:46,2025-02-14 21:27:03,376.941,0.120%,
685,2025-02-14 22:55:30,2025-02-14 23:01:43,372.857,0.118%,
686,2025-02-15 00:30:15,2025-02-15 00:36:35,380.351,0.121%,
687,2025-02-15 02:04:59,2025-02-15 02:11:25,385.772,0.122%,
688,2025-02-15 03:39:44,2025-02-15 03:46:03,379.416,0.120%,
689,2025-02-15 05:14:28,2025-02-15 05:20:44,375.413,0.119%,
690,2025-02-15 06:49:13,2025-02-15 06:55:24,370.834,0.118%,
691,2025-02-15 08:23:58,2025-02-15 08:30:14,376.058,0.119%,
692,2025-02-15 09:58:43,2025-02-15 10:05:05,381.893,0.121%,
693,2025-02-15 11:33:27,2025-02-15 11:39:44,377.408,0.120%,
694,2025-02-15 13:08:11,2025-02-15 13:14:25,373.909,0.119%,
695,2025-02-15 14:42:55,2025-02-15 14:49:05,369.816,0.117%,
696,2025-02-15 16:17:39,2025-02-15 16:23:52,372.802,0.118%,
697,2025-02-15 17:52:23,2025-02-15 17:58:44,381.177,0.121%,
698,2025-02-15 19:27:07,2025-02-15 19:33:34,386.455,0.123%,
699,2025-02-15 21:01:52,2025-02-15 21:08:06,373.869,0.119%,
700,2025-02-15 22:36:36,2025-02-15 22:42:45,369.314,0.117%,
701,2025-02-16 00:11:21,2025-02-16 00:17:29,368.769,0.117%,
702,2025-02-16 01:46:05,2025-02-16 01:52:25,380.453,0.121%,
703,2025-02-16 03:20:50,2025-02-16 03:27:14,384.13,0.122%,
704,2025-02-16 04:55:34,2025-02-16 05:01:46,372.277,0.118%,
705,2025-02-16 06:30:19,2025-02-16 06:36:26,367.174,0.116%,
706,2025-02-16 08:05:04,2025-02-16 08:11:25,381.841,0.121%,
707,2025-02-16 09:39:49,2025-02-16 09:46:06,377.955,0.120%,
708,2025-02-16 11:14:33,2025-02-16 11:20:53,380.58,0.121%,
709,2025-02-16 12:49:17,2025-02-16 12:55:43,386.125,0.122%,
710,2025-02-16 14:24:01,2025-02-16 14:30:07,365.885,0.116%,
711,2025-02-16 15:58:45,2025-02-16 16:05:07,381.752,0.121%,
712,2025-02-16 17:33:29,2025-02-16 17:39:47,378.484,0.120%,
713,2025-02-16 19:08:13,2025-02-16 19:14:32,379.203,0.120%,
714,2025-02-16 20:42:58,2025-02-16 20:49:23,385.084,0.122%,
715,2025-02-16 22:17:42,2025-02-16 22:23:47,365.191,0.116%,
716,2025-02-16 23:52:26,2025-02-16 23:58:48,381.38,0.121%,
717,2025-02-17 01:27:11,2025-02-17 01:33:28,377.729,0.120%,
718,2025-02-17 03:01:55,2025-02-17 03:08:11,375.771,0.119%,
719,2025-02-17 04:36:40,2025-02-17 04:43:02,382.331,0.121%,
720,2025-02-17 06:11:25,2025-02-17 06:17:38,373.542,0.118%,
721,2025-02-17 06:17:42,2025-02-17 06:17:48,5.767,0.002%,
722,2025-02-17 07:46:09,2025-02-17 07:52:29,379.353,0.120%,
723,2025-02-17 09:20:54,2025-02-17 09:27:09,375.209,0.119%,
724,2025-02-17 10:55:38,2025-02-17 11:01:50,371.234,0.118%,
725,2025-02-17 12:30:22,2025-02-17 12:36:42,379.106,0.120%,
726,2025-02-17 14:05:07,2025-02-17 14:11:32,384.993,0.122%,
727,2025-02-17 15:39:51,2025-02-17 15:46:10,379.115,0.120%,
728,2025-02-17 17:14:35,2025-02-17 17:20:50,375.565,0.119%,
729,2025-02-17 18:49:19,2025-02-17 18:55:31,371.463,0.118%,
730,2025-02-17 20:24:03,2025-02-17 20:30:20,377.118,0.120%,
731,2025-02-17 21:58:48,2025-02-17 22:05:11,383.569,0.122%,
732,2025-02-17 23:33:32,2025-02-17 23:39:51,378.716,0.120%,
733,2025-02-18 01:08:17,2025-02-18 01:14:31,374.762,0.119%,
734,2025-02-18 02:43:01,2025-02-18 02:49:11,370.193,0.117%,
735,2025-02-18 04:17:46,2025-02-18 04:23:58,372.51,0.118%,
736,2025-02-18 05:52:30,2025-02-18 05:58:51,380.61,0.121%,
737,2025-02-18 07:27:15,2025-02-18 07:33:40,385.326,0.122%,
738,2025-02-18 09:02:00,2025-02-18 09:08:12,372.203,0.118%,
739,2025-02-18 10:36:44,2025-02-18 10:42:52,367.628,0.117%,
740,2025-02-18 12:11:28,2025-02-18 12:17:51,382.637,0.121%,
741,2025-02-18 13:46:12,2025-02-18 13:52:32,379.645,0.120%,
742,2025-02-18 15:20:56,2025-02-18 15:27:20,383.73,0.122%,
743,2025-02-18 16:55:41,2025-02-18 17:01:53,372.359,0.118%,
744,2025-02-18 18:30:25,2025-02-18 18:36:33,367.725,0.117%,
745,2025-02-18 20:05:09,2025-02-18 20:11:32,382.945,0.121%,
746,2025-02-18 21:39:53,2025-02-18 21:46:13,379.599,0.120%,
747,2025-02-18 23:14:38,2025-02-18 23:21:00,381.895,0.121%,
748,2025-02-19 00:49:22,2025-02-19 00:55:49,387.019,0.123%,
749,2025-02-19 02:24:07,2025-02-19 02:30:13,366.302,0.116%,
750,2025-02-19 03:58:51,2025-02-19 04:05:13,381.749,0.121%,
751,2025-02-19 05:33:36,2025-02-19 05:39:54,377.981,0.120%,
752,2025-02-19 07:08:21,2025-02-19 07:14:39,378.097,0.120%,
753,2025-02-19 08:43:06,2025-02-19 08:49:29,383.464,0.122%,
754,2025-02-19 10:17:50,2025-02-19 10:23:54,363.43,0.115%,
755,2025-02-19 10:24:03,2025-02-19 10:24:03,0.487,0.000%,
756,2025-02-19 11:52:34,2025-02-19 11:58:54,380.097,0.121%,
757,2025-02-19 13:27:18,2025-02-19 13:33:35,376.867,0.120%,
758,2025-02-19 15:02:02,2025-02-19 15:08:18,375.224,0.119%,
759,2025-02-19 16:36:46,2025-02-19 16:43:09,382.322,0.121%,
760,2025-02-19 18:11:31,2025-02-19 18:17:58,387.538,0.123%,
761,2025-02-19 19:46:15,2025-02-19 19:52:35,380.384,0.121%,
762,2025-02-19 21:20:59,2025-02-19 21:27:16,376.78,0.120%,
763,2025-02-19 22:55:44,2025-02-19 23:01:56,372.644,0.118%,
764,2025-02-20 00:30:28,2025-02-20 00:36:48,380.013,0.121%,
765,2025-02-20 02:05:13,2025-02-20 02:11:38,385.482,0.122%,
766,2025-02-20 03:39:57,2025-02-20 03:46:16,379.169,0.120%,
767,2025-02-20 05:14:42,2025-02-20 05:20:57,375.122,0.119%,
768,2025-02-20 06:49:27,2025-02-20 06:55:37,370.483,0.118%,
769,2025-02-20 08:24:11,2025-02-20 08:30:27,375.505,0.119%,
770,2025-02-20 09:58:56,2025-02-20 10:05:18,381.762,0.121%,
771,2025-02-20 11:33:40,2025-02-20 11:39:57,377.375,0.120%,
772,2025-02-20 13:08:24,2025-02-20 13:14:38,373.839,0.119%,
773,2025-02-20 14:43:08,2025-02-20 14:49:18,369.693,0.117%,
774,2025-02-20 16:17:52,2025-02-20 16:24:05,372.261,0.118%,
775,2025-02-20 17:52:36,2025-02-20 17:58:58,381.075,0.121%,
776,2025-02-20 19:27:21,2025-02-20 19:33:47,386.258,0.123%,
777,2025-02-20 21:02:05,2025-02-20 21:08:19,373.69,0.119%,
778,2025-02-20 22:36:49,2025-02-20 22:42:58,369.077,0.117%,
779,2025-02-21 00:11:34,2025-02-21 00:17:58,383.689,0.122%,
780,2025-02-21 01:46:18,2025-02-21 01:52:39,380.236,0.121%,
781,2025-02-21 03:21:03,2025-02-21 03:27:27,383.802,0.122%,
782,2025-02-21 04:55:48,2025-02-21 05:02:00,371.968,0.118%,
783,2025-02-21 06:30:32,2025-02-21 06:36:39,366.797,0.116%,
784,2025-02-21 08:05:17,2025-02-21 08:11:39,381.522,0.121%,
785,2025-02-21 09:40:02,2025-02-21 09:46:20,377.789,0.120%,
786,2025-02-21 11:14:46,2025-02-21 11:21:06,380.441,0.121%,
787,2025-02-21 12:49:30,2025-02-21 12:55:56,386.02,0.122%,
788,2025-02-21 14:24:14,2025-02-21 14:30:20,365.726,0.116%,
789,2025-02-21 15:58:58,2025-02-21 16:05:20,381.679,0.121%,
790,2025-02-21 17:33:42,2025-02-21 17:40:01,378.376,0.120%,
791,2025-02-21 19:08:27,2025-02-21 19:14:45,378.914,0.120%,
792,2025-02-21 20:43:11,2025-02-21 20:49:36,384.86,0.122%,
793,2025-02-21 22:17:55,2025-02-21 22:24:10,374.499,0.119%,
794,2025-02-21 23:52:40,2025-02-21 23:59:01,381.198,0.121%,
795,2025-02-22 01:27:24,2025-02-22 01:33:42,377.507,0.120%,
796,2025-02-22 03:02:09,2025-02-22 03:08:24,375.268,0.119%,
797,2025-02-22 04:36:53,2025-02-22 04:43:15,381.956,0.121%,
798,2025-02-22 06:11:38,2025-02-22 06:18:05,386.69,0.123%,
799,2025-02-22 07:46:23,2025-02-22 07:52:42,379.024,0.120%,
800,2025-02-22 09:21:08,2025-02-22 09:27:23,374.901,0.119%,
801,2025-02-22 10:55:52,2025-02-22 11:02:03,371.172,0.118%,
802,2025-02-22 12:30:36,2025-02-22 12:36:55,378.913,0.120%,
803,2025-02-22 14:05:20,2025-02-22 14:11:45,384.858,0.122%,
804,2025-02-22 15:40:04,2025-02-22 15:46:23,379.033,0.120%,
805,2025-02-22 17:14:48,2025-02-22 17:21:04,375.444,0.119%,
806,2025-02-22 18:49:32,2025-02-22 18:55:44,371.294,0.118%,
807,2025-02-22 20:24:17,2025-02-22 20:30:33,376.756,0.120%,
808,2025-02-22 21:59:01,2025-02-22 22:05:24,383.307,0.122%,
809,2025-02-22 23:33:45,2025-02-22 23:40:04,378.526,0.120%,
810,2025-02-23 01:08:30,2025-02-23 01:14:44,374.527,0.119%,
811,2025-02-23 02:43:14,2025-02-23 02:49:24,369.902,0.117%,
812,2025-02-23 04:17:59,2025-02-23 04:24:11,371.766,0.118%,
813,2025-02-23 05:52:44,2025-02-23 05:59:04,380.325,0.121%,
814,2025-02-23 07:27:29,2025-02-23 07:33:54,384.939,0.122%,
815,2025-02-23 09:02:13,2025-02-23 09:08:25,371.812,0.118%,
816,2025-02-23 10:36:57,2025-02-23 10:43:05,367.538,0.117%,
817,2025-02-23 12:11:42,2025-02-23 12:18:04,382.61,0.121%,
818,2025-02-23 13:46:26,2025-02-23 13:52:45,379.595,0.120%,
819,2025-02-23 15:21:10,2025-02-23 15:27:33,383.563,0.122%,
820,2025-02-23 16:55:54,2025-02-23 17:02:06,372.221,0.118%,
821,2025-02-23 18:30:38,2025-02-23 18:36:46,367.525,0.117%,
822,2025-02-23 20:05:22,2025-02-23 20:11:45,382.82,0.121%,
823,2025-02-23 21:40:07,2025-02-23 21:46:26,379.439,0.120%,
824,2025-02-23 23:14:51,2025-02-23 23:21:13,381.593,0.121%,
825,2025-02-24 00:49:36,2025-02-24 00:56:02,386.751,0.123%,
826,2025-02-24 02:24:20,2025-02-24 02:30:35,374.428,0.119%,
827,2025-02-24 03:59:05,2025-02-24 04:05:26,381.502,0.121%,
828,2025-02-24 05:33:50,2025-02-24 05:40:07,377.689,0.120%,
829,2025-02-24 07:08:34,2025-02-24 07:14:52,377.611,0.120%,
830,2025-02-24 08:43:19,2025-02-24 08:49:42,383.035,0.122%,
831,2025-02-24 10:18:03,2025-02-24 10:24:16,372.971,0.118%,
832,2025-02-24 10:24:23,2025-02-24 10:24:26,3.517,0.001%,
833,2025-02-24 11:52:47,2025-02-24 11:59:07,380.066,0.121%,
834,2025-02-24 13:27:31,2025-02-24 13:33:48,376.8,0.120%,
835,2025-02-24 15:02:16,2025-02-24 15:08:30,374.87,0.119%,
836,2025-02-24 16:37:00,2025-02-24 16:43:22,382.118,0.121%,
837,2025-02-24 18:11:44,2025-02-24 18:18:11,387.364,0.123%,
838,2025-02-24 19:46:28,2025-02-24 19:52:48,380.248,0.121%,
839,2025-02-24 21:21:13,2025-02-24 21:27:29,376.603,0.119%,
840,2025-02-24 22:55:57,2025-02-24 23:02:09,372.423,0.118%,
841,2025-02-25 00:30:41,2025-02-25 00:37:01,379.658,0.120%,
842,2025-02-25 02:05:26,2025-02-25 02:11:51,385.18,0.122%,
843,2025-02-25 03:40:11,2025-02-25 03:46:29,378.913,0.120%,
844,2025-02-25 05:14:55,2025-02-25 05:21:10,374.815,0.119%,
845,2025-02-25 06:49:40,2025-02-25 06:55:50,370.121,0.117%,
846,2025-02-25 08:24:25,2025-02-25 08:30:40,374.927,0.119%,
847,2025-02-25 09:59:09,2025-02-25 10:05:31,381.645,0.121%,
848,2025-02-25 11:33:53,2025-02-25 11:40:20,386.981,0.123%,
849,2025-02-25 13:08:37,2025-02-25 13:14:51,373.757,0.119%,
850,2025-02-25 14:43:21,2025-02-25 14:49:31,369.56,0.117%,
851,2025-02-25 16:18:06,2025-02-25 16:24:30,384.068,0.122%,
852,2025-02-25 17:52:50,2025-02-25 17:59:11,380.968,0.121%,
853,2025-02-25 19:27:34,2025-02-25 19:34:00,386.056,0.122%,
854,2025-02-25 21:02:18,2025-02-25 21:08:32,373.499,0.118%,
855,2025-02-25 22:37:03,2025-02-25 22:43:12,368.829,0.117%,
856,2025-02-26 00:11:47,2025-02-26 00:18:11,383.505,0.122%,
857,2025-02-26 01:46:32,2025-02-26 01:52:52,380.014,0.121%,
858,2025-02-26 03:21:16,2025-02-26 03:27:40,383.46,0.122%,
859,2025-02-26 04:56:01,2025-02-26 05:02:13,371.649,0.118%,
860,2025-02-26 06:30:46,2025-02-26 06:37:00,373.805,0.119%,
861,2025-02-26 08:05:31,2025-02-26 08:11:52,381.191,0.121%,
862,2025-02-26 09:40:15,2025-02-26 09:46:33,377.772,0.120%,
863,2025-02-26 11:14:59,2025-02-26 11:21:19,380.286,0.121%,
864,2025-02-26 12:49:43,2025-02-26 12:56:09,385.905,0.122%,
865,2025-02-26 14:24:27,2025-02-26 14:30:41,374.089,0.119%,
866,2025-02-26 15:59:11,2025-02-26 16:05:33,381.598,0.121%,
867,2025-02-26 17:33:56,2025-02-26 17:40:14,378.258,0.120%,
868,2025-02-26 19:08:40,2025-02-26 19:14:58,378.607,0.120%,
869,2025-02-26 20:43:24,2025-02-26 20:49:49,384.621,0.122%,
870,2025-02-26 22:18:09,2025-02-26 22:24:33,384.345,0.122%,
871,2025-02-26 23:52:53,2025-02-26 23:59:14,381.006,0.121%,
872,2025-02-27 01:27:37,2025-02-27 01:33:55,377.273,0.120%,
873,2025-02-27 03:02:22,2025-02-27 03:08:37,374.731,0.119%,
874,2025-02-27 04:37:07,2025-02-27 04:43:28,381.573,0.121%,
875,2025-02-27 06:11:52,2025-02-27 06:18:18,386.326,0.123%,
876,2025-02-27 07:46:36,2025-02-27 07:52:55,378.694,0.120%,
877,2025-02-27 09:21:21,2025-02-27 09:27:36,374.872,0.119%,
878,2025-02-27 10:56:05,2025-02-27 11:02:16,371.098,0.118%,
879,2025-02-27 12:30:49,2025-02-27 12:37:08,378.71,0.120%,
880,2025-02-27 14:05:33,2025-02-27 14:11:58,384.713,0.122%,
881,2025-02-27 15:40:17,2025-02-27 15:46:36,378.94,0.120%,
882,2025-02-27 17:15:01,2025-02-27 17:21:17,375.314,0.119%,
883,2025-02-27 18:49:46,2025-02-27 18:55:57,371.114,0.118%,
884,2025-02-27 20:24:30,2025-02-27 20:30:46,376.365,0.119%,
885,2025-02-27 21:59:14,2025-02-27 22:05:37,383.034,0.122%,
886,2025-02-27 23:33:59,2025-02-27 23:40:27,387.949,0.123%,
887,2025-02-28 01:08:43,2025-02-28 01:14:58,374.277,0.119%,
888,2025-02-28 02:43:28,2025-02-28 02:49:37,369.597,0.117%,
889,2025-02-28 04:18:13,2025-02-28 04:24:36,383.656,0.122%,
890,2025-02-28 05:52:57,2025-02-28 05:59:17,380.03,0.121%,
891,2025-02-28 07:27:42,2025-02-28 07:34:07,384.533,0.122%,
892,2025-02-28 09:02:27,2025-02-28 09:08:38,371.711,0.118%,
893,2025-02-28 10:37:11,2025-02-28 10:43:18,367.438,0.117%,
894,2025-02-28 10:43:18,2025-02-28 10:43:25,6.043,0.002%,
895,2025-02-28 12:11:55,2025-02-28 12:18:17,382.58,0.121%,
896,2025-02-28 13:46:39,2025-02-28 13:52:58,379.527,0.120%,
897,2025-02-28 15:21:23,2025-02-28 15:27:46,383.384,0.122%,
898,2025-02-28 16:56:07,2025-02-28 17:02:36,388.407,0.123%,
899,2025-02-28 18:30:51,2025-02-28 18:37:06,374.787,0.119%,
900,2025-02-28 20:05:36,2025-02-28 20:11:58,382.686,0.121%,
901,2025-02-28 21:40:20,2025-02-28 21:46:39,379.267,0.120%,
902,2025-02-28 23:15:05,2025-02-28 23:21:26,381.276,0.121%,
903,2025-03-01 00:49:49,2025-03-01 00:56:16,386.472,0.123%,
904,2025-03-01 02:24:34,2025-03-01 02:30:48,374.248,0.119%,
905,2025-03-01 03:59:18,2025-03-01 04:05:39,381.239,0.121%,
906,2025-03-01 05:34:03,2025-03-01 05:40:20,377.382,0.120%,
907,2025-03-01 07:08:48,2025-03-01 07:15:05,377.098,0.120%,
908,2025-03-01 08:43:33,2025-03-01 08:49:55,382.745,0.121%,
909,2025-03-01 10:18:17,2025-03-01 10:24:39,382.946,0.121%,
910,2025-03-01 10:24:41,2025-03-01 10:24:44,3.851,0.001%,
911,2025-03-01 11:53:01,2025-03-01 11:59:21,380.032,0.121%,
912,2025-03-01 13:27:45,2025-03-01 13:34:01,376.724,0.120%,
913,2025-03-01 15:02:29,2025-03-01 15:08:43,374.487,0.119%,
914,2025-03-01 16:37:13,2025-03-01 16:43:35,381.903,0.121%,
915,2025-03-01 18:11:57,2025-03-01 18:18:24,387.184,0.123%,
916,2025-03-01 19:46:42,2025-03-01 19:53:02,380.106,0.121%,
917,2025-03-01 21:21:26,2025-03-01 21:27:42,376.42,0.119%,
918,2025-03-01 22:56:10,2025-03-01 23:02:22,372.189,0.118%,
919,2025-03-02 00:30:55,2025-03-02 00:37:14,379.289,0.120%,
920,2025-03-02 02:05:39,2025-03-02 02:12:04,384.865,0.122%,
921,2025-03-02 03:40:24,2025-03-02 03:46:43,378.643,0.120%,
922,2025-03-02 05:15:09,2025-03-02 05:21:23,374.5,0.119%,
923,2025-03-02 06:49:54,2025-03-02 06:56:03,369.745,0.117%,
924,2025-03-02 08:24:38,2025-03-02 08:31:02,383.223,0.122%,
925,2025-03-02 09:59:22,2025-03-02 10:05:44,381.521,0.121%,
926,2025-03-02 11:34:06,2025-03-02 11:40:33,386.887,0.123%,
927,2025-03-02 13:08:50,2025-03-02 13:15:04,373.664,0.119%,
928,2025-03-02 14:43:35,2025-03-02 14:49:44,369.417,0.117%,
929,2025-03-02 14:49:44,2025-03-02 14:49:49,5.13,0.002%,
930,2025-03-02 16:18:19,2025-03-02 16:24:43,383.987,0.122%,
931,2025-03-02 17:53:03,2025-03-02 17:59:24,380.854,0.121%,
932,2025-03-02 19:27:47,2025-03-02 19:34:13,385.844,0.122%,
933,2025-03-02 21:02:32,2025-03-02 21:08:45,373.297,0.118%,
934,2025-03-02 22:37:16,2025-03-02 22:43:31,375.045,0.119%,
935,2025-03-03 00:12:01,2025-03-03 00:18:24,383.312,0.122%,
936,2025-03-03 01:46:45,2025-03-03 01:53:05,379.781,0.120%,
937,2025-03-03 03:21:30,2025-03-03 03:27:53,383.104,0.122%,
938,2025-03-03 04:56:14,2025-03-03 05:02:42,387.645,0.123%,
939,2025-03-03 06:30:59,2025-03-03 06:37:13,373.546,0.119%,
940,2025-03-03 08:05:44,2025-03-03 08:12:05,380.85,0.121%,
941,2025-03-03 09:40:28,2025-03-03 09:46:46,377.749,0.120%,
942,2025-03-03 11:15:12,2025-03-03 11:21:32,380.118,0.121%,
943,2025-03-03 12:49:56,2025-03-03 12:56:22,385.783,0.122%,
944,2025-03-03 14:24:40,2025-03-03 14:31:05,384.512,0.122%,
945,2025-03-03 15:59:25,2025-03-03 16:05:46,381.504,0.121%,
946,2025-03-03 17:34:09,2025-03-03 17:40:27,378.133,0.120%,
947,2025-03-03 19:08:53,2025-03-03 19:15:11,378.285,0.120%,
948,2025-03-03 20:43:37,2025-03-03 20:50:02,384.371,0.122%,
949,2025-03-03 22:18:22,2025-03-03 22:24:51,389.085,0.123%,
950,2025-03-03 23:53:06,2025-03-03 23:59:27,380.806,0.121%,
951,2025-03-04 01:27:51,2025-03-04 01:34:08,377.031,0.120%,
952,2025-03-04 03:02:36,2025-03-04 03:08:50,374.162,0.119%,
953,2025-03-04 04:37:20,2025-03-04 04:43:41,381.174,0.121%,
954,2025-03-04 06:12:05,2025-03-04 06:18:31,385.955,0.122%,
955,2025-03-04 07:46:50,2025-03-04 07:53:08,378.346,0.120%,
956,2025-03-04 09:21:34,2025-03-04 09:27:49,374.839,0.119%,
957,2025-03-04 10:56:18,2025-03-04 11:02:29,371.018,0.118%,
958,2025-03-04 12:31:02,2025-03-04 12:37:21,378.495,0.120%,
959,2025-03-04 14:05:46,2025-03-04 14:12:11,384.56,0.122%,
960,2025-03-04 15:40:30,2025-03-04 15:47:00,389.393,0.124%,
961,2025-03-04 17:15:15,2025-03-04 17:21:30,375.175,0.119%,
962,2025-03-04 18:49:59,2025-03-04 18:56:14,375.499,0.119%,
963,2025-03-04 20:24:43,2025-03-04 20:31:08,384.959,0.122%,
964,2025-03-04 21:59:28,2025-03-04 22:05:50,382.751,0.121%,
965,2025-03-04 23:34:12,2025-03-04 23:40:40,387.693,0.123%,
966,2025-03-05 01:08:57,2025-03-05 01:15:11,374.021,0.119%,
967,2025-03-05 02:43:41,2025-03-05 02:49:56,374.814,0.119%,
968,2025-03-05 04:18:26,2025-03-05 04:24:49,383.395,0.122%,
969,2025-03-05 05:53:11,2025-03-05 05:59:30,379.724,0.120%,
970,2025-03-05 07:27:56,2025-03-05 07:34:20,384.119,0.122%,
971,2025-03-05 09:02:40,2025-03-05 09:08:52,371.656,0.118%,
972,2025-03-05 10:37:24,2025-03-05 10:43:38,373.874,0.119%,
973,2025-03-05 12:12:08,2025-03-05 12:18:30,382.544,0.121%,
974,2025-03-05 13:46:52,2025-03-05 13:53:11,379.462,0.120%,
975,2025-03-05 15:21:36,2025-03-05 15:27:59,383.199,0.122%,
976,2025-03-05 16:56:20,2025-03-05 17:02:49,388.247,0.123%,
977,2025-03-05 18:31:05,2025-03-05 18:37:19,374.715,0.119%,
978,2025-03-05 20:05:49,2025-03-05 20:12:12,382.544,0.121%,
979,2025-03-05 21:40:33,2025-03-05 21:46:53,379.091,0.120%,
980,2025-03-05 23:15:18,2025-03-05 23:21:39,380.945,0.121%,
981,2025-03-06 00:50:02,2025-03-06 00:56:29,386.185,0.123%,
982,2025-03-06 02:24:47,2025-03-06 02:31:11,384.481,0.122%,
983,2025-03-06 03:59:32,2025-03-06 04:05:53,380.972,0.121%,
984,2025-03-06 05:34:16,2025-03-06 05:40:34,377.069,0.120%,
985,2025-03-06 07:09:01,2025-03-06 07:15:18,376.575,0.119%,
986,2025-03-06 08:43:46,2025-03-06 08:50:08,382.653,0.121%,
987,2025-03-06 10:18:30,2025-03-06 10:24:57,387.806,0.123%,
988,2025-03-06 11:53:14,2025-03-06 11:59:34,379.986,0.121%,
989,2025-03-06 13:27:58,2025-03-06 13:34:14,376.642,0.119%,
990,2025-03-06 15:02:42,2025-03-06 15:08:56,374.074,0.119%,
991,2025-03-06 16:37:26,2025-03-06 16:43:48,381.678,0.121%,
992,2025-03-06 18:12:10,2025-03-06 18:18:37,386.996,0.123%,
993,2025-03-06 19:46:55,2025-03-06 19:53:15,379.955,0.121%,
994,2025-03-06 21:21:39,2025-03-06 21:27:55,376.229,0.119%,
995,2025-03-06 22:56:24,2025-03-06 23:02:39,375.671,0.119%,
996,2025-03-07 00:31:08,2025-03-07 00:37:34,385.453,0.122%,
997,2025-03-07 02:05:53,2025-03-07 02:12:17,384.543,0.122%,
998,2025-03-07 03:40:37,2025-03-07 03:47:06,388.903,0.123%,
999,2025-03-07 05:15:22,2025-03-07 05:21:36,374.171,0.119%,
1000,2025-03-07 06:50:07,2025-03-07 06:56:21,373.989,0.119%,
1001,2025-03-07 08:24:52,2025-03-07 08:31:15,383.239,0.122%,
1002,2025-03-07 09:59:36,2025-03-07 10:05:57,381.391,0.121%,
