3UCubedIntegratedSim/Reports & Plots/North Cusp @ 1 Degree/CSV/Sat2.csv

Number,Coverage Start (UTCG),Coverage End (UTCG),Duration (sec),Percent,
1,2025-01-01 16:15:39,2025-01-01 16:22:54,435.555,0.138%,
2,2025-01-01 17:50:23,2025-01-01 17:57:32,428.747,0.136%,
3,2025-01-01 19:25:08,2025-01-01 19:32:26,437.479,0.139%,
4,2025-01-01 20:59:53,2025-01-01 21:07:03,430.699,0.137%,
5,2025-01-01 22:34:38,2025-01-01 22:41:45,427.672,0.136%,
6,2025-01-02 00:09:22,2025-01-02 00:16:35,432.308,0.137%,
7,2025-01-02 01:44:06,2025-01-02 01:51:12,425.96,0.135%,
8,2025-01-02 03:18:50,2025-01-02 03:26:06,435.488,0.138%,
9,2025-01-02 04:53:34,2025-01-02 05:00:44,429.23,0.136%,
10,2025-01-02 06:28:19,2025-01-02 06:35:26,427.762,0.136%,
11,2025-01-02 08:03:03,2025-01-02 08:10:15,432.199,0.137%,
12,2025-01-02 09:37:47,2025-01-02 09:44:52,425.42,0.135%,
13,2025-01-02 11:12:31,2025-01-02 11:19:46,434.869,0.138%,
14,2025-01-02 12:47:16,2025-01-02 12:54:24,428.197,0.136%,
15,2025-01-02 14:22:00,2025-01-02 14:29:17,437.236,0.139%,
16,2025-01-02 15:56:45,2025-01-02 16:03:55,430.629,0.137%,
17,2025-01-02 17:31:29,2025-01-02 17:38:48,438.933,0.139%,
18,2025-01-02 19:06:14,2025-01-02 19:13:32,438.121,0.139%,
19,2025-01-02 20:40:59,2025-01-02 20:48:16,437.226,0.139%,
20,2025-01-02 22:15:43,2025-01-02 22:23:00,436.244,0.138%,
21,2025-01-02 23:50:28,2025-01-02 23:57:43,435.154,0.138%,
22,2025-01-03 01:25:12,2025-01-03 01:32:29,436.626,0.139%,
23,2025-01-03 02:59:56,2025-01-03 03:07:11,434.713,0.138%,
24,2025-01-03 04:34:40,2025-01-03 04:41:55,434.422,0.138%,
25,2025-01-03 06:09:24,2025-01-03 06:16:38,434.068,0.138%,
26,2025-01-03 07:44:09,2025-01-03 07:51:22,433.654,0.138%,
27,2025-01-03 09:18:53,2025-01-03 09:26:09,436.343,0.138%,
28,2025-01-03 10:53:37,2025-01-03 11:00:50,432.624,0.137%,
29,2025-01-03 12:28:21,2025-01-03 12:35:33,432.009,0.137%,
30,2025-01-03 14:03:06,2025-01-03 14:10:18,432.388,0.137%,
31,2025-01-03 15:37:50,2025-01-03 15:45:01,430.548,0.137%,
32,2025-01-03 17:12:35,2025-01-03 17:19:50,434.577,0.138%,
33,2025-01-03 18:47:20,2025-01-03 18:54:28,428.765,0.136%,
34,2025-01-03 20:22:04,2025-01-03 20:29:21,436.408,0.138%,
35,2025-01-03 21:56:49,2025-01-03 22:03:59,429.503,0.136%,
36,2025-01-03 23:31:34,2025-01-03 23:38:39,425.37,0.135%,
37,2025-01-04 01:06:18,2025-01-04 01:13:30,431.759,0.137%,
38,2025-01-04 02:41:02,2025-01-04 02:48:07,425.289,0.135%,
39,2025-01-04 04:15:46,2025-01-04 04:23:01,434.881,0.138%,
40,2025-01-04 05:50:30,2025-01-04 05:57:39,428.516,0.136%,
41,2025-01-04 07:25:14,2025-01-04 07:32:19,424.785,0.135%,
42,2025-01-04 08:59:59,2025-01-04 09:07:10,431.428,0.137%,
43,2025-01-04 10:34:43,2025-01-04 10:41:47,424.514,0.135%,
44,2025-01-04 12:09:27,2025-01-04 12:16:41,434.033,0.138%,
45,2025-01-04 13:44:12,2025-01-04 13:51:19,427.239,0.136%,
46,2025-01-04 15:18:56,2025-01-04 15:26:12,436.328,0.138%,
47,2025-01-04 16:53:41,2025-01-04 17:00:50,429.606,0.136%,
48,2025-01-04 18:28:25,2025-01-04 18:35:33,427.674,0.136%,
49,2025-01-04 20:03:10,2025-01-04 20:10:22,431.595,0.137%,
50,2025-01-04 21:37:55,2025-01-04 21:44:59,424.28,0.135%,
51,2025-01-04 23:12:40,2025-01-04 23:19:53,433.174,0.137%,
52,2025-01-05 00:47:24,2025-01-05 00:54:30,426.606,0.135%,
53,2025-01-05 02:22:08,2025-01-05 02:29:24,436.074,0.138%,
54,2025-01-05 03:56:52,2025-01-05 04:04:02,429.894,0.136%,
55,2025-01-05 05:31:36,2025-01-05 05:38:39,423.067,0.134%,
56,2025-01-05 07:06:20,2025-01-05 07:13:39,438.282,0.139%,
57,2025-01-05 08:41:04,2025-01-05 08:48:22,437.875,0.139%,
58,2025-01-05 10:15:49,2025-01-05 10:23:06,437.405,0.139%,
59,2025-01-05 11:50:33,2025-01-05 11:57:50,436.867,0.139%,
60,2025-01-05 13:25:17,2025-01-05 13:32:34,436.264,0.138%,
61,2025-01-05 15:00:02,2025-01-05 15:07:18,435.588,0.138%,
62,2025-01-05 16:34:46,2025-01-05 16:42:01,434.837,0.138%,
63,2025-01-05 18:09:31,2025-01-05 18:16:45,434.007,0.138%,
64,2025-01-05 19:44:16,2025-01-05 19:51:29,433.091,0.137%,
65,2025-01-05 21:19:00,2025-01-05 21:26:16,435.283,0.138%,
66,2025-01-05 22:53:45,2025-01-05 23:00:56,430.978,0.137%,
67,2025-01-06 00:28:30,2025-01-06 00:35:40,430.334,0.137%,
68,2025-01-06 02:03:14,2025-01-06 02:10:25,431.165,0.137%,
69,2025-01-06 03:37:58,2025-01-06 03:45:07,429.73,0.136%,
70,2025-01-06 05:12:42,2025-01-06 05:19:56,434.233,0.138%,
71,2025-01-06 06:47:26,2025-01-06 06:54:35,428.85,0.136%,
72,2025-01-06 08:22:10,2025-01-06 08:29:27,437.01,0.139%,
73,2025-01-06 09:56:55,2025-01-06 10:04:05,430.613,0.137%,
74,2025-01-06 11:31:39,2025-01-06 11:38:46,426.984,0.135%,
75,2025-01-06 13:06:23,2025-01-06 13:13:36,433.157,0.137%,
76,2025-01-06 14:41:08,2025-01-06 14:48:14,426.234,0.135%,
77,2025-01-06 16:15:52,2025-01-06 16:23:08,435.376,0.138%,
78,2025-01-06 17:50:37,2025-01-06 17:57:45,428.533,0.136%,
79,2025-01-06 19:25:21,2025-01-06 19:32:26,424.326,0.135%,
80,2025-01-06 21:00:06,2025-01-06 21:07:17,430.431,0.137%,
81,2025-01-06 22:34:51,2025-01-06 22:41:54,422.959,0.134%,
82,2025-01-07 00:09:36,2025-01-07 00:16:48,432.342,0.137%,
83,2025-01-07 01:44:20,2025-01-07 01:51:26,425.961,0.135%,
84,2025-01-07 03:19:04,2025-01-07 03:26:19,435.482,0.138%,
85,2025-01-07 04:53:48,2025-01-07 05:00:57,429.2,0.136%,
86,2025-01-07 06:28:32,2025-01-07 06:35:40,427.746,0.136%,
87,2025-01-07 08:03:16,2025-01-07 08:10:28,432.13,0.137%,
88,2025-01-07 09:38:00,2025-01-07 09:45:06,425.318,0.135%,
89,2025-01-07 11:12:45,2025-01-07 11:19:59,434.76,0.138%,
90,2025-01-07 12:47:29,2025-01-07 12:54:37,428.056,0.136%,
91,2025-01-07 14:22:13,2025-01-07 14:29:21,427.214,0.136%,
92,2025-01-07 14:29:30,2025-01-07 14:29:31,0.512,0.000%,
93,2025-01-07 15:56:58,2025-01-07 16:04:08,430.446,0.137%,
94,2025-01-07 17:31:43,2025-01-07 17:38:46,423.14,0.134%,
95,2025-01-07 19:06:27,2025-01-07 19:13:40,432.47,0.137%,
96,2025-01-07 20:41:12,2025-01-07 20:48:29,436.934,0.139%,
97,2025-01-07 22:15:57,2025-01-07 22:23:13,435.916,0.138%,
98,2025-01-07 23:50:41,2025-01-07 23:57:57,435.106,0.138%,
99,2025-01-08 01:25:25,2025-01-08 01:32:40,434.918,0.138%,
100,2025-01-08 03:00:09,2025-01-08 03:07:24,434.669,0.138%,
101,2025-01-08 04:34:54,2025-01-08 04:42:08,434.357,0.138%,
102,2025-01-08 06:09:38,2025-01-08 06:16:52,433.982,0.138%,
103,2025-01-08 07:44:22,2025-01-08 07:51:35,433.545,0.138%,
104,2025-01-08 09:19:06,2025-01-08 09:26:22,436.262,0.138%,
105,2025-01-08 10:53:50,2025-01-08 11:01:03,432.468,0.137%,
106,2025-01-08 12:28:35,2025-01-08 12:35:47,431.824,0.137%,
107,2025-01-08 14:03:19,2025-01-08 14:10:31,432.236,0.137%,
108,2025-01-08 15:38:04,2025-01-08 15:45:14,430.314,0.137%,
109,2025-01-08 17:12:48,2025-01-08 17:20:03,434.379,0.138%,
110,2025-01-08 18:47:33,2025-01-08 18:54:41,428.472,0.136%,
111,2025-01-08 20:22:18,2025-01-08 20:29:25,427.411,0.136%,
112,2025-01-08 21:57:03,2025-01-08 22:04:12,429.208,0.136%,
113,2025-01-08 23:31:47,2025-01-08 23:38:52,425.148,0.135%,
114,2025-01-09 01:06:31,2025-01-09 01:13:43,431.774,0.137%,
115,2025-01-09 02:41:15,2025-01-09 02:48:21,425.273,0.135%,
116,2025-01-09 04:15:59,2025-01-09 04:23:14,434.861,0.138%,
117,2025-01-09 05:50:43,2025-01-09 05:57:52,428.463,0.136%,
118,2025-01-09 07:25:28,2025-01-09 07:32:32,424.749,0.135%,
119,2025-01-09 09:00:12,2025-01-09 09:07:23,431.344,0.137%,
120,2025-01-09 10:34:56,2025-01-09 10:42:01,424.395,0.135%,
121,2025-01-09 12:09:41,2025-01-09 12:16:55,433.91,0.138%,
122,2025-01-09 13:44:25,2025-01-09 13:51:32,427.081,0.135%,
123,2025-01-09 15:19:10,2025-01-09 15:26:26,436.161,0.138%,
124,2025-01-09 16:53:54,2025-01-09 17:01:03,429.403,0.136%,
125,2025-01-09 18:28:39,2025-01-09 18:35:41,421.939,0.134%,
126,2025-01-09 20:03:23,2025-01-09 20:10:35,431.339,0.137%,
127,2025-01-09 21:38:08,2025-01-09 21:45:12,423.979,0.134%,
128,2025-01-09 23:12:53,2025-01-09 23:20:06,432.907,0.137%,
129,2025-01-10 00:47:37,2025-01-10 00:54:44,426.615,0.135%,
130,2025-01-10 02:22:21,2025-01-10 02:29:27,426.218,0.135%,
131,2025-01-10 03:57:05,2025-01-10 04:04:15,429.87,0.136%,
132,2025-01-10 05:31:49,2025-01-10 05:38:52,423.007,0.134%,
133,2025-01-10 07:06:33,2025-01-10 07:13:46,432.818,0.137%,
134,2025-01-10 08:41:18,2025-01-10 08:48:24,426.1,0.135%,
135,2025-01-10 10:16:02,2025-01-10 10:23:19,437.273,0.139%,
136,2025-01-10 11:50:46,2025-01-10 11:58:03,436.712,0.139%,
137,2025-01-10 13:25:31,2025-01-10 13:32:47,436.083,0.138%,
138,2025-01-10 15:00:15,2025-01-10 15:07:31,435.382,0.138%,
139,2025-01-10 16:35:00,2025-01-10 16:42:14,434.604,0.138%,
140,2025-01-10 18:09:44,2025-01-10 18:16:58,433.741,0.138%,
141,2025-01-10 19:44:29,2025-01-10 19:51:42,432.795,0.137%,
142,2025-01-10 21:19:14,2025-01-10 21:26:29,435.007,0.138%,
143,2025-01-10 22:53:59,2025-01-10 23:01:09,430.612,0.137%,
144,2025-01-11 00:28:43,2025-01-11 00:35:53,430.305,0.136%,
145,2025-01-11 02:03:27,2025-01-11 02:10:38,431.165,0.137%,
146,2025-01-11 03:38:11,2025-01-11 03:45:21,429.653,0.136%,
147,2025-01-11 05:12:55,2025-01-11 05:20:09,434.198,0.138%,
148,2025-01-11 06:47:39,2025-01-11 06:54:48,428.724,0.136%,
149,2025-01-11 08:22:24,2025-01-11 08:29:32,428.154,0.136%,
150,2025-01-11 09:57:08,2025-01-11 10:04:18,430.509,0.137%,
151,2025-01-11 11:31:52,2025-01-11 11:38:59,426.785,0.135%,
152,2025-01-11 13:06:37,2025-01-11 13:13:50,433.014,0.137%,
153,2025-01-11 14:41:21,2025-01-11 14:48:27,426.056,0.135%,
154,2025-01-11 16:16:06,2025-01-11 16:23:21,435.189,0.138%,
155,2025-01-11 17:50:50,2025-01-11 17:57:59,428.307,0.136%,
156,2025-01-11 19:25:35,2025-01-11 19:32:39,424.108,0.135%,
157,2025-01-11 21:00:20,2025-01-11 21:07:30,430.152,0.136%,
158,2025-01-11 22:35:05,2025-01-11 22:42:07,422.633,0.134%,
159,2025-01-12 00:09:49,2025-01-12 00:17:01,432.366,0.137%,
160,2025-01-12 01:44:33,2025-01-12 01:51:39,425.954,0.135%,
161,2025-01-12 03:19:17,2025-01-12 03:26:20,423.271,0.134%,
162,2025-01-12 04:54:01,2025-01-12 05:01:10,429.159,0.136%,
163,2025-01-12 06:28:45,2025-01-12 06:35:47,422.157,0.134%,
164,2025-01-12 08:03:29,2025-01-12 08:10:41,432.054,0.137%,
165,2025-01-12 09:38:14,2025-01-12 09:45:19,425.206,0.135%,
166,2025-01-12 11:12:58,2025-01-12 11:20:13,434.647,0.138%,
167,2025-01-12 12:47:42,2025-01-12 12:54:50,427.908,0.136%,
168,2025-01-12 14:22:27,2025-01-12 14:29:34,427.082,0.135%,
169,2025-01-12 15:57:11,2025-01-12 16:04:22,430.255,0.136%,
170,2025-01-12 17:31:56,2025-01-12 17:38:59,422.908,0.134%,
171,2025-01-12 19:06:41,2025-01-12 19:13:53,432.229,0.137%,
172,2025-01-12 20:41:25,2025-01-12 20:48:30,424.976,0.135%,
173,2025-01-12 22:16:10,2025-01-12 22:23:24,433.8,0.138%,
174,2025-01-12 23:50:55,2025-01-12 23:58:02,427.253,0.136%,
175,2025-01-12 23:58:09,2025-01-12 23:58:10,0.765,0.000%,
176,2025-01-13 01:25:39,2025-01-13 01:32:53,434.888,0.138%,
177,2025-01-13 03:00:23,2025-01-13 03:07:37,434.618,0.138%,
178,2025-01-13 04:35:07,2025-01-13 04:42:21,434.285,0.138%,
179,2025-01-13 06:09:51,2025-01-13 06:17:05,433.888,0.138%,
180,2025-01-13 07:44:35,2025-01-13 07:51:49,433.43,0.137%,
181,2025-01-13 09:19:19,2025-01-13 09:26:32,432.9,0.137%,
182,2025-01-13 10:54:04,2025-01-13 11:01:16,432.302,0.137%,
183,2025-01-13 12:28:48,2025-01-13 12:36:00,431.635,0.137%,
184,2025-01-13 14:03:33,2025-01-13 14:10:45,432.074,0.137%,
185,2025-01-13 15:38:17,2025-01-13 15:45:27,430.07,0.136%,
186,2025-01-13 17:13:02,2025-01-13 17:20:16,434.171,0.138%,
187,2025-01-13 18:47:46,2025-01-13 18:54:55,428.167,0.136%,
188,2025-01-13 20:22:31,2025-01-13 20:29:38,427.067,0.135%,
189,2025-01-13 21:57:16,2025-01-13 22:04:25,428.902,0.136%,
190,2025-01-13 23:32:00,2025-01-13 23:39:06,425.091,0.135%,
191,2025-01-14 01:06:44,2025-01-14 01:13:56,431.783,0.137%,
192,2025-01-14 02:41:28,2025-01-14 02:48:34,425.249,0.135%,
193,2025-01-14 04:16:13,2025-01-14 04:23:27,434.834,0.138%,
194,2025-01-14 05:50:57,2025-01-14 05:58:05,428.406,0.136%,
195,2025-01-14 07:25:41,2025-01-14 07:32:46,424.707,0.135%,
196,2025-01-14 09:00:25,2025-01-14 09:07:36,431.25,0.137%,
197,2025-01-14 10:35:10,2025-01-14 10:42:14,424.267,0.135%,
198,2025-01-14 12:09:54,2025-01-14 12:17:08,433.776,0.138%,
199,2025-01-14 13:44:38,2025-01-14 13:51:45,426.913,0.135%,
200,2025-01-14 15:19:23,2025-01-14 15:26:27,423.793,0.134%,
201,2025-01-14 16:54:07,2025-01-14 17:01:17,429.191,0.136%,
202,2025-01-14 18:28:52,2025-01-14 18:35:54,421.683,0.134%,
203,2025-01-14 20:03:37,2025-01-14 20:10:48,431.073,0.137%,
204,2025-01-14 21:38:22,2025-01-14 21:45:25,423.667,0.134%,
205,2025-01-14 23:13:06,2025-01-14 23:20:19,432.939,0.137%,
206,2025-01-15 00:47:50,2025-01-15 00:54:57,426.617,0.135%,
207,2025-01-15 02:22:34,2025-01-15 02:29:34,419.525,0.133%,
208,2025-01-15 03:57:18,2025-01-15 04:04:28,429.837,0.136%,
209,2025-01-15 05:32:03,2025-01-15 05:39:05,422.94,0.134%,
210,2025-01-15 07:06:47,2025-01-15 07:13:59,432.75,0.137%,
211,2025-01-15 08:41:31,2025-01-15 08:48:37,426,0.135%,
212,2025-01-15 10:16:15,2025-01-15 10:23:31,435.369,0.138%,
213,2025-01-15 11:51:00,2025-01-15 11:58:08,428.715,0.136%,
214,2025-01-15 13:25:44,2025-01-15 13:32:45,421.327,0.134%,
215,2025-01-15 13:32:59,2025-01-15 13:33:00,1.049,0.000%,
216,2025-01-15 15:00:29,2025-01-15 15:07:44,435.165,0.138%,
217,2025-01-15 16:35:13,2025-01-15 16:42:28,434.36,0.138%,
218,2025-01-15 18:09:58,2025-01-15 18:17:11,433.471,0.138%,
219,2025-01-15 19:44:43,2025-01-15 19:51:55,432.491,0.137%,
220,2025-01-15 21:19:27,2025-01-15 21:26:39,431.415,0.137%,
221,2025-01-15 22:54:12,2025-01-15 23:01:23,430.518,0.137%,
222,2025-01-16 00:28:56,2025-01-16 00:36:06,430.263,0.136%,
223,2025-01-16 02:03:40,2025-01-16 02:10:51,431.158,0.137%,
224,2025-01-16 03:38:24,2025-01-16 03:45:34,429.566,0.136%,
225,2025-01-16 05:13:08,2025-01-16 05:20:22,434.152,0.138%,
226,2025-01-16 06:47:53,2025-01-16 06:55:01,428.591,0.136%,
227,2025-01-16 08:22:37,2025-01-16 08:29:45,427.994,0.136%,
228,2025-01-16 09:57:21,2025-01-16 10:04:32,430.399,0.137%,
229,2025-01-16 11:32:05,2025-01-16 11:39:12,426.57,0.135%,
230,2025-01-16 13:06:50,2025-01-16 13:14:03,432.862,0.137%,
231,2025-01-16 14:41:34,2025-01-16 14:48:40,425.868,0.135%,
232,2025-01-16 16:16:19,2025-01-16 16:23:23,423.782,0.134%,
233,2025-01-16 17:51:04,2025-01-16 17:58:12,428.07,0.136%,
234,2025-01-16 19:25:48,2025-01-16 19:32:52,423.877,0.134%,
235,2025-01-16 21:00:33,2025-01-16 21:07:43,429.858,0.136%,
236,2025-01-16 22:35:18,2025-01-16 22:42:20,422.447,0.134%,
237,2025-01-17 00:10:02,2025-01-17 00:17:14,432.382,0.137%,
238,2025-01-17 01:44:46,2025-01-17 01:51:52,425.94,0.135%,
239,2025-01-17 03:19:30,2025-01-17 03:26:33,423.273,0.134%,
240,2025-01-17 04:54:14,2025-01-17 05:01:23,429.111,0.136%,
241,2025-01-17 06:28:58,2025-01-17 06:36:00,422.068,0.134%,
242,2025-01-17 08:03:43,2025-01-17 08:10:55,431.969,0.137%,
243,2025-01-17 09:38:27,2025-01-17 09:45:32,425.088,0.135%,
244,2025-01-17 11:13:11,2025-01-17 11:20:26,434.523,0.138%,
245,2025-01-17 12:47:56,2025-01-17 12:55:03,427.75,0.136%,
246,2025-01-17 14:22:40,2025-01-17 14:29:40,420.197,0.133%,
247,2025-01-17 15:57:25,2025-01-17 16:04:35,430.053,0.136%,
248,2025-01-17 17:32:09,2025-01-17 17:39:12,422.665,0.134%,
249,2025-01-17 19:06:54,2025-01-17 19:14:06,431.973,0.137%,
250,2025-01-17 20:41:39,2025-01-17 20:48:44,424.679,0.135%,
251,2025-01-17 22:16:24,2025-01-17 22:23:28,424.434,0.135%,
252,2025-01-17 23:51:08,2025-01-17 23:58:15,427.264,0.136%,
253,2025-01-18 01:25:52,2025-01-18 01:32:52,420.292,0.133%,
254,2025-01-18 03:00:36,2025-01-18 03:07:50,434.556,0.138%,
255,2025-01-18 04:35:20,2025-01-18 04:42:34,434.202,0.138%,
256,2025-01-18 06:10:04,2025-01-18 06:17:18,433.784,0.138%,
257,2025-01-18 07:44:48,2025-01-18 07:52:02,433.303,0.137%,
258,2025-01-18 09:19:33,2025-01-18 09:26:45,432.747,0.137%,
259,2025-01-18 10:54:17,2025-01-18 11:01:29,432.13,0.137%,
260,2025-01-18 12:29:01,2025-01-18 12:36:13,431.434,0.137%,
261,2025-01-18 14:03:46,2025-01-18 14:10:58,431.904,0.137%,
262,2025-01-18 15:38:31,2025-01-18 15:45:40,429.815,0.136%,
263,2025-01-18 17:13:15,2025-01-18 17:20:29,433.949,0.138%,
264,2025-01-18 18:48:00,2025-01-18 18:55:08,427.843,0.136%,
265,2025-01-18 20:22:45,2025-01-18 20:29:51,426.711,0.135%,
266,2025-01-18 21:57:30,2025-01-18 22:04:38,428.583,0.136%,
267,2025-01-18 23:32:14,2025-01-18 23:39:19,425.028,0.135%,
268,2025-01-19 01:06:58,2025-01-19 01:14:09,431.784,0.137%,
269,2025-01-19 02:41:42,2025-01-19 02:48:47,425.219,0.135%,
270,2025-01-19 04:16:26,2025-01-19 04:23:29,423.537,0.134%,
271,2025-01-19 05:51:10,2025-01-19 05:58:18,428.339,0.136%,
272,2025-01-19 07:25:54,2025-01-19 07:32:59,424.657,0.135%,
273,2025-01-19 09:00:38,2025-01-19 09:07:50,431.149,0.137%,
274,2025-01-19 10:35:23,2025-01-19 10:42:27,424.129,0.135%,
275,2025-01-19 12:10:07,2025-01-19 12:17:21,433.635,0.138%,
276,2025-01-19 13:44:52,2025-01-19 13:51:58,426.737,0.135%,
277,2025-01-19 15:19:36,2025-01-19 15:26:40,423.629,0.134%,
278,2025-01-19 16:54:21,2025-01-19 17:01:30,428.965,0.136%,
279,2025-01-19 18:29:06,2025-01-19 18:36:07,421.417,0.134%,
280,2025-01-19 20:03:50,2025-01-19 20:11:01,430.796,0.137%,
281,2025-01-19 21:38:35,2025-01-19 21:45:39,423.346,0.134%,
282,2025-01-19 23:13:19,2025-01-19 23:20:32,432.966,0.137%,
283,2025-01-20 00:48:03,2025-01-20 00:55:10,426.612,0.135%,
284,2025-01-20 02:22:47,2025-01-20 02:29:47,419.483,0.133%,
285,2025-01-20 03:57:32,2025-01-20 04:04:41,429.798,0.136%,
286,2025-01-20 05:32:16,2025-01-20 05:39:19,422.864,0.134%,
287,2025-01-20 07:07:00,2025-01-20 07:14:13,432.675,0.137%,
288,2025-01-20 08:41:44,2025-01-20 08:48:50,425.89,0.135%,
289,2025-01-20 10:16:29,2025-01-20 10:23:27,418.235,0.133%,
290,2025-01-20 10:23:28,2025-01-20 10:23:35,7.134,0.002%,
291,2025-01-20 11:51:13,2025-01-20 11:58:22,428.567,0.136%,
292,2025-01-20 13:25:58,2025-01-20 13:32:59,421.141,0.134%,
293,2025-01-20 15:00:42,2025-01-20 15:07:53,430.898,0.137%,
294,2025-01-20 16:35:27,2025-01-20 16:42:41,434.103,0.138%,
295,2025-01-20 18:10:11,2025-01-20 18:17:25,433.185,0.137%,
296,2025-01-20 19:44:56,2025-01-20 19:52:08,432.175,0.137%,
297,2025-01-20 21:19:41,2025-01-20 21:26:52,431.062,0.137%,
298,2025-01-20 22:54:25,2025-01-20 23:01:36,430.496,0.137%,
299,2025-01-21 00:29:09,2025-01-21 00:36:19,430.216,0.136%,
300,2025-01-21 02:03:53,2025-01-21 02:11:04,431.142,0.137%,
301,2025-01-21 03:38:37,2025-01-21 03:45:47,429.473,0.136%,
302,2025-01-21 05:13:22,2025-01-21 05:20:36,434.099,0.138%,
303,2025-01-21 06:48:06,2025-01-21 06:55:14,428.447,0.136%,
304,2025-01-21 08:22:50,2025-01-21 08:29:58,427.825,0.136%,
305,2025-01-21 09:57:34,2025-01-21 10:04:45,430.279,0.136%,
306,2025-01-21 11:32:19,2025-01-21 11:39:25,426.352,0.135%,
307,2025-01-21 13:07:03,2025-01-21 13:14:16,432.703,0.137%,
308,2025-01-21 14:41:48,2025-01-21 14:48:53,425.672,0.135%,
309,2025-01-21 16:16:32,2025-01-21 16:23:36,423.468,0.134%,
310,2025-01-21 17:51:17,2025-01-21 17:58:25,427.826,0.136%,
311,2025-01-21 19:26:02,2025-01-21 19:33:05,423.637,0.134%,
312,2025-01-21 21:00:47,2025-01-21 21:07:56,429.555,0.136%,
313,2025-01-21 22:35:31,2025-01-21 22:42:34,422.459,0.134%,
314,2025-01-22 00:10:15,2025-01-22 00:17:27,432.392,0.137%,
315,2025-01-22 01:44:59,2025-01-22 01:52:05,425.919,0.135%,
316,2025-01-22 03:19:43,2025-01-22 03:26:47,423.271,0.134%,
317,2025-01-22 04:54:27,2025-01-22 05:01:36,429.055,0.136%,
318,2025-01-22 06:29:12,2025-01-22 06:36:14,421.978,0.134%,
319,2025-01-22 08:03:56,2025-01-22 08:11:08,431.878,0.137%,
320,2025-01-22 09:38:40,2025-01-22 09:45:45,424.961,0.135%,
321,2025-01-22 11:13:25,2025-01-22 11:20:28,422.948,0.134%,
322,2025-01-22 12:48:09,2025-01-22 12:55:17,427.585,0.136%,
323,2025-01-22 14:22:54,2025-01-22 14:29:54,419.99,0.133%,
324,2025-01-22 15:57:38,2025-01-22 16:04:48,429.844,0.136%,
325,2025-01-22 17:32:23,2025-01-22 17:39:25,422.414,0.134%,
326,2025-01-22 19:07:08,2025-01-22 19:14:19,431.71,0.137%,
327,2025-01-22 20:41:52,2025-01-22 20:48:57,424.369,0.135%,
328,2025-01-22 22:16:37,2025-01-22 22:23:33,416.503,0.132%,
329,2025-01-22 23:51:21,2025-01-22 23:58:28,427.268,0.136%,
330,2025-01-23 01:26:05,2025-01-23 01:33:05,420.261,0.133%,
331,2025-01-23 03:00:49,2025-01-23 03:08:00,430.469,0.137%,
332,2025-01-23 04:35:33,2025-01-23 04:42:37,423.642,0.134%,
333,2025-01-23 06:10:17,2025-01-23 06:17:31,433.674,0.138%,
334,2025-01-23 07:45:02,2025-01-23 07:52:15,433.166,0.137%,
335,2025-01-23 09:19:46,2025-01-23 09:26:59,432.592,0.137%,
336,2025-01-23 10:54:30,2025-01-23 11:01:42,431.95,0.137%,
337,2025-01-23 12:29:15,2025-01-23 12:36:26,431.227,0.137%,
338,2025-01-23 14:03:59,2025-01-23 14:11:11,431.725,0.137%,
339,2025-01-23 15:38:44,2025-01-23 15:45:53,429.553,0.136%,
340,2025-01-23 17:13:29,2025-01-23 17:20:37,428.582,0.136%,
341,2025-01-23 18:48:13,2025-01-23 18:55:21,427.517,0.136%,
342,2025-01-23 20:22:58,2025-01-23 20:30:04,426.349,0.135%,
343,2025-01-23 21:57:43,2025-01-23 22:04:51,428.508,0.136%,
344,2025-01-23 23:32:27,2025-01-23 23:39:32,424.958,0.135%,
345,2025-01-24 01:07:11,2025-01-24 01:14:23,431.778,0.137%,
346,2025-01-24 02:41:55,2025-01-24 02:49:00,425.182,0.135%,
347,2025-01-24 04:16:39,2025-01-24 04:23:42,423.381,0.134%,
348,2025-01-24 05:51:23,2025-01-24 05:58:31,428.268,0.136%,
349,2025-01-24 07:26:07,2025-01-24 07:33:12,424.599,0.135%,
350,2025-01-24 09:00:52,2025-01-24 09:08:03,431.04,0.137%,
351,2025-01-24 10:35:36,2025-01-24 10:42:40,423.986,0.134%,
352,2025-01-24 12:10:21,2025-01-24 12:17:34,433.486,0.138%,
353,2025-01-24 13:45:05,2025-01-24 13:52:12,426.553,0.135%,
354,2025-01-24 15:19:50,2025-01-24 15:26:53,423.455,0.134%,
355,2025-01-24 16:54:34,2025-01-24 17:01:43,428.733,0.136%,
356,2025-01-24 18:29:19,2025-01-24 18:36:20,421.139,0.134%,
357,2025-01-24 20:04:04,2025-01-24 20:11:14,430.505,0.137%,
358,2025-01-24 21:38:49,2025-01-24 21:45:52,423.13,0.134%,
359,2025-01-24 23:13:33,2025-01-24 23:20:34,421.551,0.134%,
360,2025-01-25 00:48:17,2025-01-25 00:55:23,426.601,0.135%,
361,2025-01-25 02:23:01,2025-01-25 02:30:00,419.435,0.133%,
362,2025-01-25 03:57:45,2025-01-25 04:04:55,429.752,0.136%,
363,2025-01-25 05:32:29,2025-01-25 05:39:32,422.784,0.134%,
364,2025-01-25 07:07:13,2025-01-25 07:14:26,432.593,0.137%,
365,2025-01-25 08:41:58,2025-01-25 08:49:03,425.775,0.135%,
366,2025-01-25 10:16:42,2025-01-25 10:23:40,418.078,0.133%,
367,2025-01-25 11:51:26,2025-01-25 11:58:35,428.415,0.136%,
368,2025-01-25 13:26:11,2025-01-25 13:33:12,420.947,0.134%,
369,2025-01-25 15:00:55,2025-01-25 15:08:06,430.7,0.137%,
370,2025-01-25 16:35:40,2025-01-25 16:42:43,423.381,0.134%,
371,2025-01-25 18:10:25,2025-01-25 18:17:38,432.89,0.137%,
372,2025-01-25 19:45:10,2025-01-25 19:52:21,431.847,0.137%,
373,2025-01-25 21:19:54,2025-01-25 21:27:05,430.694,0.137%,
374,2025-01-25 22:54:38,2025-01-25 23:01:49,430.464,0.137%,
375,2025-01-26 00:29:22,2025-01-26 00:36:33,430.162,0.136%,
376,2025-01-26 02:04:07,2025-01-26 02:11:18,431.122,0.137%,
377,2025-01-26 03:38:51,2025-01-26 03:46:00,429.373,0.136%,
378,2025-01-26 05:13:35,2025-01-26 05:20:44,428.87,0.136%,
379,2025-01-26 06:48:19,2025-01-26 06:55:27,428.299,0.136%,
380,2025-01-26 08:23:03,2025-01-26 08:30:11,427.653,0.136%,
381,2025-01-26 09:57:48,2025-01-26 10:04:58,430.154,0.136%,
382,2025-01-26 11:32:32,2025-01-26 11:39:38,426.122,0.135%,
383,2025-01-26 13:07:17,2025-01-26 13:14:29,432.535,0.137%,
384,2025-01-26 14:42:01,2025-01-26 14:49:07,425.467,0.135%,
385,2025-01-26 16:16:46,2025-01-26 16:23:49,423.142,0.134%,
386,2025-01-26 17:51:31,2025-01-26 17:58:38,427.569,0.136%,
387,2025-01-26 19:26:15,2025-01-26 19:33:19,423.385,0.134%,
388,2025-01-26 21:01:00,2025-01-26 21:08:09,429.24,0.136%,
389,2025-01-26 22:35:44,2025-01-26 22:42:47,422.463,0.134%,
390,2025-01-27 00:10:28,2025-01-27 00:17:41,432.395,0.137%,
391,2025-01-27 01:45:12,2025-01-27 01:52:18,425.891,0.135%,
392,2025-01-27 03:19:56,2025-01-27 03:27:00,423.259,0.134%,
393,2025-01-27 04:54:41,2025-01-27 05:01:50,428.993,0.136%,
394,2025-01-27 06:29:25,2025-01-27 06:36:27,421.88,0.134%,
395,2025-01-27 08:04:09,2025-01-27 08:11:21,431.777,0.137%,
396,2025-01-27 09:38:54,2025-01-27 09:45:58,424.829,0.135%,
397,2025-01-27 11:13:38,2025-01-27 11:20:41,422.83,0.134%,
398,2025-01-27 12:48:22,2025-01-27 12:55:30,427.412,0.136%,
399,2025-01-27 14:23:07,2025-01-27 14:30:07,419.774,0.133%,
400,2025-01-27 15:57:52,2025-01-27 16:05:01,429.621,0.136%,
401,2025-01-27 17:32:36,2025-01-27 17:39:38,422.148,0.134%,
402,2025-01-27 19:07:21,2025-01-27 19:14:32,431.436,0.137%,
403,2025-01-27 20:42:06,2025-01-27 20:49:10,424.048,0.135%,
404,2025-01-27 22:16:50,2025-01-27 22:23:47,416.494,0.132%,
405,2025-01-27 23:51:34,2025-01-27 23:58:41,427.265,0.136%,
406,2025-01-28 01:26:18,2025-01-28 01:33:18,420.223,0.133%,
407,2025-01-28 03:01:02,2025-01-28 03:08:13,430.432,0.137%,
408,2025-01-28 04:35:46,2025-01-28 04:42:50,423.569,0.134%,
409,2025-01-28 06:10:31,2025-01-28 06:17:44,433.292,0.137%,
410,2025-01-28 07:45:15,2025-01-28 07:52:28,433.025,0.137%,
411,2025-01-28 09:19:59,2025-01-28 09:27:12,432.425,0.137%,
412,2025-01-28 10:54:44,2025-01-28 11:01:55,431.755,0.137%,
413,2025-01-28 12:29:28,2025-01-28 12:36:39,431.01,0.137%,
414,2025-01-28 14:04:13,2025-01-28 14:11:24,431.538,0.137%,
415,2025-01-28 15:38:57,2025-01-28 15:46:07,429.277,0.136%,
416,2025-01-28 17:13:42,2025-01-28 17:20:50,428.277,0.136%,
417,2025-01-28 18:48:27,2025-01-28 18:55:34,427.176,0.136%,
418,2025-01-28 20:23:12,2025-01-28 20:30:18,425.968,0.135%,
419,2025-01-28 21:57:56,2025-01-28 22:05:04,428.53,0.136%,
420,2025-01-28 23:32:40,2025-01-28 23:39:45,424.88,0.135%,
421,2025-01-29 01:07:24,2025-01-29 01:14:36,431.765,0.137%,
422,2025-01-29 02:42:08,2025-01-29 02:49:13,425.137,0.135%,
423,2025-01-29 04:16:52,2025-01-29 04:23:55,423.22,0.134%,
424,2025-01-29 05:51:36,2025-01-29 05:58:45,428.188,0.136%,
425,2025-01-29 07:26:21,2025-01-29 07:33:25,424.531,0.135%,
426,2025-01-29 09:01:05,2025-01-29 09:08:16,430.921,0.137%,
427,2025-01-29 10:35:49,2025-01-29 10:42:53,423.833,0.134%,
428,2025-01-29 12:10:34,2025-01-29 12:17:33,419.335,0.133%,
429,2025-01-29 12:17:45,2025-01-29 12:17:47,2.184,0.001%,
430,2025-01-29 13:45:18,2025-01-29 13:52:25,426.358,0.135%,
431,2025-01-29 15:20:03,2025-01-29 15:27:06,423.272,0.134%,
432,2025-01-29 16:54:48,2025-01-29 17:01:56,428.491,0.136%,
433,2025-01-29 18:29:32,2025-01-29 18:36:33,420.851,0.134%,
434,2025-01-29 20:04:17,2025-01-29 20:11:28,430.204,0.136%,
435,2025-01-29 21:39:02,2025-01-29 21:46:05,423.142,0.134%,
436,2025-01-29 23:13:46,2025-01-29 23:20:47,421.584,0.134%,
437,2025-01-30 00:48:30,2025-01-30 00:55:36,426.581,0.135%,
438,2025-01-30 02:23:14,2025-01-30 02:30:13,419.378,0.133%,
439,2025-01-30 03:57:58,2025-01-30 04:05:08,429.695,0.136%,
440,2025-01-30 05:32:42,2025-01-30 05:39:45,422.696,0.134%,
441,2025-01-30 07:07:27,2025-01-30 07:14:39,432.503,0.137%,
442,2025-01-30 08:42:11,2025-01-30 08:49:17,425.65,0.135%,
443,2025-01-30 10:16:55,2025-01-30 10:23:53,417.912,0.133%,
444,2025-01-30 11:51:40,2025-01-30 11:58:48,428.251,0.136%,
445,2025-01-30 13:26:24,2025-01-30 13:33:25,420.743,0.133%,
446,2025-01-30 15:01:09,2025-01-30 15:08:19,430.491,0.137%,
447,2025-01-30 16:35:53,2025-01-30 16:42:57,423.131,0.134%,
448,2025-01-30 18:10:38,2025-01-30 18:17:42,424.103,0.135%,
449,2025-01-30 19:45:23,2025-01-30 19:52:28,425.064,0.135%,
450,2025-01-30 19:52:29,2025-01-30 19:52:35,5.846,0.002%,
451,2025-01-30 21:20:08,2025-01-30 21:27:18,430.675,0.137%,
452,2025-01-30 22:54:52,2025-01-30 23:02:02,430.419,0.137%,
453,2025-01-31 00:29:36,2025-01-31 00:36:46,430.096,0.136%,
454,2025-01-31 02:04:20,2025-01-31 02:11:31,431.095,0.137%,
455,2025-01-31 03:39:04,2025-01-31 03:46:13,429.261,0.136%,
456,2025-01-31 05:13:48,2025-01-31 05:20:57,428.737,0.136%,
457,2025-01-31 06:48:32,2025-01-31 06:55:40,428.141,0.136%,
458,2025-01-31 08:23:17,2025-01-31 08:30:24,427.467,0.136%,
459,2025-01-31 09:58:01,2025-01-31 10:05:11,430.019,0.136%,
460,2025-01-31 11:32:45,2025-01-31 11:39:51,425.883,0.135%,
461,2025-01-31 13:07:30,2025-01-31 13:14:42,432.357,0.137%,
462,2025-01-31 14:42:15,2025-01-31 14:49:20,425.252,0.135%,
463,2025-01-31 16:16:59,2025-01-31 16:24:02,422.795,0.134%,
464,2025-01-31 17:51:44,2025-01-31 17:58:51,427.303,0.136%,
465,2025-01-31 19:26:29,2025-01-31 19:33:32,423.119,0.134%,
466,2025-01-31 21:01:13,2025-01-31 21:08:23,429.137,0.136%,
467,2025-01-31 22:35:57,2025-01-31 22:43:00,422.46,0.134%,
468,2025-02-01 00:10:41,2025-02-01 00:17:40,418.406,0.133%,
469,2025-02-01 01:45:26,2025-02-01 01:52:31,425.855,0.135%,
470,2025-02-01 03:20:10,2025-02-01 03:27:13,423.238,0.134%,
471,2025-02-01 04:54:54,2025-02-01 05:02:03,428.922,0.136%,
472,2025-02-01 06:29:38,2025-02-01 06:36:40,421.774,0.134%,
473,2025-02-01 08:04:22,2025-02-01 08:11:34,431.67,0.137%,
474,2025-02-01 09:39:07,2025-02-01 09:46:12,424.687,0.135%,
475,2025-02-01 11:13:51,2025-02-01 11:20:54,422.704,0.134%,
476,2025-02-01 12:48:36,2025-02-01 12:55:43,427.229,0.136%,
477,2025-02-01 14:23:20,2025-02-01 14:30:20,419.548,0.133%,
478,2025-02-01 15:58:05,2025-02-01 16:05:14,429.39,0.136%,
479,2025-02-01 17:32:50,2025-02-01 17:39:52,421.874,0.134%,
480,2025-02-01 19:07:35,2025-02-01 19:14:46,431.148,0.137%,
481,2025-02-01 20:42:19,2025-02-01 20:49:23,423.81,0.134%,
482,2025-02-01 22:17:03,2025-02-01 22:24:00,416.477,0.132%,
483,2025-02-01 23:51:47,2025-02-01 23:58:55,427.255,0.136%,
484,2025-02-02 01:26:31,2025-02-02 01:33:32,420.176,0.133%,
485,2025-02-02 03:01:16,2025-02-02 03:08:26,430.384,0.137%,
486,2025-02-02 04:36:00,2025-02-02 04:43:03,423.49,0.134%,
487,2025-02-02 06:10:44,2025-02-02 06:17:40,415.597,0.132%,
488,2025-02-02 06:17:49,2025-02-02 06:17:49,0.013,0.000%,
489,2025-02-02 07:45:28,2025-02-02 07:52:35,426.455,0.135%,
490,2025-02-02 09:20:13,2025-02-02 09:27:25,432.255,0.137%,
491,2025-02-02 10:54:57,2025-02-02 11:02:09,431.556,0.137%,
492,2025-02-02 12:29:42,2025-02-02 12:36:52,430.784,0.137%,
493,2025-02-02 14:04:26,2025-02-02 14:11:37,431.34,0.137%,
494,2025-02-02 15:39:11,2025-02-02 15:46:20,428.988,0.136%,
495,2025-02-02 17:13:55,2025-02-02 17:21:03,427.957,0.136%,
496,2025-02-02 18:48:40,2025-02-02 18:55:47,426.823,0.135%,
497,2025-02-02 20:23:25,2025-02-02 20:30:31,425.574,0.135%,
498,2025-02-02 21:58:09,2025-02-02 22:05:18,428.545,0.136%,
499,2025-02-02 23:32:53,2025-02-02 23:39:58,424.791,0.135%,
500,2025-02-03 01:07:37,2025-02-03 01:14:49,431.745,0.137%,
501,2025-02-03 02:42:21,2025-02-03 02:49:26,425.085,0.135%,
502,2025-02-03 04:17:06,2025-02-03 04:24:09,423.045,0.134%,
503,2025-02-03 05:51:50,2025-02-03 05:58:58,428.102,0.136%,
504,2025-02-03 07:26:34,2025-02-03 07:33:39,424.459,0.135%,
505,2025-02-03 09:01:18,2025-02-03 09:08:29,430.794,0.137%,
506,2025-02-03 10:36:03,2025-02-03 10:43:06,423.672,0.134%,
507,2025-02-03 12:10:47,2025-02-03 12:17:46,419.185,0.133%,
508,2025-02-03 13:45:32,2025-02-03 13:52:38,426.156,0.135%,
509,2025-02-03 15:20:16,2025-02-03 15:27:20,423.075,0.134%,
510,2025-02-03 16:55:01,2025-02-03 17:02:09,428.236,0.136%,
511,2025-02-03 18:29:46,2025-02-03 18:36:47,420.552,0.133%,
512,2025-02-03 20:04:31,2025-02-03 20:11:41,429.893,0.136%,
513,2025-02-03 21:39:15,2025-02-03 21:46:18,423.151,0.134%,
514,2025-02-03 23:13:59,2025-02-03 23:21:01,421.61,0.134%,
515,2025-02-04 00:48:43,2025-02-04 00:55:50,426.555,0.135%,
516,2025-02-04 02:23:27,2025-02-04 02:30:26,419.314,0.133%,
517,2025-02-04 03:58:11,2025-02-04 04:05:21,429.632,0.136%,
518,2025-02-04 05:32:56,2025-02-04 05:39:58,422.601,0.134%,
519,2025-02-04 07:07:40,2025-02-04 07:14:52,432.404,0.137%,
520,2025-02-04 08:42:24,2025-02-04 08:49:30,425.521,0.135%,
521,2025-02-04 10:17:09,2025-02-04 10:24:06,417.738,0.133%,
522,2025-02-04 11:51:53,2025-02-04 11:59:01,428.079,0.136%,
523,2025-02-04 13:26:38,2025-02-04 13:33:38,420.53,0.133%,
524,2025-02-04 15:01:22,2025-02-04 15:08:33,430.273,0.136%,
525,2025-02-04 16:36:07,2025-02-04 16:43:10,422.871,0.134%,
526,2025-02-04 18:10:52,2025-02-04 18:17:46,414.433,0.131%,
527,2025-02-04 19:45:37,2025-02-04 19:52:41,424.746,0.135%,
528,2025-02-04 21:20:21,2025-02-04 21:27:31,430.651,0.137%,
529,2025-02-04 22:55:05,2025-02-04 23:02:15,430.373,0.137%,
530,2025-02-05 00:29:49,2025-02-05 00:36:59,430.028,0.136%,
531,2025-02-05 02:04:33,2025-02-05 02:11:44,431.06,0.137%,
532,2025-02-05 03:39:17,2025-02-05 03:46:26,429.146,0.136%,
533,2025-02-05 05:14:01,2025-02-05 05:21:10,428.596,0.136%,
534,2025-02-05 06:48:46,2025-02-05 06:55:54,427.972,0.136%,
535,2025-02-05 08:23:30,2025-02-05 08:30:37,427.279,0.136%,
536,2025-02-05 09:58:14,2025-02-05 10:05:24,429.877,0.136%,
537,2025-02-05 11:32:59,2025-02-05 11:40:04,425.635,0.135%,
538,2025-02-05 13:07:43,2025-02-05 13:14:56,432.172,0.137%,
539,2025-02-05 14:42:28,2025-02-05 14:49:33,425.028,0.135%,
540,2025-02-05 16:17:13,2025-02-05 16:24:15,422.444,0.134%,
541,2025-02-05 17:51:57,2025-02-05 17:59:04,427.027,0.135%,
542,2025-02-05 19:26:42,2025-02-05 19:33:45,422.843,0.134%,
543,2025-02-05 21:01:27,2025-02-05 21:08:36,429.161,0.136%,
544,2025-02-05 22:36:11,2025-02-05 22:43:13,422.451,0.134%,
545,2025-02-06 00:10:55,2025-02-06 00:17:53,418.412,0.133%,
546,2025-02-06 01:45:39,2025-02-06 01:52:45,425.813,0.135%,
547,2025-02-06 03:20:23,2025-02-06 03:27:26,423.212,0.134%,
548,2025-02-06 04:55:07,2025-02-06 05:02:16,428.846,0.136%,
549,2025-02-06 06:29:51,2025-02-06 06:36:53,421.661,0.134%,
550,2025-02-06 08:04:36,2025-02-06 08:11:47,431.555,0.137%,
551,2025-02-06 09:39:20,2025-02-06 09:46:25,424.537,0.135%,
552,2025-02-06 11:14:05,2025-02-06 11:21:07,422.57,0.134%,
553,2025-02-06 12:48:49,2025-02-06 12:55:56,427.038,0.135%,
554,2025-02-06 14:23:34,2025-02-06 14:30:33,419.314,0.133%,
555,2025-02-06 15:58:18,2025-02-06 16:05:28,429.151,0.136%,
556,2025-02-06 17:33:03,2025-02-06 17:40:05,421.588,0.134%,
557,2025-02-06 19:07:48,2025-02-06 19:14:59,430.848,0.137%,
558,2025-02-06 20:42:32,2025-02-06 20:49:36,423.827,0.134%,
559,2025-02-06 22:17:16,2025-02-06 22:24:13,416.454,0.132%,
560,2025-02-06 23:52:01,2025-02-06 23:59:08,427.238,0.136%,
561,2025-02-07 01:26:45,2025-02-07 01:33:45,420.123,0.133%,
562,2025-02-07 03:01:29,2025-02-07 03:08:39,430.333,0.137%,
563,2025-02-07 04:36:13,2025-02-07 04:43:16,423.406,0.134%,
564,2025-02-07 06:10:57,2025-02-07 06:17:53,415.468,0.132%,
565,2025-02-07 07:45:42,2025-02-07 07:52:48,426.335,0.135%,
566,2025-02-07 09:20:26,2025-02-07 09:27:38,432.074,0.137%,
567,2025-02-07 10:55:10,2025-02-07 11:02:22,431.35,0.137%,
568,2025-02-07 12:29:55,2025-02-07 12:37:05,430.551,0.137%,
569,2025-02-07 14:04:39,2025-02-07 14:11:51,431.135,0.137%,
570,2025-02-07 15:39:24,2025-02-07 15:46:33,428.696,0.136%,
571,2025-02-07 17:14:09,2025-02-07 17:21:17,427.628,0.136%,
572,2025-02-07 18:48:54,2025-02-07 18:56:00,426.455,0.135%,
573,2025-02-07 20:23:38,2025-02-07 20:30:44,425.494,0.135%,
574,2025-02-07 21:58:22,2025-02-07 22:05:31,428.553,0.136%,
575,2025-02-07 23:33:06,2025-02-07 23:40:11,424.697,0.135%,
576,2025-02-08 01:07:50,2025-02-08 01:15:02,431.718,0.137%,
577,2025-02-08 02:42:35,2025-02-08 02:49:40,425.024,0.135%,
578,2025-02-08 04:17:19,2025-02-08 04:24:22,422.869,0.134%,
579,2025-02-08 05:52:03,2025-02-08 05:59:11,428.009,0.136%,
580,2025-02-08 07:26:47,2025-02-08 07:33:52,424.379,0.135%,
581,2025-02-08 09:01:32,2025-02-08 09:08:42,430.663,0.137%,
582,2025-02-08 10:36:16,2025-02-08 10:43:20,423.504,0.134%,
583,2025-02-08 12:11:01,2025-02-08 12:18:00,419.027,0.133%,
584,2025-02-08 13:45:45,2025-02-08 13:52:51,425.944,0.135%,
585,2025-02-08 15:20:30,2025-02-08 15:27:33,422.872,0.134%,
586,2025-02-08 16:55:15,2025-02-08 17:02:23,427.973,0.136%,
587,2025-02-08 18:29:59,2025-02-08 18:37:00,420.239,0.133%,
588,2025-02-08 20:04:44,2025-02-08 20:11:54,429.761,0.136%,
589,2025-02-08 21:39:28,2025-02-08 21:46:31,423.151,0.134%,
590,2025-02-08 23:14:12,2025-02-08 23:21:14,421.629,0.134%,
591,2025-02-09 00:48:56,2025-02-09 00:56:03,426.522,0.135%,
592,2025-02-09 02:23:40,2025-02-09 02:30:40,419.241,0.133%,
593,2025-02-09 03:58:25,2025-02-09 04:05:34,429.565,0.136%,
594,2025-02-09 05:33:09,2025-02-09 05:40:11,422.498,0.134%,
595,2025-02-09 07:07:53,2025-02-09 07:15:05,432.3,0.137%,
596,2025-02-09 08:42:38,2025-02-09 08:49:43,425.382,0.135%,
597,2025-02-09 10:17:22,2025-02-09 10:24:20,417.556,0.132%,
598,2025-02-09 11:52:06,2025-02-09 11:59:14,427.899,0.136%,
599,2025-02-09 13:26:51,2025-02-09 13:33:51,420.309,0.133%,
600,2025-02-09 15:01:36,2025-02-09 15:08:46,430.043,0.136%,
601,2025-02-09 16:36:20,2025-02-09 16:43:23,422.599,0.134%,
602,2025-02-09 18:11:05,2025-02-09 18:17:59,414.105,0.131%,
603,2025-02-09 19:45:50,2025-02-09 19:52:54,424.482,0.135%,
604,2025-02-09 21:20:34,2025-02-09 21:27:45,430.614,0.137%,
605,2025-02-09 22:55:18,2025-02-09 23:02:28,430.318,0.137%,
606,2025-02-10 00:30:02,2025-02-10 00:37:12,429.952,0.136%,
607,2025-02-10 02:04:46,2025-02-10 02:11:57,431.017,0.137%,
608,2025-02-10 03:39:30,2025-02-10 03:46:39,429.02,0.136%,
609,2025-02-10 05:14:15,2025-02-10 05:21:23,428.448,0.136%,
610,2025-02-10 06:48:59,2025-02-10 06:56:07,427.799,0.136%,
611,2025-02-10 08:23:43,2025-02-10 08:30:50,427.075,0.135%,
612,2025-02-10 09:58:28,2025-02-10 10:05:37,429.727,0.136%,
613,2025-02-10 11:33:12,2025-02-10 11:40:18,425.376,0.135%,
614,2025-02-10 13:07:57,2025-02-10 13:15:09,431.977,0.137%,
615,2025-02-10 14:42:41,2025-02-10 14:49:46,424.795,0.135%,
616,2025-02-10 16:17:26,2025-02-10 16:24:28,422.081,0.134%,
617,2025-02-10 17:52:11,2025-02-10 17:59:18,426.738,0.135%,
618,2025-02-10 19:26:56,2025-02-10 19:33:58,422.557,0.134%,
619,2025-02-10 21:01:40,2025-02-10 21:08:49,429.178,0.136%,
620,2025-02-10 22:36:24,2025-02-10 22:43:26,422.435,0.134%,
621,2025-02-11 00:11:08,2025-02-11 00:18:06,418.41,0.133%,
622,2025-02-11 01:45:52,2025-02-11 01:52:58,425.763,0.135%,
623,2025-02-11 03:20:36,2025-02-11 03:27:39,423.18,0.134%,
624,2025-02-11 04:55:20,2025-02-11 05:02:29,428.761,0.136%,
625,2025-02-11 06:30:05,2025-02-11 06:37:06,421.538,0.134%,
626,2025-02-11 08:04:49,2025-02-11 08:12:01,431.434,0.137%,
627,2025-02-11 09:39:34,2025-02-11 09:46:38,424.379,0.135%,
628,2025-02-11 11:14:18,2025-02-11 11:21:20,422.427,0.134%,
629,2025-02-11 12:49:03,2025-02-11 12:56:09,426.837,0.135%,
630,2025-02-11 14:23:47,2025-02-11 14:30:46,419.065,0.133%,
631,2025-02-11 15:58:32,2025-02-11 16:05:41,428.898,0.136%,
632,2025-02-11 17:33:17,2025-02-11 17:40:18,421.292,0.134%,
633,2025-02-11 19:08:02,2025-02-11 19:15:12,430.537,0.137%,
634,2025-02-11 20:42:46,2025-02-11 20:49:49,423.836,0.134%,
635,2025-02-11 22:17:30,2025-02-11 22:24:26,416.423,0.132%,
636,2025-02-11 23:52:14,2025-02-11 23:59:21,427.214,0.136%,
637,2025-02-12 01:26:58,2025-02-12 01:33:58,420.062,0.133%,
638,2025-02-12 03:01:42,2025-02-12 03:08:52,430.271,0.136%,
639,2025-02-12 04:36:26,2025-02-12 04:43:30,423.313,0.134%,
640,2025-02-12 06:11:11,2025-02-12 06:18:06,415.334,0.132%,
641,2025-02-12 07:45:55,2025-02-12 07:53:01,426.204,0.135%,
642,2025-02-12 09:20:39,2025-02-12 09:27:51,431.879,0.137%,
643,2025-02-12 10:55:24,2025-02-12 11:02:35,431.132,0.137%,
644,2025-02-12 12:30:08,2025-02-12 12:37:19,430.306,0.136%,
645,2025-02-12 14:04:53,2025-02-12 14:12:04,430.917,0.137%,
646,2025-02-12 15:39:38,2025-02-12 15:46:46,428.39,0.136%,
647,2025-02-12 17:14:22,2025-02-12 17:21:30,427.287,0.136%,
648,2025-02-12 18:49:07,2025-02-12 18:56:13,426.076,0.135%,
649,2025-02-12 20:23:51,2025-02-12 20:30:57,425.439,0.135%,
650,2025-02-12 21:58:35,2025-02-12 22:05:44,428.553,0.136%,
651,2025-02-12 23:33:20,2025-02-12 23:40:24,424.589,0.135%,
652,2025-02-13 01:08:04,2025-02-13 01:15:15,431.684,0.137%,
653,2025-02-13 02:42:48,2025-02-13 02:49:53,424.955,0.135%,
654,2025-02-13 04:17:32,2025-02-13 04:24:35,422.676,0.134%,
655,2025-02-13 05:52:16,2025-02-13 05:59:24,427.904,0.136%,
656,2025-02-13 07:27:01,2025-02-13 07:34:05,424.289,0.135%,
657,2025-02-13 09:01:45,2025-02-13 09:08:56,430.523,0.137%,
658,2025-02-13 10:36:30,2025-02-13 10:43:33,423.326,0.134%,
659,2025-02-13 12:11:14,2025-02-13 12:18:13,418.859,0.133%,
660,2025-02-13 13:45:59,2025-02-13 13:53:04,425.721,0.135%,
661,2025-02-13 15:20:43,2025-02-13 15:27:46,422.659,0.134%,
662,2025-02-13 16:55:28,2025-02-13 17:02:36,427.698,0.136%,
663,2025-02-13 18:30:13,2025-02-13 18:37:13,419.915,0.133%,
664,2025-02-13 20:04:57,2025-02-13 20:12:07,429.786,0.136%,
665,2025-02-13 21:39:41,2025-02-13 21:46:44,423.143,0.134%,
666,2025-02-13 23:14:25,2025-02-13 23:21:27,421.639,0.134%,
667,2025-02-14 00:49:09,2025-02-14 00:56:16,426.481,0.135%,
668,2025-02-14 02:23:54,2025-02-14 02:30:53,419.159,0.133%,
669,2025-02-14 03:58:38,2025-02-14 04:05:47,429.489,0.136%,
670,2025-02-14 05:33:22,2025-02-14 05:40:25,422.387,0.134%,
671,2025-02-14 07:08:06,2025-02-14 07:15:19,432.185,0.137%,
672,2025-02-14 08:42:51,2025-02-14 08:49:56,425.233,0.135%,
673,2025-02-14 10:17:35,2025-02-14 10:24:33,417.368,0.132%,
674,2025-02-14 11:52:20,2025-02-14 11:59:28,427.709,0.136%,
675,2025-02-14 13:27:04,2025-02-14 13:34:04,420.076,0.133%,
676,2025-02-14 15:01:49,2025-02-14 15:08:59,429.804,0.136%,
677,2025-02-14 16:36:34,2025-02-14 16:43:36,422.317,0.134%,
678,2025-02-14 18:11:19,2025-02-14 18:18:12,413.77,0.131%,
679,2025-02-14 18:18:14,2025-02-14 18:18:22,7.642,0.002%,
680,2025-02-14 19:46:03,2025-02-14 19:53:08,424.5,0.135%,
681,2025-02-14 19:53:14,2025-02-14 19:53:14,0.285,0.000%,
682,2025-02-14 21:20:47,2025-02-14 21:27:58,430.574,0.137%,
683,2025-02-14 22:55:31,2025-02-14 23:02:41,430.254,0.136%,
684,2025-02-15 00:30:15,2025-02-15 00:37:25,429.868,0.136%,
685,2025-02-15 02:04:59,2025-02-15 02:12:10,430.967,0.137%,
686,2025-02-15 03:39:44,2025-02-15 03:46:53,428.885,0.136%,
687,2025-02-15 05:14:28,2025-02-15 05:21:36,428.29,0.136%,
688,2025-02-15 06:49:12,2025-02-15 06:56:20,427.617,0.136%,
689,2025-02-15 08:23:57,2025-02-15 08:31:03,426.866,0.135%,
690,2025-02-15 09:58:41,2025-02-15 10:05:51,429.567,0.136%,
691,2025-02-15 11:33:26,2025-02-15 11:40:31,425.103,0.135%,
692,2025-02-15 13:08:10,2025-02-15 13:15:22,431.773,0.137%,
693,2025-02-15 14:42:55,2025-02-15 14:49:59,424.551,0.135%,
694,2025-02-15 16:17:40,2025-02-15 16:24:41,421.697,0.134%,
695,2025-02-15 17:52:24,2025-02-15 17:59:31,426.435,0.135%,
696,2025-02-15 19:27:09,2025-02-15 19:34:12,422.55,0.134%,
697,2025-02-15 21:01:53,2025-02-15 21:09:02,429.187,0.136%,
698,2025-02-15 22:36:37,2025-02-15 22:43:39,422.41,0.134%,
699,2025-02-16 00:11:21,2025-02-16 00:18:20,418.401,0.133%,
700,2025-02-16 01:46:05,2025-02-16 01:53:11,425.703,0.135%,
701,2025-02-16 03:20:49,2025-02-16 03:27:53,423.137,0.134%,
702,2025-02-16 04:55:34,2025-02-16 05:02:42,428.666,0.136%,
703,2025-02-16 06:30:18,2025-02-16 06:37:19,421.41,0.134%,
704,2025-02-16 08:05:02,2025-02-16 08:12:14,431.303,0.137%,
705,2025-02-16 09:39:47,2025-02-16 09:46:51,424.212,0.135%,
706,2025-02-16 11:14:31,2025-02-16 11:21:34,422.275,0.134%,
707,2025-02-16 12:49:16,2025-02-16 12:56:23,426.628,0.135%,
708,2025-02-16 14:24:01,2025-02-16 14:30:59,418.81,0.133%,
709,2025-02-16 15:58:45,2025-02-16 16:05:54,428.637,0.136%,
710,2025-02-16 17:33:30,2025-02-16 17:40:31,420.984,0.134%,
711,2025-02-16 19:08:15,2025-02-16 19:15:25,430.38,0.137%,
712,2025-02-16 20:42:59,2025-02-16 20:50:03,423.838,0.134%,
713,2025-02-16 22:17:43,2025-02-16 22:24:39,416.388,0.132%,
714,2025-02-16 23:52:27,2025-02-16 23:59:34,427.183,0.136%,
715,2025-02-17 01:27:11,2025-02-17 01:34:11,419.994,0.133%,
716,2025-02-17 03:01:55,2025-02-17 03:09:05,430.205,0.136%,
717,2025-02-17 04:36:40,2025-02-17 04:43:43,423.212,0.134%,
718,2025-02-17 06:11:24,2025-02-17 06:18:29,424.779,0.135%,
719,2025-02-17 06:18:34,2025-02-17 06:18:37,2.937,0.001%,
720,2025-02-17 07:46:08,2025-02-17 07:53:21,432.382,0.137%,
721,2025-02-17 09:20:53,2025-02-17 09:28:04,431.681,0.137%,
722,2025-02-17 10:55:37,2025-02-17 11:02:48,430.907,0.137%,
723,2025-02-17 12:30:22,2025-02-17 12:37:32,430.052,0.136%,
724,2025-02-17 14:05:06,2025-02-17 14:12:17,430.69,0.137%,
725,2025-02-17 15:39:51,2025-02-17 15:46:59,428.071,0.136%,
726,2025-02-17 17:14:36,2025-02-17 17:21:43,426.935,0.135%,
727,2025-02-17 18:49:21,2025-02-17 18:56:26,425.715,0.135%,
728,2025-02-17 20:24:05,2025-02-17 20:31:10,425.379,0.135%,
729,2025-02-17 21:58:49,2025-02-17 22:05:57,428.547,0.136%,
730,2025-02-17 23:33:33,2025-02-17 23:40:37,424.476,0.135%,
731,2025-02-18 01:08:17,2025-02-18 01:15:29,431.643,0.137%,
732,2025-02-18 02:43:01,2025-02-18 02:50:06,424.882,0.135%,
733,2025-02-18 04:17:45,2025-02-18 04:24:48,422.476,0.134%,
734,2025-02-18 05:52:30,2025-02-18 05:59:37,427.796,0.136%,
735,2025-02-18 07:27:14,2025-02-18 07:34:18,424.193,0.135%,
736,2025-02-18 09:01:58,2025-02-18 09:09:09,430.374,0.137%,
737,2025-02-18 10:36:43,2025-02-18 10:43:46,423.14,0.134%,
738,2025-02-18 12:11:27,2025-02-18 12:18:26,418.683,0.133%,
739,2025-02-18 12:18:28,2025-02-18 12:18:40,12.43,0.004%,
740,2025-02-18 13:46:12,2025-02-18 13:53:18,425.487,0.135%,
741,2025-02-18 15:20:57,2025-02-18 15:27:59,422.432,0.134%,
742,2025-02-18 16:55:42,2025-02-18 17:02:49,427.413,0.136%,
743,2025-02-18 18:30:26,2025-02-18 18:37:26,419.582,0.133%,
744,2025-02-18 20:05:11,2025-02-18 20:12:20,429.805,0.136%,
745,2025-02-18 21:39:55,2025-02-18 21:46:58,423.129,0.134%,
746,2025-02-18 23:14:39,2025-02-18 23:21:40,421.645,0.134%,
747,2025-02-19 00:49:23,2025-02-19 00:56:29,426.434,0.135%,
748,2025-02-19 02:24:07,2025-02-19 02:31:06,419.074,0.133%,
749,2025-02-19 03:58:51,2025-02-19 04:06:01,429.407,0.136%,
750,2025-02-19 05:33:35,2025-02-19 05:40:38,422.268,0.134%,
751,2025-02-19 07:08:20,2025-02-19 07:15:32,432.066,0.137%,
752,2025-02-19 08:43:04,2025-02-19 08:50:09,425.078,0.135%,
753,2025-02-19 10:17:49,2025-02-19 10:24:46,417.165,0.132%,
754,2025-02-19 11:52:33,2025-02-19 11:59:41,427.512,0.136%,
755,2025-02-19 13:27:18,2025-02-19 13:34:18,419.835,0.133%,
756,2025-02-19 15:02:03,2025-02-19 15:09:12,429.557,0.136%,
757,2025-02-19 16:36:47,2025-02-19 16:43:49,422.025,0.134%,
758,2025-02-19 18:11:32,2025-02-19 18:18:43,431.18,0.137%,
759,2025-02-19 19:46:16,2025-02-19 19:53:27,430.808,0.137%,
760,2025-02-19 21:21:00,2025-02-19 21:28:11,430.529,0.137%,
761,2025-02-19 22:55:44,2025-02-19 23:02:55,430.185,0.136%,
762,2025-02-20 00:30:29,2025-02-20 00:37:38,429.776,0.136%,
763,2025-02-20 02:05:13,2025-02-20 02:12:24,430.91,0.137%,
764,2025-02-20 03:39:57,2025-02-20 03:47:06,428.748,0.136%,
765,2025-02-20 05:14:41,2025-02-20 05:21:49,428.125,0.136%,
766,2025-02-20 06:49:26,2025-02-20 06:56:33,427.427,0.136%,
767,2025-02-20 08:24:10,2025-02-20 08:31:17,426.646,0.135%,
768,2025-02-20 09:58:54,2025-02-20 10:06:04,429.4,0.136%,
769,2025-02-20 11:33:39,2025-02-20 11:40:44,424.824,0.135%,
770,2025-02-20 13:08:24,2025-02-20 13:15:35,431.558,0.137%,
771,2025-02-20 14:43:08,2025-02-20 14:50:13,424.293,0.135%,
772,2025-02-20 16:17:53,2025-02-20 16:24:54,421.31,0.134%,
773,2025-02-20 17:52:38,2025-02-20 17:59:44,426.123,0.135%,
774,2025-02-20 19:27:22,2025-02-20 19:34:25,422.601,0.134%,
775,2025-02-20 21:02:06,2025-02-20 21:09:15,429.19,0.136%,
776,2025-02-20 22:36:50,2025-02-20 22:43:53,422.38,0.134%,
777,2025-02-21 00:11:34,2025-02-21 00:18:47,432.303,0.137%,
778,2025-02-21 01:46:19,2025-02-21 01:53:24,425.637,0.135%,
779,2025-02-21 03:21:03,2025-02-21 03:28:06,423.089,0.134%,
780,2025-02-21 04:55:47,2025-02-21 05:02:56,428.565,0.136%,
781,2025-02-21 06:30:31,2025-02-21 06:37:33,421.273,0.134%,
782,2025-02-21 08:05:16,2025-02-21 08:12:27,431.164,0.137%,
783,2025-02-21 09:40:00,2025-02-21 09:47:04,424.038,0.135%,
784,2025-02-21 11:14:45,2025-02-21 11:21:47,422.114,0.134%,
785,2025-02-21 12:49:29,2025-02-21 12:56:36,426.407,0.135%,
786,2025-02-21 14:24:14,2025-02-21 14:31:13,418.546,0.133%,
787,2025-02-21 15:58:59,2025-02-21 16:06:07,428.366,0.136%,
788,2025-02-21 17:33:44,2025-02-21 17:40:44,420.662,0.133%,
789,2025-02-21 19:08:28,2025-02-21 19:15:38,430.407,0.137%,
790,2025-02-21 20:43:12,2025-02-21 20:50:16,423.834,0.134%,
791,2025-02-21 22:17:56,2025-02-21 22:24:52,416.344,0.132%,
792,2025-02-21 23:52:40,2025-02-21 23:59:47,427.145,0.135%,
793,2025-02-22 01:27:24,2025-02-22 01:34:24,419.917,0.133%,
794,2025-02-22 03:02:09,2025-02-22 03:09:19,430.133,0.136%,
795,2025-02-22 04:36:53,2025-02-22 04:43:56,423.105,0.134%,
796,2025-02-22 06:11:37,2025-02-22 06:18:50,432.851,0.137%,
797,2025-02-22 07:46:22,2025-02-22 07:53:34,432.201,0.137%,
798,2025-02-22 09:21:06,2025-02-22 09:28:17,431.475,0.137%,
799,2025-02-22 10:55:50,2025-02-22 11:03:01,430.674,0.137%,
800,2025-02-22 12:30:35,2025-02-22 12:37:45,429.791,0.136%,
801,2025-02-22 14:05:20,2025-02-22 14:12:30,430.455,0.137%,
802,2025-02-22 15:40:04,2025-02-22 15:47:12,427.746,0.136%,
803,2025-02-22 17:14:49,2025-02-22 17:21:56,426.569,0.135%,
804,2025-02-22 18:49:34,2025-02-22 18:56:40,425.678,0.135%,
805,2025-02-22 20:24:18,2025-02-22 20:31:23,425.313,0.135%,
806,2025-02-22 21:59:02,2025-02-22 22:06:10,428.534,0.136%,
807,2025-02-22 23:33:46,2025-02-22 23:40:50,424.36,0.135%,
808,2025-02-23 01:08:30,2025-02-23 01:15:42,431.592,0.137%,
809,2025-02-23 02:43:14,2025-02-23 02:50:19,424.801,0.135%,
810,2025-02-23 04:17:59,2025-02-23 04:25:01,422.271,0.134%,
811,2025-02-23 05:52:43,2025-02-23 05:59:51,427.681,0.136%,
812,2025-02-23 07:27:27,2025-02-23 07:34:31,424.088,0.135%,
813,2025-02-23 09:02:12,2025-02-23 09:09:22,430.217,0.136%,
814,2025-02-23 10:36:56,2025-02-23 10:43:59,422.945,0.134%,
815,2025-02-23 12:11:41,2025-02-23 12:18:53,432.408,0.137%,
816,2025-02-23 13:46:25,2025-02-23 13:53:31,425.247,0.135%,
817,2025-02-23 15:21:10,2025-02-23 15:28:12,422.198,0.134%,
818,2025-02-23 16:55:55,2025-02-23 17:03:02,427.113,0.135%,
819,2025-02-23 18:30:40,2025-02-23 18:37:39,419.498,0.133%,
820,2025-02-23 20:05:24,2025-02-23 20:12:33,429.816,0.136%,
821,2025-02-23 21:40:08,2025-02-23 21:47:11,423.106,0.134%,
822,2025-02-23 23:14:52,2025-02-23 23:21:53,421.643,0.134%,
823,2025-02-24 00:49:36,2025-02-24 00:56:42,426.38,0.135%,
824,2025-02-24 02:24:20,2025-02-24 02:31:19,418.982,0.133%,
825,2025-02-24 03:59:04,2025-02-24 04:06:14,429.318,0.136%,
826,2025-02-24 05:33:49,2025-02-24 05:40:51,422.143,0.134%,
827,2025-02-24 07:08:33,2025-02-24 07:15:45,431.937,0.137%,
828,2025-02-24 08:43:18,2025-02-24 08:50:22,424.915,0.135%,
829,2025-02-24 10:18:02,2025-02-24 10:24:59,416.957,0.132%,
830,2025-02-24 11:52:47,2025-02-24 11:59:54,427.305,0.136%,
831,2025-02-24 13:27:31,2025-02-24 13:34:31,419.581,0.133%,
832,2025-02-24 15:02:16,2025-02-24 15:09:25,429.296,0.136%,
833,2025-02-24 16:37:01,2025-02-24 16:44:02,421.718,0.134%,
834,2025-02-24 18:11:46,2025-02-24 18:18:57,431.005,0.137%,
835,2025-02-24 19:46:30,2025-02-24 19:53:40,430.776,0.137%,
836,2025-02-24 21:21:14,2025-02-24 21:28:24,430.473,0.137%,
837,2025-02-24 22:55:58,2025-02-24 23:03:08,430.109,0.136%,
838,2025-02-25 00:30:42,2025-02-25 00:37:51,429.675,0.136%,
839,2025-02-25 02:05:26,2025-02-25 02:12:37,430.845,0.137%,
840,2025-02-25 03:40:10,2025-02-25 03:47:19,428.602,0.136%,
841,2025-02-25 05:14:55,2025-02-25 05:22:02,427.95,0.136%,
842,2025-02-25 06:49:39,2025-02-25 06:56:46,427.227,0.136%,
843,2025-02-25 08:24:23,2025-02-25 08:31:30,426.42,0.135%,
844,2025-02-25 09:59:08,2025-02-25 10:06:17,429.225,0.136%,
845,2025-02-25 11:33:52,2025-02-25 11:40:57,424.601,0.135%,
846,2025-02-25 13:08:37,2025-02-25 13:15:48,431.333,0.137%,
847,2025-02-25 14:43:22,2025-02-25 14:50:26,424.029,0.135%,
848,2025-02-25 16:18:06,2025-02-25 16:25:07,420.903,0.134%,
849,2025-02-25 17:52:51,2025-02-25 17:59:57,425.802,0.135%,
850,2025-02-25 19:27:35,2025-02-25 19:34:38,422.645,0.134%,
851,2025-02-25 21:02:19,2025-02-25 21:09:29,429.185,0.136%,
852,2025-02-25 22:37:03,2025-02-25 22:44:06,422.342,0.134%,
853,2025-02-26 00:11:48,2025-02-26 00:19:00,432.264,0.137%,
854,2025-02-26 01:46:32,2025-02-26 01:53:37,425.566,0.135%,
855,2025-02-26 03:21:16,2025-02-26 03:28:19,423.035,0.134%,
856,2025-02-26 04:56:00,2025-02-26 05:03:09,428.458,0.136%,
857,2025-02-26 06:30:45,2025-02-26 06:37:46,421.13,0.134%,
858,2025-02-26 08:05:29,2025-02-26 08:12:40,431.018,0.137%,
859,2025-02-26 09:40:14,2025-02-26 09:47:17,423.855,0.134%,
860,2025-02-26 11:14:58,2025-02-26 11:22:00,421.944,0.134%,
861,2025-02-26 11:22:02,2025-02-26 11:22:11,9.337,0.003%,
862,2025-02-26 12:49:43,2025-02-26 12:56:49,426.177,0.135%,
863,2025-02-26 14:24:27,2025-02-26 14:31:26,418.267,0.133%,
864,2025-02-26 15:59:12,2025-02-26 16:06:20,428.082,0.136%,
865,2025-02-26 17:33:57,2025-02-26 17:40:57,420.329,0.133%,
866,2025-02-26 19:08:41,2025-02-26 19:15:52,430.427,0.137%,
867,2025-02-26 20:43:25,2025-02-26 20:50:29,423.821,0.134%,
868,2025-02-26 22:18:09,2025-02-26 22:25:06,416.287,0.132%,
869,2025-02-26 22:25:08,2025-02-26 22:25:14,5.736,0.002%,
870,2025-02-26 23:52:53,2025-02-27 00:00:00,427.099,0.135%,
871,2025-02-27 01:27:38,2025-02-27 01:34:37,419.831,0.133%,
872,2025-02-27 03:02:22,2025-02-27 03:09:32,430.052,0.136%,
873,2025-02-27 04:37:06,2025-02-27 04:44:19,433.286,0.137%,
874,2025-02-27 06:11:50,2025-02-27 06:19:03,432.692,0.137%,
875,2025-02-27 07:46:35,2025-02-27 07:53:47,432.006,0.137%,
876,2025-02-27 09:21:19,2025-02-27 09:28:31,431.257,0.137%,
877,2025-02-27 10:56:04,2025-02-27 11:03:14,430.429,0.137%,
878,2025-02-27 12:30:48,2025-02-27 12:37:58,429.513,0.136%,
879,2025-02-27 14:05:33,2025-02-27 14:12:43,430.209,0.136%,
880,2025-02-27 15:40:18,2025-02-27 15:47:25,427.404,0.136%,
881,2025-02-27 17:15:03,2025-02-27 17:22:15,431.817,0.137%,
882,2025-02-27 18:49:47,2025-02-27 18:56:53,425.622,0.135%,
883,2025-02-27 20:24:31,2025-02-27 20:31:36,425.234,0.135%,
884,2025-02-27 21:59:15,2025-02-27 22:06:24,428.513,0.136%,
885,2025-02-27 23:33:59,2025-02-27 23:41:04,424.353,0.135%,
886,2025-02-28 01:08:43,2025-02-28 01:15:55,431.534,0.137%,
887,2025-02-28 02:43:28,2025-02-28 02:50:32,424.713,0.135%,
888,2025-02-28 04:18:12,2025-02-28 04:25:14,422.046,0.134%,
889,2025-02-28 05:52:56,2025-02-28 06:00:04,427.555,0.136%,
890,2025-02-28 07:27:41,2025-02-28 07:34:45,423.975,0.134%,
891,2025-02-28 09:02:25,2025-02-28 09:09:35,430.052,0.136%,
892,2025-02-28 10:37:10,2025-02-28 10:44:12,422.741,0.134%,
893,2025-02-28 12:11:54,2025-02-28 12:19:06,432.195,0.137%,
894,2025-02-28 13:46:39,2025-02-28 13:53:44,424.995,0.135%,
895,2025-02-28 15:21:24,2025-02-28 15:28:26,421.952,0.134%,
896,2025-02-28 16:56:09,2025-02-28 17:03:15,426.803,0.135%,
897,2025-02-28 18:30:53,2025-02-28 18:37:52,419.501,0.133%,
898,2025-02-28 20:05:37,2025-02-28 20:12:47,429.82,0.136%,
899,2025-02-28 21:40:21,2025-02-28 21:47:24,423.078,0.134%,
900,2025-02-28 23:15:05,2025-02-28 23:22:18,432.918,0.137%,
901,2025-03-01 00:49:49,2025-03-01 00:56:56,426.317,0.135%,
902,2025-03-01 02:24:33,2025-03-01 02:31:32,418.881,0.133%,
903,2025-03-01 03:59:18,2025-03-01 04:06:27,429.22,0.136%,
904,2025-03-01 05:34:02,2025-03-01 05:41:04,422.008,0.134%,
905,2025-03-01 07:08:46,2025-03-01 07:15:58,431.8,0.137%,
906,2025-03-01 08:43:31,2025-03-01 08:50:36,424.742,0.135%,
907,2025-03-01 10:18:15,2025-03-01 10:25:21,425.198,0.135%,
908,2025-03-01 11:53:00,2025-03-01 12:00:07,427.087,0.135%,
909,2025-03-01 13:27:45,2025-03-01 13:34:44,419.318,0.133%,
910,2025-03-01 15:02:29,2025-03-01 15:09:42,432.772,0.137%,
911,2025-03-01 16:37:14,2025-03-01 16:44:26,431.686,0.137%,
912,2025-03-01 18:11:59,2025-03-01 18:19:10,431.023,0.137%,
913,2025-03-01 19:46:43,2025-03-01 19:53:53,430.731,0.137%,
914,2025-03-01 21:21:27,2025-03-01 21:28:37,430.41,0.137%,
915,2025-03-01 22:56:11,2025-03-01 23:03:21,430.023,0.136%,
916,2025-03-02 00:30:55,2025-03-02 00:38:05,429.568,0.136%,
917,2025-03-02 02:05:39,2025-03-02 02:12:50,430.773,0.137%,
918,2025-03-02 03:40:23,2025-03-02 03:47:32,428.442,0.136%,
919,2025-03-02 05:15:08,2025-03-02 05:22:21,433.433,0.137%,
920,2025-03-02 06:49:52,2025-03-02 06:56:59,427.017,0.135%,
921,2025-03-02 08:24:37,2025-03-02 08:31:43,426.182,0.135%,
922,2025-03-02 09:59:21,2025-03-02 10:06:30,429.039,0.136%,
923,2025-03-02 11:34:06,2025-03-02 11:41:10,424.423,0.135%,
924,2025-03-02 13:08:50,2025-03-02 13:16:02,431.099,0.137%,
925,2025-03-02 14:43:35,2025-03-02 14:50:39,423.75,0.134%,
926,2025-03-02 16:18:20,2025-03-02 16:25:20,420.479,0.133%,
927,2025-03-02 17:53:05,2025-03-02 18:00:10,425.827,0.135%,
928,2025-03-02 19:27:49,2025-03-02 19:34:51,422.682,0.134%,
929,2025-03-02 21:02:33,2025-03-02 21:09:42,429.173,0.136%,
930,2025-03-02 22:37:17,2025-03-02 22:44:19,422.296,0.134%,
931,2025-03-03 00:12:01,2025-03-03 00:19:13,432.214,0.137%,
932,2025-03-03 01:46:45,2025-03-03 01:53:51,425.488,0.135%,
933,2025-03-03 03:21:29,2025-03-03 03:28:32,422.972,0.134%,
934,2025-03-03 04:56:14,2025-03-03 05:03:22,428.344,0.136%,
935,2025-03-03 06:30:58,2025-03-03 06:37:59,420.976,0.134%,
936,2025-03-03 08:05:42,2025-03-03 08:12:53,430.862,0.137%,
937,2025-03-03 09:40:27,2025-03-03 09:47:31,423.662,0.134%,
938,2025-03-03 11:15:12,2025-03-03 11:22:25,433.037,0.137%,
939,2025-03-03 12:49:56,2025-03-03 12:57:02,425.938,0.135%,
940,2025-03-03 14:24:41,2025-03-03 14:31:39,417.981,0.133%,
941,2025-03-03 15:59:26,2025-03-03 16:06:33,427.784,0.136%,
942,2025-03-03 17:34:10,2025-03-03 17:41:11,420.216,0.133%,
943,2025-03-03 19:08:54,2025-03-03 19:16:05,430.44,0.137%,
944,2025-03-03 20:43:38,2025-03-03 20:50:42,423.802,0.134%,
945,2025-03-03 22:18:22,2025-03-03 22:25:27,424.718,0.135%,
946,2025-03-03 22:25:36,2025-03-03 22:25:36,0.441,0.000%,
947,2025-03-03 23:53:07,2025-03-04 00:00:14,427.044,0.135%,
948,2025-03-04 01:27:51,2025-03-04 01:34:51,419.742,0.133%,
949,2025-03-04 03:02:35,2025-03-04 03:09:49,433.693,0.138%,
950,2025-03-04 04:37:19,2025-03-04 04:44:33,433.138,0.137%,
951,2025-03-04 06:12:04,2025-03-04 06:19:16,432.566,0.137%,
952,2025-03-04 07:46:48,2025-03-04 07:54:00,431.809,0.137%,
953,2025-03-04 09:21:33,2025-03-04 09:28:44,431.033,0.137%,
954,2025-03-04 10:56:17,2025-03-04 11:03:27,430.176,0.136%,
955,2025-03-04 12:31:02,2025-03-04 12:38:11,429.227,0.136%,
956,2025-03-04 14:05:47,2025-03-04 14:12:57,429.95,0.136%,
957,2025-03-04 15:40:31,2025-03-04 15:47:38,427.049,0.135%,
958,2025-03-04 17:15:16,2025-03-04 17:22:28,431.604,0.137%,
959,2025-03-04 18:50:00,2025-03-04 18:57:06,425.561,0.135%,
960,2025-03-04 20:24:44,2025-03-04 20:31:49,425.152,0.135%,
961,2025-03-04 21:59:28,2025-03-04 22:06:37,428.486,0.136%,
962,2025-03-04 23:34:12,2025-03-04 23:41:17,424.337,0.135%,
963,2025-03-05 01:08:57,2025-03-05 01:16:08,431.472,0.137%,
964,2025-03-05 02:43:41,2025-03-05 02:50:45,424.618,0.135%,
965,2025-03-05 04:18:25,2025-03-05 04:25:39,434.159,0.138%,
966,2025-03-05 05:53:10,2025-03-05 06:00:17,427.423,0.136%,
967,2025-03-05 07:27:54,2025-03-05 07:34:58,423.854,0.134%,
968,2025-03-05 09:02:38,2025-03-05 09:09:48,429.878,0.136%,
969,2025-03-05 10:37:23,2025-03-05 10:44:26,422.529,0.134%,
970,2025-03-05 12:12:08,2025-03-05 12:19:20,431.971,0.137%,
971,2025-03-05 13:46:52,2025-03-05 13:53:57,424.731,0.135%,
972,2025-03-05 15:21:37,2025-03-05 15:28:39,421.694,0.134%,
973,2025-03-05 16:56:22,2025-03-05 17:03:29,426.478,0.135%,
974,2025-03-05 18:31:06,2025-03-05 18:38:06,419.497,0.133%,
975,2025-03-05 20:05:50,2025-03-05 20:13:00,429.818,0.136%,
976,2025-03-05 21:40:34,2025-03-05 21:47:37,423.043,0.134%,
977,2025-03-05 23:15:18,2025-03-05 23:22:31,432.88,0.137%,
978,2025-03-06 00:50:02,2025-03-06 00:57:09,426.246,0.135%,
979,2025-03-06 02:24:47,2025-03-06 02:31:45,418.774,0.133%,
980,2025-03-06 03:59:31,2025-03-06 04:06:40,429.114,0.136%,
981,2025-03-06 05:34:15,2025-03-06 05:41:17,421.868,0.134%,
982,2025-03-06 07:09:00,2025-03-06 07:16:11,431.656,0.137%,
983,2025-03-06 08:43:44,2025-03-06 08:50:49,424.562,0.135%,
984,2025-03-06 10:18:29,2025-03-06 10:25:43,433.861,0.138%,
985,2025-03-06 11:53:13,2025-03-06 12:00:20,426.862,0.135%,
986,2025-03-06 13:27:58,2025-03-06 13:35:12,433.482,0.138%,
987,2025-03-06 15:02:43,2025-03-06 15:09:55,432.457,0.137%,
988,2025-03-06 16:37:28,2025-03-06 16:44:39,431.333,0.137%,
989,2025-03-06 18:12:12,2025-03-06 18:19:23,431.045,0.137%,
990,2025-03-06 19:46:56,2025-03-06 19:54:07,430.687,0.137%,
991,2025-03-06 21:21:40,2025-03-06 21:28:50,430.343,0.137%,
992,2025-03-06 22:56:24,2025-03-06 23:03:34,429.933,0.136%,
993,2025-03-07 00:31:08,2025-03-07 00:38:18,429.451,0.136%,
994,2025-03-07 02:05:52,2025-03-07 02:13:03,430.695,0.137%,
995,2025-03-07 03:40:37,2025-03-07 03:47:45,428.28,0.136%,
996,2025-03-07 05:15:21,2025-03-07 05:22:34,433.318,0.137%,
997,2025-03-07 06:50:06,2025-03-07 06:57:12,426.8,0.135%,
998,2025-03-07 08:24:50,2025-03-07 08:31:56,425.939,0.135%,
999,2025-03-07 09:59:35,2025-03-07 10:06:43,428.847,0.136%,
1000,2025-03-07 11:34:19,2025-03-07 11:41:23,424.234,0.135%,
1001,2025-03-07 13:09:04,2025-03-07 13:16:15,430.856,0.137%,
1002,2025-03-07 14:43:49,2025-03-07 14:50:52,423.465,0.134%,
