3UCubedIntegratedSim/Reports & Plots/North Cusp @ 1 Degree/CSV/Sat23.csv

Number,Coverage Start (UTCG),Coverage End (UTCG),Duration (sec),Percent,
1,2025-01-01 16:15:39,2025-01-01 16:17:50,131.085,0.042%,
2,2025-01-01 17:50:24,2025-01-01 17:52:28,123.943,0.039%,
3,2025-01-01 19:25:09,2025-01-01 19:27:10,121.68,0.039%,
4,2025-01-01 20:59:54,2025-01-01 21:01:53,119.013,0.038%,
5,2025-01-01 22:34:38,2025-01-01 22:36:34,116.699,0.037%,
6,2025-01-02 00:09:22,2025-01-02 00:11:15,112.979,0.036%,
7,2025-01-02 01:44:06,2025-01-02 01:45:53,107.708,0.034%,
8,2025-01-02 03:18:50,2025-01-02 03:20:36,105.823,0.034%,
9,2025-01-02 04:53:34,2025-01-02 04:55:17,103.372,0.033%,
10,2025-01-02 06:28:18,2025-01-02 06:29:58,99.691,0.032%,
11,2025-01-02 08:03:03,2025-01-02 08:04:36,93.403,0.030%,
12,2025-01-02 09:37:47,2025-01-02 09:39:18,91.211,0.029%,
13,2025-01-02 11:12:31,2025-01-02 11:14:00,88.401,0.028%,
14,2025-01-02 11:14:43,2025-01-02 11:14:50,7.289,0.002%,
15,2025-01-02 12:47:16,2025-01-02 12:48:40,84.144,0.027%,
16,2025-01-02 12:48:52,2025-01-02 12:49:33,40.899,0.013%,
17,2025-01-02 14:22:00,2025-01-02 14:24:15,134.713,0.043%,
18,2025-01-02 15:56:45,2025-01-02 15:58:57,131.58,0.042%,
19,2025-01-02 17:31:30,2025-01-02 17:33:36,125.945,0.040%,
20,2025-01-02 19:06:14,2025-01-02 19:08:16,121.991,0.039%,
21,2025-01-02 20:40:59,2025-01-02 20:42:59,119.38,0.038%,
22,2025-01-02 22:15:43,2025-01-02 22:17:41,117.038,0.037%,
23,2025-01-02 23:50:27,2025-01-02 23:52:21,113.638,0.036%,
24,2025-01-03 01:25:12,2025-01-03 01:26:59,107.925,0.034%,
25,2025-01-03 02:59:56,2025-01-03 03:01:42,106.09,0.034%,
26,2025-01-03 04:34:40,2025-01-03 04:36:24,103.733,0.033%,
27,2025-01-03 06:09:24,2025-01-03 06:11:04,100.306,0.032%,
28,2025-01-03 07:44:08,2025-01-03 07:45:42,93.655,0.030%,
29,2025-01-03 09:18:53,2025-01-03 09:20:24,91.521,0.029%,
30,2025-01-03 10:53:37,2025-01-03 10:55:06,88.81,0.028%,
31,2025-01-03 12:28:22,2025-01-03 12:29:46,84.869,0.027%,
32,2025-01-03 12:30:30,2025-01-03 12:30:39,9.036,0.003%,
33,2025-01-03 14:03:06,2025-01-03 14:04:24,77.982,0.025%,
34,2025-01-03 14:04:39,2025-01-03 14:05:21,42.371,0.013%,
35,2025-01-03 15:37:51,2025-01-03 15:40:03,132.043,0.042%,
36,2025-01-03 17:12:35,2025-01-03 17:14:43,127.184,0.040%,
37,2025-01-03 18:47:20,2025-01-03 18:49:23,122.294,0.039%,
38,2025-01-03 20:22:05,2025-01-03 20:24:05,119.742,0.038%,
39,2025-01-03 21:56:49,2025-01-03 21:58:47,117.365,0.037%,
40,2025-01-03 23:31:33,2025-01-03 23:33:28,114.216,0.036%,
41,2025-01-04 01:06:17,2025-01-04 01:08:06,108.133,0.034%,
42,2025-01-04 02:41:01,2025-01-04 02:42:48,106.352,0.034%,
43,2025-01-04 04:15:46,2025-01-04 04:17:30,104.074,0.033%,
44,2025-01-04 05:50:30,2025-01-04 05:52:11,100.858,0.032%,
45,2025-01-04 07:25:14,2025-01-04 07:26:48,93.902,0.030%,
46,2025-01-04 08:59:59,2025-01-04 09:01:30,91.819,0.029%,
47,2025-01-04 10:34:43,2025-01-04 10:36:12,89.204,0.028%,
48,2025-01-04 12:09:27,2025-01-04 12:10:53,85.512,0.027%,
49,2025-01-04 13:44:12,2025-01-04 13:45:30,78.277,0.025%,
50,2025-01-04 13:46:16,2025-01-04 13:46:27,10.977,0.004%,
51,2025-01-04 15:18:57,2025-01-04 15:20:12,75.771,0.024%,
52,2025-01-04 15:20:25,2025-01-04 15:21:09,43.863,0.014%,
53,2025-01-04 16:53:41,2025-01-04 16:55:49,128.092,0.041%,
54,2025-01-04 18:28:26,2025-01-04 18:30:29,122.592,0.039%,
55,2025-01-04 20:03:11,2025-01-04 20:05:11,120.094,0.038%,
56,2025-01-04 21:37:55,2025-01-04 21:39:53,117.667,0.037%,
57,2025-01-04 23:12:39,2025-01-04 23:14:34,114.729,0.036%,
58,2025-01-05 00:47:23,2025-01-05 00:49:12,108.336,0.034%,
59,2025-01-05 02:22:07,2025-01-05 02:23:54,106.603,0.034%,
60,2025-01-05 03:56:51,2025-01-05 03:58:36,104.403,0.033%,
61,2025-01-05 05:31:36,2025-01-05 05:33:17,101.364,0.032%,
62,2025-01-05 07:06:20,2025-01-05 07:07:54,94.14,0.030%,
63,2025-01-05 08:41:04,2025-01-05 08:42:36,92.11,0.029%,
64,2025-01-05 10:15:49,2025-01-05 10:17:18,89.58,0.028%,
65,2025-01-05 11:50:33,2025-01-05 11:51:59,86.099,0.027%,
66,2025-01-05 13:25:18,2025-01-05 13:26:36,78.566,0.025%,
67,2025-01-05 15:00:02,2025-01-05 15:01:18,76.125,0.024%,
68,2025-01-05 15:02:02,2025-01-05 15:02:15,13.013,0.004%,
69,2025-01-05 16:34:47,2025-01-05 16:36:00,73.053,0.023%,
70,2025-01-05 16:36:11,2025-01-05 16:36:56,44.837,0.014%,
71,2025-01-05 18:09:32,2025-01-05 18:11:35,122.884,0.039%,
72,2025-01-05 19:44:17,2025-01-05 19:46:17,120.441,0.038%,
73,2025-01-05 21:19:01,2025-01-05 21:20:59,117.968,0.037%,
74,2025-01-05 22:53:45,2025-01-05 22:55:40,115.199,0.037%,
75,2025-01-06 00:28:29,2025-01-06 00:30:18,108.535,0.034%,
76,2025-01-06 02:03:13,2025-01-06 02:05:00,106.846,0.034%,
77,2025-01-06 03:37:57,2025-01-06 03:39:42,104.722,0.033%,
78,2025-01-06 05:12:41,2025-01-06 05:14:23,101.832,0.032%,
79,2025-01-06 06:47:26,2025-01-06 06:49:01,95.674,0.030%,
80,2025-01-06 08:22:10,2025-01-06 08:23:42,92.392,0.029%,
81,2025-01-06 09:56:54,2025-01-06 09:58:24,89.945,0.029%,
82,2025-01-06 11:31:39,2025-01-06 11:33:06,86.637,0.028%,
83,2025-01-06 13:06:23,2025-01-06 13:07:42,78.847,0.025%,
84,2025-01-06 14:41:08,2025-01-06 14:42:24,76.464,0.024%,
85,2025-01-06 16:15:53,2025-01-06 16:17:06,73.5,0.023%,
86,2025-01-06 16:17:47,2025-01-06 16:18:02,14.728,0.005%,
87,2025-01-06 17:50:37,2025-01-06 17:51:47,69.327,0.022%,
88,2025-01-06 17:51:56,2025-01-06 17:52:41,44.363,0.014%,
89,2025-01-06 19:25:22,2025-01-06 19:27:23,120.778,0.038%,
90,2025-01-06 21:00:07,2025-01-06 21:02:05,117.915,0.037%,
91,2025-01-06 22:34:51,2025-01-06 22:36:46,115.635,0.037%,
92,2025-01-07 00:09:35,2025-01-07 00:11:24,109.613,0.035%,
93,2025-01-07 01:44:19,2025-01-07 01:46:06,107.081,0.034%,
94,2025-01-07 03:19:03,2025-01-07 03:20:48,105.029,0.033%,
95,2025-01-07 04:53:47,2025-01-07 04:55:30,102.269,0.032%,
96,2025-01-07 06:28:32,2025-01-07 06:30:09,97.358,0.031%,
97,2025-01-07 08:03:16,2025-01-07 08:04:49,92.671,0.029%,
98,2025-01-07 09:38:00,2025-01-07 09:39:31,90.295,0.029%,
99,2025-01-07 11:12:45,2025-01-07 11:14:12,87.145,0.028%,
100,2025-01-07 12:47:29,2025-01-07 12:48:50,80.929,0.026%,
101,2025-01-07 14:22:14,2025-01-07 14:23:31,76.796,0.024%,
102,2025-01-07 15:56:58,2025-01-07 15:58:12,73.929,0.023%,
103,2025-01-07 17:31:43,2025-01-07 17:32:53,69.995,0.022%,
104,2025-01-07 17:33:32,2025-01-07 17:33:47,14.382,0.005%,
105,2025-01-07 19:06:28,2025-01-07 19:07:30,62.059,0.020%,
106,2025-01-07 19:07:41,2025-01-07 19:08:29,48.128,0.015%,
107,2025-01-07 20:41:13,2025-01-07 20:43:11,118.317,0.038%,
108,2025-01-07 22:15:58,2025-01-07 22:17:53,114.785,0.036%,
109,2025-01-07 23:50:41,2025-01-07 23:52:32,111.39,0.035%,
110,2025-01-08 01:25:25,2025-01-08 01:27:12,107.313,0.034%,
111,2025-01-08 03:00:09,2025-01-08 03:01:54,105.317,0.033%,
112,2025-01-08 04:34:53,2025-01-08 04:36:36,102.684,0.033%,
113,2025-01-08 06:09:37,2025-01-08 06:11:16,98.363,0.031%,
114,2025-01-08 07:44:22,2025-01-08 07:45:55,92.938,0.030%,
115,2025-01-08 09:19:06,2025-01-08 09:20:37,90.635,0.029%,
116,2025-01-08 10:53:50,2025-01-08 10:55:18,87.616,0.028%,
117,2025-01-08 12:28:35,2025-01-08 12:29:57,82.476,0.026%,
118,2025-01-08 14:03:20,2025-01-08 14:04:37,77.121,0.025%,
119,2025-01-08 15:38:04,2025-01-08 15:39:19,74.335,0.024%,
120,2025-01-08 17:12:49,2025-01-08 17:13:59,70.604,0.022%,
121,2025-01-08 18:47:34,2025-01-08 18:48:36,62.397,0.020%,
122,2025-01-08 18:49:16,2025-01-08 18:49:35,18.732,0.006%,
123,2025-01-08 20:22:19,2025-01-08 20:23:18,59.549,0.019%,
124,2025-01-08 20:23:25,2025-01-08 20:24:17,52.222,0.017%,
125,2025-01-08 21:57:04,2025-01-08 21:58:59,115.3,0.037%,
126,2025-01-08 23:31:47,2025-01-08 23:33:39,112.368,0.036%,
127,2025-01-09 01:06:31,2025-01-09 01:08:18,107.539,0.034%,
128,2025-01-09 02:41:15,2025-01-09 02:43:00,105.607,0.034%,
129,2025-01-09 04:15:59,2025-01-09 04:17:42,103.073,0.033%,
130,2025-01-09 05:50:43,2025-01-09 05:52:22,99.153,0.031%,
131,2025-01-09 07:25:27,2025-01-09 07:27:01,93.205,0.030%,
132,2025-01-09 09:00:12,2025-01-09 09:01:43,90.961,0.029%,
133,2025-01-09 10:34:56,2025-01-09 10:36:24,88.062,0.028%,
134,2025-01-09 12:09:41,2025-01-09 12:11:04,83.487,0.027%,
135,2025-01-09 13:44:25,2025-01-09 13:45:43,77.435,0.025%,
136,2025-01-09 15:19:10,2025-01-09 15:20:25,74.729,0.024%,
137,2025-01-09 16:53:55,2025-01-09 16:55:06,71.17,0.023%,
138,2025-01-09 18:28:39,2025-01-09 18:29:42,62.726,0.020%,
139,2025-01-09 20:03:24,2025-01-09 20:04:24,59.946,0.019%,
140,2025-01-09 20:05:00,2025-01-09 20:05:23,23.453,0.007%,
141,2025-01-09 21:38:09,2025-01-09 21:39:06,56.499,0.018%,
142,2025-01-09 21:39:09,2025-01-09 21:40:05,56.508,0.018%,
143,2025-01-09 23:12:54,2025-01-09 23:14:45,111.048,0.035%,
144,2025-01-10 00:47:36,2025-01-10 00:49:24,107.757,0.034%,
145,2025-01-10 02:22:21,2025-01-10 02:24:06,105.88,0.034%,
146,2025-01-10 03:57:05,2025-01-10 03:58:48,103.446,0.033%,
147,2025-01-10 05:31:49,2025-01-10 05:33:29,99.828,0.032%,
148,2025-01-10 07:06:33,2025-01-10 07:08:07,93.457,0.030%,
149,2025-01-10 08:41:18,2025-01-10 08:42:49,91.277,0.029%,
150,2025-01-10 10:16:02,2025-01-10 10:17:31,88.487,0.028%,
151,2025-01-10 11:50:47,2025-01-10 11:52:11,84.305,0.027%,
152,2025-01-10 13:25:31,2025-01-10 13:26:49,77.745,0.025%,
153,2025-01-10 15:00:16,2025-01-10 15:01:31,75.112,0.024%,
154,2025-01-10 16:35:00,2025-01-10 16:36:12,71.707,0.023%,
155,2025-01-10 18:09:45,2025-01-10 18:10:51,65.677,0.021%,
156,2025-01-10 19:44:30,2025-01-10 19:45:30,60.334,0.019%,
157,2025-01-10 21:19:15,2025-01-10 21:20:12,56.994,0.018%,
158,2025-01-10 21:20:43,2025-01-10 21:21:11,28.419,0.009%,
159,2025-01-10 22:54:00,2025-01-10 22:55:52,111.832,0.036%,
160,2025-01-11 00:28:45,2025-01-11 00:30:30,104.857,0.033%,
161,2025-01-11 02:03:26,2025-01-11 02:05:13,106.143,0.034%,
162,2025-01-11 03:38:11,2025-01-11 03:39:54,103.804,0.033%,
163,2025-01-11 05:12:55,2025-01-11 05:14:35,100.422,0.032%,
164,2025-01-11 06:47:39,2025-01-11 06:49:13,93.706,0.030%,
165,2025-01-11 08:22:23,2025-01-11 08:23:55,91.584,0.029%,
166,2025-01-11 09:57:08,2025-01-11 09:58:37,88.895,0.028%,
167,2025-01-11 11:31:52,2025-01-11 11:33:17,85.009,0.027%,
168,2025-01-11 13:06:37,2025-01-11 13:07:55,78.044,0.025%,
169,2025-01-11 14:41:21,2025-01-11 14:42:37,75.487,0.024%,
170,2025-01-11 16:16:06,2025-01-11 16:17:18,72.212,0.023%,
171,2025-01-11 17:50:51,2025-01-11 17:51:58,66.971,0.021%,
172,2025-01-11 19:25:36,2025-01-11 19:26:36,60.709,0.019%,
173,2025-01-11 21:00:21,2025-01-11 21:01:18,57.47,0.018%,
174,2025-01-11 21:02:17,2025-01-11 21:02:17,0.898,0.000%,
175,2025-01-11 22:35:06,2025-01-11 22:35:59,53.102,0.017%,
176,2025-01-11 22:36:25,2025-01-11 22:36:58,33.235,0.011%,
177,2025-01-12 00:09:51,2025-01-12 00:11:36,105.221,0.033%,
178,2025-01-12 01:44:36,2025-01-12 01:46:19,102.179,0.032%,
179,2025-01-12 03:19:16,2025-01-12 03:21:00,104.148,0.033%,
180,2025-01-12 04:54:01,2025-01-12 04:55:42,100.966,0.032%,
181,2025-01-12 06:28:45,2025-01-12 06:30:19,93.948,0.030%,
182,2025-01-12 08:03:29,2025-01-12 08:05:01,91.882,0.029%,
183,2025-01-12 09:38:14,2025-01-12 09:39:43,89.283,0.028%,
184,2025-01-12 11:12:58,2025-01-12 11:14:24,85.638,0.027%,
185,2025-01-12 12:47:43,2025-01-12 12:49:01,78.338,0.025%,
186,2025-01-12 14:22:27,2025-01-12 14:23:43,75.845,0.024%,
187,2025-01-12 15:57:12,2025-01-12 15:58:25,72.694,0.023%,
188,2025-01-12 17:31:57,2025-01-12 17:33:05,67.939,0.022%,
189,2025-01-12 19:06:41,2025-01-12 19:07:43,61.078,0.019%,
190,2025-01-12 20:41:26,2025-01-12 20:42:24,57.93,0.018%,
191,2025-01-12 22:16:11,2025-01-12 22:17:05,53.777,0.017%,
192,2025-01-12 22:17:58,2025-01-12 22:18:05,6.531,0.002%,
193,2025-01-12 23:50:57,2025-01-12 23:51:42,44.944,0.014%,
194,2025-01-12 23:52:07,2025-01-12 23:52:42,35.606,0.011%,
195,2025-01-13 01:25:42,2025-01-13 01:27:25,102.595,0.033%,
196,2025-01-13 03:00:24,2025-01-13 03:02:07,102.924,0.033%,
197,2025-01-13 04:35:06,2025-01-13 04:36:48,101.46,0.032%,
198,2025-01-13 06:09:51,2025-01-13 06:11:25,94.186,0.030%,
199,2025-01-13 07:44:35,2025-01-13 07:46:07,92.169,0.029%,
200,2025-01-13 09:19:19,2025-01-13 09:20:49,89.658,0.028%,
201,2025-01-13 10:54:04,2025-01-13 10:55:30,86.213,0.027%,
202,2025-01-13 12:28:48,2025-01-13 12:30:07,78.624,0.025%,
203,2025-01-13 14:03:33,2025-01-13 14:04:49,76.196,0.024%,
204,2025-01-13 15:38:18,2025-01-13 15:39:31,73.148,0.023%,
205,2025-01-13 17:13:02,2025-01-13 17:14:11,68.752,0.022%,
206,2025-01-13 18:47:47,2025-01-13 18:48:49,61.435,0.020%,
207,2025-01-13 20:22:32,2025-01-13 20:23:31,58.375,0.019%,
208,2025-01-13 21:57:17,2025-01-13 21:58:12,54.402,0.017%,
209,2025-01-13 23:32:02,2025-01-13 23:32:48,45.338,0.014%,
210,2025-01-13 23:33:39,2025-01-13 23:33:48,9.255,0.003%,
211,2025-01-14 01:06:48,2025-01-14 01:07:30,41.991,0.013%,
212,2025-01-14 01:07:48,2025-01-14 01:08:31,43.188,0.014%,
213,2025-01-14 02:41:33,2025-01-14 02:43:13,99.518,0.032%,
214,2025-01-14 04:16:12,2025-01-14 04:17:54,101.923,0.032%,
215,2025-01-14 05:50:56,2025-01-14 05:52:33,96.161,0.031%,
216,2025-01-14 07:25:41,2025-01-14 07:27:13,92.455,0.029%,
217,2025-01-14 09:00:25,2025-01-14 09:01:55,90.014,0.029%,
218,2025-01-14 10:35:10,2025-01-14 10:36:36,86.744,0.028%,
219,2025-01-14 12:09:54,2025-01-14 12:11:13,78.905,0.025%,
220,2025-01-14 13:44:39,2025-01-14 13:45:55,76.533,0.024%,
221,2025-01-14 15:19:23,2025-01-14 15:20:37,73.586,0.023%,
222,2025-01-14 16:54:08,2025-01-14 16:55:18,69.469,0.022%,
223,2025-01-14 18:28:53,2025-01-14 18:29:55,61.785,0.020%,
224,2025-01-14 20:03:38,2025-01-14 20:04:37,58.806,0.019%,
225,2025-01-14 21:38:23,2025-01-14 21:39:18,54.994,0.017%,
226,2025-01-14 23:13:08,2025-01-14 23:13:56,48.323,0.015%,
227,2025-01-15 00:47:53,2025-01-15 00:48:36,42.458,0.014%,
228,2025-01-15 00:49:19,2025-01-15 00:49:37,17.546,0.006%,
229,2025-01-15 02:22:39,2025-01-15 02:23:17,38.404,0.012%,
230,2025-01-15 02:23:28,2025-01-15 02:24:19,51.209,0.016%,
231,2025-01-15 03:57:25,2025-01-15 03:59:00,95.72,0.030%,
232,2025-01-15 05:32:02,2025-01-15 05:33:40,97.585,0.031%,
233,2025-01-15 07:06:47,2025-01-15 07:08:19,92.725,0.029%,
234,2025-01-15 08:41:31,2025-01-15 08:43:01,90.366,0.029%,
235,2025-01-15 10:16:15,2025-01-15 10:17:43,87.238,0.028%,
236,2025-01-15 11:51:00,2025-01-15 11:52:21,81.339,0.026%,
237,2025-01-15 13:25:44,2025-01-15 13:27:01,76.864,0.024%,
238,2025-01-15 15:00:29,2025-01-15 15:01:43,74.009,0.024%,
239,2025-01-15 16:35:14,2025-01-15 16:36:24,70.123,0.022%,
240,2025-01-15 18:09:59,2025-01-15 18:11:01,62.127,0.020%,
241,2025-01-15 19:44:44,2025-01-15 19:45:43,59.222,0.019%,
242,2025-01-15 21:19:29,2025-01-15 21:20:24,55.554,0.018%,
243,2025-01-15 22:54:14,2025-01-15 22:55:03,49.77,0.016%,
244,2025-01-16 00:28:59,2025-01-16 00:29:42,42.913,0.014%,
245,2025-01-16 02:03:44,2025-01-16 02:04:23,38.988,0.012%,
246,2025-01-16 02:04:59,2025-01-16 02:05:25,26.306,0.008%,
247,2025-01-16 03:38:30,2025-01-16 03:39:04,33.523,0.011%,
248,2025-01-16 03:39:07,2025-01-16 03:40:07,59.498,0.019%,
249,2025-01-16 05:13:15,2025-01-16 05:14:47,91.132,0.029%,
250,2025-01-16 06:47:52,2025-01-16 06:49:25,92.994,0.030%,
251,2025-01-16 08:22:37,2025-01-16 08:24:07,90.701,0.029%,
252,2025-01-16 09:57:21,2025-01-16 09:58:49,87.707,0.028%,
253,2025-01-16 11:32:06,2025-01-16 11:33:28,82.702,0.026%,
254,2025-01-16 13:06:50,2025-01-16 13:08:07,77.183,0.025%,
255,2025-01-16 14:41:35,2025-01-16 14:42:49,74.418,0.024%,
256,2025-01-16 16:16:20,2025-01-16 16:17:30,70.722,0.022%,
257,2025-01-16 17:51:04,2025-01-16 17:52:07,62.464,0.020%,
258,2025-01-16 19:25:49,2025-01-16 19:26:49,59.629,0.019%,
259,2025-01-16 21:00:34,2025-01-16 21:01:30,56.089,0.018%,
260,2025-01-16 22:35:19,2025-01-16 22:36:10,50.838,0.016%,
261,2025-01-17 00:10:05,2025-01-17 00:10:48,43.357,0.014%,
262,2025-01-17 01:44:50,2025-01-17 01:45:30,39.549,0.013%,
263,2025-01-17 01:46:29,2025-01-17 01:46:31,2.064,0.001%,
264,2025-01-17 03:19:36,2025-01-17 03:20:10,34.393,0.011%,
265,2025-01-17 03:20:37,2025-01-17 03:21:13,35.398,0.011%,
266,2025-01-17 04:54:22,2025-01-17 04:55:53,91.33,0.029%,
267,2025-01-17 06:28:58,2025-01-17 06:30:31,93.254,0.030%,
268,2025-01-17 08:03:43,2025-01-17 08:05:14,91.024,0.029%,
269,2025-01-17 09:38:27,2025-01-17 09:39:55,88.151,0.028%,
270,2025-01-17 11:13:11,2025-01-17 11:14:35,83.663,0.027%,
271,2025-01-17 12:47:56,2025-01-17 12:49:13,77.5,0.025%,
272,2025-01-17 14:22:41,2025-01-17 14:23:55,74.808,0.024%,
273,2025-01-17 15:57:25,2025-01-17 15:58:37,71.286,0.023%,
274,2025-01-17 17:32:10,2025-01-17 17:33:13,62.792,0.020%,
275,2025-01-17 19:06:55,2025-01-17 19:07:55,60.028,0.019%,
276,2025-01-17 20:41:40,2025-01-17 20:42:37,56.601,0.018%,
277,2025-01-17 22:16:25,2025-01-17 22:17:17,51.736,0.016%,
278,2025-01-17 23:51:10,2025-01-17 23:51:54,43.79,0.014%,
279,2025-01-18 01:25:56,2025-01-18 01:26:36,40.092,0.013%,
280,2025-01-18 03:00:41,2025-01-18 03:01:17,35.192,0.011%,
281,2025-01-18 03:02:07,2025-01-18 03:02:19,11.954,0.004%,
282,2025-01-18 04:35:27,2025-01-18 04:35:53,25.513,0.008%,
283,2025-01-18 04:36:15,2025-01-18 04:37:00,44.326,0.014%,
284,2025-01-18 06:10:14,2025-01-18 06:11:37,83.669,0.027%,
285,2025-01-18 07:44:48,2025-01-18 07:46:20,91.34,0.029%,
286,2025-01-18 09:19:33,2025-01-18 09:21:01,88.573,0.028%,
287,2025-01-18 10:54:17,2025-01-18 10:55:42,84.454,0.027%,
288,2025-01-18 12:29:02,2025-01-18 12:30:20,77.807,0.025%,
289,2025-01-18 14:03:46,2025-01-18 14:05:02,75.192,0.024%,
290,2025-01-18 15:38:31,2025-01-18 15:39:43,71.813,0.023%,
291,2025-01-18 17:13:16,2025-01-18 17:14:22,65.988,0.021%,
292,2025-01-18 18:48:01,2025-01-18 18:49:01,60.411,0.019%,
293,2025-01-18 20:22:46,2025-01-18 20:23:43,57.094,0.018%,
294,2025-01-18 21:57:31,2025-01-18 21:58:23,52.526,0.017%,
295,2025-01-18 23:32:16,2025-01-18 23:33:00,44.211,0.014%,
296,2025-01-19 01:07:01,2025-01-19 01:07:42,40.616,0.013%,
297,2025-01-19 02:41:47,2025-01-19 02:42:23,35.934,0.011%,
298,2025-01-19 04:16:33,2025-01-19 04:16:59,26.031,0.008%,
299,2025-01-19 04:17:44,2025-01-19 04:18:06,21.824,0.007%,
300,2025-01-19 05:51:19,2025-01-19 05:51:41,21.54,0.007%,
301,2025-01-19 05:51:52,2025-01-19 05:52:43,51.083,0.016%,
302,2025-01-19 07:26:01,2025-01-19 07:27:26,85.064,0.027%,
303,2025-01-19 09:00:38,2025-01-19 09:02:07,88.975,0.028%,
304,2025-01-19 10:35:23,2025-01-19 10:36:48,85.147,0.027%,
305,2025-01-19 12:10:07,2025-01-19 12:11:26,78.106,0.025%,
306,2025-01-19 13:44:52,2025-01-19 13:46:08,75.561,0.024%,
307,2025-01-19 15:19:37,2025-01-19 15:20:49,72.31,0.023%,
308,2025-01-19 16:54:22,2025-01-19 16:55:29,67.188,0.021%,
309,2025-01-19 18:29:06,2025-01-19 18:30:07,60.789,0.019%,
310,2025-01-19 20:03:51,2025-01-19 20:04:49,57.567,0.018%,
311,2025-01-19 21:38:36,2025-01-19 21:39:30,53.247,0.017%,
312,2025-01-19 23:13:22,2025-01-19 23:14:06,44.624,0.014%,
313,2025-01-20 00:48:07,2025-01-20 00:48:48,41.123,0.013%,
314,2025-01-20 02:22:53,2025-01-20 02:23:29,36.632,0.012%,
315,2025-01-20 03:57:39,2025-01-20 03:58:07,28.074,0.009%,
316,2025-01-20 05:32:25,2025-01-20 05:32:47,22.18,0.007%,
317,2025-01-20 05:33:21,2025-01-20 05:33:50,28.982,0.009%,
318,2025-01-20 07:07:12,2025-01-20 07:07:28,16.384,0.005%,
319,2025-01-20 07:07:29,2025-01-20 07:08:32,63.065,0.020%,
320,2025-01-20 08:41:44,2025-01-20 08:43:14,89.361,0.028%,
321,2025-01-20 10:16:29,2025-01-20 10:17:54,85.765,0.027%,
322,2025-01-20 11:51:13,2025-01-20 11:52:32,78.398,0.025%,
323,2025-01-20 13:25:58,2025-01-20 13:27:14,75.921,0.024%,
324,2025-01-20 15:00:43,2025-01-20 15:01:55,72.787,0.023%,
325,2025-01-20 16:35:27,2025-01-20 16:36:35,68.12,0.022%,
326,2025-01-20 18:10:12,2025-01-20 18:11:13,61.154,0.019%,
327,2025-01-20 19:44:57,2025-01-20 19:45:55,58.025,0.018%,
328,2025-01-20 21:19:42,2025-01-20 21:20:36,53.909,0.017%,
329,2025-01-20 22:54:27,2025-01-20 22:55:12,45.029,0.014%,
330,2025-01-21 00:29:13,2025-01-21 00:29:54,41.614,0.013%,
331,2025-01-21 02:03:58,2025-01-21 02:04:36,37.291,0.012%,
332,2025-01-21 03:38:44,2025-01-21 03:39:14,30.365,0.010%,
333,2025-01-21 05:13:30,2025-01-21 05:13:53,22.799,0.007%,
334,2025-01-21 05:14:48,2025-01-21 05:14:56,7.59,0.002%,
335,2025-01-21 06:48:17,2025-01-21 06:48:34,17.256,0.006%,
336,2025-01-21 06:48:56,2025-01-21 06:49:38,41.762,0.013%,
337,2025-01-21 08:23:04,2025-01-21 08:24:20,75.51,0.024%,
338,2025-01-21 09:57:34,2025-01-21 09:59:01,86.327,0.027%,
339,2025-01-21 11:32:19,2025-01-21 11:33:38,78.685,0.025%,
340,2025-01-21 13:07:04,2025-01-21 13:08:20,76.263,0.024%,
341,2025-01-21 14:41:48,2025-01-21 14:43:02,73.243,0.023%,
342,2025-01-21 16:16:33,2025-01-21 16:17:42,68.913,0.022%,
343,2025-01-21 17:51:18,2025-01-21 17:52:19,61.511,0.020%,
344,2025-01-21 19:26:03,2025-01-21 19:27:01,58.468,0.019%,
345,2025-01-21 21:00:48,2025-01-21 21:01:42,54.531,0.017%,
346,2025-01-21 22:35:33,2025-01-21 22:36:18,45.422,0.014%,
347,2025-01-22 00:10:18,2025-01-22 00:11:00,42.092,0.013%,
348,2025-01-22 01:45:04,2025-01-22 01:45:42,37.928,0.012%,
349,2025-01-22 03:19:50,2025-01-22 03:20:21,31.7,0.010%,
350,2025-01-22 04:54:36,2025-01-22 04:54:59,23.402,0.007%,
351,2025-01-22 06:29:23,2025-01-22 06:29:41,18.08,0.006%,
352,2025-01-22 06:30:23,2025-01-22 06:30:44,21.18,0.007%,
353,2025-01-22 08:04:11,2025-01-22 08:04:21,9.75,0.003%,
354,2025-01-22 08:04:31,2025-01-22 08:05:26,55.045,0.018%,
355,2025-01-22 09:38:40,2025-01-22 09:40:07,86.853,0.028%,
356,2025-01-22 11:13:25,2025-01-22 11:14:44,78.964,0.025%,
357,2025-01-22 12:48:09,2025-01-22 12:49:26,76.605,0.024%,
358,2025-01-22 14:22:54,2025-01-22 14:24:08,73.678,0.023%,
359,2025-01-22 15:57:39,2025-01-22 15:58:48,69.618,0.022%,
360,2025-01-22 17:32:24,2025-01-22 17:33:25,61.859,0.020%,
361,2025-01-22 19:07:09,2025-01-22 19:08:07,58.897,0.019%,
362,2025-01-22 20:41:54,2025-01-22 20:42:49,55.116,0.018%,
363,2025-01-22 22:16:39,2025-01-22 22:17:27,48.695,0.015%,
364,2025-01-22 23:51:24,2025-01-22 23:52:07,42.558,0.014%,
365,2025-01-23 01:26:10,2025-01-23 01:26:48,38.532,0.012%,
366,2025-01-23 03:00:55,2025-01-23 03:01:28,32.777,0.010%,
367,2025-01-23 04:35:41,2025-01-23 04:36:05,23.986,0.008%,
368,2025-01-23 06:10:28,2025-01-23 06:10:47,18.864,0.006%,
369,2025-01-23 06:11:49,2025-01-23 06:11:50,1.32,0.000%,
370,2025-01-23 07:45:16,2025-01-23 07:45:27,11.202,0.004%,
371,2025-01-23 07:45:57,2025-01-23 07:46:32,35.306,0.011%,
372,2025-01-23 09:20:05,2025-01-23 09:21:13,68.6,0.022%,
373,2025-01-23 10:54:31,2025-01-23 10:55:52,81.699,0.026%,
374,2025-01-23 12:29:15,2025-01-23 12:30:32,76.934,0.024%,
375,2025-01-23 14:04:00,2025-01-23 14:05:14,74.097,0.024%,
376,2025-01-23 15:38:44,2025-01-23 15:39:55,70.253,0.022%,
377,2025-01-23 17:13:29,2025-01-23 17:14:32,62.2,0.020%,
378,2025-01-23 18:48:14,2025-01-23 18:49:14,59.317,0.019%,
379,2025-01-23 20:22:59,2025-01-23 20:23:55,55.672,0.018%,
380,2025-01-23 21:57:44,2025-01-23 21:58:34,50.022,0.016%,
381,2025-01-23 23:32:30,2025-01-23 23:33:13,43.01,0.014%,
382,2025-01-24 01:07:15,2025-01-24 01:07:54,39.112,0.012%,
383,2025-01-24 02:42:01,2025-01-24 02:42:35,33.719,0.011%,
384,2025-01-24 04:16:47,2025-01-24 04:17:11,24.548,0.008%,
385,2025-01-24 05:51:33,2025-01-24 05:51:53,19.615,0.006%,
386,2025-01-24 07:26:21,2025-01-24 07:26:34,12.481,0.004%,
387,2025-01-24 07:27:22,2025-01-24 07:27:38,16.298,0.005%,
388,2025-01-24 09:01:30,2025-01-24 09:02:20,49.764,0.016%,
389,2025-01-24 10:35:38,2025-01-24 10:36:59,81.393,0.026%,
390,2025-01-24 12:10:21,2025-01-24 12:11:38,77.253,0.025%,
391,2025-01-24 13:45:06,2025-01-24 13:46:20,74.501,0.024%,
392,2025-01-24 15:19:50,2025-01-24 15:21:01,70.844,0.023%,
393,2025-01-24 16:54:35,2025-01-24 16:55:38,62.536,0.020%,
394,2025-01-24 18:29:20,2025-01-24 18:30:20,59.716,0.019%,
395,2025-01-24 20:04:05,2025-01-24 20:05:01,56.201,0.018%,
396,2025-01-24 21:38:50,2025-01-24 21:39:41,51.043,0.016%,
397,2025-01-24 23:13:35,2025-01-24 23:14:19,43.451,0.014%,
398,2025-01-25 00:48:21,2025-01-25 00:49:00,39.667,0.013%,
399,2025-01-25 02:23:06,2025-01-25 02:23:41,34.57,0.011%,
400,2025-01-25 03:57:52,2025-01-25 03:58:18,25.095,0.008%,
401,2025-01-25 05:32:39,2025-01-25 05:32:59,20.329,0.006%,
402,2025-01-25 07:07:26,2025-01-25 07:07:40,13.626,0.004%,
403,2025-01-25 08:42:54,2025-01-25 08:43:26,31.66,0.010%,
404,2025-01-25 10:17:02,2025-01-25 10:18:06,63.805,0.020%,
405,2025-01-25 11:51:27,2025-01-25 11:52:44,77.566,0.025%,
406,2025-01-25 13:26:11,2025-01-25 13:27:26,74.891,0.024%,
407,2025-01-25 15:00:56,2025-01-25 15:02:07,71.399,0.023%,
408,2025-01-25 16:35:41,2025-01-25 16:36:45,64.426,0.020%,
409,2025-01-25 18:10:26,2025-01-25 18:11:26,60.11,0.019%,
410,2025-01-25 19:45:11,2025-01-25 19:46:07,56.708,0.018%,
411,2025-01-25 21:19:56,2025-01-25 21:20:48,51.912,0.017%,
412,2025-01-25 22:54:41,2025-01-25 22:55:25,43.88,0.014%,
413,2025-01-26 00:29:26,2025-01-26 00:30:07,40.205,0.013%,
414,2025-01-26 02:04:12,2025-01-26 02:04:47,35.356,0.011%,
415,2025-01-26 03:38:58,2025-01-26 03:39:24,25.627,0.008%,
416,2025-01-26 05:13:44,2025-01-26 05:14:05,21.016,0.007%,
417,2025-01-26 06:48:32,2025-01-26 06:48:46,14.678,0.005%,
418,2025-01-26 08:24:18,2025-01-26 08:24:32,14.299,0.005%,
419,2025-01-26 09:58:26,2025-01-26 09:59:12,46.828,0.015%,
420,2025-01-26 11:32:34,2025-01-26 11:33:50,76.75,0.024%,
421,2025-01-26 13:07:17,2025-01-26 13:08:32,75.273,0.024%,
422,2025-01-26 14:42:02,2025-01-26 14:43:14,71.919,0.023%,
423,2025-01-26 16:16:46,2025-01-26 16:17:53,66.281,0.021%,
424,2025-01-26 17:51:31,2025-01-26 17:52:32,60.493,0.019%,
425,2025-01-26 19:26:16,2025-01-26 19:27:14,57.196,0.018%,
426,2025-01-26 21:01:01,2025-01-26 21:01:54,52.689,0.017%,
427,2025-01-26 22:35:47,2025-01-26 22:36:31,44.3,0.014%,
428,2025-01-27 00:10:32,2025-01-27 00:11:13,40.726,0.013%,
429,2025-01-27 01:45:18,2025-01-27 01:45:54,36.087,0.011%,
430,2025-01-27 03:20:04,2025-01-27 03:20:30,26.138,0.008%,
431,2025-01-27 04:54:50,2025-01-27 04:55:12,21.674,0.007%,
432,2025-01-27 06:29:37,2025-01-27 06:29:53,15.657,0.005%,
433,2025-01-27 08:04:27,2025-01-27 08:04:30,3.047,0.001%,
434,2025-01-27 09:39:48,2025-01-27 09:40:19,30.54,0.010%,
435,2025-01-27 11:13:56,2025-01-27 11:14:56,60.126,0.019%,
436,2025-01-27 12:48:23,2025-01-27 12:49:38,75.639,0.024%,
437,2025-01-27 14:23:07,2025-01-27 14:24:20,72.414,0.023%,
438,2025-01-27 15:57:52,2025-01-27 15:59:00,67.397,0.021%,
439,2025-01-27 17:32:37,2025-01-27 17:33:38,60.864,0.019%,
440,2025-01-27 19:07:22,2025-01-27 19:08:20,57.665,0.018%,
441,2025-01-27 20:42:07,2025-01-27 20:43:01,53.394,0.017%,
442,2025-01-27 22:16:52,2025-01-27 22:17:37,44.711,0.014%,
443,2025-01-27 23:51:38,2025-01-27 23:52:19,41.229,0.013%,
444,2025-01-28 01:26:23,2025-01-28 01:27:00,36.774,0.012%,
445,2025-01-28 03:01:09,2025-01-28 03:01:38,28.814,0.009%,
446,2025-01-28 04:35:55,2025-01-28 04:36:18,22.312,0.007%,
447,2025-01-28 06:10:42,2025-01-28 06:10:59,16.574,0.005%,
448,2025-01-28 07:45:32,2025-01-28 07:45:38,6.335,0.002%,
449,2025-01-28 09:21:10,2025-01-28 09:21:25,14.96,0.005%,
450,2025-01-28 10:55:18,2025-01-28 10:56:02,44.273,0.014%,
451,2025-01-28 12:29:29,2025-01-28 12:30:45,75.994,0.024%,
452,2025-01-28 14:04:13,2025-01-28 14:05:26,72.884,0.023%,
453,2025-01-28 15:38:58,2025-01-28 15:40:06,68.295,0.022%,
454,2025-01-28 17:13:43,2025-01-28 17:14:44,61.23,0.019%,
455,2025-01-28 18:48:28,2025-01-28 18:49:26,58.12,0.018%,
456,2025-01-28 20:23:13,2025-01-28 20:24:07,54.044,0.017%,
457,2025-01-28 21:57:58,2025-01-28 21:58:43,45.11,0.014%,
458,2025-01-28 23:32:43,2025-01-28 23:33:25,41.717,0.013%,
459,2025-01-29 01:07:29,2025-01-29 01:08:06,37.434,0.012%,
460,2025-01-29 02:42:15,2025-01-29 02:42:45,30.679,0.010%,
461,2025-01-29 04:17:01,2025-01-29 04:17:24,22.926,0.007%,
462,2025-01-29 05:51:48,2025-01-29 05:52:05,17.432,0.006%,
463,2025-01-29 07:26:36,2025-01-29 07:26:45,8.413,0.003%,
464,2025-01-29 09:02:31,2025-01-29 09:02:32,0.118,0.000%,
465,2025-01-29 10:36:39,2025-01-29 10:37:08,29.212,0.009%,
466,2025-01-29 12:10:47,2025-01-29 12:11:51,63.662,0.020%,
467,2025-01-29 13:45:19,2025-01-29 13:46:32,73.334,0.023%,
468,2025-01-29 15:20:04,2025-01-29 15:21:13,69.065,0.022%,
469,2025-01-29 16:54:49,2025-01-29 16:55:50,61.584,0.020%,
470,2025-01-29 18:29:33,2025-01-29 18:30:32,58.558,0.019%,
471,2025-01-29 20:04:18,2025-01-29 20:05:13,54.655,0.017%,
472,2025-01-29 21:39:04,2025-01-29 21:39:49,45.505,0.014%,
473,2025-01-29 21:39:49,2025-01-29 21:39:50,0.992,0.000%,
474,2025-01-29 23:13:49,2025-01-29 23:14:31,42.19,0.013%,
475,2025-01-30 00:48:35,2025-01-30 00:49:13,38.058,0.012%,
476,2025-01-30 02:23:20,2025-01-30 02:23:52,31.937,0.010%,
477,2025-01-30 03:58:06,2025-01-30 03:58:30,23.521,0.008%,
478,2025-01-30 05:32:53,2025-01-30 05:33:11,18.248,0.006%,
479,2025-01-30 07:07:41,2025-01-30 07:07:51,10.069,0.003%,
480,2025-01-30 10:18:00,2025-01-30 10:18:14,14.936,0.005%,
481,2025-01-30 11:52:07,2025-01-30 11:52:57,49.486,0.016%,
482,2025-01-30 13:26:25,2025-01-30 13:27:38,73.767,0.023%,
483,2025-01-30 15:01:09,2025-01-30 15:02:19,69.751,0.022%,
484,2025-01-30 16:35:54,2025-01-30 16:36:56,61.931,0.020%,
485,2025-01-30 18:10:39,2025-01-30 18:11:38,58.984,0.019%,
486,2025-01-30 19:45:24,2025-01-30 19:46:19,55.233,0.018%,
487,2025-01-30 21:20:09,2025-01-30 21:20:58,49.008,0.016%,
488,2025-01-30 22:54:55,2025-01-30 22:55:37,42.653,0.014%,
489,2025-01-31 00:29:40,2025-01-31 00:30:19,38.651,0.012%,
490,2025-01-31 02:04:26,2025-01-31 02:04:59,32.98,0.011%,
491,2025-01-31 03:39:12,2025-01-31 03:39:36,24.104,0.008%,
492,2025-01-31 05:13:59,2025-01-31 05:14:18,19.024,0.006%,
493,2025-01-31 06:48:46,2025-01-31 06:48:58,11.479,0.004%,
494,2025-01-31 09:59:19,2025-01-31 09:59:23,4.158,0.001%,
495,2025-01-31 11:33:27,2025-01-31 11:34:03,36.11,0.012%,
496,2025-01-31 13:07:34,2025-01-31 13:08:45,70.318,0.022%,
497,2025-01-31 14:42:15,2025-01-31 14:43:26,70.378,0.022%,
498,2025-01-31 16:17:00,2025-01-31 16:18:02,62.27,0.020%,
499,2025-01-31 17:51:45,2025-01-31 17:52:44,59.396,0.019%,
500,2025-01-31 19:26:30,2025-01-31 19:27:26,55.783,0.018%,
501,2025-01-31 21:01:15,2025-01-31 21:02:05,50.248,0.016%,
502,2025-01-31 22:36:00,2025-01-31 22:36:43,43.102,0.014%,
503,2025-02-01 00:10:46,2025-02-01 00:11:25,39.228,0.012%,
504,2025-02-01 01:45:31,2025-02-01 01:46:05,33.901,0.011%,
505,2025-02-01 03:20:18,2025-02-01 03:20:42,24.661,0.008%,
506,2025-02-01 04:55:04,2025-02-01 04:55:24,19.765,0.006%,
507,2025-02-01 06:29:52,2025-02-01 06:30:04,12.727,0.004%,
508,2025-02-01 11:14:45,2025-02-01 11:15:09,23.528,0.008%,
509,2025-02-01 12:48:53,2025-02-01 12:49:51,57.865,0.018%,
510,2025-02-01 14:23:21,2025-02-01 14:24:32,70.962,0.023%,
511,2025-02-01 15:58:06,2025-02-01 15:59:08,62.604,0.020%,
512,2025-02-01 17:32:51,2025-02-01 17:33:50,59.8,0.019%,
513,2025-02-01 19:07:36,2025-02-01 19:08:32,56.308,0.018%,
514,2025-02-01 20:42:21,2025-02-01 20:43:12,51.233,0.016%,
515,2025-02-01 22:17:06,2025-02-01 22:17:50,43.542,0.014%,
516,2025-02-01 23:51:51,2025-02-01 23:52:31,39.781,0.013%,
517,2025-02-02 01:26:37,2025-02-02 01:27:12,34.741,0.011%,
518,2025-02-02 03:01:23,2025-02-02 03:01:48,25.207,0.008%,
519,2025-02-02 04:36:10,2025-02-02 04:36:30,20.476,0.007%,
520,2025-02-02 06:10:57,2025-02-02 06:11:11,13.853,0.004%,
521,2025-02-02 10:56:03,2025-02-02 10:56:15,11.751,0.004%,
522,2025-02-02 12:30:11,2025-02-02 12:30:57,46.206,0.015%,
523,2025-02-02 14:04:27,2025-02-02 14:05:38,71.511,0.023%,
524,2025-02-02 15:39:11,2025-02-02 15:40:16,64.979,0.021%,
525,2025-02-02 17:13:56,2025-02-02 17:14:56,60.194,0.019%,
526,2025-02-02 18:48:41,2025-02-02 18:49:38,56.813,0.018%,
527,2025-02-02 20:23:26,2025-02-02 20:24:18,52.085,0.017%,
528,2025-02-02 21:58:12,2025-02-02 21:58:56,43.969,0.014%,
529,2025-02-02 23:32:57,2025-02-02 23:33:37,40.318,0.013%,
530,2025-02-03 01:07:43,2025-02-03 01:08:18,35.514,0.011%,
531,2025-02-03 02:42:29,2025-02-03 02:42:54,25.737,0.008%,
532,2025-02-03 04:17:15,2025-02-03 04:17:36,21.158,0.007%,
533,2025-02-03 05:52:02,2025-02-03 05:52:17,14.896,0.005%,
534,2025-02-03 10:37:20,2025-02-03 10:37:21,0.778,0.000%,
535,2025-02-03 12:11:28,2025-02-03 12:12:03,35.349,0.011%,
536,2025-02-03 13:45:35,2025-02-03 13:46:44,69.261,0.022%,
537,2025-02-03 15:20:17,2025-02-03 15:21:24,66.546,0.021%,
538,2025-02-03 16:55:02,2025-02-03 16:56:03,60.572,0.019%,
539,2025-02-03 18:29:47,2025-02-03 18:30:44,57.297,0.018%,
540,2025-02-03 20:04:32,2025-02-03 20:05:25,52.844,0.017%,
541,2025-02-03 21:39:17,2025-02-03 21:40:02,44.388,0.014%,
542,2025-02-03 23:14:03,2025-02-03 23:14:44,40.835,0.013%,
543,2025-02-04 00:48:48,2025-02-04 00:49:25,36.238,0.012%,
544,2025-02-04 02:23:34,2025-02-04 02:24:00,26.251,0.008%,
545,2025-02-04 03:58:21,2025-02-04 03:58:42,21.815,0.007%,
546,2025-02-04 05:33:08,2025-02-04 05:33:23,15.859,0.005%,
547,2025-02-04 07:07:58,2025-02-04 07:08:02,3.992,0.001%,
548,2025-02-04 11:52:44,2025-02-04 11:53:09,25.293,0.008%,
549,2025-02-04 13:26:51,2025-02-04 13:27:51,59.377,0.019%,
550,2025-02-04 15:01:23,2025-02-04 15:02:30,67.607,0.021%,
551,2025-02-04 16:36:08,2025-02-04 16:37:09,60.943,0.019%,
552,2025-02-04 18:10:53,2025-02-04 18:11:50,57.764,0.018%,
553,2025-02-04 19:45:38,2025-02-04 19:46:31,53.538,0.017%,
554,2025-02-04 21:20:23,2025-02-04 21:21:08,44.798,0.014%,
555,2025-02-04 22:55:08,2025-02-04 22:55:50,41.333,0.013%,
556,2025-02-05 00:29:54,2025-02-05 00:30:31,36.918,0.012%,
557,2025-02-05 02:04:40,2025-02-05 02:05:09,29.334,0.009%,
558,2025-02-05 03:39:26,2025-02-05 03:39:48,22.447,0.007%,
559,2025-02-05 05:14:13,2025-02-05 05:14:30,16.762,0.005%,
560,2025-02-05 06:49:02,2025-02-05 06:49:09,6.844,0.002%,
561,2025-02-05 11:33:59,2025-02-05 11:34:15,16.035,0.005%,
562,2025-02-05 13:08:07,2025-02-05 13:08:57,50.277,0.016%,
563,2025-02-05 14:42:29,2025-02-05 14:43:37,68.47,0.022%,
564,2025-02-05 16:17:13,2025-02-05 16:18:15,61.307,0.019%,
565,2025-02-05 17:51:58,2025-02-05 17:52:57,58.216,0.019%,
566,2025-02-05 19:26:43,2025-02-05 19:27:38,54.18,0.017%,
567,2025-02-05 21:01:29,2025-02-05 21:02:14,45.196,0.014%,
568,2025-02-05 22:36:14,2025-02-05 22:36:56,41.82,0.013%,
569,2025-02-06 00:11:00,2025-02-06 00:11:37,37.569,0.012%,
570,2025-02-06 01:45:45,2025-02-06 01:46:16,30.981,0.010%,
571,2025-02-06 03:20:32,2025-02-06 03:20:55,23.059,0.007%,
572,2025-02-06 04:55:18,2025-02-06 04:55:36,17.616,0.006%,
573,2025-02-06 06:30:07,2025-02-06 06:30:16,8.808,0.003%,
574,2025-02-06 11:15:14,2025-02-06 11:15:21,7.572,0.002%,
575,2025-02-06 12:49:21,2025-02-06 12:50:03,41.955,0.013%,
576,2025-02-06 14:23:34,2025-02-06 14:24:44,69.218,0.022%,
577,2025-02-06 15:58:19,2025-02-06 15:59:21,61.662,0.020%,
578,2025-02-06 17:33:04,2025-02-06 17:34:03,58.651,0.019%,
579,2025-02-06 19:07:49,2025-02-06 19:08:44,54.784,0.017%,
580,2025-02-06 20:42:34,2025-02-06 20:43:22,47.517,0.015%,
581,2025-02-06 22:17:20,2025-02-06 22:18:02,42.293,0.013%,
582,2025-02-06 23:52:05,2025-02-06 23:52:43,38.191,0.012%,
583,2025-02-07 01:26:51,2025-02-07 01:27:23,32.182,0.010%,
584,2025-02-07 03:01:37,2025-02-07 03:02:01,23.653,0.008%,
585,2025-02-07 04:36:24,2025-02-07 04:36:42,18.422,0.006%,
586,2025-02-07 06:11:12,2025-02-07 06:11:22,10.395,0.003%,
587,2025-02-07 12:30:35,2025-02-07 12:31:09,34.418,0.011%,
588,2025-02-07 14:04:42,2025-02-07 14:05:50,67.941,0.022%,
589,2025-02-07 15:39:25,2025-02-07 15:40:27,62.006,0.020%,
590,2025-02-07 17:14:10,2025-02-07 17:15:09,59.076,0.019%,
591,2025-02-07 18:48:55,2025-02-07 18:49:50,55.357,0.018%,
592,2025-02-07 20:23:40,2025-02-07 20:24:29,49.318,0.016%,
593,2025-02-07 21:58:25,2025-02-07 21:59:08,42.753,0.014%,
594,2025-02-07 23:33:11,2025-02-07 23:33:50,38.781,0.012%,
595,2025-02-08 01:07:57,2025-02-08 01:08:30,33.192,0.011%,
596,2025-02-08 02:42:43,2025-02-08 02:43:07,24.228,0.008%,
597,2025-02-08 04:17:29,2025-02-08 04:17:48,19.19,0.006%,
598,2025-02-08 05:52:17,2025-02-08 05:52:29,11.765,0.004%,
599,2025-02-08 12:11:48,2025-02-08 12:12:15,27.65,0.009%,
600,2025-02-08 13:45:55,2025-02-08 13:46:56,61.429,0.020%,
601,2025-02-08 15:20:31,2025-02-08 15:21:33,62.343,0.020%,
602,2025-02-08 16:55:16,2025-02-08 16:56:15,59.485,0.019%,
603,2025-02-08 18:30:01,2025-02-08 18:30:56,55.9,0.018%,
604,2025-02-08 20:04:46,2025-02-08 20:05:36,50.483,0.016%,
605,2025-02-08 21:39:31,2025-02-08 21:40:14,43.199,0.014%,
606,2025-02-08 23:14:16,2025-02-08 23:14:56,39.351,0.013%,
607,2025-02-09 00:49:02,2025-02-09 00:49:36,34.092,0.011%,
608,2025-02-09 02:23:48,2025-02-09 02:24:13,24.783,0.008%,
609,2025-02-09 03:58:35,2025-02-09 03:58:55,19.923,0.006%,
610,2025-02-09 05:33:22,2025-02-09 05:33:35,12.983,0.004%,
611,2025-02-09 11:53:00,2025-02-09 11:53:22,21.649,0.007%,
612,2025-02-09 13:27:07,2025-02-09 13:28:03,55.647,0.018%,
613,2025-02-09 15:01:36,2025-02-09 15:02:39,62.676,0.020%,
614,2025-02-09 16:36:21,2025-02-09 16:37:21,59.885,0.019%,
615,2025-02-09 18:11:06,2025-02-09 18:12:03,56.42,0.018%,
616,2025-02-09 19:45:51,2025-02-09 19:46:43,51.43,0.016%,
617,2025-02-09 21:20:37,2025-02-09 21:21:20,43.636,0.014%,
618,2025-02-09 22:55:22,2025-02-09 22:56:02,39.898,0.013%,
619,2025-02-10 00:30:08,2025-02-10 00:30:43,34.91,0.011%,
620,2025-02-10 02:04:54,2025-02-10 02:05:19,25.324,0.008%,
621,2025-02-10 03:39:40,2025-02-10 03:40:01,20.626,0.007%,
622,2025-02-10 05:14:27,2025-02-10 05:14:42,14.086,0.005%,
623,2025-02-10 11:34:11,2025-02-10 11:34:28,16.408,0.005%,
624,2025-02-10 13:08:18,2025-02-10 13:09:09,50.596,0.016%,
625,2025-02-10 14:42:42,2025-02-10 14:43:47,65.409,0.021%,
626,2025-02-10 16:17:27,2025-02-10 16:18:27,60.274,0.019%,
627,2025-02-10 17:52:12,2025-02-10 17:53:09,56.918,0.018%,
628,2025-02-10 19:26:57,2025-02-10 19:27:49,52.251,0.017%,
629,2025-02-10 21:01:42,2025-02-10 21:02:26,44.06,0.014%,
630,2025-02-10 22:36:28,2025-02-10 22:37:08,40.43,0.013%,
631,2025-02-11 00:11:13,2025-02-11 00:11:49,35.674,0.011%,
632,2025-02-11 01:45:59,2025-02-11 01:46:25,25.847,0.008%,
633,2025-02-11 03:20:46,2025-02-11 03:21:07,21.299,0.007%,
634,2025-02-11 04:55:33,2025-02-11 04:55:48,15.105,0.005%,
635,2025-02-11 11:15:22,2025-02-11 11:15:34,11.917,0.004%,
636,2025-02-11 12:49:29,2025-02-11 12:50:15,46.279,0.015%,
637,2025-02-11 14:23:48,2025-02-11 14:24:55,66.798,0.021%,
638,2025-02-11 15:58:33,2025-02-11 15:59:33,60.651,0.019%,
639,2025-02-11 17:33:18,2025-02-11 17:34:15,57.399,0.018%,
640,2025-02-11 19:08:03,2025-02-11 19:08:56,52.996,0.017%,
641,2025-02-11 20:42:48,2025-02-11 20:43:32,44.477,0.014%,
642,2025-02-11 22:17:33,2025-02-11 22:18:14,40.943,0.013%,
643,2025-02-11 23:52:19,2025-02-11 23:52:55,36.386,0.012%,
644,2025-02-12 01:27:05,2025-02-12 01:27:31,26.359,0.008%,
645,2025-02-12 03:01:51,2025-02-12 03:02:13,21.949,0.007%,
646,2025-02-12 04:36:38,2025-02-12 04:36:54,16.057,0.005%,
647,2025-02-12 06:11:28,2025-02-12 06:11:33,4.744,0.002%,
648,2025-02-12 10:56:32,2025-02-12 10:56:40,8.156,0.003%,
649,2025-02-12 12:30:39,2025-02-12 12:31:21,42.678,0.014%,
650,2025-02-12 14:04:54,2025-02-12 14:06:01,67.802,0.022%,
651,2025-02-12 15:39:38,2025-02-12 15:40:39,61.023,0.019%,
652,2025-02-12 17:14:23,2025-02-12 17:15:21,57.861,0.018%,
653,2025-02-12 18:49:08,2025-02-12 18:50:02,53.674,0.017%,
654,2025-02-12 20:23:54,2025-02-12 20:24:39,44.884,0.014%,
655,2025-02-12 21:58:39,2025-02-12 21:59:20,41.437,0.013%,
656,2025-02-12 23:33:25,2025-02-12 23:34:02,37.057,0.012%,
657,2025-02-13 01:08:10,2025-02-13 01:08:40,29.756,0.009%,
658,2025-02-13 02:42:57,2025-02-13 02:43:19,22.578,0.007%,
659,2025-02-13 04:17:44,2025-02-13 04:18:00,16.948,0.005%,
660,2025-02-13 05:52:32,2025-02-13 05:52:40,7.304,0.002%,
661,2025-02-13 10:37:41,2025-02-13 10:37:46,5.118,0.002%,
662,2025-02-13 12:11:48,2025-02-13 12:12:28,39.786,0.013%,
663,2025-02-13 13:45:59,2025-02-13 13:47:08,68.633,0.022%,
664,2025-02-13 15:20:44,2025-02-13 15:21:46,61.383,0.020%,
665,2025-02-13 16:55:29,2025-02-13 16:56:27,58.309,0.019%,
666,2025-02-13 18:30:14,2025-02-13 18:31:08,54.311,0.017%,
667,2025-02-13 20:04:59,2025-02-13 20:05:45,45.28,0.014%,
668,2025-02-13 21:39:45,2025-02-13 21:40:27,41.926,0.013%,
669,2025-02-13 23:14:30,2025-02-13 23:15:08,37.705,0.012%,
670,2025-02-14 00:49:16,2025-02-14 00:49:47,31.259,0.010%,
671,2025-02-14 02:24:02,2025-02-14 02:24:25,23.185,0.007%,
672,2025-02-14 03:58:49,2025-02-14 03:59:07,17.789,0.006%,
673,2025-02-14 05:33:37,2025-02-14 05:33:47,9.167,0.003%,
674,2025-02-14 10:18:49,2025-02-14 10:18:52,2.78,0.001%,
675,2025-02-14 11:52:56,2025-02-14 11:53:34,37.595,0.012%,
676,2025-02-14 13:27:05,2025-02-14 13:28:14,69.369,0.022%,
677,2025-02-14 15:01:50,2025-02-14 15:02:52,61.734,0.020%,
678,2025-02-14 16:36:35,2025-02-14 16:37:34,58.743,0.019%,
679,2025-02-14 18:11:20,2025-02-14 18:12:15,54.908,0.017%,
680,2025-02-14 19:46:05,2025-02-14 19:46:53,48.029,0.015%,
681,2025-02-14 21:20:50,2025-02-14 21:21:33,42.392,0.013%,
682,2025-02-14 22:55:36,2025-02-14 22:56:14,38.318,0.012%,
683,2025-02-15 00:30:22,2025-02-15 00:30:54,32.41,0.010%,
684,2025-02-15 02:05:08,2025-02-15 02:05:31,23.779,0.008%,
685,2025-02-15 03:39:54,2025-02-15 03:40:13,18.59,0.006%,
686,2025-02-15 05:14:42,2025-02-15 05:14:53,10.706,0.003%,
687,2025-02-15 09:59:57,2025-02-15 09:59:58,1.147,0.000%,
688,2025-02-15 11:34:04,2025-02-15 11:34:40,36.092,0.011%,
689,2025-02-15 13:08:11,2025-02-15 13:09:21,70.032,0.022%,
690,2025-02-15 14:42:56,2025-02-15 14:43:58,62.078,0.020%,
691,2025-02-15 16:17:40,2025-02-15 16:18:40,59.162,0.019%,
692,2025-02-15 17:52:26,2025-02-15 17:53:21,55.475,0.018%,
693,2025-02-15 19:27:11,2025-02-15 19:28:00,49.595,0.016%,
694,2025-02-15 21:01:56,2025-02-15 21:02:39,42.85,0.014%,
695,2025-02-15 22:36:41,2025-02-15 22:37:20,38.907,0.012%,
696,2025-02-16 00:11:27,2025-02-16 00:12:01,33.393,0.011%,
697,2025-02-16 01:46:13,2025-02-16 01:46:38,24.35,0.008%,
698,2025-02-16 03:21:00,2025-02-16 03:21:19,19.349,0.006%,
699,2025-02-16 04:55:48,2025-02-16 04:56:00,12.039,0.004%,
700,2025-02-16 09:41:04,2025-02-16 09:41:04,0.198,0.000%,
701,2025-02-16 11:15:11,2025-02-16 11:15:46,35.264,0.011%,
702,2025-02-16 12:49:18,2025-02-16 12:50:27,69.464,0.022%,
703,2025-02-16 14:24:01,2025-02-16 14:25:04,62.415,0.020%,
704,2025-02-16 15:58:46,2025-02-16 15:59:46,59.574,0.019%,
705,2025-02-16 17:33:31,2025-02-16 17:34:27,56.015,0.018%,
706,2025-02-16 19:08:16,2025-02-16 19:09:07,50.703,0.016%,
707,2025-02-16 20:43:02,2025-02-16 20:43:45,43.295,0.014%,
708,2025-02-16 22:17:47,2025-02-16 22:18:27,39.472,0.013%,
709,2025-02-16 23:52:33,2025-02-16 23:53:07,34.275,0.011%,
710,2025-02-17 01:27:19,2025-02-17 01:27:44,24.901,0.008%,
711,2025-02-17 03:02:05,2025-02-17 03:02:25,20.079,0.006%,
712,2025-02-17 04:36:53,2025-02-17 04:37:06,13.233,0.004%,
713,2025-02-17 10:56:17,2025-02-17 10:56:52,35.095,0.011%,
714,2025-02-17 12:30:24,2025-02-17 12:31:33,69.498,0.022%,
715,2025-02-17 14:05:07,2025-02-17 14:06:10,62.747,0.020%,
716,2025-02-17 15:39:52,2025-02-17 15:40:52,59.971,0.019%,
717,2025-02-17 17:14:37,2025-02-17 17:15:33,56.531,0.018%,
718,2025-02-17 18:49:22,2025-02-17 18:50:14,51.616,0.016%,
719,2025-02-17 20:24:07,2025-02-17 20:24:51,43.731,0.014%,
720,2025-02-17 21:58:53,2025-02-17 21:59:33,40.019,0.013%,
721,2025-02-17 23:33:38,2025-02-17 23:34:13,35.086,0.011%,
722,2025-02-18 01:08:24,2025-02-18 01:08:50,25.442,0.008%,
723,2025-02-18 02:43:11,2025-02-18 02:43:32,20.779,0.007%,
724,2025-02-18 04:17:58,2025-02-18 04:18:12,14.319,0.005%,
725,2025-02-18 09:03:16,2025-02-18 09:03:16,0.295,0.000%,
726,2025-02-18 10:37:23,2025-02-18 10:37:58,35.572,0.011%,
727,2025-02-18 12:11:30,2025-02-18 12:12:40,70.161,0.022%,
728,2025-02-18 13:46:13,2025-02-18 13:47:19,65.78,0.021%,
729,2025-02-18 15:20:58,2025-02-18 15:21:58,60.36,0.019%,
730,2025-02-18 16:55:43,2025-02-18 16:56:40,57.026,0.018%,
731,2025-02-18 18:30:28,2025-02-18 18:31:20,52.423,0.017%,
732,2025-02-18 20:05:13,2025-02-18 20:05:57,44.154,0.014%,
733,2025-02-18 21:39:58,2025-02-18 21:40:39,40.544,0.013%,
734,2025-02-18 23:14:44,2025-02-18 23:15:20,35.837,0.011%,
735,2025-02-19 00:49:30,2025-02-19 00:49:56,25.962,0.008%,
736,2025-02-19 02:24:16,2025-02-19 02:24:38,21.451,0.007%,
737,2025-02-19 03:59:03,2025-02-19 03:59:19,15.322,0.005%,
738,2025-02-19 08:44:21,2025-02-19 08:44:22,1.309,0.000%,
739,2025-02-19 10:18:28,2025-02-19 10:19:05,36.693,0.012%,
740,2025-02-19 11:52:35,2025-02-19 11:53:46,71.451,0.023%,
741,2025-02-19 13:27:18,2025-02-19 13:28:26,67.043,0.021%,
742,2025-02-19 15:02:03,2025-02-19 15:03:04,60.739,0.019%,
743,2025-02-19 16:36:48,2025-02-19 16:37:46,57.503,0.018%,
744,2025-02-19 18:11:33,2025-02-19 18:12:27,53.153,0.017%,
745,2025-02-19 19:46:19,2025-02-19 19:47:03,44.569,0.014%,
746,2025-02-19 21:21:04,2025-02-19 21:21:45,41.056,0.013%,
747,2025-02-19 22:55:50,2025-02-19 22:56:26,36.541,0.012%,
748,2025-02-20 00:30:35,2025-02-20 00:31:02,26.473,0.008%,
749,2025-02-20 02:05:22,2025-02-20 02:05:44,22.094,0.007%,
750,2025-02-20 03:40:09,2025-02-20 03:40:25,16.259,0.005%,
751,2025-02-20 05:14:58,2025-02-20 05:15:04,5.433,0.002%,
752,2025-02-20 08:25:26,2025-02-20 08:25:29,2.949,0.001%,
753,2025-02-20 09:59:32,2025-02-20 10:00:11,38.432,0.012%,
754,2025-02-20 11:33:39,2025-02-20 11:34:52,72.722,0.023%,
755,2025-02-20 13:08:24,2025-02-20 13:09:32,68.001,0.022%,
756,2025-02-20 14:43:09,2025-02-20 14:44:10,61.105,0.019%,
757,2025-02-20 16:17:54,2025-02-20 16:18:52,57.964,0.018%,
758,2025-02-20 17:52:39,2025-02-20 17:53:33,53.826,0.017%,
759,2025-02-20 19:27:24,2025-02-20 19:28:09,44.975,0.014%,
760,2025-02-20 21:02:10,2025-02-20 21:02:51,41.548,0.013%,
761,2025-02-20 22:36:55,2025-02-20 22:37:32,37.205,0.012%,
762,2025-02-21 00:11:41,2025-02-21 00:12:11,30.151,0.010%,
763,2025-02-21 01:46:27,2025-02-21 01:46:50,22.718,0.007%,
764,2025-02-21 03:21:14,2025-02-21 03:21:31,17.145,0.005%,
765,2025-02-21 04:56:03,2025-02-21 04:56:11,7.767,0.003%,
766,2025-02-21 08:06:29,2025-02-21 08:06:35,5.201,0.002%,
767,2025-02-21 09:40:36,2025-02-21 09:41:17,40.779,0.013%,
768,2025-02-21 11:14:45,2025-02-21 11:15:58,73.182,0.023%,
769,2025-02-21 12:49:30,2025-02-21 12:50:39,68.81,0.022%,
770,2025-02-21 14:24:15,2025-02-21 14:25:16,61.464,0.020%,
771,2025-02-21 15:59:00,2025-02-21 15:59:58,58.408,0.019%,
772,2025-02-21 17:33:45,2025-02-21 17:34:39,54.45,0.017%,
773,2025-02-21 19:08:30,2025-02-21 19:09:15,45.37,0.014%,
774,2025-02-21 20:43:15,2025-02-21 20:43:57,42.029,0.013%,
775,2025-02-21 22:18:01,2025-02-21 22:18:39,37.846,0.012%,
776,2025-02-21 23:52:47,2025-02-21 23:53:18,31.542,0.010%,
777,2025-02-22 01:27:33,2025-02-22 01:27:56,23.321,0.007%,
778,2025-02-22 03:02:20,2025-02-22 03:02:38,17.974,0.006%,
779,2025-02-22 04:37:08,2025-02-22 04:37:17,9.538,0.003%,
780,2025-02-22 07:47:33,2025-02-22 07:47:41,8.047,0.003%,
781,2025-02-22 09:21:39,2025-02-22 09:22:23,43.716,0.014%,
782,2025-02-22 10:55:51,2025-02-22 10:57:05,73.62,0.023%,
783,2025-02-22 12:30:36,2025-02-22 12:31:45,69.522,0.022%,
784,2025-02-22 14:05:21,2025-02-22 14:06:22,61.813,0.020%,
785,2025-02-22 15:40:05,2025-02-22 15:41:04,58.84,0.019%,
786,2025-02-22 17:14:50,2025-02-22 17:15:46,55.04,0.018%,
787,2025-02-22 18:49:36,2025-02-22 18:50:24,48.471,0.015%,
788,2025-02-22 20:24:21,2025-02-22 20:25:03,42.497,0.014%,
789,2025-02-22 21:59:06,2025-02-22 21:59:45,38.453,0.012%,
790,2025-02-22 23:33:52,2025-02-22 23:34:25,32.644,0.010%,
791,2025-02-23 01:08:38,2025-02-23 01:09:02,23.912,0.008%,
792,2025-02-23 02:43:25,2025-02-23 02:43:44,18.765,0.006%,
793,2025-02-23 04:18:13,2025-02-23 04:18:24,11.022,0.004%,
794,2025-02-23 07:28:35,2025-02-23 07:28:49,13.759,0.004%,
795,2025-02-23 09:02:42,2025-02-23 09:03:29,47.236,0.015%,
796,2025-02-23 10:36:57,2025-02-23 10:38:11,74.043,0.024%,
797,2025-02-23 12:11:41,2025-02-23 12:12:52,70.169,0.022%,
798,2025-02-23 13:46:26,2025-02-23 13:47:28,62.155,0.020%,
799,2025-02-23 15:21:11,2025-02-23 15:22:10,59.256,0.019%,
800,2025-02-23 16:55:56,2025-02-23 16:56:52,55.599,0.018%,
801,2025-02-23 18:30:41,2025-02-23 18:31:31,49.87,0.016%,
802,2025-02-23 20:05:27,2025-02-23 20:06:10,42.948,0.014%,
803,2025-02-23 21:40:12,2025-02-23 21:40:51,39.037,0.012%,
804,2025-02-23 23:14:58,2025-02-23 23:15:31,33.6,0.011%,
805,2025-02-24 00:49:44,2025-02-24 00:50:08,24.475,0.008%,
806,2025-02-24 02:24:30,2025-02-24 02:24:50,19.519,0.006%,
807,2025-02-24 03:59:18,2025-02-24 03:59:30,12.319,0.004%,
808,2025-02-24 07:09:37,2025-02-24 07:09:56,18.809,0.006%,
809,2025-02-24 08:43:44,2025-02-24 08:44:35,51.32,0.016%,
810,2025-02-24 10:18:02,2025-02-24 10:19:17,74.45,0.024%,
811,2025-02-24 11:52:47,2025-02-24 11:53:58,70.767,0.022%,
812,2025-02-24 13:27:32,2025-02-24 13:28:34,62.492,0.020%,
813,2025-02-24 15:02:17,2025-02-24 15:03:17,59.663,0.019%,
814,2025-02-24 16:37:02,2025-02-24 16:37:58,56.132,0.018%,
815,2025-02-24 18:11:47,2025-02-24 18:12:38,50.918,0.016%,
816,2025-02-24 19:46:32,2025-02-24 19:47:16,43.394,0.014%,
817,2025-02-24 21:21:18,2025-02-24 21:21:57,39.595,0.013%,
818,2025-02-24 22:56:03,2025-02-24 22:56:38,34.463,0.011%,
819,2025-02-25 00:30:49,2025-02-25 00:31:14,25.021,0.008%,
820,2025-02-25 02:05:36,2025-02-25 02:05:56,20.238,0.006%,
821,2025-02-25 03:40:23,2025-02-25 03:40:37,13.486,0.004%,
822,2025-02-25 06:50:39,2025-02-25 06:51:03,24.046,0.008%,
823,2025-02-25 08:24:45,2025-02-25 08:25:41,55.959,0.018%,
824,2025-02-25 09:59:08,2025-02-25 10:00:23,74.839,0.024%,
825,2025-02-25 11:33:53,2025-02-25 11:35:04,71.328,0.023%,
826,2025-02-25 13:08:38,2025-02-25 13:09:41,62.819,0.020%,
827,2025-02-25 13:09:41,2025-02-25 13:09:42,0.991,0.000%,
828,2025-02-25 14:43:23,2025-02-25 14:44:23,60.06,0.019%,
829,2025-02-25 16:18:08,2025-02-25 16:19:04,56.642,0.018%,
830,2025-02-25 17:52:53,2025-02-25 17:53:44,51.806,0.016%,
831,2025-02-25 19:27:38,2025-02-25 19:28:22,43.826,0.014%,
832,2025-02-25 21:02:23,2025-02-25 21:03:03,40.138,0.013%,
833,2025-02-25 22:37:09,2025-02-25 22:37:44,35.257,0.011%,
834,2025-02-26 00:11:55,2025-02-26 00:12:21,25.559,0.008%,
835,2025-02-26 01:46:41,2025-02-26 01:47:02,20.928,0.007%,
836,2025-02-26 03:21:29,2025-02-26 03:21:43,14.547,0.005%,
837,2025-02-26 06:31:40,2025-02-26 06:32:09,29.673,0.009%,
838,2025-02-26 08:05:46,2025-02-26 08:06:47,61.131,0.019%,
839,2025-02-26 09:40:14,2025-02-26 09:41:29,75.218,0.024%,
840,2025-02-26 11:14:59,2025-02-26 11:16:10,71.853,0.023%,
841,2025-02-26 12:49:43,2025-02-26 12:50:50,66.101,0.021%,
842,2025-02-26 14:24:28,2025-02-26 14:25:29,60.443,0.019%,
843,2025-02-26 15:59:13,2025-02-26 16:00:10,57.134,0.018%,
844,2025-02-26 17:33:58,2025-02-26 17:34:51,52.589,0.017%,
845,2025-02-26 19:08:44,2025-02-26 19:09:28,44.246,0.014%,
846,2025-02-26 20:43:29,2025-02-26 20:44:10,40.66,0.013%,
847,2025-02-26 22:18:15,2025-02-26 22:18:51,35.995,0.011%,
848,2025-02-26 23:53:01,2025-02-26 23:53:27,26.075,0.008%,
849,2025-02-27 01:27:47,2025-02-27 01:28:08,21.597,0.007%,
850,2025-02-27 03:02:34,2025-02-27 03:02:49,15.533,0.005%,
851,2025-02-27 04:37:25,2025-02-27 04:37:27,2.311,0.001%,
852,2025-02-27 04:38:34,2025-02-27 04:38:35,1.446,0.001%,
853,2025-02-27 06:12:40,2025-02-27 06:13:16,35.734,0.011%,
854,2025-02-27 07:46:46,2025-02-27 07:47:53,66.84,0.021%,
855,2025-02-27 09:21:20,2025-02-27 09:22:35,75.59,0.024%,
856,2025-02-27 10:56:04,2025-02-27 10:57:17,72.352,0.023%,
857,2025-02-27 12:30:49,2025-02-27 12:31:56,67.27,0.021%,
858,2025-02-27 14:05:34,2025-02-27 14:06:35,60.817,0.019%,
859,2025-02-27 15:40:19,2025-02-27 15:41:17,57.606,0.018%,
860,2025-02-27 17:15:04,2025-02-27 17:15:57,53.306,0.017%,
861,2025-02-27 18:49:49,2025-02-27 18:50:34,44.659,0.014%,
862,2025-02-27 20:24:35,2025-02-27 20:25:16,41.166,0.013%,
863,2025-02-27 21:59:20,2025-02-27 21:59:57,36.689,0.012%,
864,2025-02-27 23:34:06,2025-02-27 23:34:35,28.418,0.009%,
865,2025-02-28 01:08:52,2025-02-28 01:09:15,22.232,0.007%,
866,2025-02-28 02:43:39,2025-02-28 02:43:56,16.46,0.005%,
867,2025-02-28 04:18:29,2025-02-28 04:18:35,6.024,0.002%,
868,2025-02-28 04:19:34,2025-02-28 04:19:41,7.705,0.002%,
869,2025-02-28 05:53:40,2025-02-28 05:54:22,42.25,0.013%,
870,2025-02-28 07:27:46,2025-02-28 07:28:59,73.054,0.023%,
871,2025-02-28 09:02:25,2025-02-28 09:03:41,75.949,0.024%,
872,2025-02-28 10:37:10,2025-02-28 10:38:23,72.824,0.023%,
873,2025-02-28 12:11:55,2025-02-28 12:13:03,68.188,0.022%,
874,2025-02-28 13:46:40,2025-02-28 13:47:41,61.184,0.019%,
875,2025-02-28 15:21:25,2025-02-28 15:22:23,58.062,0.018%,
876,2025-02-28 16:56:10,2025-02-28 16:57:04,53.966,0.017%,
877,2025-02-28 18:30:55,2025-02-28 18:31:40,45.063,0.014%,
878,2025-02-28 20:05:40,2025-02-28 20:06:22,41.657,0.013%,
879,2025-02-28 21:40:26,2025-02-28 21:41:03,37.35,0.012%,
880,2025-02-28 23:15:12,2025-02-28 23:15:42,30.496,0.010%,
881,2025-03-01 00:49:58,2025-03-01 00:50:21,22.852,0.007%,
882,2025-03-01 02:24:45,2025-03-01 02:25:02,17.328,0.006%,
883,2025-03-01 03:59:33,2025-03-01 03:59:42,8.189,0.003%,
884,2025-03-01 04:00:33,2025-03-01 04:00:47,14.459,0.005%,
885,2025-03-01 05:34:39,2025-03-01 05:35:28,49.222,0.016%,
886,2025-03-01 07:08:47,2025-03-01 07:10:05,78.708,0.025%,
887,2025-03-01 08:43:31,2025-03-01 08:44:48,76.297,0.024%,
888,2025-03-01 10:18:16,2025-03-01 10:19:29,73.284,0.023%,
889,2025-03-01 11:53:01,2025-03-01 11:54:10,68.973,0.022%,
890,2025-03-01 13:27:45,2025-03-01 13:28:47,61.541,0.020%,
891,2025-03-01 15:02:30,2025-03-01 15:03:29,58.505,0.019%,
892,2025-03-01 16:37:15,2025-03-01 16:38:10,54.582,0.017%,
893,2025-03-01 18:12:01,2025-03-01 18:12:46,45.456,0.014%,
894,2025-03-01 19:46:46,2025-03-01 19:47:28,42.133,0.013%,
895,2025-03-01 21:21:31,2025-03-01 21:22:09,37.981,0.012%,
896,2025-03-01 22:56:17,2025-03-01 22:56:49,31.798,0.010%,
897,2025-03-02 00:31:03,2025-03-02 00:31:27,23.454,0.007%,
898,2025-03-02 02:05:50,2025-03-02 02:06:08,18.154,0.006%,
899,2025-03-02 03:40:38,2025-03-02 03:40:48,9.885,0.003%,
900,2025-03-02 03:41:32,2025-03-02 03:41:54,21.7,0.007%,
901,2025-03-02 05:15:38,2025-03-02 05:16:35,56.654,0.018%,
902,2025-03-02 06:49:52,2025-03-02 06:51:11,78.987,0.025%,
903,2025-03-02 08:24:37,2025-03-02 08:25:54,76.633,0.024%,
904,2025-03-02 09:59:22,2025-03-02 10:00:35,73.716,0.023%,
905,2025-03-02 11:34:06,2025-03-02 11:35:16,69.67,0.022%,
906,2025-03-02 13:08:51,2025-03-02 13:09:53,61.891,0.020%,
907,2025-03-02 14:43:36,2025-03-02 14:44:35,58.933,0.019%,
908,2025-03-02 16:18:21,2025-03-02 16:19:16,55.166,0.018%,
909,2025-03-02 17:53:06,2025-03-02 17:53:55,48.832,0.016%,
910,2025-03-02 19:27:52,2025-03-02 19:28:34,42.599,0.014%,
911,2025-03-02 21:02:37,2025-03-02 21:03:16,38.584,0.012%,
912,2025-03-02 22:37:23,2025-03-02 22:37:56,32.865,0.010%,
913,2025-03-03 00:12:09,2025-03-03 00:12:33,24.038,0.008%,
914,2025-03-03 01:46:56,2025-03-03 01:47:14,18.936,0.006%,
915,2025-03-03 03:21:43,2025-03-03 03:21:55,11.326,0.004%,
916,2025-03-03 03:22:30,2025-03-03 03:23:00,29.419,0.009%,
917,2025-03-03 04:56:36,2025-03-03 04:57:41,64.532,0.021%,
918,2025-03-03 06:30:58,2025-03-03 06:32:20,81.828,0.026%,
919,2025-03-03 08:05:43,2025-03-03 08:07:00,76.962,0.024%,
920,2025-03-03 09:40:27,2025-03-03 09:41:41,74.134,0.024%,
921,2025-03-03 11:15:12,2025-03-03 11:16:22,70.307,0.022%,
922,2025-03-03 12:49:57,2025-03-03 12:50:59,62.231,0.020%,
923,2025-03-03 14:24:42,2025-03-03 14:25:41,59.348,0.019%,
924,2025-03-03 15:59:27,2025-03-03 16:00:23,55.722,0.018%,
925,2025-03-03 17:34:12,2025-03-03 17:35:02,50.127,0.016%,
926,2025-03-03 19:08:57,2025-03-03 19:09:40,43.051,0.014%,
927,2025-03-03 20:43:43,2025-03-03 20:44:22,39.164,0.012%,
928,2025-03-03 22:18:28,2025-03-03 22:19:02,33.802,0.011%,
929,2025-03-03 23:53:14,2025-03-03 23:53:39,24.602,0.008%,
930,2025-03-04 01:28:01,2025-03-04 01:28:21,19.684,0.006%,
931,2025-03-04 01:29:22,2025-03-04 01:29:24,1.699,0.001%,
932,2025-03-04 03:02:49,2025-03-04 03:03:01,12.593,0.004%,
933,2025-03-04 03:03:28,2025-03-04 03:04:06,37.583,0.012%,
934,2025-03-04 04:37:34,2025-03-04 04:38:47,72.853,0.023%,
935,2025-03-04 06:12:04,2025-03-04 06:13:27,83.02,0.026%,
936,2025-03-04 07:46:48,2025-03-04 07:48:06,77.282,0.025%,
937,2025-03-04 09:21:33,2025-03-04 09:22:48,74.539,0.024%,
938,2025-03-04 10:56:18,2025-03-04 10:57:29,70.897,0.023%,
939,2025-03-04 12:31:03,2025-03-04 12:32:05,62.567,0.020%,
940,2025-03-04 14:05:48,2025-03-04 14:06:47,59.754,0.019%,
941,2025-03-04 15:40:33,2025-03-04 15:41:29,56.25,0.018%,
942,2025-03-04 17:15:18,2025-03-04 17:16:09,51.131,0.016%,
943,2025-03-04 18:50:03,2025-03-04 18:50:46,43.493,0.014%,
944,2025-03-04 20:24:48,2025-03-04 20:25:28,39.72,0.013%,
945,2025-03-04 21:59:34,2025-03-04 22:00:09,34.648,0.011%,
946,2025-03-04 23:34:20,2025-03-04 23:34:45,25.147,0.008%,
947,2025-03-05 01:09:06,2025-03-05 01:09:27,20.399,0.007%,
948,2025-03-05 01:10:20,2025-03-05 01:10:30,10.227,0.003%,
949,2025-03-05 02:43:54,2025-03-05 02:44:08,13.736,0.004%,
950,2025-03-05 02:44:26,2025-03-05 02:45:12,46.199,0.015%,
951,2025-03-05 04:18:32,2025-03-05 04:19:53,81.598,0.026%,
952,2025-03-05 05:53:10,2025-03-05 05:54:34,83.921,0.027%,
953,2025-03-05 07:27:54,2025-03-05 07:29:12,77.595,0.025%,
954,2025-03-05 09:02:39,2025-03-05 09:03:54,74.931,0.024%,
955,2025-03-05 10:37:24,2025-03-05 10:38:35,71.449,0.023%,
956,2025-03-05 12:12:08,2025-03-05 12:13:13,64.706,0.021%,
957,2025-03-05 13:46:53,2025-03-05 13:47:53,60.148,0.019%,
958,2025-03-05 15:21:38,2025-03-05 15:22:35,56.757,0.018%,
959,2025-03-05 16:56:23,2025-03-05 16:57:15,51.991,0.017%,
960,2025-03-05 18:31:09,2025-03-05 18:31:53,43.922,0.014%,
961,2025-03-05 20:05:54,2025-03-05 20:06:34,40.26,0.013%,
962,2025-03-05 21:40:40,2025-03-05 21:41:15,35.432,0.011%,
963,2025-03-05 23:15:26,2025-03-05 23:15:51,25.677,0.008%,
964,2025-03-06 00:50:12,2025-03-06 00:50:33,21.085,0.007%,
965,2025-03-06 00:51:17,2025-03-06 00:51:36,19.186,0.006%,
966,2025-03-06 02:24:59,2025-03-06 02:25:14,14.786,0.005%,
967,2025-03-06 02:25:23,2025-03-06 02:26:18,55.235,0.018%,
968,2025-03-06 03:59:31,2025-03-06 04:01:00,88.701,0.028%,
969,2025-03-06 05:34:15,2025-03-06 05:35:40,84.678,0.027%,
970,2025-03-06 07:09:00,2025-03-06 07:10:18,77.901,0.025%,
971,2025-03-06 08:43:45,2025-03-06 08:45:00,75.305,0.024%,
972,2025-03-06 10:18:29,2025-03-06 10:19:41,71.973,0.023%,
973,2025-03-06 11:53:14,2025-03-06 11:54:20,66.41,0.021%,
974,2025-03-06 13:27:59,2025-03-06 13:28:59,60.531,0.019%,
975,2025-03-06 15:02:44,2025-03-06 15:03:41,57.245,0.018%,
976,2025-03-06 16:37:29,2025-03-06 16:38:22,52.764,0.017%,
977,2025-03-06 18:12:14,2025-03-06 18:12:59,44.343,0.014%,
978,2025-03-06 19:47:00,2025-03-06 19:47:40,40.779,0.013%,
979,2025-03-06 21:21:45,2025-03-06 21:22:21,36.161,0.012%,
980,2025-03-06 22:56:31,2025-03-06 22:56:57,26.193,0.008%,
981,2025-03-07 00:31:17,2025-03-07 00:31:39,21.747,0.007%,
982,2025-03-07 00:32:13,2025-03-07 00:32:42,28.563,0.009%,
983,2025-03-07 02:06:05,2025-03-07 02:07:24,79.556,0.025%,
984,2025-03-07 03:40:37,2025-03-07 03:42:06,89.099,0.028%,
985,2025-03-07 05:15:21,2025-03-07 05:16:47,85.346,0.027%,
986,2025-03-07 06:50:06,2025-03-07 06:51:24,78.199,0.025%,
987,2025-03-07 08:24:50,2025-03-07 08:26:06,75.675,0.024%,
988,2025-03-07 09:59:35,2025-03-07 10:00:48,72.463,0.023%,
989,2025-03-07 11:34:20,2025-03-07 11:35:27,67.503,0.021%,
990,2025-03-07 13:09:05,2025-03-07 13:10:06,60.904,0.019%,
991,2025-03-07 14:43:50,2025-03-07 14:44:47,57.715,0.018%,
992,2025-03-07 16:18:35,2025-03-07 16:19:28,53.465,0.017%,
993,2025-03-07 17:53:20,2025-03-07 17:54:05,44.754,0.014%,
994,2025-03-07 19:28:05,2025-03-07 19:28:47,41.279,0.013%,
995,2025-03-07 21:02:51,2025-03-07 21:03:28,36.846,0.012%,
996,2025-03-07 22:37:37,2025-03-07 22:38:06,29.09,0.009%,
997,2025-03-07 22:39:03,2025-03-07 22:39:11,7.305,0.002%,
998,2025-03-08 00:12:23,2025-03-08 00:12:45,22.38,0.007%,
999,2025-03-08 00:13:10,2025-03-08 00:13:48,38.33,0.012%,
1000,2025-03-08 01:47:10,2025-03-08 01:48:30,80.271,0.026%,
1001,2025-03-08 03:21:43,2025-03-08 03:23:12,89.48,0.028%,
1002,2025-03-08 04:56:27,2025-03-08 04:57:53,85.944,0.027%,
1003,2025-03-08 06:31:12,2025-03-08 06:32:30,78.49,0.025%,
1004,2025-03-08 08:05:56,2025-03-08 08:07:12,76.032,0.024%,
1005,2025-03-08 09:40:41,2025-03-08 09:41:54,72.934,0.023%,
1006,2025-03-08 11:15:26,2025-03-08 11:16:34,68.382,0.022%,
1007,2025-03-08 12:50:10,2025-03-08 12:51:12,61.268,0.019%,
1008,2025-03-08 14:24:55,2025-03-08 14:25:54,58.167,0.018%,
1009,2025-03-08 15:59:40,2025-03-08 16:00:35,54.111,0.017%,
1010,2025-03-08 17:34:26,2025-03-08 17:35:11,45.154,0.014%,
1011,2025-03-08 19:09:11,2025-03-08 19:09:53,41.77,0.013%,
1012,2025-03-08 20:43:56,2025-03-08 20:44:34,37.502,0.012%,
1013,2025-03-08 22:18:42,2025-03-08 22:19:13,30.834,0.010%,
1014,2025-03-08 22:19:59,2025-03-08 22:20:17,17.673,0.006%,
1015,2025-03-08 23:53:28,2025-03-08 23:53:51,22.993,0.007%,
1016,2025-03-08 23:54:05,2025-03-08 23:54:54,48.476,0.015%,
1017,2025-03-09 01:28:12,2025-03-09 01:29:36,84.734,0.027%,
1018,2025-03-09 03:02:48,2025-03-09 03:04:18,89.848,0.029%,
