3UCubedIntegratedSim/Reports & Plots/North Cusp @ 1 Degree/CSV/Sat3.csv

Number,Coverage Start (UTCG),Coverage End (UTCG),Duration (sec),Percent,
1,2025-01-01 16:15:49,2025-01-01 16:23:27,458.5,0.145%,
2,2025-01-01 17:50:32,2025-01-01 17:58:06,454.491,0.144%,
3,2025-01-01 19:25:15,2025-01-01 19:32:55,459.686,0.146%,
4,2025-01-01 20:59:59,2025-01-01 21:07:34,455.57,0.145%,
5,2025-01-01 22:34:42,2025-01-01 22:42:18,455.995,0.145%,
6,2025-01-02 00:09:26,2025-01-02 00:17:06,459.836,0.146%,
7,2025-01-02 01:44:09,2025-01-02 01:51:46,456.652,0.145%,
8,2025-01-02 03:18:53,2025-01-02 03:26:36,462.326,0.147%,
9,2025-01-02 04:53:55,2025-01-02 05:01:21,445.907,0.141%,
10,2025-01-02 06:28:37,2025-01-02 06:35:58,440.579,0.140%,
11,2025-01-02 08:03:20,2025-01-02 08:10:45,445.377,0.141%,
12,2025-01-02 09:38:02,2025-01-02 09:45:26,443.324,0.141%,
13,2025-01-02 11:12:45,2025-01-02 11:20:16,450.723,0.143%,
14,2025-01-02 12:47:28,2025-01-02 12:55:00,451.277,0.143%,
15,2025-01-02 14:22:11,2025-01-02 14:29:47,455.514,0.144%,
16,2025-01-02 15:56:55,2025-01-02 16:04:38,463.518,0.147%,
17,2025-01-02 17:31:38,2025-01-02 17:39:22,464.2,0.147%,
18,2025-01-02 19:06:21,2025-01-02 19:14:06,464.802,0.147%,
19,2025-01-02 20:41:05,2025-01-02 20:48:50,465.329,0.148%,
20,2025-01-02 22:15:48,2025-01-02 22:23:34,465.784,0.148%,
21,2025-01-02 23:50:32,2025-01-02 23:58:18,466.17,0.148%,
22,2025-01-03 01:25:15,2025-01-03 01:33:02,466.492,0.148%,
23,2025-01-03 02:59:59,2025-01-03 03:07:46,466.753,0.148%,
24,2025-01-03 04:34:43,2025-01-03 04:42:30,466.955,0.148%,
25,2025-01-03 06:09:43,2025-01-03 06:17:14,450.305,0.143%,
26,2025-01-03 07:44:26,2025-01-03 07:51:58,451.837,0.143%,
27,2025-01-03 09:19:08,2025-01-03 09:26:42,453.149,0.144%,
28,2025-01-03 10:53:51,2025-01-03 11:01:26,454.291,0.144%,
29,2025-01-03 12:28:34,2025-01-03 12:36:10,455.299,0.144%,
30,2025-01-03 14:03:17,2025-01-03 14:10:54,456.18,0.145%,
31,2025-01-03 15:38:00,2025-01-03 15:45:37,456.961,0.145%,
32,2025-01-03 17:12:44,2025-01-03 17:20:21,457.647,0.145%,
33,2025-01-03 18:47:27,2025-01-03 18:55:05,458.251,0.145%,
34,2025-01-03 20:22:11,2025-01-03 20:29:50,459.654,0.146%,
35,2025-01-03 21:56:54,2025-01-03 22:04:33,459.231,0.146%,
36,2025-01-03 23:31:38,2025-01-03 23:39:18,460.727,0.146%,
37,2025-01-04 01:06:21,2025-01-04 01:14:01,459.934,0.146%,
38,2025-01-04 02:41:05,2025-01-04 02:48:45,460.192,0.146%,
39,2025-01-04 04:15:49,2025-01-04 04:23:34,465.05,0.148%,
40,2025-01-04 05:50:32,2025-01-04 05:58:13,460.533,0.146%,
41,2025-01-04 07:25:32,2025-01-04 07:33:02,449.714,0.143%,
42,2025-01-04 09:00:14,2025-01-04 09:07:41,446.411,0.142%,
43,2025-01-04 10:34:57,2025-01-04 10:42:25,447.561,0.142%,
44,2025-01-04 12:09:40,2025-01-04 12:17:12,452.042,0.143%,
45,2025-01-04 13:44:23,2025-01-04 13:51:53,449.451,0.143%,
46,2025-01-04 15:19:06,2025-01-04 15:26:42,455.68,0.145%,
47,2025-01-04 16:53:50,2025-01-04 17:01:28,457.994,0.145%,
48,2025-01-04 18:28:33,2025-01-04 18:36:05,451.512,0.143%,
49,2025-01-04 20:03:16,2025-01-04 20:10:52,455.363,0.144%,
50,2025-01-04 21:38:00,2025-01-04 21:45:32,452.48,0.144%,
51,2025-01-04 23:12:43,2025-01-04 23:20:23,459.16,0.146%,
52,2025-01-05 00:47:27,2025-01-05 00:55:06,459.045,0.146%,
53,2025-01-05 02:22:11,2025-01-05 02:29:53,462.703,0.147%,
54,2025-01-05 03:56:55,2025-01-05 04:04:32,457.806,0.145%,
55,2025-01-05 05:31:38,2025-01-05 05:39:29,470.305,0.149%,
56,2025-01-05 07:06:22,2025-01-05 07:06:36,13.525,0.004%,
57,2025-01-05 07:06:38,2025-01-05 07:14:13,454.71,0.144%,
58,2025-01-05 08:41:20,2025-01-05 08:48:57,456.074,0.145%,
59,2025-01-05 10:16:03,2025-01-05 10:23:41,457.262,0.145%,
60,2025-01-05 11:50:46,2025-01-05 11:58:24,458.306,0.145%,
61,2025-01-05 13:25:29,2025-01-05 13:33:08,459.221,0.146%,
62,2025-01-05 15:00:12,2025-01-05 15:07:52,460.037,0.146%,
63,2025-01-05 16:34:56,2025-01-05 16:42:36,460.749,0.146%,
64,2025-01-05 18:09:39,2025-01-05 18:17:20,461.376,0.146%,
65,2025-01-05 19:44:22,2025-01-05 19:52:04,461.929,0.147%,
66,2025-01-05 21:19:06,2025-01-05 21:26:48,462.406,0.147%,
67,2025-01-05 22:53:49,2025-01-05 23:01:32,462.814,0.147%,
68,2025-01-06 00:28:33,2025-01-06 00:36:16,463.156,0.147%,
69,2025-01-06 02:03:17,2025-01-06 02:11:00,463.436,0.147%,
70,2025-01-06 03:38:00,2025-01-06 03:45:44,463.655,0.147%,
71,2025-01-06 05:12:44,2025-01-06 05:20:28,463.817,0.147%,
72,2025-01-06 06:47:28,2025-01-06 06:55:12,463.92,0.147%,
73,2025-01-06 08:22:12,2025-01-06 08:22:21,9.256,0.003%,
74,2025-01-06 08:22:26,2025-01-06 08:29:57,450.308,0.143%,
75,2025-01-06 09:57:09,2025-01-06 10:04:40,450.617,0.143%,
76,2025-01-06 11:31:52,2025-01-06 11:39:25,452.775,0.144%,
77,2025-01-06 13:06:35,2025-01-06 13:14:08,452.588,0.144%,
78,2025-01-06 14:41:18,2025-01-06 14:48:52,453.405,0.144%,
79,2025-01-06 16:16:02,2025-01-06 16:23:37,455.793,0.145%,
80,2025-01-06 17:50:45,2025-01-06 17:58:20,454.744,0.144%,
81,2025-01-06 19:25:28,2025-01-06 19:33:04,455.293,0.144%,
82,2025-01-06 21:00:12,2025-01-06 21:07:47,455.769,0.145%,
83,2025-01-06 22:34:55,2025-01-06 22:42:31,456.17,0.145%,
84,2025-01-07 00:09:39,2025-01-07 00:17:19,459.97,0.146%,
85,2025-01-07 01:44:23,2025-01-07 01:51:59,456.781,0.145%,
86,2025-01-07 03:19:06,2025-01-07 03:26:49,462.45,0.147%,
87,2025-01-07 04:53:50,2025-01-07 05:01:34,464.222,0.147%,
88,2025-01-07 06:28:34,2025-01-07 06:36:11,457.243,0.145%,
89,2025-01-07 08:03:18,2025-01-07 08:10:58,460.62,0.146%,
90,2025-01-07 09:38:02,2025-01-07 09:38:06,4.393,0.001%,
91,2025-01-07 09:38:15,2025-01-07 09:45:39,443.774,0.141%,
92,2025-01-07 11:12:58,2025-01-07 11:20:29,451.139,0.143%,
93,2025-01-07 12:47:41,2025-01-07 12:55:13,451.614,0.143%,
94,2025-01-07 14:22:24,2025-01-07 14:30:00,455.85,0.145%,
95,2025-01-07 15:57:07,2025-01-07 16:04:39,451.476,0.143%,
96,2025-01-07 17:31:51,2025-01-07 17:39:28,457.435,0.145%,
97,2025-01-07 19:06:34,2025-01-07 19:14:10,455.625,0.145%,
98,2025-01-07 20:41:18,2025-01-07 20:49:03,465.538,0.148%,
99,2025-01-07 22:16:01,2025-01-07 22:23:47,465.967,0.148%,
100,2025-01-07 23:50:45,2025-01-07 23:58:31,466.33,0.148%,
101,2025-01-08 01:25:28,2025-01-08 01:33:15,466.633,0.148%,
102,2025-01-08 03:00:12,2025-01-08 03:07:59,466.868,0.148%,
103,2025-01-08 04:34:56,2025-01-08 04:42:43,467.05,0.148%,
104,2025-01-08 06:09:40,2025-01-08 06:17:27,467.174,0.148%,
105,2025-01-08 07:44:24,2025-01-08 07:52:11,467.244,0.148%,
106,2025-01-08 09:19:08,2025-01-08 09:26:55,467.259,0.148%,
107,2025-01-08 10:54:04,2025-01-08 11:01:39,454.703,0.144%,
108,2025-01-08 12:28:47,2025-01-08 12:36:23,455.665,0.145%,
109,2025-01-08 14:03:30,2025-01-08 14:11:07,456.507,0.145%,
110,2025-01-08 15:38:13,2025-01-08 15:45:51,457.254,0.145%,
111,2025-01-08 17:12:57,2025-01-08 17:20:35,457.909,0.145%,
112,2025-01-08 18:47:40,2025-01-08 18:55:19,458.485,0.145%,
113,2025-01-08 20:22:24,2025-01-08 20:30:03,459.877,0.146%,
114,2025-01-08 21:57:07,2025-01-08 22:04:46,459.414,0.146%,
115,2025-01-08 23:31:51,2025-01-08 23:39:32,460.871,0.146%,
116,2025-01-09 01:06:34,2025-01-09 01:14:14,460.072,0.146%,
117,2025-01-09 02:41:18,2025-01-09 02:48:58,460.307,0.146%,
118,2025-01-09 04:16:02,2025-01-09 04:23:44,462.167,0.147%,
119,2025-01-09 05:50:46,2025-01-09 05:58:26,460.607,0.146%,
120,2025-01-09 07:25:29,2025-01-09 07:33:10,460.67,0.146%,
121,2025-01-09 09:00:13,2025-01-09 09:07:54,460.677,0.146%,
122,2025-01-09 10:34:57,2025-01-09 10:42:38,460.628,0.146%,
123,2025-01-09 12:09:53,2025-01-09 12:17:25,452.389,0.144%,
124,2025-01-09 13:44:36,2025-01-09 13:52:06,449.784,0.143%,
125,2025-01-09 15:19:19,2025-01-09 15:26:55,455.991,0.145%,
126,2025-01-09 16:54:03,2025-01-09 17:01:41,458.248,0.145%,
127,2025-01-09 18:28:46,2025-01-09 18:36:18,451.749,0.143%,
128,2025-01-09 20:03:29,2025-01-09 20:11:05,455.585,0.145%,
129,2025-01-09 21:38:13,2025-01-09 21:45:46,452.661,0.144%,
130,2025-01-09 23:12:57,2025-01-09 23:20:36,459.335,0.146%,
131,2025-01-10 00:47:40,2025-01-10 00:55:19,459.164,0.146%,
132,2025-01-10 02:22:24,2025-01-10 02:29:57,453.528,0.144%,
133,2025-01-10 03:57:08,2025-01-10 04:04:46,457.916,0.145%,
134,2025-01-10 05:31:51,2025-01-10 05:39:35,463.351,0.147%,
135,2025-01-10 07:06:35,2025-01-10 07:14:16,461.07,0.146%,
136,2025-01-10 08:41:19,2025-01-10 08:48:58,458.314,0.145%,
137,2025-01-10 10:16:03,2025-01-10 10:23:54,470.483,0.149%,
138,2025-01-10 11:50:47,2025-01-10 11:58:38,470.405,0.149%,
139,2025-01-10 13:25:42,2025-01-10 13:33:22,459.56,0.146%,
140,2025-01-10 15:00:25,2025-01-10 15:08:06,460.336,0.146%,
141,2025-01-10 16:35:09,2025-01-10 16:42:50,461.02,0.146%,
142,2025-01-10 18:09:52,2025-01-10 18:17:34,461.621,0.146%,
143,2025-01-10 19:44:35,2025-01-10 19:52:17,462.145,0.147%,
144,2025-01-10 21:19:19,2025-01-10 21:27:01,462.597,0.147%,
145,2025-01-10 22:54:02,2025-01-10 23:01:45,462.981,0.147%,
146,2025-01-11 00:28:46,2025-01-11 00:36:29,463.301,0.147%,
147,2025-01-11 02:03:30,2025-01-11 02:11:13,463.559,0.147%,
148,2025-01-11 03:38:14,2025-01-11 03:45:57,463.757,0.147%,
149,2025-01-11 05:12:57,2025-01-11 05:20:41,463.898,0.147%,
150,2025-01-11 06:47:41,2025-01-11 06:55:25,463.981,0.147%,
151,2025-01-11 08:22:25,2025-01-11 08:30:09,464.014,0.147%,
152,2025-01-11 09:57:09,2025-01-11 10:04:53,463.984,0.147%,
153,2025-01-11 11:31:53,2025-01-11 11:39:38,464.99,0.147%,
154,2025-01-11 13:06:37,2025-01-11 13:14:21,463.767,0.147%,
155,2025-01-11 14:41:31,2025-01-11 14:49:05,453.706,0.144%,
156,2025-01-11 16:16:14,2025-01-11 16:23:51,456.077,0.145%,
157,2025-01-11 17:50:58,2025-01-11 17:58:33,454.989,0.144%,
158,2025-01-11 19:25:41,2025-01-11 19:33:17,455.509,0.144%,
159,2025-01-11 21:00:25,2025-01-11 21:08:01,455.959,0.145%,
160,2025-01-11 22:35:08,2025-01-11 22:42:45,456.335,0.145%,
161,2025-01-12 00:09:52,2025-01-12 00:17:32,460.097,0.146%,
162,2025-01-12 01:44:36,2025-01-12 01:52:13,456.904,0.145%,
163,2025-01-12 03:19:19,2025-01-12 03:27:02,462.565,0.147%,
164,2025-01-12 04:54:03,2025-01-12 05:01:41,457.607,0.145%,
165,2025-01-12 06:28:47,2025-01-12 06:36:24,457.303,0.145%,
166,2025-01-12 08:03:31,2025-01-12 08:11:12,460.679,0.146%,
167,2025-01-12 09:38:15,2025-01-12 09:45:52,457.29,0.145%,
168,2025-01-12 11:12:59,2025-01-12 11:20:42,463.527,0.147%,
169,2025-01-12 12:47:43,2025-01-12 12:55:26,462.899,0.147%,
170,2025-01-12 14:22:27,2025-01-12 14:22:33,5.892,0.002%,
171,2025-01-12 14:22:37,2025-01-12 14:30:04,446.855,0.142%,
172,2025-01-12 15:57:20,2025-01-12 16:04:52,451.765,0.143%,
173,2025-01-12 17:32:04,2025-01-12 17:39:41,457.668,0.145%,
174,2025-01-12 19:06:47,2025-01-12 19:14:23,455.857,0.145%,
175,2025-01-12 20:41:31,2025-01-12 20:49:04,453.527,0.144%,
176,2025-01-12 22:16:14,2025-01-12 22:23:54,459.662,0.146%,
177,2025-01-12 23:50:58,2025-01-12 23:58:44,466.482,0.148%,
178,2025-01-13 01:25:41,2025-01-13 01:33:28,466.762,0.148%,
179,2025-01-13 03:00:25,2025-01-13 03:08:12,466.979,0.148%,
180,2025-01-13 04:35:09,2025-01-13 04:42:56,467.138,0.148%,
181,2025-01-13 06:09:53,2025-01-13 06:17:40,467.242,0.148%,
182,2025-01-13 07:44:37,2025-01-13 07:52:24,467.29,0.148%,
183,2025-01-13 09:19:21,2025-01-13 09:27:08,467.288,0.148%,
184,2025-01-13 10:54:05,2025-01-13 11:01:52,467.225,0.148%,
185,2025-01-13 12:28:49,2025-01-13 12:36:36,467.108,0.148%,
186,2025-01-13 14:03:33,2025-01-13 14:11:20,466.935,0.148%,
187,2025-01-13 15:38:26,2025-01-13 15:46:04,457.535,0.145%,
188,2025-01-13 17:13:10,2025-01-13 17:20:48,458.163,0.145%,
189,2025-01-13 18:47:53,2025-01-13 18:55:32,458.709,0.146%,
190,2025-01-13 20:22:37,2025-01-13 20:30:16,459.185,0.146%,
191,2025-01-13 21:57:20,2025-01-13 22:05:00,459.588,0.146%,
192,2025-01-13 23:32:04,2025-01-13 23:39:45,461.006,0.146%,
193,2025-01-14 01:06:47,2025-01-14 01:14:28,460.202,0.146%,
194,2025-01-14 02:41:31,2025-01-14 02:49:12,460.417,0.146%,
195,2025-01-14 04:16:15,2025-01-14 04:23:57,462.27,0.147%,
196,2025-01-14 05:50:59,2025-01-14 05:58:39,460.675,0.146%,
197,2025-01-14 07:25:43,2025-01-14 07:33:23,460.718,0.146%,
198,2025-01-14 09:00:27,2025-01-14 09:08:07,460.705,0.146%,
199,2025-01-14 10:35:11,2025-01-14 10:42:51,460.636,0.146%,
200,2025-01-14 12:09:55,2025-01-14 12:17:39,463.949,0.147%,
201,2025-01-14 13:44:39,2025-01-14 13:52:19,460.333,0.146%,
202,2025-01-14 15:19:23,2025-01-14 15:27:03,460.092,0.146%,
203,2025-01-14 16:54:16,2025-01-14 17:01:47,451.818,0.143%,
204,2025-01-14 18:28:59,2025-01-14 18:36:31,451.973,0.143%,
205,2025-01-14 20:03:42,2025-01-14 20:11:18,455.799,0.145%,
206,2025-01-14 21:38:26,2025-01-14 21:45:59,452.834,0.144%,
207,2025-01-14 23:13:10,2025-01-14 23:20:49,459.502,0.146%,
208,2025-01-15 00:47:53,2025-01-15 00:55:33,459.273,0.146%,
209,2025-01-15 02:22:37,2025-01-15 02:30:11,453.634,0.144%,
210,2025-01-15 03:57:21,2025-01-15 04:04:59,458.021,0.145%,
211,2025-01-15 05:32:05,2025-01-15 05:39:48,463.402,0.147%,
212,2025-01-15 07:06:48,2025-01-15 07:14:30,461.131,0.146%,
213,2025-01-15 08:41:32,2025-01-15 08:49:11,458.31,0.145%,
214,2025-01-15 10:16:16,2025-01-15 10:24:00,464.025,0.147%,
215,2025-01-15 11:51:00,2025-01-15 11:58:39,458.812,0.146%,
216,2025-01-15 13:25:45,2025-01-15 13:33:35,470.247,0.149%,
217,2025-01-15 15:00:29,2025-01-15 15:08:19,470.033,0.149%,
218,2025-01-15 16:35:13,2025-01-15 16:43:03,469.768,0.149%,
219,2025-01-15 18:10:05,2025-01-15 18:17:47,461.854,0.147%,
220,2025-01-15 19:44:48,2025-01-15 19:52:31,462.352,0.147%,
221,2025-01-15 21:19:32,2025-01-15 21:27:15,462.78,0.147%,
222,2025-01-15 22:54:15,2025-01-15 23:01:59,463.141,0.147%,
223,2025-01-16 00:28:59,2025-01-16 00:36:43,463.438,0.147%,
224,2025-01-16 02:03:43,2025-01-16 02:11:27,463.674,0.147%,
225,2025-01-16 03:38:27,2025-01-16 03:46:10,463.853,0.147%,
226,2025-01-16 05:13:10,2025-01-16 05:20:54,463.972,0.147%,
227,2025-01-16 06:47:54,2025-01-16 06:55:38,464.036,0.147%,
228,2025-01-16 08:22:38,2025-01-16 08:30:22,464.049,0.147%,
229,2025-01-16 09:57:22,2025-01-16 10:05:06,463.999,0.147%,
230,2025-01-16 11:32:06,2025-01-16 11:39:51,464.964,0.147%,
231,2025-01-16 13:06:50,2025-01-16 13:14:34,463.742,0.147%,
232,2025-01-16 14:41:35,2025-01-16 14:49:18,463.524,0.147%,
233,2025-01-16 16:16:19,2025-01-16 16:24:04,464.955,0.147%,
234,2025-01-16 17:51:03,2025-01-16 17:51:05,1.742,0.001%,
235,2025-01-16 17:51:11,2025-01-16 17:58:46,455.222,0.144%,
236,2025-01-16 19:25:54,2025-01-16 19:33:30,455.719,0.145%,
237,2025-01-16 21:00:38,2025-01-16 21:08:14,456.141,0.145%,
238,2025-01-16 22:35:21,2025-01-16 22:42:58,456.495,0.145%,
239,2025-01-17 00:10:05,2025-01-17 00:17:45,460.213,0.146%,
240,2025-01-17 01:44:49,2025-01-17 01:52:26,457.017,0.145%,
241,2025-01-17 03:19:32,2025-01-17 03:27:10,457.187,0.145%,
242,2025-01-17 04:54:16,2025-01-17 05:01:54,457.695,0.145%,
243,2025-01-17 06:29:00,2025-01-17 06:36:38,457.355,0.145%,
244,2025-01-17 08:03:44,2025-01-17 08:11:25,460.728,0.146%,
245,2025-01-17 09:38:28,2025-01-17 09:46:05,457.303,0.145%,
246,2025-01-17 11:13:12,2025-01-17 11:20:56,463.538,0.147%,
247,2025-01-17 12:47:56,2025-01-17 12:55:39,462.855,0.147%,
248,2025-01-17 14:22:40,2025-01-17 14:30:17,456.798,0.145%,
249,2025-01-17 15:57:25,2025-01-17 16:05:05,460.763,0.146%,
250,2025-01-17 17:32:09,2025-01-17 17:39:45,456.173,0.145%,
251,2025-01-17 19:07:00,2025-01-17 19:14:36,456.084,0.145%,
252,2025-01-17 20:41:44,2025-01-17 20:49:17,453.683,0.144%,
253,2025-01-17 22:16:27,2025-01-17 22:23:57,449.593,0.143%,
254,2025-01-17 23:51:11,2025-01-17 23:58:46,455.042,0.144%,
255,2025-01-18 01:25:55,2025-01-18 01:33:33,458.4,0.145%,
256,2025-01-18 03:00:38,2025-01-18 03:08:25,467.083,0.148%,
257,2025-01-18 04:35:22,2025-01-18 04:43:09,467.219,0.148%,
258,2025-01-18 06:10:06,2025-01-18 06:17:53,467.303,0.148%,
259,2025-01-18 07:44:50,2025-01-18 07:52:37,467.336,0.148%,
260,2025-01-18 09:19:34,2025-01-18 09:27:21,467.309,0.148%,
261,2025-01-18 10:54:18,2025-01-18 11:02:05,467.227,0.148%,
262,2025-01-18 12:29:02,2025-01-18 12:36:49,467.09,0.148%,
263,2025-01-18 14:03:46,2025-01-18 14:11:33,466.895,0.148%,
264,2025-01-18 15:38:30,2025-01-18 15:46:17,466.646,0.148%,
265,2025-01-18 17:13:15,2025-01-18 17:21:01,466.337,0.148%,
266,2025-01-18 18:47:59,2025-01-18 18:55:45,465.972,0.148%,
267,2025-01-18 20:22:50,2025-01-18 20:30:29,459.375,0.146%,
268,2025-01-18 21:57:33,2025-01-18 22:05:13,459.755,0.146%,
269,2025-01-18 23:32:17,2025-01-18 23:39:57,460.07,0.146%,
270,2025-01-19 01:07:00,2025-01-19 01:14:41,460.324,0.146%,
271,2025-01-19 02:41:44,2025-01-19 02:49:25,460.517,0.146%,
272,2025-01-19 04:16:28,2025-01-19 04:24:09,460.655,0.146%,
273,2025-01-19 05:51:12,2025-01-19 05:58:53,460.735,0.146%,
274,2025-01-19 07:25:56,2025-01-19 07:33:37,460.758,0.146%,
275,2025-01-19 09:00:40,2025-01-19 09:08:20,460.726,0.146%,
276,2025-01-19 10:35:24,2025-01-19 10:43:04,460.637,0.146%,
277,2025-01-19 12:10:08,2025-01-19 12:17:52,463.909,0.147%,
278,2025-01-19 13:44:52,2025-01-19 13:52:32,460.294,0.146%,
279,2025-01-19 15:19:36,2025-01-19 15:27:16,460.033,0.146%,
280,2025-01-19 16:54:20,2025-01-19 17:02:01,460.122,0.146%,
281,2025-01-19 18:29:05,2025-01-19 18:36:44,459.349,0.146%,
282,2025-01-19 20:03:55,2025-01-19 20:11:31,456.004,0.145%,
283,2025-01-19 21:38:39,2025-01-19 21:46:12,452.999,0.144%,
284,2025-01-19 23:13:23,2025-01-19 23:21:02,459.661,0.146%,
285,2025-01-20 00:48:06,2025-01-20 00:55:46,459.375,0.146%,
286,2025-01-20 02:22:50,2025-01-20 02:30:24,453.732,0.144%,
287,2025-01-20 03:57:34,2025-01-20 04:05:12,458.117,0.145%,
288,2025-01-20 05:32:18,2025-01-20 05:39:52,453.922,0.144%,
289,2025-01-20 07:07:02,2025-01-20 07:14:43,461.188,0.146%,
290,2025-01-20 08:41:46,2025-01-20 08:49:24,458.307,0.145%,
291,2025-01-20 10:16:30,2025-01-20 10:24:03,453.788,0.144%,
292,2025-01-20 11:51:14,2025-01-20 11:58:53,458.81,0.146%,
293,2025-01-20 13:25:58,2025-01-20 13:33:40,461.717,0.146%,
294,2025-01-20 15:00:42,2025-01-20 15:08:23,461.332,0.146%,
295,2025-01-20 15:08:30,2025-01-20 15:08:32,2.274,0.001%,
296,2025-01-20 16:35:26,2025-01-20 16:43:16,469.697,0.149%,
297,2025-01-20 18:10:11,2025-01-20 18:18:00,469.352,0.149%,
298,2025-01-20 19:44:55,2025-01-20 19:52:44,468.947,0.149%,
299,2025-01-20 21:19:45,2025-01-20 21:27:28,462.954,0.147%,
300,2025-01-20 22:54:29,2025-01-20 23:02:12,463.292,0.147%,
301,2025-01-21 00:29:12,2025-01-21 00:36:56,463.568,0.147%,
302,2025-01-21 02:03:56,2025-01-21 02:11:40,463.783,0.147%,
303,2025-01-21 03:38:40,2025-01-21 03:46:24,463.94,0.147%,
304,2025-01-21 05:13:24,2025-01-21 05:21:08,464.039,0.147%,
305,2025-01-21 06:48:07,2025-01-21 06:55:52,464.086,0.147%,
306,2025-01-21 08:22:51,2025-01-21 08:30:36,464.077,0.147%,
307,2025-01-21 09:57:35,2025-01-21 10:05:19,464.008,0.147%,
308,2025-01-21 11:32:20,2025-01-21 11:40:03,463.886,0.147%,
309,2025-01-21 13:07:04,2025-01-21 13:14:47,463.711,0.147%,
310,2025-01-21 14:41:48,2025-01-21 14:49:31,463.473,0.147%,
311,2025-01-21 16:16:32,2025-01-21 16:24:15,463.183,0.147%,
312,2025-01-21 17:51:16,2025-01-21 17:58:59,462.833,0.147%,
313,2025-01-21 19:26:01,2025-01-21 19:33:43,462.424,0.147%,
314,2025-01-21 21:00:45,2025-01-21 21:08:27,461.95,0.147%,
315,2025-01-21 22:35:34,2025-01-21 22:43:11,456.645,0.145%,
316,2025-01-22 00:10:18,2025-01-22 00:17:58,460.323,0.146%,
317,2025-01-22 01:45:02,2025-01-22 01:52:39,457.125,0.145%,
318,2025-01-22 03:19:46,2025-01-22 03:27:23,457.275,0.145%,
319,2025-01-22 04:54:29,2025-01-22 05:02:07,457.776,0.145%,
320,2025-01-22 06:29:13,2025-01-22 06:36:51,457.404,0.145%,
321,2025-01-22 08:03:57,2025-01-22 08:11:38,460.77,0.146%,
322,2025-01-22 09:38:41,2025-01-22 09:46:19,457.309,0.145%,
323,2025-01-22 11:13:25,2025-01-22 11:21:09,463.541,0.147%,
324,2025-01-22 12:48:09,2025-01-22 12:55:52,462.805,0.147%,
325,2025-01-22 14:22:54,2025-01-22 14:30:30,456.744,0.145%,
326,2025-01-22 15:57:38,2025-01-22 16:05:19,460.707,0.146%,
327,2025-01-22 17:32:22,2025-01-22 17:39:58,456.076,0.145%,
328,2025-01-22 19:07:07,2025-01-22 19:14:49,462.918,0.147%,
329,2025-01-22 20:41:51,2025-01-22 20:49:31,459.577,0.146%,
330,2025-01-22 22:16:40,2025-01-22 22:24:10,449.741,0.143%,
331,2025-01-22 23:51:24,2025-01-22 23:58:59,455.187,0.144%,
332,2025-01-23 01:26:08,2025-01-23 01:33:46,458.488,0.145%,
333,2025-01-23 03:00:51,2025-01-23 03:08:30,458.531,0.145%,
334,2025-01-23 04:35:35,2025-01-23 04:43:23,467.296,0.148%,
335,2025-01-23 06:10:19,2025-01-23 06:18:07,467.36,0.148%,
336,2025-01-23 07:45:03,2025-01-23 07:52:50,467.371,0.148%,
337,2025-01-23 09:19:47,2025-01-23 09:27:34,467.324,0.148%,
338,2025-01-23 10:54:31,2025-01-23 11:02:18,467.223,0.148%,
339,2025-01-23 12:29:15,2025-01-23 12:37:02,467.066,0.148%,
340,2025-01-23 14:03:59,2025-01-23 14:11:46,466.849,0.148%,
341,2025-01-23 15:38:44,2025-01-23 15:46:30,466.58,0.148%,
342,2025-01-23 17:13:28,2025-01-23 17:21:14,466.252,0.148%,
343,2025-01-23 18:48:12,2025-01-23 18:55:58,465.865,0.148%,
344,2025-01-23 20:22:57,2025-01-23 20:30:42,465.417,0.148%,
345,2025-01-23 21:57:41,2025-01-23 22:05:26,464.903,0.147%,
346,2025-01-23 23:32:30,2025-01-23 23:40:10,460.206,0.146%,
347,2025-01-24 01:07:14,2025-01-24 01:14:54,460.438,0.146%,
348,2025-01-24 02:41:57,2025-01-24 02:49:38,460.612,0.146%,
349,2025-01-24 04:16:41,2025-01-24 04:24:22,460.728,0.146%,
350,2025-01-24 05:51:25,2025-01-24 05:59:06,460.789,0.146%,
351,2025-01-24 07:26:09,2025-01-24 07:33:50,460.792,0.146%,
352,2025-01-24 09:00:53,2025-01-24 09:08:34,460.74,0.146%,
353,2025-01-24 10:35:37,2025-01-24 10:43:18,460.632,0.146%,
354,2025-01-24 12:10:21,2025-01-24 12:18:04,463.01,0.147%,
355,2025-01-24 13:45:05,2025-01-24 13:52:46,460.246,0.146%,
356,2025-01-24 15:19:49,2025-01-24 15:27:29,459.968,0.146%,
357,2025-01-24 16:54:34,2025-01-24 17:02:14,460.051,0.146%,
358,2025-01-24 18:29:18,2025-01-24 18:36:57,459.238,0.146%,
359,2025-01-24 20:04:02,2025-01-24 20:11:45,462.172,0.147%,
360,2025-01-24 21:38:47,2025-01-24 21:46:25,458.258,0.145%,
361,2025-01-24 23:13:36,2025-01-24 23:21:09,453.44,0.144%,
362,2025-01-25 00:48:19,2025-01-25 00:55:59,459.47,0.146%,
363,2025-01-25 02:23:03,2025-01-25 02:30:37,453.822,0.144%,
364,2025-01-25 03:57:47,2025-01-25 04:05:25,458.205,0.145%,
365,2025-01-25 05:32:31,2025-01-25 05:40:05,453.973,0.144%,
366,2025-01-25 07:07:15,2025-01-25 07:14:56,461.236,0.146%,
367,2025-01-25 08:41:59,2025-01-25 08:49:37,458.293,0.145%,
368,2025-01-25 10:16:43,2025-01-25 10:24:17,453.779,0.144%,
369,2025-01-25 11:51:27,2025-01-25 11:59:06,458.801,0.146%,
370,2025-01-25 13:26:11,2025-01-25 13:33:53,461.648,0.146%,
371,2025-01-25 15:00:55,2025-01-25 15:08:37,461.283,0.146%,
372,2025-01-25 16:35:40,2025-01-25 16:43:15,455.845,0.145%,
373,2025-01-25 18:10:24,2025-01-25 18:18:13,469.251,0.149%,
374,2025-01-25 19:45:08,2025-01-25 19:52:57,468.825,0.149%,
375,2025-01-25 21:19:53,2025-01-25 21:27:41,468.334,0.149%,
376,2025-01-25 22:54:37,2025-01-25 23:02:25,467.776,0.148%,
377,2025-01-26 00:29:25,2025-01-26 00:37:09,463.69,0.147%,
378,2025-01-26 02:04:09,2025-01-26 02:11:53,463.883,0.147%,
379,2025-01-26 03:38:53,2025-01-26 03:46:37,464.021,0.147%,
380,2025-01-26 05:13:37,2025-01-26 05:21:21,464.1,0.147%,
381,2025-01-26 06:48:21,2025-01-26 06:56:05,464.129,0.147%,
382,2025-01-26 08:23:05,2025-01-26 08:30:49,464.098,0.147%,
383,2025-01-26 09:57:49,2025-01-26 10:05:33,464.008,0.147%,
384,2025-01-26 11:32:33,2025-01-26 11:40:17,463.869,0.147%,
385,2025-01-26 13:07:17,2025-01-26 13:15:01,463.673,0.147%,
386,2025-01-26 14:42:01,2025-01-26 14:49:45,463.415,0.147%,
387,2025-01-26 16:16:45,2025-01-26 16:24:28,463.105,0.147%,
388,2025-01-26 17:51:30,2025-01-26 17:59:12,462.734,0.147%,
389,2025-01-26 19:26:14,2025-01-26 19:33:56,462.302,0.147%,
390,2025-01-26 21:00:58,2025-01-26 21:08:40,461.805,0.146%,
391,2025-01-26 22:35:43,2025-01-26 22:43:24,461.243,0.146%,
392,2025-01-27 00:10:31,2025-01-27 00:18:11,459.584,0.146%,
393,2025-01-27 01:45:15,2025-01-27 01:52:52,457.225,0.145%,
394,2025-01-27 03:19:59,2025-01-27 03:27:36,457.354,0.145%,
395,2025-01-27 04:54:43,2025-01-27 05:02:20,457.849,0.145%,
396,2025-01-27 06:29:26,2025-01-27 06:37:04,457.445,0.145%,
397,2025-01-27 08:04:10,2025-01-27 08:11:51,460.805,0.146%,
398,2025-01-27 09:38:54,2025-01-27 09:46:32,457.309,0.145%,
399,2025-01-27 11:13:39,2025-01-27 11:21:16,457.157,0.145%,
400,2025-01-27 12:48:23,2025-01-27 12:56:05,462.748,0.147%,
401,2025-01-27 14:23:07,2025-01-27 14:30:44,456.684,0.145%,
402,2025-01-27 15:57:51,2025-01-27 16:05:32,460.643,0.146%,
403,2025-01-27 17:32:35,2025-01-27 17:40:11,455.975,0.145%,
404,2025-01-27 19:07:20,2025-01-27 19:15:03,462.812,0.147%,
405,2025-01-27 20:42:04,2025-01-27 20:49:44,459.403,0.146%,
406,2025-01-27 22:16:49,2025-01-27 22:24:23,454.446,0.144%,
407,2025-01-27 23:51:33,2025-01-27 23:59:12,459.01,0.146%,
408,2025-01-28 01:26:21,2025-01-28 01:33:59,458.562,0.145%,
409,2025-01-28 03:01:05,2025-01-28 03:08:43,458.628,0.145%,
410,2025-01-28 04:35:48,2025-01-28 04:43:22,453.595,0.144%,
411,2025-01-28 06:10:32,2025-01-28 06:18:20,467.405,0.148%,
412,2025-01-28 07:45:16,2025-01-28 07:53:04,467.399,0.148%,
413,2025-01-28 09:20:00,2025-01-28 09:27:48,467.333,0.148%,
414,2025-01-28 10:54:44,2025-01-28 11:02:32,467.211,0.148%,
415,2025-01-28 12:29:29,2025-01-28 12:37:16,467.031,0.148%,
416,2025-01-28 14:04:13,2025-01-28 14:12:00,466.798,0.148%,
417,2025-01-28 15:38:57,2025-01-28 15:46:43,466.512,0.148%,
418,2025-01-28 17:13:41,2025-01-28 17:21:27,466.16,0.148%,
419,2025-01-28 18:48:26,2025-01-28 18:56:11,465.752,0.148%,
420,2025-01-28 20:23:10,2025-01-28 20:30:55,465.279,0.148%,
421,2025-01-28 21:57:55,2025-01-28 22:05:39,464.742,0.147%,
422,2025-01-28 23:32:39,2025-01-28 23:40:23,464.135,0.147%,
423,2025-01-29 01:07:27,2025-01-29 01:15:07,460.546,0.146%,
424,2025-01-29 02:42:10,2025-01-29 02:49:51,460.698,0.146%,
425,2025-01-29 04:16:54,2025-01-29 04:24:35,460.796,0.146%,
426,2025-01-29 05:51:38,2025-01-29 05:59:19,460.834,0.146%,
427,2025-01-29 07:26:22,2025-01-29 07:34:03,460.819,0.146%,
428,2025-01-29 09:01:06,2025-01-29 09:08:47,460.747,0.146%,
429,2025-01-29 10:35:50,2025-01-29 10:43:31,460.619,0.146%,
430,2025-01-29 12:10:34,2025-01-29 12:18:17,462.991,0.147%,
431,2025-01-29 13:45:19,2025-01-29 13:52:59,460.191,0.146%,
432,2025-01-29 15:20:03,2025-01-29 15:27:43,459.895,0.146%,
433,2025-01-29 16:54:47,2025-01-29 17:02:27,459.97,0.146%,
434,2025-01-29 18:29:31,2025-01-29 18:37:11,459.12,0.146%,
435,2025-01-29 20:04:16,2025-01-29 20:11:58,462.049,0.147%,
436,2025-01-29 21:39:00,2025-01-29 21:46:38,458.095,0.145%,
437,2025-01-29 23:13:45,2025-01-29 23:21:22,457.48,0.145%,
438,2025-01-30 00:48:29,2025-01-30 00:48:31,1.564,0.001%,
439,2025-01-30 00:48:32,2025-01-30 00:56:12,459.56,0.146%,
440,2025-01-30 02:23:16,2025-01-30 02:30:50,453.908,0.144%,
441,2025-01-30 03:58:00,2025-01-30 04:05:38,458.286,0.145%,
442,2025-01-30 05:32:44,2025-01-30 05:40:18,454.019,0.144%,
443,2025-01-30 07:07:28,2025-01-30 07:15:09,461.28,0.146%,
444,2025-01-30 08:42:12,2025-01-30 08:49:50,458.27,0.145%,
445,2025-01-30 10:16:56,2025-01-30 10:24:30,453.763,0.144%,
446,2025-01-30 11:51:40,2025-01-30 11:59:19,458.785,0.146%,
447,2025-01-30 13:26:24,2025-01-30 13:34:06,461.572,0.146%,
448,2025-01-30 15:01:09,2025-01-30 15:08:50,461.228,0.146%,
449,2025-01-30 16:35:53,2025-01-30 16:43:29,455.766,0.145%,
450,2025-01-30 18:10:37,2025-01-30 18:18:21,463.442,0.147%,
451,2025-01-30 19:45:22,2025-01-30 19:53:10,468.695,0.149%,
452,2025-01-30 21:20:06,2025-01-30 21:27:54,468.18,0.149%,
453,2025-01-30 22:54:51,2025-01-30 23:02:38,467.597,0.148%,
454,2025-01-31 00:29:35,2025-01-31 00:37:22,466.941,0.148%,
455,2025-01-31 02:04:22,2025-01-31 02:12:06,463.978,0.147%,
456,2025-01-31 03:39:06,2025-01-31 03:46:50,464.093,0.147%,
457,2025-01-31 05:13:50,2025-01-31 05:21:34,464.155,0.147%,
458,2025-01-31 06:48:34,2025-01-31 06:56:18,464.162,0.147%,
459,2025-01-31 08:23:18,2025-01-31 08:31:02,464.112,0.147%,
460,2025-01-31 09:58:02,2025-01-31 10:05:46,464.003,0.147%,
461,2025-01-31 11:32:46,2025-01-31 11:40:30,463.845,0.147%,
462,2025-01-31 13:07:30,2025-01-31 13:15:14,463.628,0.147%,
463,2025-01-31 14:42:14,2025-01-31 14:49:58,463.35,0.147%,
464,2025-01-31 16:16:59,2025-01-31 16:24:42,463.016,0.147%,
465,2025-01-31 17:51:43,2025-01-31 17:59:26,462.625,0.147%,
466,2025-01-31 19:26:27,2025-01-31 19:34:10,462.171,0.147%,
467,2025-01-31 21:01:12,2025-01-31 21:08:53,461.651,0.146%,
468,2025-01-31 22:35:56,2025-01-31 22:43:37,461.064,0.146%,
469,2025-02-01 00:10:41,2025-02-01 00:18:24,462.966,0.147%,
470,2025-02-01 01:45:28,2025-02-01 01:53:05,457.316,0.145%,
471,2025-02-01 03:20:12,2025-02-01 03:27:49,457.425,0.145%,
472,2025-02-01 04:54:56,2025-02-01 05:02:34,457.918,0.145%,
473,2025-02-01 06:29:40,2025-02-01 06:37:17,457.477,0.145%,
474,2025-02-01 08:04:24,2025-02-01 08:12:04,460.833,0.146%,
475,2025-02-01 09:39:08,2025-02-01 09:46:45,457.301,0.145%,
476,2025-02-01 11:13:52,2025-02-01 11:21:29,457.129,0.145%,
477,2025-02-01 12:48:36,2025-02-01 12:56:19,462.684,0.147%,
478,2025-02-01 14:23:20,2025-02-01 14:30:57,456.615,0.145%,
479,2025-02-01 15:58:04,2025-02-01 16:05:45,460.573,0.146%,
480,2025-02-01 17:32:49,2025-02-01 17:40:25,455.862,0.145%,
481,2025-02-01 19:07:33,2025-02-01 19:15:16,462.698,0.147%,
482,2025-02-01 20:42:18,2025-02-01 20:49:57,459.219,0.146%,
483,2025-02-01 22:17:02,2025-02-01 22:24:36,454.264,0.144%,
484,2025-02-01 23:51:47,2025-02-01 23:59:26,458.823,0.146%,
485,2025-02-02 01:26:31,2025-02-02 01:34:12,461.099,0.146%,
486,2025-02-02 03:01:18,2025-02-02 03:08:56,458.717,0.146%,
487,2025-02-02 04:36:02,2025-02-02 04:43:35,453.664,0.144%,
488,2025-02-02 06:10:45,2025-02-02 06:18:16,450.482,0.143%,
489,2025-02-02 06:18:18,2025-02-02 06:18:27,9.66,0.003%,
490,2025-02-02 07:45:29,2025-02-02 07:53:17,467.419,0.148%,
491,2025-02-02 09:20:14,2025-02-02 09:28:01,467.334,0.148%,
492,2025-02-02 10:54:58,2025-02-02 11:02:45,467.193,0.148%,
493,2025-02-02 12:29:42,2025-02-02 12:37:29,466.994,0.148%,
494,2025-02-02 14:04:26,2025-02-02 14:12:13,466.739,0.148%,
495,2025-02-02 15:39:10,2025-02-02 15:46:57,466.432,0.148%,
496,2025-02-02 17:13:55,2025-02-02 17:21:41,466.06,0.148%,
497,2025-02-02 18:48:39,2025-02-02 18:56:25,465.628,0.148%,
498,2025-02-02 20:23:23,2025-02-02 20:31:09,465.133,0.148%,
499,2025-02-02 21:58:08,2025-02-02 22:05:52,464.572,0.147%,
500,2025-02-02 23:32:52,2025-02-02 23:40:36,463.939,0.147%,
501,2025-02-03 01:07:37,2025-02-03 01:15:20,463.228,0.147%,
502,2025-02-03 02:42:24,2025-02-03 02:50:04,460.777,0.146%,
503,2025-02-03 04:17:07,2025-02-03 04:24:48,460.854,0.146%,
504,2025-02-03 05:51:51,2025-02-03 05:59:32,460.872,0.146%,
505,2025-02-03 07:26:35,2025-02-03 07:34:16,460.838,0.146%,
506,2025-02-03 09:01:19,2025-02-03 09:09:00,460.747,0.146%,
507,2025-02-03 10:36:03,2025-02-03 10:43:44,460.599,0.146%,
508,2025-02-03 12:10:48,2025-02-03 12:18:31,462.963,0.147%,
509,2025-02-03 13:45:32,2025-02-03 13:53:12,460.131,0.146%,
510,2025-02-03 15:20:16,2025-02-03 15:27:56,459.814,0.146%,
511,2025-02-03 16:55:00,2025-02-03 17:02:40,459.884,0.146%,
512,2025-02-03 18:29:45,2025-02-03 18:37:24,458.996,0.146%,
513,2025-02-03 20:04:29,2025-02-03 20:12:11,461.918,0.147%,
514,2025-02-03 21:39:14,2025-02-03 21:46:52,457.924,0.145%,
515,2025-02-03 23:13:58,2025-02-03 23:21:36,457.283,0.145%,
516,2025-02-04 00:48:43,2025-02-04 00:56:25,462.339,0.147%,
517,2025-02-04 02:23:29,2025-02-04 02:31:03,453.985,0.144%,
518,2025-02-04 03:58:13,2025-02-04 04:05:52,458.36,0.145%,
519,2025-02-04 05:32:57,2025-02-04 05:40:31,454.058,0.144%,
520,2025-02-04 07:07:41,2025-02-04 07:15:22,461.315,0.146%,
521,2025-02-04 08:42:25,2025-02-04 08:50:03,458.241,0.145%,
522,2025-02-04 10:17:09,2025-02-04 10:24:43,453.74,0.144%,
523,2025-02-04 11:51:53,2025-02-04 11:59:32,458.759,0.146%,
524,2025-02-04 13:26:38,2025-02-04 13:34:19,461.493,0.146%,
525,2025-02-04 15:01:22,2025-02-04 15:09:03,461.165,0.146%,
526,2025-02-04 16:36:06,2025-02-04 16:43:42,455.682,0.145%,
527,2025-02-04 18:10:51,2025-02-04 18:18:23,452.056,0.143%,
528,2025-02-04 18:18:33,2025-02-04 18:18:34,1.099,0.000%,
529,2025-02-04 19:45:35,2025-02-04 19:53:23,468.557,0.149%,
530,2025-02-04 21:20:19,2025-02-04 21:28:07,468.018,0.148%,
531,2025-02-04 22:55:04,2025-02-04 23:02:51,467.411,0.148%,
532,2025-02-05 00:29:49,2025-02-05 00:37:35,466.726,0.148%,
533,2025-02-05 02:04:35,2025-02-05 02:12:19,464.064,0.147%,
534,2025-02-05 03:39:19,2025-02-05 03:47:03,464.159,0.147%,
535,2025-02-05 05:14:03,2025-02-05 05:21:47,464.204,0.147%,
536,2025-02-05 06:48:47,2025-02-05 06:56:31,464.189,0.147%,
537,2025-02-05 08:23:31,2025-02-05 08:31:15,464.119,0.147%,
538,2025-02-05 09:58:15,2025-02-05 10:05:59,463.991,0.147%,
539,2025-02-05 11:32:59,2025-02-05 11:40:43,463.812,0.147%,
540,2025-02-05 13:07:43,2025-02-05 13:15:27,463.573,0.147%,
541,2025-02-05 14:42:28,2025-02-05 14:50:11,463.277,0.147%,
542,2025-02-05 16:17:12,2025-02-05 16:24:55,462.923,0.147%,
543,2025-02-05 17:51:56,2025-02-05 17:59:39,462.51,0.147%,
544,2025-02-05 19:26:41,2025-02-05 19:34:23,462.032,0.147%,
545,2025-02-05 21:01:25,2025-02-05 21:09:07,461.489,0.146%,
546,2025-02-05 22:36:10,2025-02-05 22:43:51,460.877,0.146%,
547,2025-02-06 00:10:54,2025-02-06 00:18:35,460.19,0.146%,
548,2025-02-06 01:45:39,2025-02-06 01:53:19,459.422,0.146%,
549,2025-02-06 03:20:25,2025-02-06 03:28:02,457.489,0.145%,
550,2025-02-06 04:55:09,2025-02-06 05:02:47,457.98,0.145%,
551,2025-02-06 06:29:53,2025-02-06 06:37:30,457.502,0.145%,
552,2025-02-06 08:04:37,2025-02-06 08:12:18,460.854,0.146%,
553,2025-02-06 09:39:21,2025-02-06 09:46:58,457.287,0.145%,
554,2025-02-06 11:14:05,2025-02-06 11:21:42,457.095,0.145%,
555,2025-02-06 12:48:49,2025-02-06 12:56:32,462.612,0.147%,
556,2025-02-06 14:23:33,2025-02-06 14:31:10,456.541,0.145%,
557,2025-02-06 15:58:18,2025-02-06 16:05:58,460.492,0.146%,
558,2025-02-06 17:33:02,2025-02-06 17:40:38,455.746,0.145%,
559,2025-02-06 19:07:46,2025-02-06 19:15:29,462.575,0.147%,
560,2025-02-06 20:42:31,2025-02-06 20:50:10,459.03,0.146%,
561,2025-02-06 22:17:16,2025-02-06 22:24:50,454.076,0.144%,
562,2025-02-06 23:52:00,2025-02-06 23:59:39,458.624,0.145%,
563,2025-02-07 01:26:45,2025-02-07 01:34:26,460.84,0.146%,
564,2025-02-07 03:01:31,2025-02-07 03:09:10,458.799,0.146%,
565,2025-02-07 04:36:15,2025-02-07 04:43:48,453.725,0.144%,
566,2025-02-07 06:10:59,2025-02-07 06:18:29,450.503,0.143%,
567,2025-02-07 07:45:43,2025-02-07 07:53:30,467.433,0.148%,
568,2025-02-07 09:20:27,2025-02-07 09:28:14,467.328,0.148%,
569,2025-02-07 10:55:11,2025-02-07 11:02:58,467.168,0.148%,
570,2025-02-07 12:29:55,2025-02-07 12:37:42,466.947,0.148%,
571,2025-02-07 14:04:39,2025-02-07 14:12:26,466.674,0.148%,
572,2025-02-07 15:39:24,2025-02-07 15:47:10,466.346,0.148%,
573,2025-02-07 17:14:08,2025-02-07 17:21:54,465.95,0.148%,
574,2025-02-07 18:48:52,2025-02-07 18:56:38,465.498,0.148%,
575,2025-02-07 20:23:37,2025-02-07 20:31:22,464.98,0.147%,
576,2025-02-07 21:58:21,2025-02-07 22:06:06,464.394,0.147%,
577,2025-02-07 23:33:06,2025-02-07 23:40:50,463.735,0.147%,
578,2025-02-08 01:07:51,2025-02-08 01:15:34,462.996,0.147%,
579,2025-02-08 02:42:37,2025-02-08 02:50:18,460.849,0.146%,
580,2025-02-08 04:17:21,2025-02-08 04:25:01,460.907,0.146%,
581,2025-02-08 05:52:05,2025-02-08 05:59:45,460.903,0.146%,
582,2025-02-08 07:26:48,2025-02-08 07:34:29,460.852,0.146%,
583,2025-02-08 09:01:33,2025-02-08 09:09:13,460.74,0.146%,
584,2025-02-08 10:36:17,2025-02-08 10:43:57,460.573,0.146%,
585,2025-02-08 12:11:01,2025-02-08 12:18:41,460.345,0.146%,
586,2025-02-08 13:45:45,2025-02-08 13:53:25,460.065,0.146%,
587,2025-02-08 15:20:29,2025-02-08 15:28:09,459.725,0.146%,
588,2025-02-08 16:55:14,2025-02-08 17:02:53,459.788,0.146%,
589,2025-02-08 18:29:58,2025-02-08 18:37:37,458.866,0.146%,
590,2025-02-08 20:04:43,2025-02-08 20:12:24,461.779,0.146%,
591,2025-02-08 21:39:27,2025-02-08 21:47:05,457.745,0.145%,
592,2025-02-08 23:14:12,2025-02-08 23:21:49,457.078,0.145%,
593,2025-02-09 00:48:56,2025-02-09 00:56:38,462.089,0.147%,
594,2025-02-09 02:23:43,2025-02-09 02:31:17,454.054,0.144%,
595,2025-02-09 03:58:26,2025-02-09 04:06:05,458.427,0.145%,
596,2025-02-09 05:33:10,2025-02-09 05:40:44,454.088,0.144%,
597,2025-02-09 07:07:54,2025-02-09 07:15:36,461.344,0.146%,
598,2025-02-09 08:42:38,2025-02-09 08:50:17,458.207,0.145%,
599,2025-02-09 10:17:22,2025-02-09 10:24:56,453.71,0.144%,
600,2025-02-09 11:52:07,2025-02-09 11:59:45,458.726,0.146%,
601,2025-02-09 13:26:51,2025-02-09 13:34:32,461.407,0.146%,
602,2025-02-09 15:01:35,2025-02-09 15:09:16,461.095,0.146%,
603,2025-02-09 16:36:19,2025-02-09 16:43:55,455.588,0.145%,
604,2025-02-09 18:11:04,2025-02-09 18:18:36,451.92,0.143%,
605,2025-02-09 19:45:48,2025-02-09 19:53:37,468.411,0.149%,
606,2025-02-09 21:20:33,2025-02-09 21:28:21,467.848,0.148%,
607,2025-02-09 22:55:17,2025-02-09 23:03:05,467.215,0.148%,
608,2025-02-10 00:30:02,2025-02-10 00:37:49,466.503,0.148%,
609,2025-02-10 02:04:48,2025-02-10 02:12:33,464.143,0.147%,
610,2025-02-10 03:39:32,2025-02-10 03:47:16,464.218,0.147%,
611,2025-02-10 05:14:16,2025-02-10 05:22:00,464.244,0.147%,
612,2025-02-10 06:49:00,2025-02-10 06:56:44,464.209,0.147%,
613,2025-02-10 08:23:44,2025-02-10 08:31:28,464.12,0.147%,
614,2025-02-10 09:58:28,2025-02-10 10:06:12,463.974,0.147%,
615,2025-02-10 11:33:12,2025-02-10 11:40:56,463.773,0.147%,
616,2025-02-10 13:07:57,2025-02-10 13:15:40,463.511,0.147%,
617,2025-02-10 14:42:41,2025-02-10 14:50:24,463.198,0.147%,
618,2025-02-10 16:17:25,2025-02-10 16:25:08,462.823,0.147%,
619,2025-02-10 17:52:10,2025-02-10 17:59:52,462.386,0.147%,
620,2025-02-10 19:26:54,2025-02-10 19:34:36,461.886,0.147%,
621,2025-02-10 21:01:39,2025-02-10 21:09:20,461.319,0.146%,
622,2025-02-10 22:36:23,2025-02-10 22:44:04,460.681,0.146%,
623,2025-02-11 00:11:08,2025-02-11 00:18:48,459.967,0.146%,
624,2025-02-11 00:18:48,2025-02-11 00:18:50,2.082,0.001%,
625,2025-02-11 01:45:53,2025-02-11 01:53:32,459.166,0.146%,
626,2025-02-11 03:20:38,2025-02-11 03:28:16,457.547,0.145%,
627,2025-02-11 04:55:22,2025-02-11 05:03:00,458.033,0.145%,
628,2025-02-11 06:30:06,2025-02-11 06:37:44,457.52,0.145%,
629,2025-02-11 08:04:50,2025-02-11 08:12:31,460.868,0.146%,
630,2025-02-11 09:39:34,2025-02-11 09:47:11,457.265,0.145%,
631,2025-02-11 11:14:18,2025-02-11 11:21:55,457.053,0.145%,
632,2025-02-11 12:49:02,2025-02-11 12:56:45,462.532,0.147%,
633,2025-02-11 14:23:47,2025-02-11 14:31:23,456.456,0.145%,
634,2025-02-11 15:58:31,2025-02-11 16:06:11,460.407,0.146%,
635,2025-02-11 17:33:15,2025-02-11 17:40:51,455.62,0.145%,
636,2025-02-11 19:08:00,2025-02-11 19:15:42,462.445,0.147%,
637,2025-02-11 20:42:44,2025-02-11 20:50:23,458.83,0.146%,
638,2025-02-11 22:17:29,2025-02-11 22:25:03,453.877,0.144%,
639,2025-02-11 23:52:14,2025-02-11 23:59:52,458.417,0.145%,
640,2025-02-12 01:26:58,2025-02-12 01:34:39,460.563,0.146%,
641,2025-02-12 03:01:44,2025-02-12 03:09:23,458.874,0.146%,
642,2025-02-12 04:36:28,2025-02-12 04:44:02,453.779,0.144%,
643,2025-02-12 06:11:12,2025-02-12 06:18:42,450.517,0.143%,
644,2025-02-12 06:18:48,2025-02-12 06:18:54,5.983,0.002%,
645,2025-02-12 07:45:56,2025-02-12 07:53:43,467.44,0.148%,
646,2025-02-12 09:20:40,2025-02-12 09:28:27,467.315,0.148%,
647,2025-02-12 10:55:24,2025-02-12 11:03:11,467.135,0.148%,
648,2025-02-12 12:30:08,2025-02-12 12:37:55,466.894,0.148%,
649,2025-02-12 14:04:53,2025-02-12 14:12:39,466.602,0.148%,
650,2025-02-12 15:39:37,2025-02-12 15:47:23,466.252,0.148%,
651,2025-02-12 17:14:21,2025-02-12 17:22:07,465.836,0.148%,
652,2025-02-12 18:49:06,2025-02-12 18:56:51,465.36,0.148%,
653,2025-02-12 20:23:50,2025-02-12 20:31:35,464.818,0.147%,
654,2025-02-12 21:58:35,2025-02-12 22:06:19,464.206,0.147%,
655,2025-02-12 23:33:19,2025-02-12 23:41:03,463.517,0.147%,
656,2025-02-13 01:08:04,2025-02-13 01:15:47,462.75,0.147%,
657,2025-02-13 02:42:50,2025-02-13 02:50:31,460.914,0.146%,
658,2025-02-13 04:17:34,2025-02-13 04:25:15,460.949,0.146%,
659,2025-02-13 05:52:18,2025-02-13 05:59:59,460.93,0.146%,
660,2025-02-13 07:27:02,2025-02-13 07:34:43,460.857,0.146%,
661,2025-02-13 09:01:46,2025-02-13 09:09:26,460.726,0.146%,
662,2025-02-13 10:36:30,2025-02-13 10:44:10,460.539,0.146%,
663,2025-02-13 12:11:14,2025-02-13 12:18:57,462.889,0.147%,
664,2025-02-13 13:45:58,2025-02-13 13:53:38,459.991,0.146%,
665,2025-02-13 15:20:43,2025-02-13 15:28:22,459.63,0.146%,
666,2025-02-13 16:55:27,2025-02-13 17:03:07,459.687,0.146%,
667,2025-02-13 18:30:11,2025-02-13 18:37:50,458.724,0.146%,
668,2025-02-13 20:04:56,2025-02-13 20:12:38,461.631,0.146%,
669,2025-02-13 21:39:40,2025-02-13 21:47:18,457.555,0.145%,
670,2025-02-13 23:14:25,2025-02-13 23:22:02,456.858,0.145%,
671,2025-02-14 00:49:10,2025-02-14 00:56:52,461.823,0.146%,
672,2025-02-14 02:23:56,2025-02-14 02:31:30,454.116,0.144%,
673,2025-02-14 03:58:40,2025-02-14 04:06:18,458.489,0.145%,
674,2025-02-14 05:33:24,2025-02-14 05:40:58,454.11,0.144%,
675,2025-02-14 07:08:08,2025-02-14 07:15:49,461.366,0.146%,
676,2025-02-14 08:42:52,2025-02-14 08:50:30,458.158,0.145%,
677,2025-02-14 10:17:36,2025-02-14 10:25:09,453.673,0.144%,
678,2025-02-14 11:52:20,2025-02-14 11:59:59,458.689,0.145%,
679,2025-02-14 13:27:04,2025-02-14 13:34:45,461.31,0.146%,
680,2025-02-14 15:01:48,2025-02-14 15:09:29,461.015,0.146%,
681,2025-02-14 16:36:33,2025-02-14 16:44:08,455.489,0.144%,
682,2025-02-14 18:11:17,2025-02-14 18:19:00,463.101,0.147%,
683,2025-02-14 19:46:02,2025-02-14 19:53:50,468.256,0.149%,
684,2025-02-14 21:20:46,2025-02-14 21:28:34,467.668,0.148%,
685,2025-02-14 22:55:31,2025-02-14 23:03:18,467.01,0.148%,
686,2025-02-15 00:30:15,2025-02-15 00:38:02,466.268,0.148%,
687,2025-02-15 02:05:02,2025-02-15 02:12:46,464.214,0.147%,
688,2025-02-15 03:39:45,2025-02-15 03:47:30,464.273,0.147%,
689,2025-02-15 05:14:29,2025-02-15 05:22:14,464.276,0.147%,
690,2025-02-15 06:49:13,2025-02-15 06:56:58,464.222,0.147%,
691,2025-02-15 08:23:57,2025-02-15 08:31:42,464.113,0.147%,
692,2025-02-15 09:58:42,2025-02-15 10:06:25,463.947,0.147%,
693,2025-02-15 11:33:26,2025-02-15 11:41:09,463.727,0.147%,
694,2025-02-15 13:08:10,2025-02-15 13:15:53,463.445,0.147%,
695,2025-02-15 14:42:54,2025-02-15 14:50:37,463.108,0.147%,
696,2025-02-15 16:17:39,2025-02-15 16:25:21,462.713,0.147%,
697,2025-02-15 17:52:23,2025-02-15 18:00:05,462.254,0.147%,
698,2025-02-15 19:27:07,2025-02-15 19:34:49,461.731,0.146%,
699,2025-02-15 21:01:52,2025-02-15 21:09:33,461.139,0.146%,
700,2025-02-15 22:36:37,2025-02-15 22:44:17,460.475,0.146%,
701,2025-02-16 00:11:21,2025-02-16 00:19:04,462.334,0.147%,
702,2025-02-16 01:46:07,2025-02-16 01:53:45,457.551,0.145%,
703,2025-02-16 03:20:51,2025-02-16 03:28:29,457.6,0.145%,
704,2025-02-16 04:55:35,2025-02-16 05:03:13,458.079,0.145%,
705,2025-02-16 06:30:19,2025-02-16 06:37:57,457.531,0.145%,
706,2025-02-16 08:05:03,2025-02-16 08:12:44,460.875,0.146%,
707,2025-02-16 09:39:47,2025-02-16 09:47:25,457.237,0.145%,
708,2025-02-16 11:14:32,2025-02-16 11:22:09,457.003,0.145%,
709,2025-02-16 12:49:16,2025-02-16 12:56:58,462.445,0.147%,
710,2025-02-16 14:24:00,2025-02-16 14:31:36,456.363,0.145%,
711,2025-02-16 15:58:44,2025-02-16 16:06:25,460.311,0.146%,
712,2025-02-16 17:33:29,2025-02-16 17:41:04,455.485,0.144%,
713,2025-02-16 19:08:13,2025-02-16 19:15:55,462.306,0.147%,
714,2025-02-16 20:42:58,2025-02-16 20:50:36,458.617,0.145%,
715,2025-02-16 22:17:42,2025-02-16 22:25:16,453.668,0.144%,
716,2025-02-16 23:52:27,2025-02-17 00:00:05,458.2,0.145%,
717,2025-02-17 01:27:13,2025-02-17 01:34:52,458.806,0.146%,
718,2025-02-17 03:01:57,2025-02-17 03:09:36,458.941,0.146%,
719,2025-02-17 04:36:41,2025-02-17 04:44:15,453.827,0.144%,
720,2025-02-17 06:11:25,2025-02-17 06:19:07,461.86,0.147%,
721,2025-02-17 06:19:10,2025-02-17 06:19:13,2.612,0.001%,
722,2025-02-17 07:46:09,2025-02-17 07:53:57,467.44,0.148%,
723,2025-02-17 09:20:53,2025-02-17 09:28:40,467.296,0.148%,
724,2025-02-17 10:55:37,2025-02-17 11:03:24,467.093,0.148%,
725,2025-02-17 12:30:22,2025-02-17 12:38:08,466.835,0.148%,
726,2025-02-17 14:05:06,2025-02-17 14:12:52,466.522,0.148%,
727,2025-02-17 15:39:50,2025-02-17 15:47:36,466.15,0.148%,
728,2025-02-17 17:14:35,2025-02-17 17:22:20,465.711,0.148%,
729,2025-02-17 18:49:19,2025-02-17 18:57:04,465.213,0.148%,
730,2025-02-17 20:24:03,2025-02-17 20:31:48,464.647,0.147%,
731,2025-02-17 21:58:48,2025-02-17 22:06:32,464.01,0.147%,
732,2025-02-17 23:33:33,2025-02-17 23:41:16,463.293,0.147%,
733,2025-02-18 01:08:19,2025-02-18 01:16:00,460.901,0.146%,
734,2025-02-18 02:43:03,2025-02-18 02:50:44,460.971,0.146%,
735,2025-02-18 04:17:47,2025-02-18 04:25:28,460.988,0.146%,
736,2025-02-18 05:52:31,2025-02-18 06:00:12,460.949,0.146%,
737,2025-02-18 07:27:15,2025-02-18 07:34:56,460.856,0.146%,
738,2025-02-18 09:01:59,2025-02-18 09:09:40,460.706,0.146%,
739,2025-02-18 10:36:43,2025-02-18 10:44:24,460.496,0.146%,
740,2025-02-18 12:11:27,2025-02-18 12:19:10,462.842,0.147%,
741,2025-02-18 13:46:12,2025-02-18 13:53:52,459.91,0.146%,
742,2025-02-18 15:20:56,2025-02-18 15:28:35,459.528,0.146%,
743,2025-02-18 16:55:40,2025-02-18 17:03:20,459.576,0.146%,
744,2025-02-18 18:30:25,2025-02-18 18:38:03,458.576,0.145%,
745,2025-02-18 20:05:09,2025-02-18 20:12:51,461.474,0.146%,
746,2025-02-18 21:39:54,2025-02-18 21:47:31,457.358,0.145%,
747,2025-02-18 23:14:38,2025-02-18 23:22:15,456.633,0.145%,
748,2025-02-19 00:49:25,2025-02-19 00:57:05,459.837,0.146%,
749,2025-02-19 02:24:09,2025-02-19 02:31:43,454.172,0.144%,
750,2025-02-19 03:58:53,2025-02-19 04:06:31,458.545,0.145%,
751,2025-02-19 05:33:37,2025-02-19 05:41:11,454.126,0.144%,
752,2025-02-19 07:08:21,2025-02-19 07:16:02,461.378,0.146%,
753,2025-02-19 08:43:05,2025-02-19 08:50:43,458.108,0.145%,
754,2025-02-19 10:17:49,2025-02-19 10:25:23,453.629,0.144%,
755,2025-02-19 11:52:33,2025-02-19 12:00:12,458.645,0.145%,
756,2025-02-19 13:27:17,2025-02-19 13:34:59,461.209,0.146%,
757,2025-02-19 15:02:02,2025-02-19 15:09:43,460.931,0.146%,
758,2025-02-19 16:36:46,2025-02-19 16:44:21,455.381,0.144%,
759,2025-02-19 18:11:31,2025-02-19 18:19:19,468.636,0.149%,
760,2025-02-19 19:46:15,2025-02-19 19:54:03,468.094,0.148%,
761,2025-02-19 21:21:00,2025-02-19 21:28:47,467.48,0.148%,
762,2025-02-19 22:55:44,2025-02-19 23:03:31,466.791,0.148%,
763,2025-02-20 00:30:31,2025-02-20 00:38:15,464.187,0.147%,
764,2025-02-20 02:05:15,2025-02-20 02:12:59,464.279,0.147%,
765,2025-02-20 03:39:59,2025-02-20 03:47:43,464.319,0.147%,
766,2025-02-20 05:14:43,2025-02-20 05:22:27,464.302,0.147%,
767,2025-02-20 06:49:27,2025-02-20 06:57:11,464.228,0.147%,
768,2025-02-20 08:24:11,2025-02-20 08:31:55,464.099,0.147%,
769,2025-02-20 09:58:55,2025-02-20 10:06:39,463.915,0.147%,
770,2025-02-20 11:33:39,2025-02-20 11:41:23,463.674,0.147%,
771,2025-02-20 13:08:23,2025-02-20 13:16:07,463.372,0.147%,
772,2025-02-20 14:43:08,2025-02-20 14:50:51,463.014,0.147%,
773,2025-02-20 16:17:52,2025-02-20 16:25:34,462.597,0.147%,
774,2025-02-20 17:52:36,2025-02-20 18:00:18,462.115,0.147%,
775,2025-02-20 19:27:21,2025-02-20 19:35:02,461.568,0.146%,
776,2025-02-20 21:02:05,2025-02-20 21:09:46,460.951,0.146%,
777,2025-02-20 22:36:50,2025-02-20 22:44:30,460.257,0.146%,
778,2025-02-21 00:11:37,2025-02-21 00:19:17,460.15,0.146%,
779,2025-02-21 01:46:20,2025-02-21 01:53:58,457.617,0.145%,
780,2025-02-21 03:21:04,2025-02-21 03:28:42,457.645,0.145%,
781,2025-02-21 04:55:48,2025-02-21 05:03:26,458.117,0.145%,
782,2025-02-21 06:30:32,2025-02-21 06:38:10,457.535,0.145%,
783,2025-02-21 08:05:16,2025-02-21 08:12:57,460.875,0.146%,
784,2025-02-21 09:40:01,2025-02-21 09:47:38,457.202,0.145%,
785,2025-02-21 11:14:45,2025-02-21 11:22:22,456.945,0.145%,
786,2025-02-21 12:49:29,2025-02-21 12:57:11,462.355,0.147%,
787,2025-02-21 14:24:13,2025-02-21 14:31:50,456.267,0.145%,
788,2025-02-21 15:58:58,2025-02-21 16:06:38,460.212,0.146%,
789,2025-02-21 17:33:42,2025-02-21 17:41:17,455.344,0.144%,
790,2025-02-21 19:08:27,2025-02-21 19:16:09,462.159,0.147%,
791,2025-02-21 20:43:11,2025-02-21 20:50:50,458.404,0.145%,
792,2025-02-21 22:17:56,2025-02-21 22:25:29,453.448,0.144%,
793,2025-02-21 23:52:42,2025-02-22 00:00:18,455.898,0.145%,
794,2025-02-22 01:27:26,2025-02-22 01:35:05,458.851,0.146%,
795,2025-02-22 03:02:10,2025-02-22 03:09:49,459.002,0.146%,
796,2025-02-22 04:36:54,2025-02-22 04:44:28,453.867,0.144%,
797,2025-02-22 06:11:38,2025-02-22 06:19:26,467.542,0.148%,
798,2025-02-22 07:46:22,2025-02-22 07:54:10,467.433,0.148%,
799,2025-02-22 09:21:06,2025-02-22 09:28:54,467.269,0.148%,
800,2025-02-22 10:55:51,2025-02-22 11:03:38,467.045,0.148%,
801,2025-02-22 12:30:35,2025-02-22 12:38:22,466.769,0.148%,
802,2025-02-22 14:05:19,2025-02-22 14:13:06,466.433,0.148%,
803,2025-02-22 15:40:03,2025-02-22 15:47:49,466.037,0.148%,
804,2025-02-22 17:14:48,2025-02-22 17:22:33,465.581,0.148%,
805,2025-02-22 18:49:32,2025-02-22 18:57:17,465.058,0.148%,
806,2025-02-22 20:24:17,2025-02-22 20:32:01,464.468,0.147%,
807,2025-02-22 21:59:01,2025-02-22 22:06:45,463.802,0.147%,
808,2025-02-22 23:33:48,2025-02-22 23:41:29,460.865,0.146%,
809,2025-02-23 01:08:32,2025-02-23 01:16:13,460.972,0.146%,
810,2025-02-23 02:43:16,2025-02-23 02:50:57,461.025,0.146%,
811,2025-02-23 04:18:00,2025-02-23 04:25:41,461.019,0.146%,
812,2025-02-23 05:52:44,2025-02-23 06:00:25,460.961,0.146%,
813,2025-02-23 07:27:28,2025-02-23 07:35:09,460.849,0.146%,
814,2025-02-23 09:02:12,2025-02-23 09:09:53,460.678,0.146%,
815,2025-02-23 10:36:56,2025-02-23 10:44:37,460.447,0.146%,
816,2025-02-23 12:11:41,2025-02-23 12:19:24,463.461,0.147%,
817,2025-02-23 13:46:25,2025-02-23 13:54:05,459.819,0.146%,
818,2025-02-23 15:21:09,2025-02-23 15:28:49,459.418,0.146%,
819,2025-02-23 16:55:54,2025-02-23 17:03:33,459.458,0.146%,
820,2025-02-23 18:30:38,2025-02-23 18:38:17,458.421,0.145%,
821,2025-02-23 20:05:23,2025-02-23 20:13:04,461.308,0.146%,
822,2025-02-23 21:40:07,2025-02-23 21:47:44,457.15,0.145%,
823,2025-02-23 23:14:54,2025-02-23 23:22:35,460.556,0.146%,
824,2025-02-24 00:49:38,2025-02-24 00:57:18,459.889,0.146%,
825,2025-02-24 02:24:22,2025-02-24 02:31:56,454.223,0.144%,
826,2025-02-24 03:59:06,2025-02-24 04:06:44,458.591,0.145%,
827,2025-02-24 05:33:50,2025-02-24 05:41:24,454.135,0.144%,
828,2025-02-24 07:08:34,2025-02-24 07:16:15,461.386,0.146%,
829,2025-02-24 08:43:18,2025-02-24 08:50:56,458.056,0.145%,
830,2025-02-24 10:18:02,2025-02-24 10:25:36,453.578,0.144%,
831,2025-02-24 11:52:46,2025-02-24 12:00:25,458.593,0.145%,
832,2025-02-24 13:27:31,2025-02-24 13:35:12,461.101,0.146%,
833,2025-02-24 15:02:15,2025-02-24 15:09:56,460.836,0.146%,
834,2025-02-24 16:36:59,2025-02-24 16:44:48,468.989,0.149%,
835,2025-02-24 18:11:44,2025-02-24 18:19:32,468.489,0.149%,
836,2025-02-24 19:46:28,2025-02-24 19:54:16,467.922,0.148%,
837,2025-02-24 21:21:13,2025-02-24 21:29:00,467.283,0.148%,
838,2025-02-24 22:56:00,2025-02-24 23:03:44,464.136,0.147%,
839,2025-02-25 00:30:44,2025-02-25 00:38:28,464.265,0.147%,
840,2025-02-25 02:05:28,2025-02-25 02:13:12,464.337,0.147%,
841,2025-02-25 03:40:12,2025-02-25 03:47:56,464.359,0.147%,
842,2025-02-25 05:14:56,2025-02-25 05:22:40,464.321,0.147%,
843,2025-02-25 06:49:40,2025-02-25 06:57:24,464.228,0.147%,
844,2025-02-25 08:24:24,2025-02-25 08:32:08,464.079,0.147%,
845,2025-02-25 09:59:08,2025-02-25 10:06:52,463.874,0.147%,
846,2025-02-25 11:33:52,2025-02-25 11:41:36,463.613,0.147%,
847,2025-02-25 13:08:36,2025-02-25 13:16:20,463.291,0.147%,
848,2025-02-25 14:43:21,2025-02-25 14:51:04,462.911,0.147%,
849,2025-02-25 16:18:05,2025-02-25 16:25:48,462.472,0.147%,
850,2025-02-25 17:52:50,2025-02-25 18:00:32,461.968,0.147%,
851,2025-02-25 19:27:34,2025-02-25 19:35:16,461.396,0.146%,
852,2025-02-25 21:02:19,2025-02-25 21:02:19,0.118,0.000%,
853,2025-02-25 21:02:22,2025-02-25 21:09:59,457.304,0.145%,
854,2025-02-25 22:37:06,2025-02-25 22:44:43,457.483,0.145%,
855,2025-02-26 00:11:50,2025-02-26 00:19:31,460.897,0.146%,
856,2025-02-26 01:46:34,2025-02-26 01:54:11,457.674,0.145%,
857,2025-02-26 03:21:18,2025-02-26 03:28:55,457.683,0.145%,
858,2025-02-26 04:56:02,2025-02-26 05:03:40,458.149,0.145%,
859,2025-02-26 06:30:46,2025-02-26 06:38:23,457.533,0.145%,
860,2025-02-26 08:05:30,2025-02-26 08:13:11,460.868,0.146%,
861,2025-02-26 09:40:14,2025-02-26 09:47:51,457.157,0.145%,
862,2025-02-26 11:14:58,2025-02-26 11:22:41,463.361,0.147%,
863,2025-02-26 12:49:42,2025-02-26 12:57:25,462.251,0.147%,
864,2025-02-26 14:24:27,2025-02-26 14:32:03,456.163,0.145%,
865,2025-02-26 15:59:11,2025-02-26 16:06:51,460.102,0.146%,
866,2025-02-26 17:33:55,2025-02-26 17:41:31,455.194,0.144%,
867,2025-02-26 19:08:40,2025-02-26 19:16:22,462.003,0.147%,
868,2025-02-26 20:43:28,2025-02-26 20:51:03,454.612,0.144%,
869,2025-02-26 22:18:12,2025-02-26 22:25:42,450.555,0.143%,
870,2025-02-26 23:52:56,2025-02-27 00:00:32,455.99,0.145%,
871,2025-02-27 01:27:39,2025-02-27 01:35:18,458.886,0.146%,
872,2025-02-27 03:02:23,2025-02-27 03:10:02,459.052,0.146%,
873,2025-02-27 03:10:05,2025-02-27 03:10:11,6.215,0.002%,
874,2025-02-27 04:37:07,2025-02-27 04:44:55,467.621,0.148%,
875,2025-02-27 06:11:51,2025-02-27 06:19:39,467.548,0.148%,
876,2025-02-27 07:46:35,2025-02-27 07:54:23,467.419,0.148%,
877,2025-02-27 09:21:20,2025-02-27 09:29:07,467.233,0.148%,
878,2025-02-27 10:56:04,2025-02-27 11:03:51,466.991,0.148%,
879,2025-02-27 12:30:48,2025-02-27 12:38:35,466.695,0.148%,
880,2025-02-27 14:05:32,2025-02-27 14:13:19,466.338,0.148%,
881,2025-02-27 15:40:17,2025-02-27 15:48:03,465.92,0.148%,
882,2025-02-27 17:15:01,2025-02-27 17:22:47,465.441,0.148%,
883,2025-02-27 18:49:46,2025-02-27 18:57:31,464.894,0.147%,
884,2025-02-27 20:24:34,2025-02-27 20:32:15,460.6,0.146%,
885,2025-02-27 21:59:18,2025-02-27 22:06:58,460.803,0.146%,
886,2025-02-27 23:34:01,2025-02-27 23:41:42,460.948,0.146%,
887,2025-02-28 01:08:45,2025-02-28 01:16:26,461.035,0.146%,
888,2025-02-28 02:43:29,2025-02-28 02:51:10,461.072,0.146%,
889,2025-02-28 04:18:13,2025-02-28 04:25:54,461.045,0.146%,
890,2025-02-28 05:52:57,2025-02-28 06:00:38,460.966,0.146%,
891,2025-02-28 07:27:41,2025-02-28 07:35:22,460.834,0.146%,
892,2025-02-28 09:02:25,2025-02-28 09:10:06,460.641,0.146%,
893,2025-02-28 10:37:10,2025-02-28 10:44:50,460.392,0.146%,
894,2025-02-28 12:11:54,2025-02-28 12:19:37,463.367,0.147%,
895,2025-02-28 13:46:38,2025-02-28 13:54:18,459.724,0.146%,
896,2025-02-28 15:21:23,2025-02-28 15:29:02,459.299,0.146%,
897,2025-02-28 16:56:07,2025-02-28 17:03:46,459.332,0.146%,
898,2025-02-28 18:30:51,2025-02-28 18:38:30,458.256,0.145%,
899,2025-02-28 20:05:40,2025-02-28 20:13:17,457.341,0.145%,
900,2025-02-28 21:40:24,2025-02-28 21:47:58,454.033,0.144%,
901,2025-02-28 23:15:07,2025-02-28 23:22:48,460.654,0.146%,
902,2025-03-01 00:49:51,2025-03-01 00:57:31,459.928,0.146%,
903,2025-03-01 02:24:35,2025-03-01 02:32:09,454.262,0.144%,
904,2025-03-01 03:59:19,2025-03-01 04:06:58,458.63,0.145%,
905,2025-03-01 05:34:03,2025-03-01 05:41:37,454.137,0.144%,
906,2025-03-01 07:08:47,2025-03-01 07:16:29,461.387,0.146%,
907,2025-03-01 08:43:31,2025-03-01 08:51:09,457.989,0.145%,
908,2025-03-01 10:18:15,2025-03-01 10:25:49,453.517,0.144%,
909,2025-03-01 11:53:00,2025-03-01 12:00:38,458.535,0.145%,
910,2025-03-01 13:27:44,2025-03-01 13:35:25,460.983,0.146%,
911,2025-03-01 15:02:28,2025-03-01 15:10:18,469.315,0.149%,
912,2025-03-01 16:37:13,2025-03-01 16:45:02,468.857,0.149%,
913,2025-03-01 18:11:57,2025-03-01 18:19:46,468.333,0.149%,
914,2025-03-01 19:46:46,2025-03-01 19:54:30,463.838,0.147%,
915,2025-03-01 21:21:29,2025-03-01 21:29:13,464.059,0.147%,
916,2025-03-01 22:56:13,2025-03-01 23:03:57,464.226,0.147%,
917,2025-03-02 00:30:57,2025-03-02 00:38:41,464.335,0.147%,
918,2025-03-02 02:05:41,2025-03-02 02:13:25,464.39,0.147%,
919,2025-03-02 03:40:25,2025-03-02 03:48:09,464.39,0.147%,
920,2025-03-02 05:15:09,2025-03-02 05:22:53,464.332,0.147%,
921,2025-03-02 06:49:53,2025-03-02 06:57:37,464.22,0.147%,
922,2025-03-02 08:24:37,2025-03-02 08:32:21,464.052,0.147%,
923,2025-03-02 09:59:21,2025-03-02 10:07:05,463.827,0.147%,
924,2025-03-02 11:34:05,2025-03-02 11:41:49,463.545,0.147%,
925,2025-03-02 13:08:50,2025-03-02 13:16:33,463.203,0.147%,
926,2025-03-02 14:43:34,2025-03-02 14:51:17,462.802,0.147%,
927,2025-03-02 16:18:19,2025-03-02 16:26:03,464.152,0.147%,
928,2025-03-02 17:53:03,2025-03-02 18:00:45,461.811,0.146%,
929,2025-03-02 19:27:52,2025-03-02 19:35:29,457.196,0.145%,
930,2025-03-02 21:02:35,2025-03-02 21:10:13,457.412,0.145%,
931,2025-03-02 22:37:19,2025-03-02 22:44:57,457.573,0.145%,
932,2025-03-03 00:12:03,2025-03-03 00:19:44,460.948,0.146%,
933,2025-03-03 01:46:47,2025-03-03 01:54:25,457.723,0.145%,
934,2025-03-03 03:21:31,2025-03-03 03:29:08,457.712,0.145%,
935,2025-03-03 04:56:15,2025-03-03 05:03:53,458.174,0.145%,
936,2025-03-03 06:30:59,2025-03-03 06:38:36,457.523,0.145%,
937,2025-03-03 08:05:43,2025-03-03 08:13:24,460.855,0.146%,
938,2025-03-03 09:40:27,2025-03-03 09:48:04,457.105,0.145%,
939,2025-03-03 11:15:11,2025-03-03 11:22:55,463.308,0.147%,
940,2025-03-03 12:49:56,2025-03-03 12:57:38,462.142,0.147%,
941,2025-03-03 14:24:40,2025-03-03 14:32:16,456.048,0.145%,
942,2025-03-03 15:59:24,2025-03-03 16:07:04,459.985,0.146%,
943,2025-03-03 17:34:14,2025-03-03 17:41:44,450.027,0.143%,
944,2025-03-03 17:41:47,2025-03-03 17:41:53,5.864,0.002%,
945,2025-03-03 19:08:57,2025-03-03 19:16:35,457.706,0.145%,
946,2025-03-03 20:43:41,2025-03-03 20:51:16,454.69,0.144%,
947,2025-03-03 22:18:25,2025-03-03 22:26:06,461.06,0.146%,
948,2025-03-03 23:53:09,2025-03-04 00:00:45,456.075,0.145%,
949,2025-03-04 01:27:53,2025-03-04 01:35:40,467.658,0.148%,
950,2025-03-04 03:02:37,2025-03-04 03:10:24,467.673,0.148%,
951,2025-03-04 04:37:21,2025-03-04 04:45:08,467.639,0.148%,
952,2025-03-04 06:12:05,2025-03-04 06:19:52,467.547,0.148%,
953,2025-03-04 07:46:49,2025-03-04 07:54:36,467.399,0.148%,
954,2025-03-04 09:21:33,2025-03-04 09:29:20,467.19,0.148%,
955,2025-03-04 10:56:17,2025-03-04 11:04:04,466.931,0.148%,
956,2025-03-04 12:31:01,2025-03-04 12:38:48,466.614,0.148%,
957,2025-03-04 14:05:46,2025-03-04 14:13:32,466.235,0.148%,
958,2025-03-04 15:40:30,2025-03-04 15:48:16,465.796,0.148%,
959,2025-03-04 17:15:20,2025-03-04 17:23:00,460.173,0.146%,
960,2025-03-04 18:50:03,2025-03-04 18:57:44,460.476,0.146%,
961,2025-03-04 20:24:47,2025-03-04 20:32:28,460.718,0.146%,
962,2025-03-04 21:59:31,2025-03-04 22:07:12,460.899,0.146%,
963,2025-03-04 23:34:15,2025-03-04 23:41:57,461.932,0.147%,
964,2025-03-05 01:08:58,2025-03-05 01:16:40,461.092,0.146%,
965,2025-03-05 02:43:42,2025-03-05 02:51:24,461.109,0.146%,
966,2025-03-05 04:18:26,2025-03-05 04:26:09,462.882,0.147%,
967,2025-03-05 05:53:10,2025-03-05 06:00:51,460.964,0.146%,
968,2025-03-05 07:27:55,2025-03-05 07:35:35,460.812,0.146%,
969,2025-03-05 09:02:39,2025-03-05 09:10:19,460.6,0.146%,
970,2025-03-05 10:37:23,2025-03-05 10:45:03,460.331,0.146%,
971,2025-03-05 12:12:07,2025-03-05 12:19:50,463.268,0.147%,
972,2025-03-05 13:46:51,2025-03-05 13:54:31,459.621,0.146%,
973,2025-03-05 15:21:36,2025-03-05 15:29:15,459.174,0.146%,
974,2025-03-05 16:56:26,2025-03-05 17:04:00,453.964,0.144%,
975,2025-03-05 18:31:09,2025-03-05 18:38:43,453.723,0.144%,
976,2025-03-05 20:05:53,2025-03-05 20:13:30,457.473,0.145%,
977,2025-03-05 21:40:37,2025-03-05 21:48:11,454.127,0.144%,
978,2025-03-05 23:15:20,2025-03-05 23:23:01,460.744,0.146%,
979,2025-03-06 00:50:04,2025-03-06 00:57:44,459.967,0.146%,
980,2025-03-06 02:24:48,2025-03-06 02:32:23,454.301,0.144%,
981,2025-03-06 03:59:32,2025-03-06 04:07:11,458.662,0.145%,
982,2025-03-06 05:34:16,2025-03-06 05:42:00,463.564,0.147%,
983,2025-03-06 07:09:00,2025-03-06 07:16:42,461.381,0.146%,
984,2025-03-06 08:43:44,2025-03-06 08:51:22,457.918,0.145%,
985,2025-03-06 10:18:29,2025-03-06 10:26:13,463.879,0.147%,
986,2025-03-06 11:53:13,2025-03-06 12:01:03,469.972,0.149%,
987,2025-03-06 13:27:57,2025-03-06 13:35:47,469.615,0.149%,
988,2025-03-06 15:02:42,2025-03-06 15:10:31,469.198,0.149%,
989,2025-03-06 16:37:31,2025-03-06 16:45:15,463.372,0.147%,
990,2025-03-06 18:12:15,2025-03-06 18:19:59,463.697,0.147%,
991,2025-03-06 19:46:59,2025-03-06 19:54:43,463.963,0.147%,
992,2025-03-06 21:21:43,2025-03-06 21:29:27,464.166,0.147%,
993,2025-03-06 22:56:26,2025-03-06 23:04:11,464.31,0.147%,
994,2025-03-07 00:31:10,2025-03-07 00:38:55,464.399,0.147%,
995,2025-03-07 02:05:54,2025-03-07 02:13:39,464.437,0.147%,
996,2025-03-07 03:40:38,2025-03-07 03:48:22,464.415,0.147%,
997,2025-03-07 05:15:22,2025-03-07 05:23:06,464.338,0.147%,
998,2025-03-07 06:50:06,2025-03-07 06:57:50,464.206,0.147%,
999,2025-03-07 08:24:50,2025-03-07 08:32:34,464.018,0.147%,
1000,2025-03-07 09:59:35,2025-03-07 10:07:18,463.769,0.147%,
1001,2025-03-07 11:34:19,2025-03-07 11:42:03,464.369,0.147%,
1002,2025-03-07 13:09:03,2025-03-07 13:16:46,463.106,0.147%,
