3UCubedIntegratedSim/Reports & Plots/North Cusp @ 1 Degree/CSV/Sat4.csv

Number,Coverage Start (UTCG),Coverage End (UTCG),Duration (sec),Percent,
1,2025-01-01 16:19:36,2025-01-01 16:23:57,261.377,0.083%,
2,2025-01-01 17:54:18,2025-01-01 17:58:37,258.941,0.082%,
3,2025-01-01 19:28:58,2025-01-01 19:33:25,267.272,0.085%,
4,2025-01-01 21:03:39,2025-01-01 21:03:51,12.644,0.004%,
5,2025-01-01 21:04:07,2025-01-01 21:08:05,237.537,0.075%,
6,2025-01-01 22:38:50,2025-01-01 22:42:49,239.349,0.076%,
7,2025-01-02 00:13:32,2025-01-02 00:17:37,244.685,0.078%,
8,2025-01-02 01:48:13,2025-01-02 01:52:17,244.147,0.077%,
9,2025-01-02 03:22:53,2025-01-02 03:27:06,252.387,0.080%,
10,2025-01-02 04:57:35,2025-01-02 05:01:52,256.755,0.081%,
11,2025-01-02 06:32:17,2025-01-02 06:36:37,260.447,0.083%,
12,2025-01-02 08:06:59,2025-01-02 08:11:16,257.334,0.082%,
13,2025-01-02 09:41:40,2025-01-02 09:45:57,256.626,0.081%,
14,2025-01-02 09:46:06,2025-01-02 09:46:06,0.207,0.000%,
15,2025-01-02 11:16:20,2025-01-02 11:20:46,266.2,0.084%,
16,2025-01-02 12:51:30,2025-01-02 12:55:31,240.736,0.076%,
17,2025-01-02 14:26:12,2025-01-02 14:30:24,252.035,0.080%,
18,2025-01-02 16:00:54,2025-01-02 16:05:08,253.903,0.081%,
19,2025-01-02 17:35:35,2025-01-02 17:39:52,257.808,0.082%,
20,2025-01-02 19:10:16,2025-01-02 19:14:36,260.693,0.083%,
21,2025-01-02 20:44:57,2025-01-02 20:49:20,263.061,0.083%,
22,2025-01-02 22:19:39,2025-01-02 22:24:04,265.097,0.084%,
23,2025-01-02 23:54:21,2025-01-02 23:58:48,266.884,0.085%,
24,2025-01-03 01:29:01,2025-01-03 01:33:32,270.831,0.086%,
25,2025-01-03 03:03:42,2025-01-03 03:08:16,274.266,0.087%,
26,2025-01-03 04:38:53,2025-01-03 04:43:00,247.29,0.078%,
27,2025-01-03 06:13:35,2025-01-03 06:17:44,248.892,0.079%,
28,2025-01-03 07:48:16,2025-01-03 07:52:28,252.171,0.080%,
29,2025-01-03 09:22:57,2025-01-03 09:27:12,255.438,0.081%,
30,2025-01-03 10:57:38,2025-01-03 11:01:56,258.024,0.082%,
31,2025-01-03 12:32:20,2025-01-03 12:36:40,260.203,0.083%,
32,2025-01-03 14:07:02,2025-01-03 14:11:24,262.101,0.083%,
33,2025-01-03 15:41:43,2025-01-03 15:46:08,264.702,0.084%,
34,2025-01-03 17:16:23,2025-01-03 17:20:52,268.795,0.085%,
35,2025-01-03 18:51:04,2025-01-03 18:51:24,20.215,0.006%,
36,2025-01-03 18:51:33,2025-01-03 18:55:36,242.502,0.077%,
37,2025-01-03 20:26:16,2025-01-03 20:30:21,244.955,0.078%,
38,2025-01-03 22:00:58,2025-01-03 22:05:04,246.192,0.078%,
39,2025-01-03 23:35:38,2025-01-03 23:39:49,251.311,0.080%,
40,2025-01-04 01:10:19,2025-01-04 01:14:32,252.894,0.080%,
41,2025-01-04 02:45:00,2025-01-04 02:49:16,255.247,0.081%,
42,2025-01-04 04:19:42,2025-01-04 04:24:04,261.51,0.083%,
43,2025-01-04 05:54:25,2025-01-04 05:58:44,259.052,0.082%,
44,2025-01-04 07:29:05,2025-01-04 07:33:32,267.566,0.085%,
45,2025-01-04 09:03:45,2025-01-04 09:08:12,266.488,0.085%,
46,2025-01-04 10:38:56,2025-01-04 10:42:56,239.461,0.076%,
47,2025-01-04 12:13:38,2025-01-04 12:17:43,244.787,0.078%,
48,2025-01-04 13:48:19,2025-01-04 13:52:23,244.427,0.078%,
49,2025-01-04 15:23:00,2025-01-04 15:27:12,252.585,0.080%,
50,2025-01-04 16:57:41,2025-01-04 17:01:58,256.924,0.082%,
51,2025-01-04 18:32:23,2025-01-04 18:36:35,252.391,0.080%,
52,2025-01-04 20:07:05,2025-01-04 20:11:23,257.455,0.082%,
53,2025-01-04 21:41:46,2025-01-04 21:46:03,257.014,0.082%,
54,2025-01-04 23:16:26,2025-01-04 23:20:53,266.441,0.085%,
55,2025-01-05 00:51:07,2025-01-05 00:55:37,270.172,0.086%,
56,2025-01-05 02:26:19,2025-01-05 02:30:24,245.005,0.078%,
57,2025-01-05 04:01:01,2025-01-05 04:05:02,241.211,0.077%,
58,2025-01-05 05:35:41,2025-01-05 05:39:59,258.04,0.082%,
59,2025-01-05 07:10:22,2025-01-05 07:14:43,260.873,0.083%,
60,2025-01-05 08:45:04,2025-01-05 08:49:27,263.215,0.084%,
61,2025-01-05 10:19:46,2025-01-05 10:24:11,265.224,0.084%,
62,2025-01-05 11:54:28,2025-01-05 11:58:55,266.993,0.085%,
63,2025-01-05 13:29:08,2025-01-05 13:33:39,271.124,0.086%,
64,2025-01-05 15:03:48,2025-01-05 15:08:23,274.477,0.087%,
65,2025-01-05 16:38:30,2025-01-05 16:38:56,26.101,0.008%,
66,2025-01-05 16:38:59,2025-01-05 16:43:07,247.4,0.079%,
67,2025-01-05 18:13:42,2025-01-05 18:17:51,248.989,0.079%,
68,2025-01-05 19:48:22,2025-01-05 19:52:35,252.445,0.080%,
69,2025-01-05 21:23:03,2025-01-05 21:27:19,255.637,0.081%,
70,2025-01-05 22:57:44,2025-01-05 23:02:03,258.186,0.082%,
71,2025-01-06 00:32:26,2025-01-06 00:36:47,260.339,0.083%,
72,2025-01-06 02:07:08,2025-01-06 02:11:31,262.218,0.083%,
73,2025-01-06 03:41:49,2025-01-06 03:46:15,265.078,0.084%,
74,2025-01-06 05:16:29,2025-01-06 05:20:58,269.037,0.085%,
75,2025-01-06 06:51:10,2025-01-06 06:55:42,271.966,0.086%,
76,2025-01-06 08:25:52,2025-01-06 08:25:53,0.984,0.000%,
77,2025-01-06 08:26:22,2025-01-06 08:30:27,245.053,0.078%,
78,2025-01-06 10:01:04,2025-01-06 10:05:10,246.538,0.078%,
79,2025-01-06 11:35:44,2025-01-06 11:39:56,251.546,0.080%,
80,2025-01-06 13:10:25,2025-01-06 13:14:38,253.072,0.080%,
81,2025-01-06 14:45:07,2025-01-06 14:49:22,255.399,0.081%,
82,2025-01-06 16:19:49,2025-01-06 16:24:11,261.641,0.083%,
83,2025-01-06 17:54:31,2025-01-06 17:58:50,259.16,0.082%,
84,2025-01-06 19:29:11,2025-01-06 19:33:35,264.123,0.084%,
85,2025-01-06 21:03:51,2025-01-06 21:08:18,266.696,0.085%,
86,2025-01-06 22:38:33,2025-01-06 22:43:02,269.321,0.085%,
87,2025-01-07 00:13:45,2025-01-07 00:17:50,244.888,0.078%,
88,2025-01-07 01:48:25,2025-01-07 01:52:30,244.696,0.078%,
89,2025-01-07 03:23:06,2025-01-07 03:27:19,252.78,0.080%,
90,2025-01-07 04:57:48,2025-01-07 05:02:05,257.09,0.082%,
91,2025-01-07 06:32:29,2025-01-07 06:36:42,252.526,0.080%,
92,2025-01-07 08:07:12,2025-01-07 08:11:29,257.575,0.082%,
93,2025-01-07 09:41:53,2025-01-07 09:46:10,257.379,0.082%,
94,2025-01-07 11:16:33,2025-01-07 11:20:59,266.675,0.085%,
95,2025-01-07 12:51:14,2025-01-07 12:55:44,270.361,0.086%,
96,2025-01-07 14:25:55,2025-01-07 14:30:30,275.197,0.087%,
97,2025-01-07 16:01:07,2025-01-07 16:05:09,241.544,0.077%,
98,2025-01-07 17:35:47,2025-01-07 17:39:59,251.661,0.080%,
99,2025-01-07 19:10:28,2025-01-07 19:14:50,261.05,0.083%,
100,2025-01-07 20:45:10,2025-01-07 20:49:33,263.361,0.084%,
101,2025-01-07 22:19:52,2025-01-07 22:24:17,265.348,0.084%,
102,2025-01-07 23:54:34,2025-01-07 23:59:01,267.1,0.085%,
103,2025-01-08 01:29:14,2025-01-08 01:33:45,271.406,0.086%,
104,2025-01-08 03:03:55,2025-01-08 03:08:29,274.683,0.087%,
105,2025-01-08 04:38:36,2025-01-08 04:43:13,277.287,0.088%,
106,2025-01-08 06:13:18,2025-01-08 06:13:22,4.247,0.001%,
107,2025-01-08 06:13:48,2025-01-08 06:17:57,249.084,0.079%,
108,2025-01-08 07:48:29,2025-01-08 07:52:41,252.709,0.080%,
109,2025-01-08 09:23:09,2025-01-08 09:27:25,255.835,0.081%,
110,2025-01-08 10:57:51,2025-01-08 11:02:09,258.345,0.082%,
111,2025-01-08 12:32:33,2025-01-08 12:36:53,260.472,0.083%,
112,2025-01-08 14:07:15,2025-01-08 14:11:37,262.333,0.083%,
113,2025-01-08 15:41:56,2025-01-08 15:46:21,265.434,0.084%,
114,2025-01-08 17:16:36,2025-01-08 17:21:05,269.272,0.085%,
115,2025-01-08 18:51:17,2025-01-08 18:55:49,272.148,0.086%,
116,2025-01-08 20:25:58,2025-01-08 20:30:34,275.271,0.087%,
117,2025-01-08 22:01:10,2025-01-08 22:05:17,246.866,0.078%,
118,2025-01-08 23:35:50,2025-01-08 23:40:02,251.774,0.080%,
119,2025-01-09 01:10:32,2025-01-09 01:14:45,253.247,0.080%,
120,2025-01-09 02:45:13,2025-01-09 02:49:29,255.544,0.081%,
121,2025-01-09 04:19:55,2025-01-09 04:24:14,258.738,0.082%,
122,2025-01-09 05:54:38,2025-01-09 05:58:57,259.267,0.082%,
123,2025-01-09 07:29:17,2025-01-09 07:33:42,264.405,0.084%,
124,2025-01-09 09:03:58,2025-01-09 09:08:25,266.899,0.085%,
125,2025-01-09 10:38:39,2025-01-09 10:43:09,269.484,0.086%,
126,2025-01-09 12:13:21,2025-01-09 12:17:56,275.405,0.087%,
127,2025-01-09 13:48:32,2025-01-09 13:52:37,244.956,0.078%,
128,2025-01-09 15:23:13,2025-01-09 15:27:26,252.967,0.080%,
129,2025-01-09 16:57:54,2025-01-09 17:02:11,257.253,0.082%,
130,2025-01-09 18:32:36,2025-01-09 18:36:49,252.659,0.080%,
131,2025-01-09 20:07:18,2025-01-09 20:11:36,257.693,0.082%,
132,2025-01-09 21:41:59,2025-01-09 21:46:17,257.727,0.082%,
133,2025-01-09 23:16:39,2025-01-09 23:21:06,266.901,0.085%,
134,2025-01-10 00:51:20,2025-01-10 00:55:51,270.546,0.086%,
135,2025-01-10 02:26:02,2025-01-10 02:30:28,266.716,0.085%,
136,2025-01-10 02:30:32,2025-01-10 02:30:37,4.841,0.002%,
137,2025-01-10 04:00:44,2025-01-10 04:00:49,5.448,0.002%,
138,2025-01-10 04:01:13,2025-01-10 04:05:15,241.862,0.077%,
139,2025-01-10 05:35:54,2025-01-10 05:40:06,251.886,0.080%,
140,2025-01-10 07:10:35,2025-01-10 07:14:46,251.341,0.080%,
141,2025-01-10 08:45:17,2025-01-10 08:49:40,263.504,0.084%,
142,2025-01-10 10:19:59,2025-01-10 10:24:24,265.47,0.084%,
143,2025-01-10 11:54:41,2025-01-10 11:59:08,267.207,0.085%,
144,2025-01-10 13:29:20,2025-01-10 13:33:52,271.678,0.086%,
145,2025-01-10 15:04:01,2025-01-10 15:08:36,274.884,0.087%,
146,2025-01-10 16:38:42,2025-01-10 16:43:20,277.449,0.088%,
147,2025-01-10 18:13:24,2025-01-10 18:18:04,279.616,0.089%,
148,2025-01-10 19:48:35,2025-01-10 19:52:48,252.965,0.080%,
149,2025-01-10 21:23:16,2025-01-10 21:27:32,256.025,0.081%,
150,2025-01-10 22:57:57,2025-01-10 23:02:16,258.501,0.082%,
151,2025-01-11 00:32:39,2025-01-11 00:37:00,260.604,0.083%,
152,2025-01-11 02:07:21,2025-01-11 02:11:44,262.446,0.083%,
153,2025-01-11 03:42:02,2025-01-11 03:46:28,265.773,0.084%,
154,2025-01-11 05:16:42,2025-01-11 05:21:12,269.501,0.086%,
155,2025-01-11 06:51:23,2025-01-11 06:55:56,272.327,0.086%,
156,2025-01-11 08:26:05,2025-01-11 08:30:40,274.669,0.087%,
157,2025-01-11 10:00:47,2025-01-11 10:05:24,276.674,0.088%,
158,2025-01-11 11:35:57,2025-01-11 11:40:09,251.997,0.080%,
159,2025-01-11 13:10:38,2025-01-11 13:14:52,253.419,0.080%,
160,2025-01-11 14:45:20,2025-01-11 14:49:35,255.687,0.081%,
161,2025-01-11 16:20:02,2025-01-11 16:24:21,258.855,0.082%,
162,2025-01-11 17:54:44,2025-01-11 17:59:03,259.373,0.082%,
163,2025-01-11 19:29:23,2025-01-11 19:33:48,264.679,0.084%,
164,2025-01-11 21:04:04,2025-01-11 21:08:31,267.099,0.085%,
165,2025-01-11 22:38:46,2025-01-11 22:43:15,269.646,0.086%,
166,2025-01-12 00:13:28,2025-01-12 00:18:03,275.545,0.087%,
167,2025-01-12 01:48:09,2025-01-12 01:48:14,5.235,0.002%,
168,2025-01-12 01:48:38,2025-01-12 01:52:43,245.209,0.078%,
169,2025-01-12 03:23:19,2025-01-12 03:27:32,253.152,0.080%,
170,2025-01-12 04:58:01,2025-01-12 05:02:11,250.698,0.080%,
171,2025-01-12 05:02:17,2025-01-12 05:02:18,0.806,0.000%,
172,2025-01-12 06:32:42,2025-01-12 06:36:55,252.79,0.080%,
173,2025-01-12 08:07:25,2025-01-12 08:11:42,257.81,0.082%,
174,2025-01-12 09:42:05,2025-01-12 09:46:23,258.06,0.082%,
175,2025-01-12 11:16:45,2025-01-12 11:21:12,267.124,0.085%,
176,2025-01-12 12:51:27,2025-01-12 12:55:57,270.728,0.086%,
177,2025-01-12 14:26:08,2025-01-12 14:30:35,266.863,0.085%,
178,2025-01-12 16:00:50,2025-01-12 16:05:22,271.57,0.086%,
179,2025-01-12 17:36:00,2025-01-12 17:40:12,252.108,0.080%,
180,2025-01-12 19:10:41,2025-01-12 19:14:53,251.508,0.080%,
181,2025-01-12 20:45:23,2025-01-12 20:49:37,253.498,0.080%,
182,2025-01-12 22:20:05,2025-01-12 22:24:31,265.591,0.084%,
183,2025-01-12 23:54:47,2025-01-12 23:59:15,267.429,0.085%,
184,2025-01-13 01:29:27,2025-01-13 01:33:59,271.944,0.086%,
185,2025-01-13 03:04:07,2025-01-13 03:08:43,275.082,0.087%,
186,2025-01-13 04:38:49,2025-01-13 04:43:27,277.61,0.088%,
187,2025-01-13 06:13:31,2025-01-13 06:18:10,279.75,0.089%,
188,2025-01-13 07:48:12,2025-01-13 07:52:54,282.585,0.090%,
189,2025-01-13 09:23:22,2025-01-13 09:27:38,256.215,0.081%,
190,2025-01-13 10:58:04,2025-01-13 11:02:22,258.656,0.082%,
191,2025-01-13 12:32:46,2025-01-13 12:37:06,260.735,0.083%,
192,2025-01-13 14:07:28,2025-01-13 14:11:50,262.558,0.083%,
193,2025-01-13 15:42:08,2025-01-13 15:46:34,266.101,0.084%,
194,2025-01-13 17:16:49,2025-01-13 17:21:18,269.726,0.086%,
195,2025-01-13 18:51:30,2025-01-13 18:56:02,272.504,0.086%,
196,2025-01-13 20:26:11,2025-01-13 20:30:46,274.813,0.087%,
197,2025-01-13 22:00:53,2025-01-13 22:05:30,276.798,0.088%,
198,2025-01-13 23:35:33,2025-01-13 23:35:37,3.808,0.001%,
199,2025-01-13 23:36:03,2025-01-13 23:40:15,252.217,0.080%,
200,2025-01-14 01:10:45,2025-01-14 01:14:58,253.589,0.080%,
201,2025-01-14 02:45:26,2025-01-14 02:49:42,255.829,0.081%,
202,2025-01-14 04:20:08,2025-01-14 04:24:27,258.971,0.082%,
203,2025-01-14 05:54:50,2025-01-14 05:59:10,259.763,0.082%,
204,2025-01-14 07:29:30,2025-01-14 07:33:55,264.945,0.084%,
205,2025-01-14 09:04:11,2025-01-14 09:08:38,267.296,0.085%,
206,2025-01-14 10:38:52,2025-01-14 10:43:22,269.806,0.086%,
207,2025-01-14 12:13:34,2025-01-14 12:18:10,275.684,0.087%,
208,2025-01-14 13:48:15,2025-01-14 13:52:50,274.927,0.087%,
209,2025-01-14 15:23:25,2025-01-14 15:27:34,248.596,0.079%,
210,2025-01-14 15:27:39,2025-01-14 15:27:39,0.122,0.000%,
211,2025-01-14 16:58:07,2025-01-14 17:02:18,250.852,0.080%,
212,2025-01-14 18:32:49,2025-01-14 18:37:02,252.92,0.080%,
213,2025-01-14 20:07:31,2025-01-14 20:11:49,257.926,0.082%,
214,2025-01-14 21:42:11,2025-01-14 21:46:30,258.379,0.082%,
215,2025-01-14 23:16:52,2025-01-14 23:21:19,267.342,0.085%,
216,2025-01-15 00:51:33,2025-01-15 00:56:04,270.908,0.086%,
217,2025-01-15 02:26:15,2025-01-15 02:30:42,267.008,0.085%,
218,2025-01-15 04:00:57,2025-01-15 04:05:28,271.691,0.086%,
219,2025-01-15 05:35:36,2025-01-15 05:36:03,27.354,0.009%,
220,2025-01-15 05:36:06,2025-01-15 05:40:19,252.323,0.080%,
221,2025-01-15 07:10:48,2025-01-15 07:14:59,251.673,0.080%,
222,2025-01-15 08:45:29,2025-01-15 08:49:43,253.642,0.080%,
223,2025-01-15 10:20:12,2025-01-15 10:24:31,259.029,0.082%,
224,2025-01-15 11:54:53,2025-01-15 11:59:21,267.866,0.085%,
225,2025-01-15 13:29:33,2025-01-15 13:34:05,272.203,0.086%,
226,2025-01-15 15:04:14,2025-01-15 15:08:49,275.277,0.087%,
227,2025-01-15 16:38:55,2025-01-15 16:43:33,277.768,0.088%,
228,2025-01-15 18:13:37,2025-01-15 18:18:17,279.884,0.089%,
229,2025-01-15 19:48:18,2025-01-15 19:53:01,283.021,0.090%,
230,2025-01-15 21:23:29,2025-01-15 21:27:45,256.402,0.081%,
231,2025-01-15 22:58:10,2025-01-15 23:02:29,258.809,0.082%,
232,2025-01-16 00:32:52,2025-01-16 00:37:13,260.865,0.083%,
233,2025-01-16 02:07:34,2025-01-16 02:11:57,262.67,0.083%,
234,2025-01-16 03:42:14,2025-01-16 03:46:41,266.415,0.085%,
235,2025-01-16 05:16:55,2025-01-16 05:21:25,269.946,0.086%,
236,2025-01-16 06:51:36,2025-01-16 06:56:09,272.678,0.087%,
237,2025-01-16 08:26:18,2025-01-16 08:30:53,274.957,0.087%,
238,2025-01-16 10:01:00,2025-01-16 10:05:37,276.921,0.088%,
239,2025-01-16 11:35:39,2025-01-16 11:40:22,282.876,0.090%,
240,2025-01-16 13:10:51,2025-01-16 13:15:05,253.757,0.081%,
241,2025-01-16 14:45:33,2025-01-16 14:49:49,255.969,0.081%,
242,2025-01-16 16:20:15,2025-01-16 16:24:34,259.087,0.082%,
243,2025-01-16 17:54:56,2025-01-16 17:59:17,260.189,0.083%,
244,2025-01-16 19:29:36,2025-01-16 19:34:01,265.205,0.084%,
245,2025-01-16 21:04:17,2025-01-16 21:08:45,267.489,0.085%,
246,2025-01-16 22:38:59,2025-01-16 22:43:29,269.963,0.086%,
247,2025-01-17 00:13:40,2025-01-17 00:18:16,275.821,0.088%,
248,2025-01-17 01:48:21,2025-01-17 01:52:56,275.346,0.087%,
249,2025-01-17 03:23:01,2025-01-17 03:23:22,21.251,0.007%,
250,2025-01-17 03:23:32,2025-01-17 03:27:41,248.784,0.079%,
251,2025-01-17 04:58:13,2025-01-17 05:02:24,251.005,0.080%,
252,2025-01-17 06:32:55,2025-01-17 06:37:08,253.049,0.080%,
253,2025-01-17 08:07:38,2025-01-17 08:11:56,258.041,0.082%,
254,2025-01-17 09:42:18,2025-01-17 09:46:36,258.69,0.082%,
255,2025-01-17 11:16:58,2025-01-17 11:21:26,267.556,0.085%,
256,2025-01-17 12:51:39,2025-01-17 12:56:10,271.085,0.086%,
257,2025-01-17 14:26:21,2025-01-17 14:30:48,267.152,0.085%,
258,2025-01-17 16:01:03,2025-01-17 16:05:35,271.81,0.086%,
259,2025-01-17 17:35:42,2025-01-17 17:40:25,283.028,0.090%,
260,2025-01-17 19:10:54,2025-01-17 19:15:06,251.836,0.080%,
261,2025-01-17 20:45:36,2025-01-17 20:49:50,253.785,0.081%,
262,2025-01-17 22:20:18,2025-01-17 22:24:37,259.144,0.082%,
263,2025-01-17 23:55:00,2025-01-17 23:59:15,255.754,0.081%,
264,2025-01-18 01:29:39,2025-01-18 01:34:12,272.455,0.086%,
265,2025-01-18 03:04:20,2025-01-18 03:08:56,275.469,0.087%,
266,2025-01-18 04:39:02,2025-01-18 04:43:40,277.924,0.088%,
267,2025-01-18 06:13:44,2025-01-18 06:18:24,280.015,0.089%,
268,2025-01-18 07:48:24,2025-01-18 07:53:08,283.43,0.090%,
269,2025-01-18 09:23:04,2025-01-18 09:27:52,287.621,0.091%,
270,2025-01-18 10:58:17,2025-01-18 11:02:36,258.96,0.082%,
271,2025-01-18 12:32:59,2025-01-18 12:37:20,260.993,0.083%,
272,2025-01-18 14:07:41,2025-01-18 14:12:04,262.78,0.083%,
273,2025-01-18 15:42:21,2025-01-18 15:46:48,266.717,0.085%,
274,2025-01-18 17:17:01,2025-01-18 17:21:31,270.162,0.086%,
275,2025-01-18 18:51:43,2025-01-18 18:56:15,272.849,0.087%,
276,2025-01-18 20:26:24,2025-01-18 20:30:59,275.1,0.087%,
277,2025-01-18 22:01:06,2025-01-18 22:05:43,277.042,0.088%,
278,2025-01-18 23:35:45,2025-01-18 23:40:27,281.873,0.089%,
279,2025-01-19 01:10:26,2025-01-19 01:10:38,12.27,0.004%,
280,2025-01-19 01:10:57,2025-01-19 01:15:11,253.921,0.081%,
281,2025-01-19 02:45:39,2025-01-19 02:49:55,256.107,0.081%,
282,2025-01-19 04:20:21,2025-01-19 04:24:40,259.2,0.082%,
283,2025-01-19 05:55:03,2025-01-19 05:59:23,260.585,0.083%,
284,2025-01-19 07:29:43,2025-01-19 07:34:08,265.453,0.084%,
285,2025-01-19 09:04:23,2025-01-19 09:08:51,267.683,0.085%,
286,2025-01-19 10:39:05,2025-01-19 10:43:35,270.118,0.086%,
287,2025-01-19 12:13:47,2025-01-19 12:18:23,275.957,0.088%,
288,2025-01-19 13:48:27,2025-01-19 13:53:03,275.743,0.087%,
289,2025-01-19 15:23:07,2025-01-19 15:27:47,280.036,0.089%,
290,2025-01-19 16:58:20,2025-01-19 17:02:31,251.154,0.080%,
291,2025-01-19 18:33:02,2025-01-19 18:37:15,253.181,0.080%,
292,2025-01-19 20:07:44,2025-01-19 20:12:02,258.154,0.082%,
293,2025-01-19 21:42:24,2025-01-19 21:46:43,258.986,0.082%,
294,2025-01-19 23:17:05,2025-01-19 23:21:32,267.765,0.085%,
295,2025-01-20 00:51:46,2025-01-20 00:56:17,271.259,0.086%,
296,2025-01-20 02:26:28,2025-01-20 02:30:55,267.293,0.085%,
297,2025-01-20 04:01:10,2025-01-20 04:05:42,271.928,0.086%,
298,2025-01-20 05:35:49,2025-01-20 05:40:23,274.145,0.087%,
299,2025-01-20 07:10:29,2025-01-20 07:11:01,31.368,0.010%,
300,2025-01-20 07:11:01,2025-01-20 07:15:13,251.995,0.080%,
301,2025-01-20 08:45:42,2025-01-20 08:49:56,253.925,0.081%,
302,2025-01-20 10:20:25,2025-01-20 10:24:35,250.184,0.079%,
303,2025-01-20 11:55:06,2025-01-20 11:59:22,256.136,0.081%,
304,2025-01-20 13:29:46,2025-01-20 13:34:11,265.577,0.084%,
305,2025-01-20 15:04:27,2025-01-20 15:09:02,275.66,0.087%,
306,2025-01-20 16:39:08,2025-01-20 16:43:46,278.078,0.088%,
307,2025-01-20 18:13:50,2025-01-20 18:18:30,280.145,0.089%,
308,2025-01-20 19:48:30,2025-01-20 19:53:14,283.812,0.090%,
309,2025-01-20 21:23:10,2025-01-20 21:27:58,287.868,0.091%,
310,2025-01-20 22:57:51,2025-01-20 22:57:52,0.457,0.000%,
311,2025-01-20 22:58:23,2025-01-20 23:02:42,259.108,0.082%,
312,2025-01-21 00:33:05,2025-01-21 00:37:26,261.123,0.083%,
313,2025-01-21 02:07:47,2025-01-21 02:12:10,262.889,0.083%,
314,2025-01-21 03:42:27,2025-01-21 03:46:54,267.011,0.085%,
315,2025-01-21 05:17:08,2025-01-21 05:21:38,270.372,0.086%,
316,2025-01-21 06:51:49,2025-01-21 06:56:22,273.017,0.087%,
317,2025-01-21 08:26:31,2025-01-21 08:31:06,275.24,0.087%,
318,2025-01-21 10:01:13,2025-01-21 10:05:50,277.161,0.088%,
319,2025-01-21 11:35:52,2025-01-21 11:40:34,282.17,0.090%,
320,2025-01-21 13:10:32,2025-01-21 13:15:18,285.562,0.091%,
321,2025-01-21 14:45:46,2025-01-21 14:50:02,256.242,0.081%,
322,2025-01-21 16:20:28,2025-01-21 16:24:46,258.118,0.082%,
323,2025-01-21 17:55:09,2025-01-21 17:59:30,260.961,0.083%,
324,2025-01-21 19:29:49,2025-01-21 19:34:15,265.699,0.084%,
325,2025-01-21 21:04:30,2025-01-21 21:08:58,267.868,0.085%,
326,2025-01-21 22:39:11,2025-01-21 22:43:42,270.27,0.086%,
327,2025-01-22 00:13:53,2025-01-22 00:18:29,276.09,0.088%,
328,2025-01-22 01:48:34,2025-01-22 01:53:10,276.115,0.088%,
329,2025-01-22 03:23:14,2025-01-22 03:27:54,280.283,0.089%,
330,2025-01-22 04:57:55,2025-01-22 04:58:12,17.784,0.006%,
331,2025-01-22 04:58:26,2025-01-22 05:02:38,251.301,0.080%,
332,2025-01-22 06:33:08,2025-01-22 06:37:22,253.306,0.080%,
333,2025-01-22 08:07:51,2025-01-22 08:12:09,258.266,0.082%,
334,2025-01-22 09:42:30,2025-01-22 09:46:50,259.274,0.082%,
335,2025-01-22 11:17:11,2025-01-22 11:21:39,267.967,0.085%,
336,2025-01-22 12:51:52,2025-01-22 12:56:24,271.43,0.086%,
337,2025-01-22 14:26:34,2025-01-22 14:31:01,267.432,0.085%,
338,2025-01-22 16:01:16,2025-01-22 16:05:48,272.043,0.086%,
339,2025-01-22 17:35:55,2025-01-22 17:40:29,274.433,0.087%,
340,2025-01-22 19:10:36,2025-01-22 19:15:19,283.655,0.090%,
341,2025-01-22 20:45:49,2025-01-22 20:50:03,254.064,0.081%,
342,2025-01-22 22:20:31,2025-01-22 22:24:41,250.299,0.079%,
343,2025-01-22 23:55:12,2025-01-22 23:59:29,256.498,0.081%,
344,2025-01-23 01:29:52,2025-01-23 01:34:18,265.819,0.084%,
345,2025-01-23 03:04:33,2025-01-23 03:09:00,266.458,0.085%,
346,2025-01-23 04:39:15,2025-01-23 04:43:53,278.228,0.088%,
347,2025-01-23 06:13:57,2025-01-23 06:18:37,280.272,0.089%,
348,2025-01-23 07:48:37,2025-01-23 07:53:21,284.174,0.090%,
349,2025-01-23 09:23:17,2025-01-23 09:28:05,288.108,0.091%,
350,2025-01-23 10:57:58,2025-01-23 11:02:49,291.047,0.092%,
351,2025-01-23 12:33:12,2025-01-23 12:37:33,261.247,0.083%,
352,2025-01-23 14:07:54,2025-01-23 14:12:17,262.996,0.083%,
353,2025-01-23 15:42:33,2025-01-23 15:47:01,267.291,0.085%,
354,2025-01-23 17:17:14,2025-01-23 17:21:45,270.577,0.086%,
355,2025-01-23 18:51:55,2025-01-23 18:56:29,273.182,0.087%,
356,2025-01-23 20:26:37,2025-01-23 20:31:13,275.377,0.087%,
357,2025-01-23 22:01:19,2025-01-23 22:05:57,277.488,0.088%,
358,2025-01-23 23:35:58,2025-01-23 23:40:41,282.454,0.090%,
359,2025-01-24 01:10:39,2025-01-24 01:15:25,285.773,0.091%,
360,2025-01-24 02:45:20,2025-01-24 02:45:21,1.291,0.000%,
361,2025-01-24 02:45:52,2025-01-24 02:50:09,256.376,0.081%,
362,2025-01-24 04:20:34,2025-01-24 04:24:52,258.233,0.082%,
363,2025-01-24 05:55:15,2025-01-24 05:59:36,261.317,0.083%,
364,2025-01-24 07:29:55,2025-01-24 07:34:21,265.938,0.084%,
365,2025-01-24 09:04:36,2025-01-24 09:09:04,268.05,0.085%,
366,2025-01-24 10:39:18,2025-01-24 10:43:48,270.42,0.086%,
367,2025-01-24 12:14:00,2025-01-24 12:18:36,276.222,0.088%,
368,2025-01-24 13:48:40,2025-01-24 13:53:16,276.469,0.088%,
369,2025-01-24 15:23:20,2025-01-24 15:28:00,280.524,0.089%,
370,2025-01-24 16:58:01,2025-01-24 17:02:44,283.258,0.090%,
371,2025-01-24 18:33:15,2025-01-24 18:37:28,253.429,0.080%,
372,2025-01-24 20:07:57,2025-01-24 20:12:15,258.377,0.082%,
373,2025-01-24 21:42:37,2025-01-24 21:46:56,259.55,0.082%,
374,2025-01-24 23:17:17,2025-01-24 23:21:45,268.166,0.085%,
375,2025-01-25 00:51:59,2025-01-25 00:56:30,271.599,0.086%,
376,2025-01-25 02:26:40,2025-01-25 02:31:08,267.569,0.085%,
377,2025-01-25 04:01:22,2025-01-25 04:05:55,272.565,0.086%,
378,2025-01-25 05:36:01,2025-01-25 05:40:36,274.712,0.087%,
379,2025-01-25 07:10:42,2025-01-25 07:15:26,283.859,0.090%,
380,2025-01-25 08:45:23,2025-01-25 08:45:39,15.591,0.005%,
381,2025-01-25 08:45:55,2025-01-25 08:50:10,254.2,0.081%,
382,2025-01-25 10:20:37,2025-01-25 10:24:48,250.418,0.079%,
383,2025-01-25 11:55:18,2025-01-25 11:59:35,256.844,0.081%,
384,2025-01-25 13:29:58,2025-01-25 13:34:24,266.056,0.084%,
385,2025-01-25 15:04:40,2025-01-25 15:09:06,266.635,0.085%,
386,2025-01-25 16:39:21,2025-01-25 16:44:00,278.377,0.088%,
387,2025-01-25 18:14:03,2025-01-25 18:18:44,280.398,0.089%,
388,2025-01-25 19:48:43,2025-01-25 19:53:27,284.522,0.090%,
389,2025-01-25 21:23:23,2025-01-25 21:28:11,288.342,0.091%,
390,2025-01-25 22:58:04,2025-01-25 23:02:55,291.229,0.092%,
391,2025-01-26 00:33:18,2025-01-26 00:37:39,261.369,0.083%,
392,2025-01-26 02:08:00,2025-01-26 02:12:23,263.106,0.083%,
393,2025-01-26 03:42:40,2025-01-26 03:47:07,267.564,0.085%,
394,2025-01-26 05:17:21,2025-01-26 05:21:51,270.778,0.086%,
395,2025-01-26 06:52:02,2025-01-26 06:56:35,273.344,0.087%,
396,2025-01-26 08:26:44,2025-01-26 08:31:19,275.513,0.087%,
397,2025-01-26 10:01:25,2025-01-26 10:06:03,277.991,0.088%,
398,2025-01-26 11:36:04,2025-01-26 11:40:47,282.725,0.090%,
399,2025-01-26 13:10:45,2025-01-26 13:15:31,285.977,0.091%,
400,2025-01-26 14:45:27,2025-01-26 14:45:55,28.662,0.009%,
401,2025-01-26 14:45:59,2025-01-26 14:50:15,256.508,0.081%,
402,2025-01-26 16:20:41,2025-01-26 16:24:59,258.351,0.082%,
403,2025-01-26 17:55:21,2025-01-26 17:59:43,261.658,0.083%,
404,2025-01-26 19:30:02,2025-01-26 19:34:28,266.172,0.084%,
405,2025-01-26 21:04:43,2025-01-26 21:09:11,268.229,0.085%,
406,2025-01-26 22:39:24,2025-01-26 22:43:55,270.567,0.086%,
407,2025-01-27 00:14:06,2025-01-27 00:18:43,276.352,0.088%,
408,2025-01-27 01:48:46,2025-01-27 01:53:23,276.81,0.088%,
409,2025-01-27 03:23:26,2025-01-27 03:28:07,280.759,0.089%,
410,2025-01-27 04:58:07,2025-01-27 05:02:51,283.439,0.090%,
411,2025-01-27 06:33:21,2025-01-27 06:37:35,253.551,0.080%,
412,2025-01-27 08:08:03,2025-01-27 08:12:22,258.491,0.082%,
413,2025-01-27 09:42:43,2025-01-27 09:47:03,259.819,0.082%,
414,2025-01-27 11:17:24,2025-01-27 11:21:47,263,0.083%,
415,2025-01-27 12:52:05,2025-01-27 12:56:37,271.765,0.086%,
416,2025-01-27 14:26:47,2025-01-27 14:31:15,267.704,0.085%,
417,2025-01-27 16:01:28,2025-01-27 16:06:01,273.045,0.087%,
418,2025-01-27 17:36:08,2025-01-27 17:40:43,274.984,0.087%,
419,2025-01-27 19:10:48,2025-01-27 19:15:32,284.054,0.090%,
420,2025-01-27 20:45:30,2025-01-27 20:50:16,286.415,0.091%,
421,2025-01-27 22:20:44,2025-01-27 22:24:55,250.531,0.079%,
422,2025-01-27 23:55:25,2025-01-27 23:59:42,257.175,0.082%,
423,2025-01-28 01:30:05,2025-01-28 01:34:31,266.287,0.084%,
424,2025-01-28 03:04:46,2025-01-28 03:09:13,266.809,0.085%,
425,2025-01-28 04:39:28,2025-01-28 04:43:55,267.774,0.085%,
426,2025-01-28 06:14:10,2025-01-28 06:18:50,280.522,0.089%,
427,2025-01-28 07:48:49,2025-01-28 07:53:34,284.857,0.090%,
428,2025-01-28 09:23:29,2025-01-28 09:28:18,288.572,0.092%,
429,2025-01-28 10:58:11,2025-01-28 11:03:02,291.409,0.092%,
430,2025-01-28 12:32:52,2025-01-28 12:32:58,5.433,0.002%,
431,2025-01-28 12:33:24,2025-01-28 12:37:46,261.491,0.083%,
432,2025-01-28 14:08:07,2025-01-28 14:12:30,263.296,0.084%,
433,2025-01-28 15:42:46,2025-01-28 15:47:14,267.829,0.085%,
434,2025-01-28 17:17:27,2025-01-28 17:21:58,270.977,0.086%,
435,2025-01-28 18:52:08,2025-01-28 18:56:42,273.505,0.087%,
436,2025-01-28 20:26:50,2025-01-28 20:31:26,275.648,0.087%,
437,2025-01-28 22:01:31,2025-01-28 22:06:10,278.457,0.088%,
438,2025-01-28 23:36:11,2025-01-28 23:40:54,282.994,0.090%,
439,2025-01-29 01:10:52,2025-01-29 01:15:38,286.174,0.091%,
440,2025-01-29 02:45:33,2025-01-29 02:50:22,288.734,0.092%,
441,2025-01-29 04:20:47,2025-01-29 04:25:06,258.464,0.082%,
442,2025-01-29 05:55:28,2025-01-29 05:59:50,261.986,0.083%,
443,2025-01-29 07:30:08,2025-01-29 07:34:34,266.401,0.085%,
444,2025-01-29 09:04:49,2025-01-29 09:09:18,268.405,0.085%,
445,2025-01-29 10:39:31,2025-01-29 10:44:02,270.713,0.086%,
446,2025-01-29 12:14:13,2025-01-29 12:18:47,274.367,0.087%,
447,2025-01-29 13:48:52,2025-01-29 13:53:30,277.139,0.088%,
448,2025-01-29 15:23:33,2025-01-29 15:28:14,280.99,0.089%,
449,2025-01-29 16:58:14,2025-01-29 17:02:57,283.618,0.090%,
450,2025-01-29 18:32:55,2025-01-29 18:33:11,15.34,0.005%,
451,2025-01-29 18:33:28,2025-01-29 18:37:41,253.672,0.080%,
452,2025-01-29 20:08:10,2025-01-29 20:12:29,258.857,0.082%,
453,2025-01-29 21:42:49,2025-01-29 21:47:09,260.082,0.083%,
454,2025-01-29 23:17:30,2025-01-29 23:21:53,263.197,0.084%,
455,2025-01-30 00:52:12,2025-01-30 00:56:44,271.933,0.086%,
456,2025-01-30 02:26:53,2025-01-30 02:31:21,267.838,0.085%,
457,2025-01-30 04:01:34,2025-01-30 04:06:08,273.493,0.087%,
458,2025-01-30 05:36:14,2025-01-30 05:40:49,275.249,0.087%,
459,2025-01-30 07:10:55,2025-01-30 07:15:39,284.253,0.090%,
460,2025-01-30 08:45:36,2025-01-30 08:50:23,286.576,0.091%,
461,2025-01-30 10:20:50,2025-01-30 10:25:01,250.644,0.080%,
462,2025-01-30 11:55:31,2025-01-30 11:59:48,257.493,0.082%,
463,2025-01-30 13:30:11,2025-01-30 13:34:38,266.514,0.085%,
464,2025-01-30 15:04:52,2025-01-30 15:09:19,266.982,0.085%,
465,2025-01-30 16:39:34,2025-01-30 16:44:02,267.922,0.085%,
466,2025-01-30 18:14:16,2025-01-30 18:18:57,280.65,0.089%,
467,2025-01-30 19:48:56,2025-01-30 19:53:41,285.18,0.090%,
468,2025-01-30 21:23:36,2025-01-30 21:28:25,288.797,0.092%,
469,2025-01-30 22:58:17,2025-01-30 23:03:09,291.586,0.093%,
470,2025-01-31 00:32:59,2025-01-31 00:33:23,23.963,0.008%,
471,2025-01-31 00:33:31,2025-01-31 00:37:53,261.609,0.083%,
472,2025-01-31 02:08:13,2025-01-31 02:12:37,263.738,0.084%,
473,2025-01-31 03:42:52,2025-01-31 03:47:21,268.089,0.085%,
474,2025-01-31 05:17:33,2025-01-31 05:22:05,271.172,0.086%,
475,2025-01-31 06:52:15,2025-01-31 06:56:48,273.667,0.087%,
476,2025-01-31 08:26:57,2025-01-31 08:31:32,275.781,0.087%,
477,2025-01-31 10:01:38,2025-01-31 10:06:16,278.894,0.088%,
478,2025-01-31 11:36:17,2025-01-31 11:41:00,283.258,0.090%,
479,2025-01-31 13:10:58,2025-01-31 13:15:44,286.372,0.091%,
480,2025-01-31 14:45:39,2025-01-31 14:50:28,288.889,0.092%,
481,2025-01-31 16:20:54,2025-01-31 16:25:12,258.574,0.082%,
482,2025-01-31 17:55:34,2025-01-31 17:59:56,262.3,0.083%,
483,2025-01-31 19:30:14,2025-01-31 19:34:41,266.626,0.085%,
484,2025-01-31 21:04:56,2025-01-31 21:09:24,268.579,0.085%,
485,2025-01-31 22:39:37,2025-01-31 22:44:08,270.858,0.086%,
486,2025-02-01 00:14:19,2025-02-01 00:18:54,274.49,0.087%,
487,2025-02-01 01:48:59,2025-02-01 01:53:36,277.46,0.088%,
488,2025-02-01 03:23:39,2025-02-01 03:28:20,281.219,0.089%,
489,2025-02-01 04:58:20,2025-02-01 05:03:04,283.794,0.090%,
490,2025-02-01 06:33:02,2025-02-01 06:33:33,31.3,0.010%,
491,2025-02-01 06:33:34,2025-02-01 06:37:48,253.79,0.081%,
492,2025-02-01 08:08:16,2025-02-01 08:12:35,259.288,0.082%,
493,2025-02-01 09:42:56,2025-02-01 09:47:16,260.338,0.083%,
494,2025-02-01 11:17:37,2025-02-01 11:22:00,263.39,0.084%,
495,2025-02-01 12:52:18,2025-02-01 12:56:50,272.095,0.086%,
496,2025-02-01 14:27:00,2025-02-01 14:31:28,267.971,0.085%,
497,2025-02-01 16:01:41,2025-02-01 16:06:15,273.912,0.087%,
498,2025-02-01 17:36:20,2025-02-01 17:40:56,275.507,0.087%,
499,2025-02-01 19:11:01,2025-02-01 19:15:46,284.441,0.090%,
500,2025-02-01 20:45:43,2025-02-01 20:50:29,286.738,0.091%,
501,2025-02-01 22:20:57,2025-02-01 22:25:08,250.752,0.080%,
502,2025-02-01 23:55:37,2025-02-01 23:59:55,257.801,0.082%,
503,2025-02-02 01:30:18,2025-02-02 01:34:44,266.736,0.085%,
504,2025-02-02 03:04:59,2025-02-02 03:09:26,267.151,0.085%,
505,2025-02-02 04:39:41,2025-02-02 04:44:09,268.072,0.085%,
506,2025-02-02 06:14:23,2025-02-02 06:19:03,280.771,0.089%,
507,2025-02-02 07:49:02,2025-02-02 07:53:47,285.491,0.091%,
508,2025-02-02 09:23:42,2025-02-02 09:28:31,289.017,0.092%,
509,2025-02-02 10:58:23,2025-02-02 11:03:15,291.76,0.093%,
510,2025-02-02 12:33:05,2025-02-02 12:37:59,294.047,0.093%,
511,2025-02-02 14:08:19,2025-02-02 14:12:43,264.151,0.084%,
512,2025-02-02 15:42:59,2025-02-02 15:47:27,268.34,0.085%,
513,2025-02-02 17:17:40,2025-02-02 17:22:11,271.363,0.086%,
514,2025-02-02 18:52:21,2025-02-02 18:56:55,273.823,0.087%,
515,2025-02-02 20:27:03,2025-02-02 20:31:39,275.917,0.088%,
516,2025-02-02 22:01:44,2025-02-02 22:06:23,279.303,0.089%,
517,2025-02-02 23:36:23,2025-02-02 23:41:07,283.509,0.090%,
518,2025-02-03 01:11:04,2025-02-03 01:15:51,286.565,0.091%,
519,2025-02-03 02:45:46,2025-02-03 02:50:35,289.046,0.092%,
520,2025-02-03 04:21:00,2025-02-03 04:25:19,258.684,0.082%,
521,2025-02-03 05:55:40,2025-02-03 06:00:03,262.602,0.083%,
522,2025-02-03 07:30:21,2025-02-03 07:34:48,266.845,0.085%,
523,2025-02-03 09:05:02,2025-02-03 09:09:31,268.75,0.085%,
524,2025-02-03 10:39:44,2025-02-03 10:44:15,271.004,0.086%,
525,2025-02-03 12:14:26,2025-02-03 12:19:00,274.606,0.087%,
526,2025-02-03 13:49:05,2025-02-03 13:53:43,277.764,0.088%,
527,2025-02-03 15:23:45,2025-02-03 15:28:27,281.44,0.089%,
528,2025-02-03 16:58:27,2025-02-03 17:03:11,283.966,0.090%,
529,2025-02-03 18:33:08,2025-02-03 18:37:55,286.242,0.091%,
530,2025-02-03 20:08:22,2025-02-03 20:12:42,259.691,0.082%,
531,2025-02-03 21:43:02,2025-02-03 21:47:23,260.582,0.083%,
532,2025-02-03 23:17:43,2025-02-03 23:22:07,263.579,0.084%,
533,2025-02-04 00:52:24,2025-02-04 00:56:57,272.254,0.086%,
534,2025-02-04 02:27:06,2025-02-04 02:31:34,268.105,0.085%,
535,2025-02-04 04:01:47,2025-02-04 04:06:21,274.305,0.087%,
536,2025-02-04 05:36:27,2025-02-04 05:41:02,275.756,0.087%,
537,2025-02-04 07:11:08,2025-02-04 07:15:52,284.628,0.090%,
538,2025-02-04 08:45:49,2025-02-04 08:50:36,286.902,0.091%,
539,2025-02-04 10:20:31,2025-02-04 10:20:34,3.408,0.001%,
540,2025-02-04 10:21:03,2025-02-04 10:25:14,250.862,0.080%,
541,2025-02-04 11:55:43,2025-02-04 12:00:02,258.095,0.082%,
542,2025-02-04 13:30:24,2025-02-04 13:34:51,266.953,0.085%,
543,2025-02-04 15:05:05,2025-02-04 15:09:33,267.316,0.085%,
544,2025-02-04 16:39:47,2025-02-04 16:44:15,268.216,0.085%,
545,2025-02-04 18:14:29,2025-02-04 18:19:04,274.663,0.087%,
546,2025-02-04 18:19:09,2025-02-04 18:19:10,1.059,0.000%,
547,2025-02-04 19:49:08,2025-02-04 19:53:54,285.792,0.091%,
548,2025-02-04 21:23:49,2025-02-04 21:28:38,289.231,0.092%,
549,2025-02-04 22:58:30,2025-02-04 23:03:22,291.93,0.093%,
550,2025-02-05 00:33:12,2025-02-05 00:38:06,294.189,0.093%,
551,2025-02-05 02:08:25,2025-02-05 02:12:50,264.537,0.084%,
552,2025-02-05 03:43:05,2025-02-05 03:47:34,268.58,0.085%,
553,2025-02-05 05:17:46,2025-02-05 05:22:18,271.549,0.086%,
554,2025-02-05 06:52:28,2025-02-05 06:57:02,273.975,0.087%,
555,2025-02-05 08:27:10,2025-02-05 08:31:46,276.045,0.088%,
556,2025-02-05 10:01:50,2025-02-05 10:06:30,279.685,0.089%,
557,2025-02-05 11:36:30,2025-02-05 11:41:14,283.755,0.090%,
558,2025-02-05 13:11:11,2025-02-05 13:15:58,286.753,0.091%,
559,2025-02-05 14:45:52,2025-02-05 14:50:42,289.203,0.092%,
560,2025-02-05 16:20:34,2025-02-05 16:20:40,6.385,0.002%,
561,2025-02-05 16:21:07,2025-02-05 16:25:25,258.792,0.082%,
562,2025-02-05 17:55:47,2025-02-05 18:00:09,262.893,0.083%,
563,2025-02-05 19:30:27,2025-02-05 19:34:54,267.059,0.085%,
564,2025-02-05 21:05:08,2025-02-05 21:09:37,268.917,0.085%,
565,2025-02-05 22:39:50,2025-02-05 22:44:21,271.143,0.086%,
566,2025-02-06 00:14:32,2025-02-06 00:19:07,274.72,0.087%,
567,2025-02-06 01:49:11,2025-02-06 01:53:49,278.053,0.088%,
568,2025-02-06 03:23:52,2025-02-06 03:28:33,281.652,0.089%,
569,2025-02-06 04:58:33,2025-02-06 05:03:17,284.135,0.090%,
570,2025-02-06 06:33:15,2025-02-06 06:38:01,286.383,0.091%,
571,2025-02-06 08:08:28,2025-02-06 08:12:48,260.07,0.083%,
572,2025-02-06 09:43:08,2025-02-06 09:47:29,260.822,0.083%,
573,2025-02-06 11:17:49,2025-02-06 11:22:13,263.764,0.084%,
574,2025-02-06 12:52:31,2025-02-06 12:57:03,272.41,0.086%,
575,2025-02-06 14:27:13,2025-02-06 14:31:41,268.232,0.085%,
576,2025-02-06 16:01:53,2025-02-06 16:06:28,274.673,0.087%,
577,2025-02-06 17:36:33,2025-02-06 17:41:09,275.999,0.088%,
578,2025-02-06 19:11:14,2025-02-06 19:15:59,284.81,0.090%,
579,2025-02-06 20:45:56,2025-02-06 20:50:43,287.057,0.091%,
580,2025-02-06 22:20:37,2025-02-06 22:20:45,8.052,0.003%,
581,2025-02-06 22:21:10,2025-02-06 22:25:21,250.969,0.080%,
582,2025-02-06 23:55:50,2025-02-07 00:00:08,258.379,0.082%,
583,2025-02-07 01:30:30,2025-02-07 01:34:58,267.165,0.085%,
584,2025-02-07 03:05:12,2025-02-07 03:09:39,267.478,0.085%,
585,2025-02-07 04:39:53,2025-02-07 04:44:22,268.357,0.085%,
586,2025-02-07 06:14:36,2025-02-07 06:19:10,274.776,0.087%,
587,2025-02-07 07:49:14,2025-02-07 07:54:00,286.077,0.091%,
588,2025-02-07 09:23:55,2025-02-07 09:28:44,289.44,0.092%,
589,2025-02-07 10:58:36,2025-02-07 11:03:28,292.098,0.093%,
590,2025-02-07 12:33:18,2025-02-07 12:38:12,294.328,0.093%,
591,2025-02-07 14:08:31,2025-02-07 14:12:56,264.902,0.084%,
592,2025-02-07 15:43:12,2025-02-07 15:47:40,268.817,0.085%,
593,2025-02-07 17:17:53,2025-02-07 17:22:24,271.732,0.086%,
594,2025-02-07 18:52:34,2025-02-07 18:57:08,274.126,0.087%,
595,2025-02-07 20:27:16,2025-02-07 20:31:52,276.172,0.088%,
596,2025-02-07 22:01:56,2025-02-07 22:06:36,280.048,0.089%,
597,2025-02-07 23:36:36,2025-02-07 23:41:20,283.995,0.090%,
598,2025-02-08 01:11:17,2025-02-08 01:16:04,286.939,0.091%,
599,2025-02-08 02:45:59,2025-02-08 02:50:48,289.355,0.092%,
600,2025-02-08 04:20:40,2025-02-08 04:20:48,8.441,0.003%,
601,2025-02-08 04:21:13,2025-02-08 04:25:32,258.899,0.082%,
602,2025-02-08 05:55:53,2025-02-08 06:00:16,263.175,0.084%,
603,2025-02-08 07:30:34,2025-02-08 07:35:01,267.269,0.085%,
604,2025-02-08 09:05:15,2025-02-08 09:09:44,269.082,0.085%,
605,2025-02-08 10:39:57,2025-02-08 10:44:28,271.281,0.086%,
606,2025-02-08 12:14:39,2025-02-08 12:19:14,274.997,0.087%,
607,2025-02-08 13:49:18,2025-02-08 13:53:56,278.337,0.088%,
608,2025-02-08 15:23:58,2025-02-08 15:28:40,281.864,0.089%,
609,2025-02-08 16:58:40,2025-02-08 17:03:24,284.304,0.090%,
610,2025-02-08 18:33:21,2025-02-08 18:38:08,286.518,0.091%,
611,2025-02-08 20:08:35,2025-02-08 20:12:55,260.431,0.083%,
612,2025-02-08 21:43:15,2025-02-08 21:47:36,261.056,0.083%,
613,2025-02-08 23:17:56,2025-02-08 23:22:20,263.946,0.084%,
614,2025-02-09 00:52:37,2025-02-09 00:57:10,272.565,0.086%,
615,2025-02-09 02:27:19,2025-02-09 02:31:48,268.359,0.085%,
616,2025-02-09 04:01:59,2025-02-09 04:06:34,275.025,0.087%,
617,2025-02-09 05:36:39,2025-02-09 05:41:16,276.236,0.088%,
618,2025-02-09 07:11:20,2025-02-09 07:16:05,284.989,0.090%,
619,2025-02-09 08:46:02,2025-02-09 08:50:49,287.212,0.091%,
620,2025-02-09 10:20:43,2025-02-09 10:20:50,7.568,0.002%,
621,2025-02-09 10:21:16,2025-02-09 10:25:28,251.076,0.080%,
622,2025-02-09 11:55:56,2025-02-09 12:00:15,258.652,0.082%,
623,2025-02-09 13:30:37,2025-02-09 13:35:04,267.373,0.085%,
624,2025-02-09 15:05:18,2025-02-09 15:09:46,267.637,0.085%,
625,2025-02-09 16:40:00,2025-02-09 16:44:28,268.497,0.085%,
626,2025-02-09 18:14:42,2025-02-09 18:19:17,275.254,0.087%,
627,2025-02-09 19:49:21,2025-02-09 19:54:07,286.357,0.091%,
628,2025-02-09 21:24:01,2025-02-09 21:28:51,289.646,0.092%,
629,2025-02-09 22:58:43,2025-02-09 23:03:35,292.265,0.093%,
630,2025-02-10 00:33:25,2025-02-10 00:38:19,294.466,0.093%,
631,2025-02-10 02:08:38,2025-02-10 02:13:03,265.251,0.084%,
632,2025-02-10 03:43:18,2025-02-10 03:47:47,269.05,0.085%,
633,2025-02-10 05:17:59,2025-02-10 05:22:31,271.913,0.086%,
634,2025-02-10 06:52:41,2025-02-10 06:57:15,274.274,0.087%,
635,2025-02-10 08:27:23,2025-02-10 08:31:59,276.298,0.088%,
636,2025-02-10 10:02:02,2025-02-10 10:06:43,280.398,0.089%,
637,2025-02-10 11:36:43,2025-02-10 11:41:27,284.229,0.090%,
638,2025-02-10 13:11:24,2025-02-10 13:16:11,287.121,0.091%,
639,2025-02-10 14:46:05,2025-02-10 14:50:55,289.505,0.092%,
640,2025-02-10 16:20:46,2025-02-10 16:20:51,5.449,0.002%,
641,2025-02-10 16:21:20,2025-02-10 16:25:39,259.005,0.082%,
642,2025-02-10 17:55:59,2025-02-10 18:00:23,263.449,0.084%,
643,2025-02-10 19:30:40,2025-02-10 19:35:07,267.476,0.085%,
644,2025-02-10 21:05:21,2025-02-10 21:09:51,269.244,0.085%,
645,2025-02-10 22:40:03,2025-02-10 22:44:35,271.417,0.086%,
646,2025-02-11 00:14:45,2025-02-11 00:19:20,275.501,0.087%,
647,2025-02-11 01:49:24,2025-02-11 01:54:03,278.613,0.088%,
648,2025-02-11 03:24:05,2025-02-11 03:28:47,282.072,0.089%,
649,2025-02-11 04:58:46,2025-02-11 05:03:30,284.468,0.090%,
650,2025-02-11 06:33:28,2025-02-11 06:38:14,286.655,0.091%,
651,2025-02-11 08:08:41,2025-02-11 08:13:02,260.778,0.083%,
652,2025-02-11 09:43:21,2025-02-11 09:47:42,261.287,0.083%,
653,2025-02-11 11:18:02,2025-02-11 11:22:26,264.125,0.084%,
654,2025-02-11 12:52:44,2025-02-11 12:57:17,272.717,0.087%,
655,2025-02-11 14:27:26,2025-02-11 14:31:54,268.484,0.085%,
656,2025-02-11 16:02:06,2025-02-11 16:06:41,275.365,0.087%,
657,2025-02-11 17:36:46,2025-02-11 17:41:22,276.469,0.088%,
658,2025-02-11 19:11:27,2025-02-11 19:16:12,285.167,0.090%,
659,2025-02-11 20:46:08,2025-02-11 20:50:56,287.365,0.091%,
660,2025-02-11 22:20:49,2025-02-11 22:20:51,2.104,0.001%,
661,2025-02-11 22:21:23,2025-02-11 22:25:34,251.182,0.080%,
662,2025-02-11 23:56:02,2025-02-12 00:00:21,258.92,0.082%,
663,2025-02-12 01:30:43,2025-02-12 01:35:11,267.578,0.085%,
664,2025-02-12 03:05:25,2025-02-12 03:09:52,267.796,0.085%,
665,2025-02-12 04:40:06,2025-02-12 04:44:35,268.635,0.085%,
666,2025-02-12 06:14:48,2025-02-12 06:19:23,275.738,0.087%,
667,2025-02-12 06:19:24,2025-02-12 06:19:30,5.926,0.002%,
668,2025-02-12 07:49:27,2025-02-12 07:54:14,286.629,0.091%,
669,2025-02-12 09:24:08,2025-02-12 09:28:58,289.849,0.092%,
670,2025-02-12 10:58:49,2025-02-12 11:03:42,292.432,0.093%,
671,2025-02-12 12:33:31,2025-02-12 12:38:26,294.602,0.093%,
672,2025-02-12 14:08:44,2025-02-12 14:13:10,265.586,0.084%,
673,2025-02-12 15:43:24,2025-02-12 15:47:54,269.278,0.085%,
674,2025-02-12 17:18:05,2025-02-12 17:22:38,272.091,0.086%,
675,2025-02-12 18:52:47,2025-02-12 18:57:21,274.421,0.087%,
676,2025-02-12 20:27:29,2025-02-12 20:32:05,276.423,0.088%,
677,2025-02-12 22:02:09,2025-02-12 22:06:49,280.735,0.089%,
678,2025-02-12 23:36:49,2025-02-12 23:41:33,284.463,0.090%,
679,2025-02-13 01:11:30,2025-02-13 01:16:17,287.304,0.091%,
680,2025-02-13 02:46:12,2025-02-13 02:51:01,289.653,0.092%,
681,2025-02-13 04:21:26,2025-02-13 04:25:45,259.161,0.082%,
682,2025-02-13 05:56:06,2025-02-13 06:00:29,263.716,0.084%,
683,2025-02-13 07:30:46,2025-02-13 07:35:14,267.679,0.085%,
684,2025-02-13 09:05:28,2025-02-13 09:09:57,269.405,0.085%,
685,2025-02-13 10:40:10,2025-02-13 10:44:41,271.551,0.086%,
686,2025-02-13 12:14:51,2025-02-13 12:19:27,275.966,0.088%,
687,2025-02-13 13:49:30,2025-02-13 13:54:09,278.882,0.088%,
688,2025-02-13 15:24:11,2025-02-13 15:28:53,282.276,0.090%,
689,2025-02-13 16:58:52,2025-02-13 17:03:37,284.63,0.090%,
690,2025-02-13 18:33:34,2025-02-13 18:38:21,286.791,0.091%,
691,2025-02-13 20:08:47,2025-02-13 20:13:08,261.11,0.083%,
692,2025-02-13 21:43:27,2025-02-13 21:47:49,261.512,0.083%,
693,2025-02-13 23:18:09,2025-02-13 23:22:33,264.302,0.084%,
694,2025-02-14 00:52:50,2025-02-14 00:57:23,272.868,0.087%,
695,2025-02-14 02:27:32,2025-02-14 02:32:01,268.608,0.085%,
696,2025-02-14 04:02:12,2025-02-14 04:06:48,275.696,0.087%,
697,2025-02-14 05:36:52,2025-02-14 05:41:29,276.697,0.088%,
698,2025-02-14 07:11:33,2025-02-14 07:16:19,285.344,0.091%,
699,2025-02-14 08:46:15,2025-02-14 08:51:02,287.516,0.091%,
700,2025-02-14 10:21:29,2025-02-14 10:25:41,251.511,0.080%,
701,2025-02-14 11:56:09,2025-02-14 12:00:28,259.181,0.082%,
702,2025-02-14 13:30:50,2025-02-14 13:35:17,267.779,0.085%,
703,2025-02-14 15:05:31,2025-02-14 15:09:59,267.952,0.085%,
704,2025-02-14 16:40:13,2025-02-14 16:44:42,268.771,0.085%,
705,2025-02-14 18:14:54,2025-02-14 18:19:36,282.431,0.090%,
706,2025-02-14 19:49:33,2025-02-14 19:54:20,286.894,0.091%,
707,2025-02-14 21:24:14,2025-02-14 21:29:04,290.048,0.092%,
708,2025-02-14 22:58:56,2025-02-14 23:03:48,292.59,0.093%,
709,2025-02-15 00:33:37,2025-02-15 00:34:05,27.848,0.009%,
710,2025-02-15 00:34:10,2025-02-15 00:38:32,262.3,0.083%,
711,2025-02-15 02:08:50,2025-02-15 02:13:16,265.907,0.084%,
712,2025-02-15 03:43:31,2025-02-15 03:48:00,269.5,0.086%,
713,2025-02-15 05:18:12,2025-02-15 05:22:44,272.266,0.086%,
714,2025-02-15 06:52:54,2025-02-15 06:57:28,274.566,0.087%,
715,2025-02-15 08:27:36,2025-02-15 08:32:12,276.546,0.088%,
716,2025-02-15 10:02:15,2025-02-15 10:06:56,281.058,0.089%,
717,2025-02-15 11:36:55,2025-02-15 11:41:40,284.685,0.090%,
718,2025-02-15 13:11:36,2025-02-15 13:16:24,287.481,0.091%,
719,2025-02-15 14:46:18,2025-02-15 14:51:08,289.8,0.092%,
720,2025-02-15 16:21:32,2025-02-15 16:25:52,259.605,0.082%,
721,2025-02-15 17:56:12,2025-02-15 18:00:36,263.975,0.084%,
722,2025-02-15 19:30:53,2025-02-15 19:35:21,267.878,0.085%,
723,2025-02-15 21:05:34,2025-02-15 21:10:04,269.563,0.086%,
724,2025-02-15 22:40:16,2025-02-15 22:44:48,271.684,0.086%,
725,2025-02-16 00:14:57,2025-02-16 00:19:33,276.398,0.088%,
726,2025-02-16 01:49:37,2025-02-16 01:54:16,279.143,0.089%,
727,2025-02-16 03:24:17,2025-02-16 03:29:00,282.476,0.090%,
728,2025-02-16 04:58:59,2025-02-16 05:03:44,284.79,0.090%,
729,2025-02-16 06:33:41,2025-02-16 06:34:01,20.336,0.006%,
730,2025-02-16 06:34:13,2025-02-16 06:38:28,254.477,0.081%,
731,2025-02-16 08:08:53,2025-02-16 08:13:15,261.428,0.083%,
732,2025-02-16 09:43:34,2025-02-16 09:47:56,261.732,0.083%,
733,2025-02-16 11:18:15,2025-02-16 11:22:40,264.476,0.084%,
734,2025-02-16 12:52:57,2025-02-16 12:57:30,273.016,0.087%,
735,2025-02-16 14:27:39,2025-02-16 14:32:07,268.73,0.085%,
736,2025-02-16 16:02:18,2025-02-16 16:06:54,276.006,0.088%,
737,2025-02-16 17:36:59,2025-02-16 17:41:35,276.919,0.088%,
738,2025-02-16 19:11:40,2025-02-16 19:16:25,285.516,0.091%,
739,2025-02-16 20:46:21,2025-02-16 20:51:09,287.665,0.091%,
740,2025-02-16 22:21:35,2025-02-16 22:25:47,251.939,0.080%,
741,2025-02-16 23:56:15,2025-02-17 00:00:35,259.433,0.082%,
742,2025-02-17 01:30:56,2025-02-17 01:35:24,267.976,0.085%,
743,2025-02-17 03:05:37,2025-02-17 03:10:06,268.105,0.085%,
744,2025-02-17 04:40:19,2025-02-17 04:44:48,268.906,0.085%,
745,2025-02-17 06:15:00,2025-02-17 06:19:43,282.852,0.090%,
746,2025-02-17 07:49:40,2025-02-17 07:54:27,287.151,0.091%,
747,2025-02-17 09:24:21,2025-02-17 09:29:11,290.242,0.092%,
748,2025-02-17 10:59:02,2025-02-17 11:03:55,292.748,0.093%,
749,2025-02-17 12:33:44,2025-02-17 12:33:56,11.74,0.004%,
750,2025-02-17 12:34:16,2025-02-17 12:38:39,262.41,0.083%,
751,2025-02-17 14:08:57,2025-02-17 14:13:23,266.215,0.084%,
752,2025-02-17 15:43:37,2025-02-17 15:48:07,269.717,0.086%,
753,2025-02-17 17:18:18,2025-02-17 17:22:51,272.438,0.086%,
754,2025-02-17 18:53:00,2025-02-17 18:57:35,274.709,0.087%,
755,2025-02-17 20:27:42,2025-02-17 20:32:19,276.667,0.088%,
756,2025-02-17 22:02:21,2025-02-17 22:07:03,281.368,0.089%,
757,2025-02-17 23:37:02,2025-02-17 23:41:47,284.904,0.090%,
758,2025-02-18 01:11:43,2025-02-18 01:16:31,287.655,0.091%,
759,2025-02-18 02:46:25,2025-02-18 02:51:15,289.943,0.092%,
760,2025-02-18 04:21:38,2025-02-18 04:25:59,260.019,0.083%,
761,2025-02-18 05:56:18,2025-02-18 06:00:42,264.226,0.084%,
762,2025-02-18 07:30:59,2025-02-18 07:35:27,268.073,0.085%,
763,2025-02-18 09:05:41,2025-02-18 09:10:10,269.718,0.086%,
764,2025-02-18 10:40:23,2025-02-18 10:44:54,271.815,0.086%,
765,2025-02-18 12:15:03,2025-02-18 12:19:40,276.802,0.088%,
766,2025-02-18 13:49:43,2025-02-18 13:54:22,279.4,0.089%,
767,2025-02-18 15:24:24,2025-02-18 15:29:07,282.672,0.090%,
768,2025-02-18 16:59:05,2025-02-18 17:03:50,284.947,0.090%,
769,2025-02-18 18:33:47,2025-02-18 18:33:49,2.086,0.001%,
770,2025-02-18 18:34:20,2025-02-18 18:38:34,254.586,0.081%,
771,2025-02-18 20:09:00,2025-02-18 20:13:21,261.735,0.083%,
772,2025-02-18 21:43:40,2025-02-18 21:48:02,261.947,0.083%,
773,2025-02-18 23:18:22,2025-02-18 23:22:46,264.646,0.084%,
774,2025-02-19 00:53:03,2025-02-19 00:57:36,273.163,0.087%,
775,2025-02-19 02:27:45,2025-02-19 02:32:14,268.85,0.085%,
776,2025-02-19 04:02:24,2025-02-19 04:07:01,276.306,0.088%,
777,2025-02-19 05:37:05,2025-02-19 05:41:42,277.136,0.088%,
778,2025-02-19 07:11:46,2025-02-19 07:16:32,285.684,0.091%,
779,2025-02-19 08:46:28,2025-02-19 08:51:16,287.811,0.091%,
780,2025-02-19 10:21:42,2025-02-19 10:25:54,252.339,0.080%,
781,2025-02-19 11:56:21,2025-02-19 12:00:41,259.677,0.082%,
782,2025-02-19 13:31:02,2025-02-19 13:35:31,268.169,0.085%,
783,2025-02-19 15:05:44,2025-02-19 15:10:12,268.255,0.085%,
784,2025-02-19 16:40:26,2025-02-19 16:44:55,269.039,0.085%,
785,2025-02-19 16:45:02,2025-02-19 16:45:06,3.458,0.001%,
786,2025-02-19 18:15:06,2025-02-19 18:19:50,283.249,0.090%,
787,2025-02-19 19:49:46,2025-02-19 19:54:34,287.401,0.091%,
788,2025-02-19 21:24:27,2025-02-19 21:29:17,290.433,0.092%,
789,2025-02-19 22:59:09,2025-02-19 23:04:01,292.903,0.093%,
790,2025-02-20 00:34:23,2025-02-20 00:38:45,262.519,0.083%,
791,2025-02-20 02:09:03,2025-02-20 02:13:29,266.511,0.085%,
792,2025-02-20 03:43:43,2025-02-20 03:48:13,269.929,0.086%,
793,2025-02-20 05:18:25,2025-02-20 05:22:57,272.607,0.086%,
794,2025-02-20 06:53:06,2025-02-20 06:57:41,274.849,0.087%,
795,2025-02-20 08:27:48,2025-02-20 08:32:25,276.786,0.088%,
796,2025-02-20 10:02:28,2025-02-20 10:07:09,281.667,0.089%,
797,2025-02-20 11:37:08,2025-02-20 11:41:53,285.119,0.090%,
798,2025-02-20 13:11:49,2025-02-20 13:16:37,287.825,0.091%,
799,2025-02-20 14:46:31,2025-02-20 14:46:58,26.882,0.009%,
800,2025-02-20 14:47:03,2025-02-20 14:51:21,257.743,0.082%,
801,2025-02-20 16:21:45,2025-02-20 16:26:05,260.406,0.083%,
802,2025-02-20 17:56:25,2025-02-20 18:00:49,264.466,0.084%,
803,2025-02-20 19:31:06,2025-02-20 19:35:34,268.265,0.085%,
804,2025-02-20 21:05:47,2025-02-20 21:10:17,269.871,0.086%,
805,2025-02-20 22:40:29,2025-02-20 22:45:01,271.944,0.086%,
806,2025-02-21 00:15:09,2025-02-21 00:19:49,279.383,0.089%,
807,2025-02-21 01:49:49,2025-02-21 01:54:29,279.643,0.089%,
808,2025-02-21 03:24:30,2025-02-21 03:29:13,282.868,0.090%,
809,2025-02-21 04:59:12,2025-02-21 05:03:57,285.101,0.090%,
810,2025-02-21 06:34:26,2025-02-21 06:38:41,254.695,0.081%,
811,2025-02-21 08:09:06,2025-02-21 08:13:28,262.03,0.083%,
812,2025-02-21 09:43:47,2025-02-21 09:48:09,262.156,0.083%,
813,2025-02-21 11:18:28,2025-02-21 11:22:58,270.126,0.086%,
814,2025-02-21 12:53:10,2025-02-21 12:57:43,273.307,0.087%,
815,2025-02-21 14:27:52,2025-02-21 14:32:21,268.969,0.085%,
816,2025-02-21 16:02:31,2025-02-21 16:07:07,276.596,0.088%,
817,2025-02-21 17:37:11,2025-02-21 17:41:49,277.348,0.088%,
818,2025-02-21 19:11:53,2025-02-21 19:16:38,285.848,0.091%,
819,2025-02-21 20:46:34,2025-02-21 20:46:49,14.741,0.005%,
820,2025-02-21 20:47:07,2025-02-21 20:51:22,255.602,0.081%,
821,2025-02-21 22:21:48,2025-02-21 22:26:01,252.716,0.080%,
822,2025-02-21 23:56:28,2025-02-22 00:00:48,259.911,0.082%,
823,2025-02-22 01:31:09,2025-02-22 01:35:37,268.359,0.085%,
824,2025-02-22 03:05:50,2025-02-22 03:10:19,268.403,0.085%,
825,2025-02-22 04:40:32,2025-02-22 04:45:12,279.889,0.089%,
826,2025-02-22 06:15:13,2025-02-22 06:19:56,283.624,0.090%,
827,2025-02-22 07:49:52,2025-02-22 07:54:40,287.644,0.091%,
828,2025-02-22 09:24:33,2025-02-22 09:29:24,290.625,0.092%,
829,2025-02-22 10:59:15,2025-02-22 11:04:08,293.056,0.093%,
830,2025-02-22 12:34:29,2025-02-22 12:38:52,262.626,0.083%,
831,2025-02-22 14:09:09,2025-02-22 14:13:36,266.797,0.085%,
832,2025-02-22 15:43:50,2025-02-22 15:48:20,270.137,0.086%,
833,2025-02-22 17:18:31,2025-02-22 17:23:04,272.772,0.087%,
834,2025-02-22 18:53:13,2025-02-22 18:57:48,274.987,0.087%,
835,2025-02-22 20:27:55,2025-02-22 20:32:32,276.904,0.088%,
836,2025-02-22 22:02:34,2025-02-22 22:07:16,281.956,0.089%,
837,2025-02-22 23:37:14,2025-02-22 23:42:00,285.328,0.091%,
838,2025-02-23 01:11:56,2025-02-23 01:16:44,287.993,0.091%,
839,2025-02-23 02:46:38,2025-02-23 02:46:39,1.647,0.001%,
840,2025-02-23 02:47:10,2025-02-23 02:51:28,257.859,0.082%,
841,2025-02-23 04:21:51,2025-02-23 04:26:12,260.773,0.083%,
842,2025-02-23 05:56:31,2025-02-23 06:00:56,264.704,0.084%,
843,2025-02-23 07:31:12,2025-02-23 07:35:40,268.453,0.085%,
844,2025-02-23 09:05:54,2025-02-23 09:10:24,270.021,0.086%,
845,2025-02-23 10:40:36,2025-02-23 10:45:08,272.071,0.086%,
846,2025-02-23 12:15:16,2025-02-23 12:19:55,279.755,0.089%,
847,2025-02-23 13:49:56,2025-02-23 13:54:36,279.883,0.089%,
848,2025-02-23 15:24:37,2025-02-23 15:29:20,283.057,0.090%,
849,2025-02-23 16:59:18,2025-02-23 17:04:03,285.253,0.091%,
850,2025-02-23 18:34:33,2025-02-23 18:38:47,254.802,0.081%,
851,2025-02-23 20:09:12,2025-02-23 20:13:35,262.316,0.083%,
852,2025-02-23 21:43:53,2025-02-23 21:48:15,262.362,0.083%,
853,2025-02-23 23:18:34,2025-02-23 23:23:05,270.285,0.086%,
854,2025-02-24 00:53:16,2025-02-24 00:57:50,273.45,0.087%,
855,2025-02-24 02:27:58,2025-02-24 02:32:27,269.201,0.085%,
856,2025-02-24 04:02:37,2025-02-24 04:07:14,276.881,0.088%,
857,2025-02-24 05:37:18,2025-02-24 05:41:55,277.556,0.088%,
858,2025-02-24 07:11:59,2025-02-24 07:16:45,286.01,0.091%,
859,2025-02-24 08:47:13,2025-02-24 08:51:29,255.721,0.081%,
860,2025-02-24 10:21:54,2025-02-24 10:26:07,253.074,0.080%,
861,2025-02-24 11:56:34,2025-02-24 12:00:54,260.143,0.083%,
862,2025-02-24 13:31:15,2025-02-24 13:35:44,268.546,0.085%,
863,2025-02-24 15:05:57,2025-02-24 15:10:25,268.548,0.085%,
864,2025-02-24 15:10:29,2025-02-24 15:10:35,5.374,0.002%,
865,2025-02-24 16:40:39,2025-02-24 16:45:19,280.015,0.089%,
866,2025-02-24 18:15:19,2025-02-24 18:20:03,283.982,0.090%,
867,2025-02-24 19:49:59,2025-02-24 19:54:47,287.881,0.091%,
868,2025-02-24 21:24:40,2025-02-24 21:29:31,290.807,0.092%,
869,2025-02-24 22:59:21,2025-02-24 22:59:43,21.501,0.007%,
870,2025-02-24 22:59:54,2025-02-24 23:04:15,260.985,0.083%,
871,2025-02-25 00:34:36,2025-02-25 00:38:59,262.733,0.083%,
872,2025-02-25 02:09:16,2025-02-25 02:13:43,267.075,0.085%,
873,2025-02-25 03:43:56,2025-02-25 03:48:27,270.34,0.086%,
874,2025-02-25 05:18:38,2025-02-25 05:23:11,272.936,0.087%,
875,2025-02-25 06:53:19,2025-02-25 06:57:55,275.124,0.087%,
876,2025-02-25 08:28:01,2025-02-25 08:32:38,277.341,0.088%,
877,2025-02-25 10:02:40,2025-02-25 10:07:22,282.236,0.090%,
878,2025-02-25 11:37:21,2025-02-25 11:42:06,285.535,0.091%,
879,2025-02-25 13:12:02,2025-02-25 13:16:50,288.159,0.091%,
880,2025-02-25 14:47:16,2025-02-25 14:51:34,257.973,0.082%,
881,2025-02-25 16:21:57,2025-02-25 16:26:18,261.124,0.083%,
882,2025-02-25 17:56:37,2025-02-25 18:01:02,264.937,0.084%,
883,2025-02-25 19:31:18,2025-02-25 19:35:47,268.638,0.085%,
884,2025-02-25 21:06:00,2025-02-25 21:10:30,270.17,0.086%,
885,2025-02-25 22:40:42,2025-02-25 22:45:14,272.196,0.086%,
886,2025-02-26 00:15:22,2025-02-26 00:20:02,280.114,0.089%,
887,2025-02-26 01:50:02,2025-02-26 01:54:42,280.119,0.089%,
888,2025-02-26 03:24:43,2025-02-26 03:29:26,283.244,0.090%,
889,2025-02-26 04:59:25,2025-02-26 04:59:31,6.168,0.002%,
890,2025-02-26 04:59:57,2025-02-26 05:04:10,253.167,0.080%,
891,2025-02-26 06:34:39,2025-02-26 06:38:54,254.908,0.081%,
892,2025-02-26 08:09:19,2025-02-26 08:13:41,262.594,0.083%,
893,2025-02-26 09:43:59,2025-02-26 09:48:22,262.564,0.083%,
894,2025-02-26 11:18:41,2025-02-26 11:23:11,270.443,0.086%,
895,2025-02-26 12:53:23,2025-02-26 12:57:56,273.591,0.087%,
896,2025-02-26 14:28:04,2025-02-26 14:32:34,269.717,0.086%,
897,2025-02-26 16:02:43,2025-02-26 16:07:21,277.151,0.088%,
898,2025-02-26 17:37:24,2025-02-26 17:42:02,277.761,0.088%,
899,2025-02-26 19:12:05,2025-02-26 19:16:52,286.171,0.091%,
900,2025-02-26 20:47:20,2025-02-26 20:51:35,255.839,0.081%,
901,2025-02-26 22:22:00,2025-02-26 22:26:14,253.418,0.080%,
902,2025-02-26 23:56:41,2025-02-27 00:01:01,260.372,0.083%,
903,2025-02-27 01:31:22,2025-02-27 01:35:50,268.73,0.085%,
904,2025-02-27 03:06:03,2025-02-27 03:10:41,278.126,0.088%,
905,2025-02-27 04:40:45,2025-02-27 04:45:25,280.14,0.089%,
906,2025-02-27 06:15:25,2025-02-27 06:20:09,284.329,0.090%,
907,2025-02-27 07:50:05,2025-02-27 07:54:53,288.114,0.091%,
908,2025-02-27 09:24:46,2025-02-27 09:29:37,290.988,0.092%,
909,2025-02-27 11:00:00,2025-02-27 11:04:21,261.107,0.083%,
910,2025-02-27 12:34:42,2025-02-27 12:39:05,262.839,0.083%,
911,2025-02-27 14:09:22,2025-02-27 14:13:49,267.345,0.085%,
912,2025-02-27 15:44:03,2025-02-27 15:48:33,270.541,0.086%,
913,2025-02-27 17:18:44,2025-02-27 17:23:17,273.098,0.087%,
914,2025-02-27 18:53:26,2025-02-27 18:58:01,275.259,0.087%,
915,2025-02-27 20:28:07,2025-02-27 20:32:45,277.835,0.088%,
916,2025-02-27 22:02:47,2025-02-27 22:07:29,282.51,0.090%,
917,2025-02-27 23:37:27,2025-02-27 23:42:13,285.738,0.091%,
918,2025-02-28 01:12:09,2025-02-28 01:12:31,22.791,0.007%,
919,2025-02-28 01:12:41,2025-02-28 01:16:57,256.249,0.081%,
920,2025-02-28 02:47:23,2025-02-28 02:51:41,258.086,0.082%,
921,2025-02-28 04:22:03,2025-02-28 04:26:26,262.577,0.083%,
922,2025-02-28 05:56:44,2025-02-28 06:01:09,265.165,0.084%,
923,2025-02-28 07:31:25,2025-02-28 07:35:54,268.821,0.085%,
924,2025-02-28 09:06:07,2025-02-28 09:10:37,270.317,0.086%,
925,2025-02-28 10:40:48,2025-02-28 10:45:21,272.321,0.086%,
926,2025-02-28 12:15:28,2025-02-28 12:20:09,280.456,0.089%,
927,2025-02-28 13:50:08,2025-02-28 13:54:49,280.349,0.089%,
928,2025-02-28 15:24:50,2025-02-28 15:29:33,283.428,0.090%,
929,2025-02-28 17:00:03,2025-02-28 17:04:17,253.289,0.080%,
930,2025-02-28 18:34:46,2025-02-28 18:39:01,255.02,0.081%,
931,2025-02-28 20:09:25,2025-02-28 20:13:48,262.864,0.083%,
932,2025-02-28 21:44:06,2025-02-28 21:48:29,262.763,0.083%,
933,2025-02-28 23:18:47,2025-02-28 23:23:18,270.6,0.086%,
934,2025-03-01 00:53:29,2025-03-01 00:58:03,273.73,0.087%,
935,2025-03-01 02:28:10,2025-03-01 02:32:41,270.191,0.086%,
936,2025-03-01 04:02:50,2025-03-01 04:07:27,277.418,0.088%,
937,2025-03-01 05:37:30,2025-03-01 05:42:08,277.962,0.088%,
938,2025-03-01 07:12:12,2025-03-01 07:12:17,5.393,0.002%,
939,2025-03-01 07:12:44,2025-03-01 07:16:58,254.241,0.081%,
940,2025-03-01 08:47:26,2025-03-01 08:51:42,255.956,0.081%,
941,2025-03-01 10:22:07,2025-03-01 10:26:29,262.738,0.083%,
942,2025-03-01 11:56:47,2025-03-01 12:01:08,260.595,0.083%,
943,2025-03-01 13:31:28,2025-03-01 13:36:04,275.955,0.088%,
944,2025-03-01 15:06:10,2025-03-01 15:10:48,278.272,0.088%,
945,2025-03-01 16:40:52,2025-03-01 16:45:32,280.264,0.089%,
946,2025-03-01 18:15:31,2025-03-01 18:20:16,284.659,0.090%,
947,2025-03-01 19:50:12,2025-03-01 19:55:00,288.342,0.091%,
948,2025-03-01 21:24:53,2025-03-01 21:29:44,291.167,0.092%,
949,2025-03-01 23:00:07,2025-03-01 23:04:28,261.228,0.083%,
950,2025-03-02 00:34:49,2025-03-02 00:39:12,263.127,0.083%,
951,2025-03-02 02:09:28,2025-03-02 02:13:56,267.607,0.085%,
952,2025-03-02 03:44:09,2025-03-02 03:48:40,270.738,0.086%,
953,2025-03-02 05:18:50,2025-03-02 05:23:24,273.257,0.087%,
954,2025-03-02 06:53:32,2025-03-02 06:58:08,275.393,0.087%,
955,2025-03-02 08:28:13,2025-03-02 08:32:52,278.291,0.088%,
956,2025-03-02 10:02:53,2025-03-02 10:07:36,282.775,0.090%,
957,2025-03-02 11:37:34,2025-03-02 11:42:21,287.337,0.091%,
958,2025-03-02 13:12:47,2025-03-02 13:17:04,256.379,0.081%,
959,2025-03-02 14:47:29,2025-03-02 14:51:48,258.198,0.082%,
960,2025-03-02 16:22:10,2025-03-02 16:26:33,262.894,0.083%,
961,2025-03-02 17:56:50,2025-03-02 18:01:15,265.388,0.084%,
962,2025-03-02 19:31:31,2025-03-02 19:36:00,269,0.085%,
963,2025-03-02 21:06:13,2025-03-02 21:10:43,270.462,0.086%,
964,2025-03-02 22:40:55,2025-03-02 22:45:27,272.444,0.086%,
965,2025-03-03 00:15:34,2025-03-03 00:20:15,280.784,0.089%,
966,2025-03-03 01:50:15,2025-03-03 01:54:55,280.574,0.089%,
967,2025-03-03 03:24:56,2025-03-03 03:25:15,18.999,0.006%,
968,2025-03-03 03:25:28,2025-03-03 03:29:40,251.706,0.080%,
969,2025-03-03 05:00:10,2025-03-03 05:04:23,253.409,0.080%,
970,2025-03-03 06:34:52,2025-03-03 06:39:07,255.468,0.081%,
971,2025-03-03 08:09:31,2025-03-03 08:13:54,263.126,0.083%,
972,2025-03-03 09:44:12,2025-03-03 09:48:35,262.957,0.083%,
973,2025-03-03 11:18:54,2025-03-03 11:23:24,270.753,0.086%,
974,2025-03-03 12:53:36,2025-03-03 12:58:09,273.868,0.087%,
975,2025-03-03 14:28:16,2025-03-03 14:32:47,270.63,0.086%,
976,2025-03-03 16:02:56,2025-03-03 16:07:34,277.678,0.088%,
977,2025-03-03 17:37:37,2025-03-03 17:42:24,287.438,0.091%,
978,2025-03-03 19:12:50,2025-03-03 19:17:05,254.365,0.081%,
979,2025-03-03 20:47:33,2025-03-03 20:51:49,256.071,0.081%,
980,2025-03-03 22:22:13,2025-03-03 22:26:36,263.047,0.083%,
981,2025-03-03 23:56:53,2025-03-04 00:01:14,260.812,0.083%,
982,2025-03-04 00:01:18,2025-03-04 00:01:27,8.799,0.003%,
983,2025-03-04 01:31:35,2025-03-04 01:36:11,276.128,0.088%,
984,2025-03-04 03:06:16,2025-03-04 03:10:55,278.415,0.088%,
985,2025-03-04 04:40:58,2025-03-04 04:45:39,280.386,0.089%,
986,2025-03-04 06:15:38,2025-03-04 06:20:23,284.975,0.090%,
987,2025-03-04 07:50:18,2025-03-04 07:55:07,288.568,0.092%,
988,2025-03-04 09:25:31,2025-03-04 09:29:50,259.422,0.082%,
989,2025-03-04 11:00:13,2025-03-04 11:04:34,261.347,0.083%,
990,2025-03-04 12:34:55,2025-03-04 12:39:18,263.557,0.084%,
991,2025-03-04 14:09:35,2025-03-04 14:14:02,267.86,0.085%,
992,2025-03-04 15:44:15,2025-03-04 15:48:46,270.93,0.086%,
993,2025-03-04 17:18:57,2025-03-04 17:23:30,273.413,0.087%,
994,2025-03-04 18:53:39,2025-03-04 18:58:14,275.524,0.087%,
995,2025-03-04 20:28:20,2025-03-04 20:32:58,278.714,0.088%,
996,2025-03-04 22:02:59,2025-03-04 22:07:42,283.035,0.090%,
997,2025-03-04 23:37:40,2025-03-04 23:38:11,30.885,0.010%,
998,2025-03-04 23:38:12,2025-03-04 23:42:28,255.859,0.081%,
999,2025-03-05 01:12:54,2025-03-05 01:17:10,256.507,0.081%,
1000,2025-03-05 02:47:36,2025-03-05 02:51:54,258.309,0.082%,
1001,2025-03-05 04:22:16,2025-03-05 04:26:39,263.197,0.084%,
1002,2025-03-05 05:56:56,2025-03-05 06:01:22,265.604,0.084%,
1003,2025-03-05 07:31:38,2025-03-05 07:36:07,269.177,0.085%,
