3UCubedIntegratedSim/Reports & Plots/North Cusp @ 1 Degree/CSV/Sat5.csv

Number,Coverage Start (UTCG),Coverage End (UTCG),Duration (sec),Percent,
1,2025-01-01 16:21:16,2025-01-01 16:24:30,194.581,0.062%,
2,2025-01-01 17:55:59,2025-01-01 17:59:07,188.648,0.060%,
3,2025-01-01 19:30:49,2025-01-01 19:34:02,192.876,0.061%,
4,2025-01-01 21:05:24,2025-01-01 21:05:34,10.019,0.003%,
5,2025-01-01 21:05:36,2025-01-01 21:08:39,182.853,0.058%,
6,2025-01-01 22:40:15,2025-01-01 22:43:19,184.391,0.059%,
7,2025-01-02 00:15:06,2025-01-02 00:18:10,183.843,0.058%,
8,2025-01-02 01:49:40,2025-01-02 01:52:47,187.251,0.059%,
9,2025-01-02 03:24:31,2025-01-02 03:27:42,190.597,0.060%,
10,2025-01-02 04:59:23,2025-01-02 05:02:19,175.422,0.056%,
11,2025-01-02 06:33:56,2025-01-02 06:37:13,197.008,0.063%,
12,2025-01-02 08:08:31,2025-01-02 08:11:50,199.803,0.063%,
13,2025-01-02 09:43:16,2025-01-02 09:46:30,193.433,0.061%,
14,2025-01-02 11:18:02,2025-01-02 11:21:22,199.437,0.063%,
15,2025-01-02 12:52:48,2025-01-02 12:55:59,190.501,0.060%,
16,2025-01-02 14:27:35,2025-01-02 14:30:54,199.615,0.063%,
17,2025-01-02 16:02:21,2025-01-02 16:05:38,197.335,0.063%,
18,2025-01-02 17:37:03,2025-01-02 17:40:22,199.062,0.063%,
19,2025-01-02 19:11:54,2025-01-02 19:15:06,192.228,0.061%,
20,2025-01-02 20:46:41,2025-01-02 20:49:50,189.212,0.060%,
21,2025-01-02 22:21:19,2025-01-02 22:24:34,194.988,0.062%,
22,2025-01-02 23:56:10,2025-01-02 23:59:18,187.725,0.060%,
23,2025-01-03 01:30:45,2025-01-03 01:34:05,200.266,0.064%,
24,2025-01-03 03:05:35,2025-01-03 03:08:46,190.669,0.061%,
25,2025-01-03 04:40:27,2025-01-03 04:43:30,182.662,0.058%,
26,2025-01-03 06:15:01,2025-01-03 06:18:14,193.436,0.061%,
27,2025-01-03 07:49:36,2025-01-03 07:52:58,202.12,0.064%,
28,2025-01-03 09:24:22,2025-01-03 09:27:45,203.174,0.064%,
29,2025-01-03 10:59:08,2025-01-03 11:02:26,198.257,0.063%,
30,2025-01-03 12:33:54,2025-01-03 12:37:17,202.689,0.064%,
31,2025-01-03 14:08:40,2025-01-03 14:11:54,194.067,0.062%,
32,2025-01-03 15:43:26,2025-01-03 15:46:38,191.803,0.061%,
33,2025-01-03 17:18:08,2025-01-03 17:21:25,197.406,0.063%,
34,2025-01-03 18:52:58,2025-01-03 18:56:06,187.588,0.060%,
35,2025-01-03 20:27:46,2025-01-03 20:30:57,190.526,0.060%,
36,2025-01-03 22:02:24,2025-01-03 22:05:34,190.257,0.060%,
37,2025-01-03 23:37:15,2025-01-03 23:40:18,183.268,0.058%,
38,2025-01-04 01:11:49,2025-01-04 01:15:05,195.968,0.062%,
39,2025-01-04 02:46:40,2025-01-04 02:49:46,186.017,0.059%,
40,2025-01-04 04:21:32,2025-01-04 04:24:37,185.158,0.059%,
41,2025-01-04 05:56:05,2025-01-04 05:59:14,188.664,0.060%,
42,2025-01-04 07:30:41,2025-01-04 07:34:08,206.806,0.066%,
43,2025-01-04 09:05:27,2025-01-04 09:08:45,198.045,0.063%,
44,2025-01-04 10:40:13,2025-01-04 10:43:26,192.528,0.061%,
45,2025-01-04 12:14:59,2025-01-04 12:18:17,197.598,0.063%,
46,2025-01-04 13:49:45,2025-01-04 13:52:54,188.621,0.060%,
47,2025-01-04 15:24:32,2025-01-04 15:27:48,196.781,0.062%,
48,2025-01-04 16:59:12,2025-01-04 17:02:25,193.087,0.061%,
49,2025-01-04 18:34:03,2025-01-04 18:37:06,182.821,0.058%,
50,2025-01-04 20:08:51,2025-01-04 20:11:57,185.669,0.059%,
51,2025-01-04 21:43:28,2025-01-04 21:46:34,185.869,0.059%,
52,2025-01-04 23:18:19,2025-01-04 23:21:28,189.288,0.060%,
53,2025-01-05 00:52:54,2025-01-05 00:56:06,191.644,0.061%,
54,2025-01-05 02:27:44,2025-01-05 02:31:00,195.65,0.062%,
55,2025-01-05 04:02:36,2025-01-05 04:05:45,189.138,0.060%,
56,2025-01-05 05:37:10,2025-01-05 05:40:29,199.091,0.063%,
57,2025-01-05 07:11:47,2025-01-05 07:15:13,205.933,0.065%,
58,2025-01-05 08:46:33,2025-01-05 08:49:57,204.072,0.065%,
59,2025-01-05 10:21:19,2025-01-05 10:24:41,202.147,0.064%,
60,2025-01-05 11:56:05,2025-01-05 11:59:25,200.145,0.064%,
61,2025-01-05 13:30:51,2025-01-05 13:34:12,200.82,0.064%,
62,2025-01-05 15:05:37,2025-01-05 15:08:53,195.854,0.062%,
63,2025-01-05 16:40:23,2025-01-05 16:43:37,193.525,0.061%,
64,2025-01-05 18:15:07,2025-01-05 18:18:21,193.47,0.061%,
65,2025-01-05 19:49:56,2025-01-05 19:53:05,188.261,0.060%,
66,2025-01-05 21:24:33,2025-01-05 21:27:52,198.85,0.063%,
67,2025-01-05 22:59:23,2025-01-05 23:02:33,189.18,0.060%,
68,2025-01-06 00:34:15,2025-01-06 00:37:17,181.278,0.058%,
69,2025-01-06 02:08:49,2025-01-06 02:12:01,191.887,0.061%,
70,2025-01-06 03:43:40,2025-01-06 03:46:45,184.782,0.059%,
71,2025-01-06 05:18:14,2025-01-06 05:21:32,197.415,0.063%,
72,2025-01-06 06:52:52,2025-01-06 06:56:13,200.254,0.064%,
73,2025-01-06 08:27:38,2025-01-06 08:31:03,205.067,0.065%,
74,2025-01-06 10:02:24,2025-01-06 10:05:41,196.479,0.062%,
75,2025-01-06 11:37:10,2025-01-06 11:40:24,194.486,0.062%,
76,2025-01-06 13:11:56,2025-01-06 13:15:12,195.977,0.062%,
77,2025-01-06 14:46:42,2025-01-06 14:49:52,190.225,0.060%,
78,2025-01-06 16:21:29,2025-01-06 16:24:43,194.794,0.062%,
79,2025-01-06 17:56:12,2025-01-06 17:59:20,188.68,0.060%,
80,2025-01-06 19:31:02,2025-01-06 19:34:15,193.175,0.061%,
81,2025-01-06 21:05:37,2025-01-06 21:08:52,194.537,0.062%,
82,2025-01-06 22:40:28,2025-01-06 22:43:32,184.463,0.059%,
83,2025-01-07 00:15:19,2025-01-07 00:18:23,183.912,0.058%,
84,2025-01-07 01:49:53,2025-01-07 01:53:01,187.28,0.059%,
85,2025-01-07 03:24:44,2025-01-07 03:27:55,190.769,0.061%,
86,2025-01-07 04:59:19,2025-01-07 05:02:32,193.094,0.061%,
87,2025-01-07 06:33:58,2025-01-07 06:37:12,194.442,0.062%,
88,2025-01-07 08:08:44,2025-01-07 08:12:03,199.924,0.063%,
89,2025-01-07 09:43:29,2025-01-07 09:46:41,191.181,0.061%,
90,2025-01-07 11:18:15,2025-01-07 11:21:35,199.583,0.063%,
91,2025-01-07 12:53:00,2025-01-07 12:56:12,191.65,0.061%,
92,2025-01-07 14:27:48,2025-01-07 14:31:06,198.911,0.063%,
93,2025-01-07 16:02:34,2025-01-07 16:05:44,189.768,0.060%,
94,2025-01-07 17:37:16,2025-01-07 17:40:23,186.899,0.059%,
95,2025-01-07 17:40:24,2025-01-07 17:40:35,11.796,0.004%,
96,2025-01-07 19:12:07,2025-01-07 19:15:19,192.543,0.061%,
97,2025-01-07 20:46:42,2025-01-07 20:50:03,201.358,0.064%,
98,2025-01-07 22:21:32,2025-01-07 22:24:47,195.058,0.062%,
99,2025-01-07 23:56:24,2025-01-07 23:59:31,187.721,0.060%,
100,2025-01-08 01:30:58,2025-01-08 01:34:15,197.541,0.063%,
101,2025-01-08 03:05:49,2025-01-08 03:08:59,190.753,0.061%,
102,2025-01-08 04:40:24,2025-01-08 04:43:43,199.735,0.063%,
103,2025-01-08 06:15:03,2025-01-08 06:18:27,204.088,0.065%,
104,2025-01-08 07:49:49,2025-01-08 07:53:11,202.268,0.064%,
105,2025-01-08 09:24:35,2025-01-08 09:27:58,203.303,0.065%,
106,2025-01-08 10:59:21,2025-01-08 11:02:39,198.43,0.063%,
107,2025-01-08 12:34:05,2025-01-08 12:37:23,198.088,0.063%,
108,2025-01-08 14:08:53,2025-01-08 14:12:07,194.27,0.062%,
109,2025-01-08 15:43:39,2025-01-08 15:46:51,192.031,0.061%,
110,2025-01-08 17:18:21,2025-01-08 17:21:38,197.424,0.063%,
111,2025-01-08 18:53:11,2025-01-08 18:56:19,187.665,0.060%,
112,2025-01-08 20:27:59,2025-01-08 20:31:10,190.862,0.061%,
113,2025-01-08 22:02:37,2025-01-08 22:05:47,190.317,0.060%,
114,2025-01-08 23:37:28,2025-01-08 23:40:31,183.252,0.058%,
115,2025-01-09 01:12:02,2025-01-09 01:15:18,195.984,0.062%,
116,2025-01-09 02:46:53,2025-01-09 02:49:59,186.091,0.059%,
117,2025-01-09 04:21:23,2025-01-09 04:21:29,6.13,0.002%,
118,2025-01-09 04:21:45,2025-01-09 04:24:50,185.237,0.059%,
119,2025-01-09 05:56:09,2025-01-09 05:59:27,198.333,0.063%,
120,2025-01-09 07:30:54,2025-01-09 07:34:11,196.517,0.062%,
121,2025-01-09 09:05:40,2025-01-09 09:08:58,198.175,0.063%,
122,2025-01-09 10:40:26,2025-01-09 10:43:39,192.695,0.061%,
123,2025-01-09 12:15:12,2025-01-09 12:18:30,197.751,0.063%,
124,2025-01-09 13:49:58,2025-01-09 13:53:07,188.792,0.060%,
125,2025-01-09 15:24:45,2025-01-09 15:28:01,196.972,0.063%,
126,2025-01-09 16:59:25,2025-01-09 17:02:39,193.1,0.061%,
127,2025-01-09 18:34:16,2025-01-09 18:37:19,182.89,0.058%,
128,2025-01-09 20:09:04,2025-01-09 20:12:10,185.984,0.059%,
129,2025-01-09 21:43:41,2025-01-09 21:46:47,185.895,0.059%,
130,2025-01-09 23:18:32,2025-01-09 23:21:42,189.363,0.060%,
131,2025-01-10 00:53:07,2025-01-10 00:56:19,191.656,0.061%,
132,2025-01-10 02:27:57,2025-01-10 02:31:13,195.689,0.062%,
133,2025-01-10 04:02:28,2025-01-10 04:02:41,12.739,0.004%,
134,2025-01-10 04:02:49,2025-01-10 04:05:50,181.357,0.058%,
135,2025-01-10 05:37:14,2025-01-10 05:40:30,195.664,0.062%,
136,2025-01-10 07:12:00,2025-01-10 07:15:22,201.768,0.064%,
137,2025-01-10 07:15:22,2025-01-10 07:15:26,4.052,0.001%,
138,2025-01-10 08:46:46,2025-01-10 08:50:10,204.231,0.065%,
139,2025-01-10 10:21:32,2025-01-10 10:24:54,202.314,0.064%,
140,2025-01-10 11:56:18,2025-01-10 11:59:38,200.326,0.064%,
141,2025-01-10 13:31:04,2025-01-10 13:34:22,198.251,0.063%,
142,2025-01-10 15:05:50,2025-01-10 15:09:06,196.073,0.062%,
143,2025-01-10 16:40:30,2025-01-10 16:43:50,199.754,0.063%,
144,2025-01-10 18:15:20,2025-01-10 18:18:34,193.532,0.061%,
145,2025-01-10 19:50:09,2025-01-10 19:53:18,188.59,0.060%,
146,2025-01-10 21:24:46,2025-01-10 21:28:05,198.869,0.063%,
147,2025-01-10 22:59:37,2025-01-10 23:02:46,189.259,0.060%,
148,2025-01-11 00:34:12,2025-01-11 00:37:30,198.106,0.063%,
149,2025-01-11 02:09:02,2025-01-11 02:12:14,191.95,0.061%,
150,2025-01-11 03:43:34,2025-01-11 03:43:53,18.772,0.006%,
151,2025-01-11 03:43:53,2025-01-11 03:46:58,184.769,0.059%,
152,2025-01-11 05:18:20,2025-01-11 05:21:45,205.278,0.065%,
153,2025-01-11 06:53:05,2025-01-11 06:56:26,200.393,0.064%,
154,2025-01-11 08:27:51,2025-01-11 08:31:16,205.186,0.065%,
155,2025-01-11 10:02:37,2025-01-11 10:05:54,196.64,0.062%,
156,2025-01-11 11:37:23,2025-01-11 11:40:38,194.66,0.062%,
157,2025-01-11 13:12:09,2025-01-11 13:15:25,195.994,0.062%,
158,2025-01-11 14:46:55,2025-01-11 14:50:06,190.436,0.060%,
159,2025-01-11 16:21:35,2025-01-11 16:24:56,201.595,0.064%,
160,2025-01-11 17:56:25,2025-01-11 17:59:34,188.729,0.060%,
161,2025-01-11 19:31:15,2025-01-11 19:34:18,183.069,0.058%,
162,2025-01-11 21:05:51,2025-01-11 21:09:05,194.551,0.062%,
163,2025-01-11 22:40:41,2025-01-11 22:43:46,184.534,0.059%,
164,2025-01-12 00:15:33,2025-01-12 00:18:37,183.987,0.058%,
165,2025-01-12 01:50:06,2025-01-12 01:53:14,187.308,0.059%,
166,2025-01-12 03:24:39,2025-01-12 03:28:08,208.705,0.066%,
167,2025-01-12 04:59:25,2025-01-12 05:02:45,200.112,0.064%,
168,2025-01-12 06:34:11,2025-01-12 06:37:25,194.576,0.062%,
169,2025-01-12 08:08:57,2025-01-12 08:12:17,200.041,0.063%,
170,2025-01-12 09:43:43,2025-01-12 09:46:54,191.31,0.061%,
171,2025-01-12 11:18:28,2025-01-12 11:21:48,199.724,0.063%,
172,2025-01-12 12:53:14,2025-01-12 12:56:25,191.661,0.061%,
173,2025-01-12 14:28:01,2025-01-12 14:31:05,184.685,0.059%,
174,2025-01-12 16:02:47,2025-01-12 16:05:57,189.966,0.060%,
175,2025-01-12 17:37:29,2025-01-12 17:40:36,186.988,0.059%,
176,2025-01-12 19:12:20,2025-01-12 19:15:28,188.52,0.060%,
177,2025-01-12 20:46:55,2025-01-12 20:50:05,190.217,0.060%,
178,2025-01-12 20:50:16,2025-01-12 20:50:17,0.176,0.000%,
179,2025-01-12 22:21:45,2025-01-12 22:25:01,195.127,0.062%,
180,2025-01-12 23:56:37,2025-01-12 23:59:45,187.773,0.060%,
181,2025-01-13 01:31:11,2025-01-13 01:34:29,197.594,0.063%,
182,2025-01-13 03:05:45,2025-01-13 03:09:13,207.688,0.066%,
183,2025-01-13 04:40:31,2025-01-13 04:43:57,205.984,0.065%,
184,2025-01-13 06:15:16,2025-01-13 06:18:41,204.224,0.065%,
185,2025-01-13 07:50:02,2025-01-13 07:53:24,202.414,0.064%,
186,2025-01-13 09:24:48,2025-01-13 09:28:11,203.433,0.065%,
187,2025-01-13 10:59:34,2025-01-13 11:02:52,198.599,0.063%,
188,2025-01-13 12:34:18,2025-01-13 12:37:36,198.124,0.063%,
189,2025-01-13 14:09:06,2025-01-13 14:12:20,194.471,0.062%,
190,2025-01-13 15:43:52,2025-01-13 15:47:04,192.253,0.061%,
191,2025-01-13 17:18:34,2025-01-13 17:21:51,197.441,0.063%,
192,2025-01-13 18:53:25,2025-01-13 18:56:32,187.741,0.060%,
193,2025-01-13 20:28:00,2025-01-13 20:31:16,196.454,0.062%,
194,2025-01-13 22:02:50,2025-01-13 22:06:00,190.377,0.060%,
195,2025-01-13 23:37:41,2025-01-13 23:40:44,183.254,0.058%,
196,2025-01-14 01:12:16,2025-01-14 01:15:32,196.002,0.062%,
197,2025-01-14 02:46:50,2025-01-14 02:50:12,201.926,0.064%,
198,2025-01-14 04:21:36,2025-01-14 04:25:03,207.05,0.066%,
199,2025-01-14 05:56:22,2025-01-14 05:59:40,198.469,0.063%,
200,2025-01-14 07:31:08,2025-01-14 07:34:24,196.658,0.062%,
201,2025-01-14 09:05:53,2025-01-14 09:09:12,198.298,0.063%,
202,2025-01-14 10:40:39,2025-01-14 10:43:52,192.859,0.061%,
203,2025-01-14 12:15:23,2025-01-14 12:18:43,200.114,0.064%,
204,2025-01-14 13:50:11,2025-01-14 13:53:20,188.96,0.060%,
205,2025-01-14 15:24:58,2025-01-14 15:28:15,197.16,0.063%,
206,2025-01-14 16:59:39,2025-01-14 17:02:52,193.112,0.061%,
207,2025-01-14 18:34:29,2025-01-14 18:37:32,182.956,0.058%,
208,2025-01-14 20:09:05,2025-01-14 20:09:15,10.464,0.003%,
209,2025-01-14 20:09:17,2025-01-14 20:12:23,186.288,0.059%,
210,2025-01-14 21:43:54,2025-01-14 21:47:00,185.922,0.059%,
211,2025-01-14 23:18:45,2025-01-14 23:21:55,189.398,0.060%,
212,2025-01-15 00:53:20,2025-01-15 00:56:32,191.666,0.061%,
213,2025-01-15 02:27:56,2025-01-15 02:31:12,196.048,0.062%,
214,2025-01-15 04:02:41,2025-01-15 04:06:03,201.873,0.064%,
215,2025-01-15 05:37:27,2025-01-15 05:40:43,195.83,0.062%,
216,2025-01-15 07:12:13,2025-01-15 07:15:35,201.878,0.064%,
217,2025-01-15 08:46:59,2025-01-15 08:50:12,193.188,0.061%,
218,2025-01-15 10:21:45,2025-01-15 10:25:06,201.657,0.064%,
219,2025-01-15 10:25:07,2025-01-15 10:25:07,0.466,0.000%,
220,2025-01-15 11:56:31,2025-01-15 11:59:51,200.505,0.064%,
221,2025-01-15 13:31:17,2025-01-15 13:34:35,198.449,0.063%,
222,2025-01-15 15:06:03,2025-01-15 15:09:19,196.287,0.062%,
223,2025-01-15 16:40:43,2025-01-15 16:44:03,199.791,0.063%,
224,2025-01-15 18:15:34,2025-01-15 18:18:47,193.597,0.061%,
225,2025-01-15 19:50:22,2025-01-15 19:53:31,188.91,0.060%,
226,2025-01-15 21:24:55,2025-01-15 21:24:59,3.748,0.001%,
227,2025-01-15 21:24:59,2025-01-15 21:28:18,198.888,0.063%,
228,2025-01-15 22:59:50,2025-01-15 23:02:59,189.338,0.060%,
229,2025-01-16 00:34:25,2025-01-16 00:37:43,198.141,0.063%,
230,2025-01-16 02:09:01,2025-01-16 02:12:27,205.712,0.065%,
231,2025-01-16 03:43:47,2025-01-16 03:47:11,204.038,0.065%,
232,2025-01-16 05:18:33,2025-01-16 05:21:58,205.376,0.065%,
233,2025-01-16 06:53:18,2025-01-16 06:56:39,200.531,0.064%,
234,2025-01-16 08:28:04,2025-01-16 08:31:23,198.7,0.063%,
235,2025-01-16 10:02:50,2025-01-16 10:06:07,196.8,0.062%,
236,2025-01-16 11:37:36,2025-01-16 11:40:51,194.834,0.062%,
237,2025-01-16 13:12:22,2025-01-16 13:15:38,196.057,0.062%,
238,2025-01-16 14:47:08,2025-01-16 14:50:19,190.646,0.061%,
239,2025-01-16 16:21:48,2025-01-16 16:25:10,201.597,0.064%,
240,2025-01-16 17:56:38,2025-01-16 17:59:47,188.786,0.060%,
241,2025-01-16 19:31:27,2025-01-16 19:34:31,183.373,0.058%,
242,2025-01-16 21:06:04,2025-01-16 21:09:18,194.565,0.062%,
243,2025-01-16 22:40:54,2025-01-16 22:43:59,184.605,0.059%,
244,2025-01-17 00:15:30,2025-01-17 00:18:50,200.113,0.064%,
245,2025-01-17 01:50:07,2025-01-17 01:53:27,200.071,0.063%,
246,2025-01-17 03:24:52,2025-01-17 03:28:11,198.206,0.063%,
247,2025-01-17 04:59:38,2025-01-17 05:02:58,200.211,0.064%,
248,2025-01-17 06:34:24,2025-01-17 06:37:39,194.71,0.062%,
249,2025-01-17 08:09:10,2025-01-17 08:12:30,200.158,0.064%,
250,2025-01-17 09:43:56,2025-01-17 09:47:07,191.441,0.061%,
251,2025-01-17 11:18:41,2025-01-17 11:22:01,199.866,0.063%,
252,2025-01-17 12:53:27,2025-01-17 12:56:38,191.672,0.061%,
253,2025-01-17 14:28:14,2025-01-17 14:31:18,184.886,0.059%,
254,2025-01-17 16:02:53,2025-01-17 16:06:10,197.138,0.063%,
255,2025-01-17 17:37:43,2025-01-17 17:40:50,187.074,0.059%,
256,2025-01-17 19:12:33,2025-01-17 19:15:41,188.785,0.060%,
257,2025-01-17 20:47:08,2025-01-17 20:50:19,190.227,0.060%,
258,2025-01-17 22:21:59,2025-01-17 22:25:13,194.358,0.062%,
259,2025-01-17 23:56:34,2025-01-17 23:56:36,1.369,0.000%,
260,2025-01-17 23:56:50,2025-01-17 23:59:50,180.159,0.057%,
261,2025-01-17 23:59:53,2025-01-17 23:59:58,5.179,0.002%,
262,2025-01-18 01:31:12,2025-01-18 01:34:42,209.458,0.066%,
263,2025-01-18 03:05:58,2025-01-18 03:09:26,207.808,0.066%,
264,2025-01-18 04:40:44,2025-01-18 04:44:10,206.11,0.065%,
265,2025-01-18 06:15:29,2025-01-18 06:18:54,204.359,0.065%,
266,2025-01-18 07:50:15,2025-01-18 07:53:38,202.558,0.064%,
267,2025-01-18 09:25:01,2025-01-18 09:28:22,200.699,0.064%,
268,2025-01-18 10:59:47,2025-01-18 11:03:06,198.768,0.063%,
269,2025-01-18 12:34:31,2025-01-18 12:37:50,198.158,0.063%,
270,2025-01-18 14:09:19,2025-01-18 14:12:34,194.671,0.062%,
271,2025-01-18 15:44:05,2025-01-18 15:47:18,192.473,0.061%,
272,2025-01-18 17:18:47,2025-01-18 17:22:05,197.458,0.063%,
273,2025-01-18 18:53:38,2025-01-18 18:56:46,187.817,0.060%,
274,2025-01-18 20:28:13,2025-01-18 20:31:30,196.486,0.062%,
275,2025-01-18 22:03:03,2025-01-18 22:06:14,190.436,0.060%,
276,2025-01-18 23:37:54,2025-01-18 23:40:58,183.34,0.058%,
277,2025-01-19 01:12:18,2025-01-19 01:15:45,206.942,0.066%,
278,2025-01-19 02:47:03,2025-01-19 02:50:25,202.04,0.064%,
279,2025-01-19 04:21:49,2025-01-19 04:25:16,207.142,0.066%,
280,2025-01-19 05:56:35,2025-01-19 05:59:53,198.599,0.063%,
281,2025-01-19 07:31:21,2025-01-19 07:34:37,196.798,0.062%,
282,2025-01-19 09:06:06,2025-01-19 09:09:25,198.421,0.063%,
283,2025-01-19 10:40:52,2025-01-19 10:44:05,193.022,0.061%,
284,2025-01-19 12:15:36,2025-01-19 12:18:56,200.113,0.064%,
285,2025-01-19 13:50:24,2025-01-19 13:53:33,189.126,0.060%,
286,2025-01-19 15:25:10,2025-01-19 15:28:17,186.772,0.059%,
287,2025-01-19 16:59:43,2025-01-19 16:59:43,0.256,0.000%,
288,2025-01-19 16:59:52,2025-01-19 17:03:05,193.124,0.061%,
289,2025-01-19 18:34:42,2025-01-19 18:37:45,183.024,0.058%,
290,2025-01-19 20:09:18,2025-01-19 20:12:36,198.625,0.063%,
291,2025-01-19 21:43:57,2025-01-19 21:47:14,196.586,0.062%,
292,2025-01-19 23:18:58,2025-01-19 23:22:08,189.452,0.060%,
293,2025-01-20 00:53:23,2025-01-20 00:56:45,201.756,0.064%,
294,2025-01-20 02:28:09,2025-01-20 02:31:25,196.154,0.062%,
295,2025-01-20 04:02:55,2025-01-20 04:06:17,201.966,0.064%,
296,2025-01-20 05:37:40,2025-01-20 05:40:54,193.426,0.061%,
297,2025-01-20 07:12:25,2025-01-20 07:15:48,203.342,0.065%,
298,2025-01-20 08:47:12,2025-01-20 08:50:25,193.309,0.061%,
299,2025-01-20 10:21:58,2025-01-20 10:25:20,201.789,0.064%,
300,2025-01-20 11:56:39,2025-01-20 11:59:57,198.005,0.063%,
301,2025-01-20 13:31:30,2025-01-20 13:34:48,198.641,0.063%,
302,2025-01-20 15:06:16,2025-01-20 15:09:32,196.498,0.062%,
303,2025-01-20 16:40:53,2025-01-20 16:44:16,203.641,0.065%,
304,2025-01-20 18:15:47,2025-01-20 18:19:00,193.661,0.061%,
305,2025-01-20 19:50:23,2025-01-20 19:53:44,201.698,0.064%,
306,2025-01-20 21:25:07,2025-01-20 21:28:28,201.364,0.064%,
307,2025-01-20 23:00:03,2025-01-20 23:03:12,189.416,0.060%,
308,2025-01-21 00:34:29,2025-01-21 00:37:56,207.452,0.066%,
309,2025-01-21 02:09:14,2025-01-21 02:12:40,205.824,0.065%,
310,2025-01-21 03:44:00,2025-01-21 03:47:24,204.154,0.065%,
311,2025-01-21 05:18:46,2025-01-21 05:22:11,205.474,0.065%,
312,2025-01-21 06:53:32,2025-01-21 06:56:52,200.667,0.064%,
313,2025-01-21 08:28:17,2025-01-21 08:31:36,198.846,0.063%,
314,2025-01-21 10:03:03,2025-01-21 10:06:20,196.958,0.063%,
315,2025-01-21 11:37:49,2025-01-21 11:41:04,195.004,0.062%,
316,2025-01-21 13:12:35,2025-01-21 13:15:51,196.213,0.062%,
317,2025-01-21 14:47:21,2025-01-21 14:50:32,190.852,0.061%,
318,2025-01-21 16:22:01,2025-01-21 16:25:23,201.597,0.064%,
319,2025-01-21 17:56:51,2025-01-21 18:00:00,188.842,0.060%,
320,2025-01-21 19:31:40,2025-01-21 19:34:44,183.668,0.058%,
321,2025-01-21 21:06:17,2025-01-21 21:09:31,194.578,0.062%,
322,2025-01-21 22:41:07,2025-01-21 22:44:12,184.674,0.059%,
323,2025-01-22 00:15:34,2025-01-22 00:19:03,208.62,0.066%,
324,2025-01-22 01:50:20,2025-01-22 01:53:40,200.152,0.064%,
325,2025-01-22 03:25:06,2025-01-22 03:28:24,198.322,0.063%,
326,2025-01-22 04:59:51,2025-01-22 05:03:12,200.306,0.064%,
327,2025-01-22 06:34:37,2025-01-22 06:37:52,194.847,0.062%,
328,2025-01-22 08:09:23,2025-01-22 08:12:43,200.271,0.064%,
329,2025-01-22 09:44:09,2025-01-22 09:47:20,191.57,0.061%,
330,2025-01-22 11:18:55,2025-01-22 11:22:15,200.003,0.063%,
331,2025-01-22 12:53:40,2025-01-22 12:56:52,191.682,0.061%,
332,2025-01-22 14:28:27,2025-01-22 14:31:32,185.085,0.059%,
333,2025-01-22 16:03:06,2025-01-22 16:06:23,197.132,0.063%,
334,2025-01-22 17:37:56,2025-01-22 17:41:00,184.563,0.059%,
335,2025-01-22 19:12:46,2025-01-22 19:15:55,189.039,0.060%,
336,2025-01-22 20:47:22,2025-01-22 20:50:32,190.235,0.060%,
337,2025-01-22 22:22:12,2025-01-22 22:25:12,179.795,0.057%,
338,2025-01-22 23:56:40,2025-01-23 00:00:03,203.423,0.065%,
339,2025-01-23 01:31:25,2025-01-23 01:34:43,197.457,0.063%,
340,2025-01-23 03:06:11,2025-01-23 03:09:39,207.925,0.066%,
341,2025-01-23 04:40:57,2025-01-23 04:44:23,206.235,0.065%,
342,2025-01-23 06:15:42,2025-01-23 06:19:07,204.496,0.065%,
343,2025-01-23 07:50:28,2025-01-23 07:53:51,202.7,0.064%,
344,2025-01-23 09:25:14,2025-01-23 09:28:35,200.851,0.064%,
345,2025-01-23 11:00:00,2025-01-23 11:03:19,198.932,0.063%,
346,2025-01-23 12:34:45,2025-01-23 12:38:03,198.192,0.063%,
347,2025-01-23 14:09:32,2025-01-23 14:12:47,194.869,0.062%,
348,2025-01-23 15:44:11,2025-01-23 15:47:31,200.012,0.063%,
349,2025-01-23 17:19:00,2025-01-23 17:22:18,197.476,0.063%,
350,2025-01-23 18:53:51,2025-01-23 18:56:59,187.919,0.060%,
351,2025-01-23 20:28:26,2025-01-23 20:31:43,196.517,0.062%,
352,2025-01-23 22:03:01,2025-01-23 22:03:05,3.978,0.001%,
353,2025-01-23 22:03:16,2025-01-23 22:06:27,190.494,0.060%,
354,2025-01-23 23:37:45,2025-01-23 23:41:11,205.389,0.065%,
355,2025-01-24 01:12:31,2025-01-24 01:15:58,207.018,0.066%,
356,2025-01-24 02:47:15,2025-01-24 02:50:39,203.801,0.065%,
357,2025-01-24 04:22:02,2025-01-24 04:25:23,200.46,0.064%,
358,2025-01-24 05:56:48,2025-01-24 06:00:07,198.727,0.063%,
359,2025-01-24 07:31:29,2025-01-24 07:34:51,202.052,0.064%,
360,2025-01-24 09:06:19,2025-01-24 09:09:38,198.539,0.063%,
361,2025-01-24 10:41:05,2025-01-24 10:44:19,193.181,0.061%,
362,2025-01-24 12:15:42,2025-01-24 12:19:10,207.275,0.066%,
363,2025-01-24 13:50:37,2025-01-24 13:53:47,189.287,0.060%,
364,2025-01-24 15:25:23,2025-01-24 15:28:30,186.979,0.059%,
365,2025-01-24 16:59:56,2025-01-24 17:03:18,202.165,0.064%,
366,2025-01-24 18:34:55,2025-01-24 18:37:58,183.09,0.058%,
367,2025-01-24 20:09:31,2025-01-24 20:12:50,198.62,0.063%,
368,2025-01-24 21:44:10,2025-01-24 21:47:27,197.058,0.063%,
369,2025-01-24 23:18:51,2025-01-24 23:22:21,210.278,0.067%,
370,2025-01-25 00:53:36,2025-01-25 00:56:58,201.831,0.064%,
371,2025-01-25 02:28:22,2025-01-25 02:31:38,196.263,0.062%,
372,2025-01-25 04:03:08,2025-01-25 04:06:30,202.051,0.064%,
373,2025-01-25 05:37:53,2025-01-25 05:41:07,193.524,0.061%,
374,2025-01-25 07:12:37,2025-01-25 07:16:01,203.902,0.065%,
375,2025-01-25 08:47:25,2025-01-25 08:50:38,193.426,0.061%,
376,2025-01-25 10:22:11,2025-01-25 10:25:18,187.336,0.059%,
377,2025-01-25 11:56:51,2025-01-25 12:00:10,198.641,0.063%,
378,2025-01-25 13:31:43,2025-01-25 13:34:49,186.732,0.059%,
379,2025-01-25 15:06:29,2025-01-25 15:09:41,192.462,0.061%,
380,2025-01-25 16:41:05,2025-01-25 16:44:30,204.407,0.065%,
381,2025-01-25 18:16:00,2025-01-25 18:19:14,193.724,0.061%,
382,2025-01-25 19:50:36,2025-01-25 19:53:58,201.719,0.064%,
383,2025-01-25 21:25:19,2025-01-25 21:28:42,202.306,0.064%,
384,2025-01-25 22:59:56,2025-01-25 23:03:25,209.129,0.066%,
385,2025-01-26 00:34:42,2025-01-26 00:38:09,207.551,0.066%,
386,2025-01-26 02:09:28,2025-01-26 02:12:53,205.933,0.065%,
387,2025-01-26 03:44:13,2025-01-26 03:47:37,204.271,0.065%,
388,2025-01-26 05:18:59,2025-01-26 05:22:24,205.567,0.065%,
389,2025-01-26 06:53:45,2025-01-26 06:57:05,200.805,0.064%,
390,2025-01-26 08:28:30,2025-01-26 08:31:49,198.989,0.063%,
391,2025-01-26 10:03:16,2025-01-26 10:06:33,197.112,0.063%,
392,2025-01-26 11:37:59,2025-01-26 11:41:17,198.302,0.063%,
393,2025-01-26 13:12:48,2025-01-26 13:16:05,196.363,0.062%,
394,2025-01-26 14:47:34,2025-01-26 14:50:45,191.046,0.061%,
395,2025-01-26 16:22:14,2025-01-26 16:25:29,194.837,0.062%,
396,2025-01-26 17:57:04,2025-01-26 18:00:13,188.897,0.060%,
397,2025-01-26 19:31:53,2025-01-26 19:34:57,183.951,0.058%,
398,2025-01-26 21:06:30,2025-01-26 21:09:45,194.589,0.062%,
399,2025-01-26 22:41:02,2025-01-26 22:44:25,203.283,0.065%,
400,2025-01-27 00:15:47,2025-01-27 00:19:16,208.689,0.066%,
401,2025-01-27 01:50:33,2025-01-27 01:53:53,200.227,0.064%,
402,2025-01-27 03:25:19,2025-01-27 03:28:37,198.435,0.063%,
403,2025-01-27 05:00:04,2025-01-27 05:03:25,200.4,0.064%,
404,2025-01-27 06:34:50,2025-01-27 06:38:05,194.976,0.062%,
405,2025-01-27 08:09:36,2025-01-27 08:12:56,200.382,0.064%,
406,2025-01-27 09:44:22,2025-01-27 09:47:33,191.696,0.061%,
407,2025-01-27 11:19:08,2025-01-27 11:22:28,200.137,0.064%,
408,2025-01-27 12:53:53,2025-01-27 12:57:05,191.69,0.061%,
409,2025-01-27 14:28:40,2025-01-27 14:31:45,185.274,0.059%,
410,2025-01-27 16:03:19,2025-01-27 16:06:36,197.126,0.063%,
411,2025-01-27 17:38:09,2025-01-27 17:41:13,184.584,0.059%,
412,2025-01-27 19:12:59,2025-01-27 19:16:08,189.283,0.060%,
413,2025-01-27 20:47:35,2025-01-27 20:50:45,190.242,0.060%,
414,2025-01-27 22:22:07,2025-01-27 22:25:25,197.349,0.063%,
415,2025-01-27 23:56:53,2025-01-28 00:00:16,203.491,0.065%,
416,2025-01-28 01:31:39,2025-01-28 01:34:56,197.595,0.063%,
417,2025-01-28 03:06:24,2025-01-28 03:09:48,203.775,0.065%,
418,2025-01-28 04:41:10,2025-01-28 04:44:36,206.356,0.065%,
419,2025-01-28 06:15:56,2025-01-28 06:19:20,204.626,0.065%,
420,2025-01-28 07:50:33,2025-01-28 07:54:04,210.908,0.067%,
421,2025-01-28 09:25:27,2025-01-28 09:28:48,201.001,0.064%,
422,2025-01-28 11:00:13,2025-01-28 11:03:32,199.094,0.063%,
423,2025-01-28 12:34:47,2025-01-28 12:38:16,209.254,0.066%,
424,2025-01-28 14:09:45,2025-01-28 14:13:00,195.056,0.062%,
425,2025-01-28 15:44:24,2025-01-28 15:47:44,200.03,0.063%,
426,2025-01-28 17:19:00,2025-01-28 17:22:31,210.571,0.067%,
427,2025-01-28 18:54:04,2025-01-28 18:57:12,188.184,0.060%,
428,2025-01-28 20:28:39,2025-01-28 20:31:56,196.547,0.062%,
429,2025-01-28 22:03:13,2025-01-28 22:06:40,207.038,0.066%,
430,2025-01-28 23:37:58,2025-01-28 23:41:24,205.485,0.065%,
431,2025-01-29 01:12:44,2025-01-29 01:16:11,207.09,0.066%,
432,2025-01-29 02:47:28,2025-01-29 02:50:52,204.184,0.065%,
433,2025-01-29 04:22:15,2025-01-29 04:25:36,200.575,0.064%,
434,2025-01-29 05:57:01,2025-01-29 06:00:20,198.849,0.063%,
435,2025-01-29 07:31:41,2025-01-29 07:35:04,202.45,0.064%,
436,2025-01-29 09:06:33,2025-01-29 09:09:51,198.656,0.063%,
437,2025-01-29 10:41:18,2025-01-29 10:44:32,193.338,0.061%,
438,2025-01-29 12:15:55,2025-01-29 12:19:23,207.664,0.066%,
439,2025-01-29 13:50:50,2025-01-29 13:54:00,189.444,0.060%,
440,2025-01-29 15:25:37,2025-01-29 15:28:44,187.182,0.059%,
441,2025-01-29 17:00:09,2025-01-29 17:03:31,202.579,0.064%,
442,2025-01-29 18:35:08,2025-01-29 18:38:12,183.156,0.058%,
443,2025-01-29 20:09:44,2025-01-29 20:13:03,198.615,0.063%,
444,2025-01-29 21:44:18,2025-01-29 21:47:40,201.518,0.064%,
445,2025-01-29 23:19:04,2025-01-29 23:22:24,199.591,0.063%,
446,2025-01-29 23:22:27,2025-01-29 23:22:34,7.657,0.002%,
447,2025-01-30 00:53:50,2025-01-30 00:57:11,201.906,0.064%,
448,2025-01-30 02:28:35,2025-01-30 02:31:51,196.37,0.062%,
449,2025-01-30 04:03:21,2025-01-30 04:06:43,202.14,0.064%,
450,2025-01-30 05:38:06,2025-01-30 05:41:20,193.624,0.061%,
451,2025-01-30 07:12:50,2025-01-30 07:16:14,204.417,0.065%,
452,2025-01-30 08:47:38,2025-01-30 08:50:52,193.542,0.061%,
453,2025-01-30 10:22:24,2025-01-30 10:25:31,187.494,0.060%,
454,2025-01-30 11:57:04,2025-01-30 12:00:23,199.208,0.063%,
455,2025-01-30 13:31:56,2025-01-30 13:35:03,186.946,0.059%,
456,2025-01-30 15:06:42,2025-01-30 15:09:55,192.63,0.061%,
457,2025-01-30 16:41:18,2025-01-30 16:44:32,193.981,0.062%,
458,2025-01-30 16:44:38,2025-01-30 16:44:43,4.811,0.002%,
459,2025-01-30 18:16:13,2025-01-30 18:19:27,193.787,0.061%,
460,2025-01-30 19:50:49,2025-01-30 19:54:11,201.74,0.064%,
461,2025-01-30 21:25:32,2025-01-30 21:28:55,203.081,0.064%,
462,2025-01-30 23:00:09,2025-01-30 23:03:39,209.223,0.066%,
463,2025-01-31 00:34:55,2025-01-31 00:38:23,207.652,0.066%,
464,2025-01-31 02:09:41,2025-01-31 02:13:07,206.04,0.065%,
465,2025-01-31 03:44:26,2025-01-31 03:47:51,204.388,0.065%,
466,2025-01-31 05:19:12,2025-01-31 05:22:35,202.687,0.064%,
467,2025-01-31 06:53:58,2025-01-31 06:57:19,200.937,0.064%,
468,2025-01-31 08:28:43,2025-01-31 08:32:03,199.131,0.063%,
469,2025-01-31 10:03:29,2025-01-31 10:06:47,197.269,0.063%,
470,2025-01-31 11:38:12,2025-01-31 11:41:31,198.319,0.063%,
471,2025-01-31 13:13:01,2025-01-31 13:16:18,196.516,0.062%,
472,2025-01-31 14:47:47,2025-01-31 14:50:58,191.242,0.061%,
473,2025-01-31 16:22:28,2025-01-31 16:25:42,194.865,0.062%,
474,2025-01-31 17:57:17,2025-01-31 18:00:26,188.951,0.060%,
475,2025-01-31 19:31:54,2025-01-31 19:35:10,196.581,0.062%,
476,2025-01-31 21:06:43,2025-01-31 21:09:58,194.6,0.062%,
477,2025-01-31 22:41:15,2025-01-31 22:44:38,203.374,0.065%,
478,2025-02-01 00:16:01,2025-02-01 00:19:29,208.758,0.066%,
479,2025-02-01 01:50:46,2025-02-01 01:54:06,200.306,0.064%,
480,2025-02-01 03:25:32,2025-02-01 03:28:50,198.548,0.063%,
481,2025-02-01 05:00:17,2025-02-01 05:03:38,200.492,0.064%,
482,2025-02-01 06:35:03,2025-02-01 06:38:18,195.104,0.062%,
483,2025-02-01 08:09:49,2025-02-01 08:13:09,200.492,0.064%,
484,2025-02-01 09:44:35,2025-02-01 09:47:47,191.819,0.061%,
485,2025-02-01 11:19:21,2025-02-01 11:22:30,189.532,0.060%,
486,2025-02-01 12:54:06,2025-02-01 12:57:18,191.698,0.061%,
487,2025-02-01 14:28:53,2025-02-01 14:31:58,185.465,0.059%,
488,2025-02-01 16:03:32,2025-02-01 16:06:49,197.119,0.063%,
489,2025-02-01 17:38:22,2025-02-01 17:41:27,184.606,0.059%,
490,2025-02-01 19:13:11,2025-02-01 19:16:21,189.524,0.060%,
491,2025-02-01 20:47:48,2025-02-01 20:50:58,190.249,0.060%,
492,2025-02-01 22:22:19,2025-02-01 22:25:38,198.994,0.063%,
493,2025-02-01 23:57:06,2025-02-02 00:00:30,203.56,0.065%,
494,2025-02-02 01:31:52,2025-02-02 01:35:09,197.728,0.063%,
495,2025-02-02 03:06:33,2025-02-02 03:10:01,208.565,0.066%,
496,2025-02-02 04:41:23,2025-02-02 04:44:38,195.366,0.062%,
497,2025-02-02 06:16:09,2025-02-02 06:19:33,204.753,0.065%,
498,2025-02-02 07:50:46,2025-02-02 07:54:17,211.228,0.067%,
499,2025-02-02 09:25:40,2025-02-02 09:29:01,201.15,0.064%,
500,2025-02-02 11:00:26,2025-02-02 11:03:45,199.255,0.063%,
501,2025-02-02 12:35:00,2025-02-02 12:38:29,209.584,0.067%,
502,2025-02-02 14:09:58,2025-02-02 14:13:13,195.245,0.062%,
503,2025-02-02 15:44:37,2025-02-02 15:47:57,200.047,0.063%,
504,2025-02-02 17:19:13,2025-02-02 17:22:41,207.921,0.066%,
505,2025-02-02 18:54:17,2025-02-02 18:57:25,188.446,0.060%,
506,2025-02-02 20:28:53,2025-02-02 20:32:09,196.576,0.062%,
507,2025-02-02 22:03:26,2025-02-02 22:06:53,207.127,0.066%,
508,2025-02-02 23:38:12,2025-02-02 23:41:37,205.58,0.065%,
509,2025-02-03 01:12:57,2025-02-03 01:16:24,207.165,0.066%,
510,2025-02-03 02:47:41,2025-02-03 02:51:05,204.551,0.065%,
511,2025-02-03 04:22:28,2025-02-03 04:25:49,200.693,0.064%,
512,2025-02-03 05:57:14,2025-02-03 06:00:33,198.978,0.063%,
513,2025-02-03 07:31:54,2025-02-03 07:35:17,202.832,0.064%,
514,2025-02-03 09:06:46,2025-02-03 09:10:04,198.772,0.063%,
515,2025-02-03 10:41:31,2025-02-03 10:44:45,193.493,0.061%,
516,2025-02-03 12:16:08,2025-02-03 12:19:36,208.036,0.066%,
517,2025-02-03 13:51:03,2025-02-03 13:54:13,189.601,0.060%,
518,2025-02-03 15:25:42,2025-02-03 15:28:57,194.833,0.062%,
519,2025-02-03 17:00:22,2025-02-03 17:03:44,202.971,0.064%,
520,2025-02-03 18:35:22,2025-02-03 18:38:25,183.221,0.058%,
521,2025-02-03 20:09:57,2025-02-03 20:13:16,198.61,0.063%,
522,2025-02-03 21:44:32,2025-02-03 21:47:53,201.577,0.064%,
523,2025-02-03 23:19:17,2025-02-03 23:22:37,199.683,0.063%,
524,2025-02-04 00:54:03,2025-02-04 00:57:25,201.975,0.064%,
525,2025-02-04 02:28:48,2025-02-04 02:32:05,196.477,0.062%,
526,2025-02-04 04:03:34,2025-02-04 04:06:56,202.227,0.064%,
527,2025-02-04 05:38:20,2025-02-04 05:41:33,193.719,0.061%,
528,2025-02-04 07:13:03,2025-02-04 07:16:28,204.892,0.065%,
529,2025-02-04 08:47:51,2025-02-04 08:51:05,193.656,0.061%,
530,2025-02-04 10:22:37,2025-02-04 10:25:45,187.645,0.060%,
531,2025-02-04 11:57:16,2025-02-04 12:00:36,199.723,0.063%,
532,2025-02-04 13:32:09,2025-02-04 13:35:16,187.157,0.059%,
533,2025-02-04 15:06:55,2025-02-04 15:10:08,192.802,0.061%,
534,2025-02-04 16:41:30,2025-02-04 16:44:45,194.553,0.062%,
535,2025-02-04 18:16:26,2025-02-04 18:19:40,193.848,0.062%,
536,2025-02-04 19:51:02,2025-02-04 19:54:24,201.759,0.064%,
537,2025-02-04 21:25:37,2025-02-04 21:29:08,210.839,0.067%,
538,2025-02-04 23:00:23,2025-02-04 23:03:52,209.314,0.066%,
539,2025-02-05 00:35:08,2025-02-05 00:38:36,207.751,0.066%,
540,2025-02-05 02:09:54,2025-02-05 02:13:20,206.147,0.065%,
541,2025-02-05 03:44:39,2025-02-05 03:48:04,204.503,0.065%,
542,2025-02-05 05:19:25,2025-02-05 05:22:48,202.808,0.064%,
543,2025-02-05 06:54:11,2025-02-05 06:57:32,201.067,0.064%,
544,2025-02-05 08:28:57,2025-02-05 08:32:16,199.27,0.063%,
545,2025-02-05 10:03:42,2025-02-05 10:07:00,197.419,0.063%,
546,2025-02-05 11:38:25,2025-02-05 11:41:44,198.334,0.063%,
547,2025-02-05 13:13:14,2025-02-05 13:16:31,196.663,0.062%,
548,2025-02-05 14:48:00,2025-02-05 14:51:12,191.434,0.061%,
549,2025-02-05 16:22:41,2025-02-05 16:25:56,194.891,0.062%,
550,2025-02-05 17:57:31,2025-02-05 18:00:40,189.004,0.060%,
551,2025-02-05 19:32:07,2025-02-05 19:35:24,196.592,0.062%,
552,2025-02-05 21:06:43,2025-02-05 21:06:49,6.308,0.002%,
553,2025-02-05 21:06:56,2025-02-05 21:10:11,194.61,0.062%,
554,2025-02-05 22:41:28,2025-02-05 22:44:52,203.463,0.065%,
555,2025-02-06 00:16:14,2025-02-06 00:19:42,208.824,0.066%,
556,2025-02-06 01:50:59,2025-02-06 01:54:20,200.379,0.064%,
557,2025-02-06 03:25:45,2025-02-06 03:29:03,198.654,0.063%,
558,2025-02-06 05:00:30,2025-02-06 05:03:51,200.582,0.064%,
559,2025-02-06 06:35:16,2025-02-06 06:38:31,195.228,0.062%,
560,2025-02-06 08:10:02,2025-02-06 08:13:23,200.599,0.064%,
561,2025-02-06 09:44:48,2025-02-06 09:48:00,191.936,0.061%,
562,2025-02-06 11:19:34,2025-02-06 11:22:43,189.69,0.060%,
563,2025-02-06 12:54:19,2025-02-06 12:57:31,191.705,0.061%,
564,2025-02-06 14:29:06,2025-02-06 14:32:11,185.651,0.059%,
565,2025-02-06 16:03:46,2025-02-06 16:07:03,197.11,0.063%,
566,2025-02-06 17:38:18,2025-02-06 17:38:31,12.477,0.004%,
567,2025-02-06 17:38:35,2025-02-06 17:41:40,184.626,0.059%,
568,2025-02-06 19:13:24,2025-02-06 19:16:34,189.754,0.060%,
569,2025-02-06 20:48:01,2025-02-06 20:51:11,190.254,0.060%,
570,2025-02-06 22:22:32,2025-02-06 22:25:51,199.282,0.063%,
571,2025-02-06 23:57:19,2025-02-07 00:00:43,203.625,0.065%,
572,2025-02-07 01:32:05,2025-02-07 01:35:23,197.864,0.063%,
573,2025-02-07 03:06:45,2025-02-07 03:10:14,208.831,0.066%,
574,2025-02-07 04:41:36,2025-02-07 04:44:51,195.451,0.062%,
575,2025-02-07 06:16:22,2025-02-07 06:19:47,204.88,0.065%,
576,2025-02-07 07:50:59,2025-02-07 07:54:31,211.534,0.067%,
577,2025-02-07 09:25:53,2025-02-07 09:29:15,201.296,0.064%,
578,2025-02-07 11:00:39,2025-02-07 11:03:59,199.411,0.063%,
579,2025-02-07 12:35:13,2025-02-07 12:38:42,209.899,0.067%,
580,2025-02-07 14:10:11,2025-02-07 14:13:26,195.429,0.062%,
581,2025-02-07 15:44:50,2025-02-07 15:48:10,200.064,0.063%,
582,2025-02-07 17:19:26,2025-02-07 17:22:54,208.249,0.066%,
583,2025-02-07 18:54:30,2025-02-07 18:57:38,188.697,0.060%,
584,2025-02-07 20:29:06,2025-02-07 20:32:22,196.605,0.062%,
585,2025-02-07 22:03:39,2025-02-07 22:07:06,207.213,0.066%,
586,2025-02-07 23:38:25,2025-02-07 23:41:50,205.673,0.065%,
587,2025-02-08 01:13:10,2025-02-08 01:16:37,207.232,0.066%,
588,2025-02-08 02:47:53,2025-02-08 02:51:18,204.9,0.065%,
589,2025-02-08 04:22:41,2025-02-08 04:26:02,200.809,0.064%,
590,2025-02-08 05:57:27,2025-02-08 06:00:46,199.099,0.063%,
591,2025-02-08 07:32:07,2025-02-08 07:35:30,203.193,0.064%,
592,2025-02-08 09:06:59,2025-02-08 09:10:18,198.883,0.063%,
593,2025-02-08 10:41:45,2025-02-08 10:44:58,193.649,0.061%,
594,2025-02-08 12:16:21,2025-02-08 12:19:49,208.384,0.066%,
595,2025-02-08 13:51:16,2025-02-08 13:54:26,189.753,0.060%,
596,2025-02-08 15:25:55,2025-02-08 15:29:10,194.841,0.062%,
597,2025-02-08 17:00:34,2025-02-08 17:03:58,203.336,0.065%,
598,2025-02-08 18:35:35,2025-02-08 18:38:38,183.285,0.058%,
599,2025-02-08 20:10:11,2025-02-08 20:13:29,198.602,0.063%,
600,2025-02-08 21:44:45,2025-02-08 21:48:06,201.63,0.064%,
601,2025-02-08 23:19:30,2025-02-08 23:22:50,199.77,0.063%,
602,2025-02-09 00:54:16,2025-02-09 00:57:38,202.043,0.064%,
603,2025-02-09 02:29:01,2025-02-09 02:32:18,196.579,0.062%,
604,2025-02-09 04:03:47,2025-02-09 04:07:09,202.311,0.064%,
605,2025-02-09 05:38:33,2025-02-09 05:41:46,193.81,0.062%,
606,2025-02-09 07:13:15,2025-02-09 07:16:41,205.33,0.065%,
607,2025-02-09 08:48:04,2025-02-09 08:51:18,193.766,0.061%,
608,2025-02-09 10:22:50,2025-02-09 10:25:58,187.793,0.060%,
609,2025-02-09 11:57:29,2025-02-09 12:00:49,200.194,0.064%,
610,2025-02-09 13:32:22,2025-02-09 13:35:29,187.368,0.059%,
611,2025-02-09 15:07:08,2025-02-09 15:10:21,192.959,0.061%,
612,2025-02-09 16:41:43,2025-02-09 16:44:58,195.063,0.062%,
613,2025-02-09 18:16:39,2025-02-09 18:19:53,193.908,0.062%,
614,2025-02-09 19:51:15,2025-02-09 19:54:37,201.778,0.064%,
615,2025-02-09 21:25:50,2025-02-09 21:29:21,210.924,0.067%,
616,2025-02-09 23:00:36,2025-02-09 23:04:05,209.405,0.066%,
617,2025-02-10 00:35:21,2025-02-10 00:38:49,207.849,0.066%,
618,2025-02-10 02:10:07,2025-02-10 02:13:33,206.252,0.065%,
619,2025-02-10 03:44:52,2025-02-10 03:48:17,204.61,0.065%,
620,2025-02-10 05:19:38,2025-02-10 05:23:01,202.929,0.064%,
621,2025-02-10 06:54:24,2025-02-10 06:57:45,201.193,0.064%,
622,2025-02-10 08:29:10,2025-02-10 08:32:29,199.407,0.063%,
623,2025-02-10 10:03:55,2025-02-10 10:07:13,197.566,0.063%,
624,2025-02-10 11:38:39,2025-02-10 11:41:57,198.347,0.063%,
625,2025-02-10 13:13:27,2025-02-10 13:16:44,196.805,0.062%,
626,2025-02-10 14:48:13,2025-02-10 14:51:25,191.622,0.061%,
627,2025-02-10 16:22:53,2025-02-10 16:26:09,195.943,0.062%,
628,2025-02-10 17:57:44,2025-02-10 18:00:53,189.057,0.060%,
629,2025-02-10 19:32:20,2025-02-10 19:35:37,196.603,0.062%,
630,2025-02-10 21:06:56,2025-02-10 21:06:59,3.602,0.001%,
631,2025-02-10 21:07:08,2025-02-10 21:10:24,196.473,0.062%,
632,2025-02-10 22:41:41,2025-02-10 22:45:05,203.55,0.065%,
633,2025-02-11 00:16:27,2025-02-11 00:19:56,208.889,0.066%,
634,2025-02-11 01:51:12,2025-02-11 01:54:33,200.454,0.064%,
635,2025-02-11 03:25:58,2025-02-11 03:29:17,198.762,0.063%,
636,2025-02-11 05:00:44,2025-02-11 05:04:04,200.667,0.064%,
637,2025-02-11 06:35:29,2025-02-11 06:38:45,195.352,0.062%,
638,2025-02-11 08:10:15,2025-02-11 08:13:36,200.704,0.064%,
639,2025-02-11 09:45:01,2025-02-11 09:48:13,192.052,0.061%,
640,2025-02-11 11:19:47,2025-02-11 11:22:57,189.845,0.060%,
641,2025-02-11 12:54:33,2025-02-11 12:57:44,191.713,0.061%,
642,2025-02-11 14:29:19,2025-02-11 14:32:25,185.833,0.059%,
643,2025-02-11 16:03:59,2025-02-11 16:07:16,197.101,0.063%,
644,2025-02-11 17:38:31,2025-02-11 17:38:38,6.565,0.002%,
645,2025-02-11 17:38:48,2025-02-11 17:41:53,184.645,0.059%,
646,2025-02-11 19:13:37,2025-02-11 19:16:47,189.978,0.060%,
647,2025-02-11 20:48:14,2025-02-11 20:51:24,190.258,0.060%,
648,2025-02-11 22:22:45,2025-02-11 22:26:04,199.561,0.063%,
649,2025-02-11 23:57:32,2025-02-12 00:00:56,203.689,0.065%,
650,2025-02-12 01:32:18,2025-02-12 01:35:36,197.994,0.063%,
651,2025-02-12 03:06:58,2025-02-12 03:10:27,209.092,0.066%,
652,2025-02-12 04:41:49,2025-02-12 04:45:05,195.539,0.062%,
653,2025-02-12 06:16:35,2025-02-12 06:20:00,205.009,0.065%,
654,2025-02-12 07:51:12,2025-02-12 07:54:44,211.833,0.067%,
655,2025-02-12 09:26:06,2025-02-12 09:29:28,201.44,0.064%,
656,2025-02-12 11:00:52,2025-02-12 11:04:12,199.567,0.063%,
657,2025-02-12 12:35:25,2025-02-12 12:38:56,210.207,0.067%,
658,2025-02-12 14:10:24,2025-02-12 14:13:40,195.613,0.062%,
659,2025-02-12 15:45:04,2025-02-12 15:48:24,200.08,0.063%,
660,2025-02-12 17:19:39,2025-02-12 17:23:08,208.566,0.066%,
661,2025-02-12 18:54:43,2025-02-12 18:57:52,188.945,0.060%,
662,2025-02-12 20:29:19,2025-02-12 20:32:36,196.633,0.062%,
663,2025-02-12 22:03:52,2025-02-12 22:07:20,207.297,0.066%,
664,2025-02-12 23:38:38,2025-02-12 23:42:04,205.763,0.065%,
665,2025-02-13 01:13:23,2025-02-13 01:16:51,207.301,0.066%,
666,2025-02-13 02:48:06,2025-02-13 02:51:32,205.239,0.065%,
667,2025-02-13 04:22:55,2025-02-13 04:26:15,200.923,0.064%,
668,2025-02-13 05:57:40,2025-02-13 06:00:59,199.222,0.063%,
669,2025-02-13 07:32:20,2025-02-13 07:35:43,203.549,0.065%,
670,2025-02-13 09:07:12,2025-02-13 09:10:31,198.995,0.063%,
671,2025-02-13 10:41:58,2025-02-13 10:45:11,193.799,0.062%,
672,2025-02-13 12:16:34,2025-02-13 12:20:02,208.721,0.066%,
673,2025-02-13 13:51:29,2025-02-13 13:54:39,189.903,0.060%,
674,2025-02-13 15:26:08,2025-02-13 15:26:09,0.278,0.000%,
675,2025-02-13 15:26:16,2025-02-13 15:29:23,187.771,0.060%,
676,2025-02-13 17:00:47,2025-02-13 17:04:11,203.688,0.065%,
677,2025-02-13 18:35:48,2025-02-13 18:38:51,183.348,0.058%,
678,2025-02-13 20:10:24,2025-02-13 20:13:42,198.595,0.063%,
679,2025-02-13 21:44:58,2025-02-13 21:48:19,201.687,0.064%,
680,2025-02-13 23:19:43,2025-02-13 23:23:03,199.86,0.063%,
681,2025-02-14 00:54:29,2025-02-14 00:57:51,202.112,0.064%,
682,2025-02-14 02:29:14,2025-02-14 02:32:31,196.683,0.062%,
683,2025-02-14 04:04:00,2025-02-14 04:07:22,202.39,0.064%,
684,2025-02-14 05:38:46,2025-02-14 05:42:00,193.904,0.062%,
685,2025-02-14 07:13:28,2025-02-14 07:16:54,205.744,0.065%,
686,2025-02-14 08:48:17,2025-02-14 08:51:31,193.876,0.062%,
687,2025-02-14 10:23:03,2025-02-14 10:26:11,187.94,0.060%,
688,2025-02-14 11:57:42,2025-02-14 12:01:03,200.639,0.064%,
689,2025-02-14 13:32:35,2025-02-14 13:35:42,187.574,0.060%,
690,2025-02-14 15:07:21,2025-02-14 15:10:34,193.121,0.061%,
691,2025-02-14 16:41:56,2025-02-14 16:45:11,195.541,0.062%,
692,2025-02-14 18:16:52,2025-02-14 18:20:06,193.968,0.062%,
693,2025-02-14 19:51:29,2025-02-14 19:54:50,201.796,0.064%,
694,2025-02-14 21:26:03,2025-02-14 21:26:06,2.36,0.001%,
695,2025-02-14 21:26:09,2025-02-14 21:29:34,204.895,0.065%,
696,2025-02-14 23:00:49,2025-02-14 23:04:18,209.496,0.066%,
697,2025-02-15 00:35:34,2025-02-15 00:39:02,207.946,0.066%,
698,2025-02-15 02:10:20,2025-02-15 02:13:46,206.356,0.065%,
699,2025-02-15 03:45:06,2025-02-15 03:48:30,204.722,0.065%,
700,2025-02-15 05:19:51,2025-02-15 05:23:14,203.049,0.064%,
701,2025-02-15 06:54:37,2025-02-15 06:57:58,201.32,0.064%,
702,2025-02-15 08:29:23,2025-02-15 08:32:42,199.544,0.063%,
703,2025-02-15 10:04:08,2025-02-15 10:07:26,197.713,0.063%,
704,2025-02-15 11:38:51,2025-02-15 11:42:10,199.047,0.063%,
705,2025-02-15 13:13:40,2025-02-15 13:16:57,196.947,0.063%,
706,2025-02-15 14:48:26,2025-02-15 14:51:38,191.808,0.061%,
707,2025-02-15 16:23:05,2025-02-15 16:26:22,196.91,0.062%,
708,2025-02-15 17:57:57,2025-02-15 18:01:06,189.108,0.060%,
709,2025-02-15 19:32:33,2025-02-15 19:35:50,196.613,0.062%,
710,2025-02-15 21:07:19,2025-02-15 21:10:37,197.899,0.063%,
711,2025-02-15 22:41:54,2025-02-15 22:45:18,203.637,0.065%,
712,2025-02-16 00:16:40,2025-02-16 00:20:09,208.955,0.066%,
713,2025-02-16 01:51:25,2025-02-16 01:54:46,200.529,0.064%,
714,2025-02-16 03:26:11,2025-02-16 03:29:30,198.87,0.063%,
715,2025-02-16 05:00:57,2025-02-16 05:04:17,200.756,0.064%,
716,2025-02-16 06:35:42,2025-02-16 06:38:58,195.479,0.062%,
717,2025-02-16 08:10:28,2025-02-16 08:13:49,200.809,0.064%,
718,2025-02-16 09:45:14,2025-02-16 09:48:26,192.168,0.061%,
719,2025-02-16 11:20:00,2025-02-16 11:23:10,189.998,0.060%,
720,2025-02-16 11:23:14,2025-02-16 11:23:20,6.326,0.002%,
721,2025-02-16 12:54:46,2025-02-16 12:57:58,191.853,0.061%,
722,2025-02-16 14:29:32,2025-02-16 14:32:38,186.015,0.059%,
723,2025-02-16 16:04:12,2025-02-16 16:07:29,197.094,0.063%,
724,2025-02-16 17:39:02,2025-02-16 17:42:06,184.664,0.059%,
725,2025-02-16 19:13:50,2025-02-16 19:17:01,190.198,0.060%,
726,2025-02-16 20:48:27,2025-02-16 20:51:38,190.263,0.060%,
727,2025-02-16 22:23:00,2025-02-16 22:26:18,197.693,0.063%,
728,2025-02-16 23:57:45,2025-02-17 00:01:09,203.753,0.065%,
729,2025-02-17 01:32:31,2025-02-17 01:35:49,198.125,0.063%,
730,2025-02-17 03:07:11,2025-02-17 03:10:41,209.345,0.066%,
731,2025-02-17 04:42:02,2025-02-17 04:45:29,206.83,0.066%,
732,2025-02-17 06:16:48,2025-02-17 06:20:13,205.132,0.065%,
733,2025-02-17 07:51:25,2025-02-17 07:54:57,212.124,0.067%,
734,2025-02-17 09:26:19,2025-02-17 09:29:41,201.583,0.064%,
735,2025-02-17 11:01:05,2025-02-17 11:04:25,199.721,0.063%,
736,2025-02-17 12:35:38,2025-02-17 12:39:09,210.506,0.067%,
737,2025-02-17 14:10:37,2025-02-17 14:13:53,195.793,0.062%,
738,2025-02-17 15:45:17,2025-02-17 15:48:37,200.094,0.063%,
739,2025-02-17 17:19:52,2025-02-17 17:23:24,211.743,0.067%,
740,2025-02-17 18:54:56,2025-02-17 18:58:05,189.187,0.060%,
741,2025-02-17 20:29:32,2025-02-17 20:32:49,196.66,0.062%,
742,2025-02-17 22:04:05,2025-02-17 22:07:33,207.382,0.066%,
743,2025-02-17 23:38:51,2025-02-17 23:42:17,205.854,0.065%,
744,2025-02-18 01:13:36,2025-02-18 01:17:04,207.369,0.066%,
745,2025-02-18 02:48:19,2025-02-18 02:51:45,205.566,0.065%,
746,2025-02-18 04:23:08,2025-02-18 04:26:29,201.036,0.064%,
747,2025-02-18 05:57:53,2025-02-18 06:01:13,199.341,0.063%,
748,2025-02-18 07:32:33,2025-02-18 07:35:57,203.888,0.065%,
749,2025-02-18 09:07:25,2025-02-18 09:10:44,199.104,0.063%,
750,2025-02-18 10:42:11,2025-02-18 10:45:25,193.948,0.062%,
751,2025-02-18 12:16:46,2025-02-18 12:20:15,209.042,0.066%,
752,2025-02-18 13:51:43,2025-02-18 13:54:53,190.05,0.060%,
753,2025-02-18 15:26:29,2025-02-18 15:29:37,187.961,0.060%,
754,2025-02-18 17:01:00,2025-02-18 17:04:24,204.026,0.065%,
755,2025-02-18 18:36:01,2025-02-18 18:39:04,183.491,0.058%,
756,2025-02-18 20:10:37,2025-02-18 20:13:56,198.587,0.063%,
757,2025-02-18 21:45:14,2025-02-18 21:48:33,199.028,0.063%,
758,2025-02-18 23:19:56,2025-02-18 23:23:27,210.587,0.067%,
759,2025-02-19 00:54:42,2025-02-19 00:58:04,202.18,0.064%,
760,2025-02-19 02:29:27,2025-02-19 02:32:44,197.014,0.063%,
761,2025-02-19 04:04:13,2025-02-19 04:07:36,202.472,0.064%,
762,2025-02-19 05:38:59,2025-02-19 05:42:13,193.996,0.062%,
763,2025-02-19 07:13:41,2025-02-19 07:17:07,206.136,0.065%,
764,2025-02-19 08:48:30,2025-02-19 08:51:44,193.984,0.062%,
765,2025-02-19 10:23:16,2025-02-19 10:26:24,188.084,0.060%,
766,2025-02-19 11:57:55,2025-02-19 12:01:16,201.052,0.064%,
767,2025-02-19 13:32:48,2025-02-19 13:35:56,187.777,0.060%,
768,2025-02-19 15:07:34,2025-02-19 15:10:47,193.278,0.061%,
769,2025-02-19 16:42:08,2025-02-19 16:45:36,207.202,0.066%,
770,2025-02-19 18:17:06,2025-02-19 18:20:20,194.027,0.062%,
771,2025-02-19 19:51:42,2025-02-19 19:55:04,201.815,0.064%,
772,2025-02-19 21:26:22,2025-02-19 21:29:48,205.399,0.065%,
773,2025-02-19 23:01:02,2025-02-19 23:04:32,209.585,0.067%,
774,2025-02-20 00:35:47,2025-02-20 00:39:16,208.041,0.066%,
775,2025-02-20 02:10:33,2025-02-20 02:13:59,206.459,0.066%,
776,2025-02-20 03:45:19,2025-02-20 03:48:43,204.832,0.065%,
777,2025-02-20 05:20:04,2025-02-20 05:23:30,206.017,0.065%,
778,2025-02-20 06:54:50,2025-02-20 06:58:11,201.669,0.064%,
779,2025-02-20 08:29:36,2025-02-20 08:32:55,199.677,0.063%,
780,2025-02-20 10:04:22,2025-02-20 10:07:39,197.857,0.063%,
781,2025-02-20 11:39:04,2025-02-20 11:42:23,199.718,0.063%,
782,2025-02-20 13:13:53,2025-02-20 13:17:10,197.085,0.063%,
783,2025-02-20 14:48:39,2025-02-20 14:51:51,191.99,0.061%,
784,2025-02-20 16:23:18,2025-02-20 16:26:35,197.688,0.063%,
785,2025-02-20 17:58:10,2025-02-20 18:01:19,189.159,0.060%,
786,2025-02-20 19:32:58,2025-02-20 19:36:03,185.265,0.059%,
787,2025-02-20 21:07:32,2025-02-20 21:10:51,198.834,0.063%,
788,2025-02-20 22:42:07,2025-02-20 22:42:24,16.2,0.005%,
789,2025-02-20 22:42:26,2025-02-20 22:45:31,185.07,0.059%,
790,2025-02-21 00:16:53,2025-02-21 00:20:22,209.017,0.066%,
791,2025-02-21 01:51:39,2025-02-21 01:54:59,200.598,0.064%,
792,2025-02-21 03:26:24,2025-02-21 03:29:43,198.976,0.063%,
793,2025-02-21 05:01:10,2025-02-21 05:04:31,200.842,0.064%,
794,2025-02-21 06:35:55,2025-02-21 06:39:11,195.599,0.062%,
795,2025-02-21 08:10:41,2025-02-21 08:14:02,200.915,0.064%,
796,2025-02-21 09:45:27,2025-02-21 09:48:39,192.28,0.061%,
797,2025-02-21 11:20:13,2025-02-21 11:23:34,200.777,0.064%,
798,2025-02-21 12:54:59,2025-02-21 12:58:11,191.988,0.061%,
799,2025-02-21 14:29:45,2025-02-21 14:32:51,186.191,0.059%,
800,2025-02-21 16:04:25,2025-02-21 16:07:42,197.083,0.063%,
801,2025-02-21 17:39:15,2025-02-21 17:42:19,184.681,0.059%,
802,2025-02-21 19:14:03,2025-02-21 19:17:14,190.41,0.060%,
803,2025-02-21 20:48:41,2025-02-21 20:51:51,190.266,0.060%,
804,2025-02-21 22:23:31,2025-02-21 22:26:31,180.147,0.057%,
805,2025-02-21 23:57:59,2025-02-22 00:01:22,203.812,0.065%,
806,2025-02-22 01:32:44,2025-02-22 01:36:02,198.255,0.063%,
807,2025-02-22 03:07:30,2025-02-22 03:10:58,208.586,0.066%,
808,2025-02-22 04:42:15,2025-02-22 04:45:42,206.945,0.066%,
809,2025-02-22 06:17:01,2025-02-22 06:20:26,205.256,0.065%,
810,2025-02-22 07:51:47,2025-02-22 07:55:10,203.517,0.065%,
811,2025-02-22 09:26:32,2025-02-22 09:29:54,201.722,0.064%,
812,2025-02-22 11:01:18,2025-02-22 11:04:38,199.875,0.063%,
813,2025-02-22 12:36:04,2025-02-22 12:39:22,198.377,0.063%,
814,2025-02-22 14:10:50,2025-02-22 14:14:06,195.969,0.062%,
815,2025-02-22 15:45:30,2025-02-22 15:48:50,200.109,0.064%,
816,2025-02-22 17:20:19,2025-02-22 17:23:37,197.55,0.063%,
817,2025-02-22 18:55:09,2025-02-22 18:58:18,189.422,0.060%,
818,2025-02-22 20:29:45,2025-02-22 20:33:02,196.686,0.062%,
819,2025-02-22 22:04:18,2025-02-22 22:04:27,8.979,0.003%,
820,2025-02-22 22:04:35,2025-02-22 22:07:46,190.825,0.061%,
821,2025-02-22 23:39:04,2025-02-22 23:42:30,205.944,0.065%,
822,2025-02-23 01:13:50,2025-02-23 01:17:17,207.435,0.066%,
823,2025-02-23 02:48:32,2025-02-23 02:51:58,205.88,0.065%,
824,2025-02-23 04:23:21,2025-02-23 04:26:42,201.142,0.064%,
825,2025-02-23 05:58:06,2025-02-23 06:01:26,199.46,0.063%,
826,2025-02-23 07:32:46,2025-02-23 07:36:10,204.209,0.065%,
827,2025-02-23 09:07:38,2025-02-23 09:10:57,199.21,0.063%,
828,2025-02-23 10:42:24,2025-02-23 10:45:38,194.093,0.062%,
829,2025-02-23 12:16:59,2025-02-23 12:20:29,209.354,0.066%,
830,2025-02-23 13:51:56,2025-02-23 13:55:06,190.207,0.060%,
831,2025-02-23 15:26:42,2025-02-23 15:29:50,188.146,0.060%,
832,2025-02-23 17:01:13,2025-02-23 17:04:37,204.346,0.065%,
833,2025-02-23 18:36:14,2025-02-23 18:39:18,183.717,0.058%,
834,2025-02-23 20:10:50,2025-02-23 20:14:09,198.577,0.063%,
835,2025-02-23 21:45:26,2025-02-23 21:48:46,199.363,0.063%,
836,2025-02-23 23:20:10,2025-02-23 23:20:24,14.314,0.005%,
837,2025-02-23 23:20:30,2025-02-23 23:23:40,189.792,0.060%,
838,2025-02-24 00:54:55,2025-02-24 00:58:17,202.244,0.064%,
839,2025-02-24 02:29:40,2025-02-24 02:32:58,197.392,0.063%,
840,2025-02-24 04:04:26,2025-02-24 04:07:49,202.551,0.064%,
841,2025-02-24 05:39:12,2025-02-24 05:42:26,194.081,0.062%,
842,2025-02-24 07:13:54,2025-02-24 07:17:20,206.503,0.066%,
843,2025-02-24 08:48:43,2025-02-24 08:51:57,194.089,0.062%,
844,2025-02-24 10:23:29,2025-02-24 10:26:37,188.226,0.060%,
845,2025-02-24 11:58:07,2025-02-24 12:01:29,201.441,0.064%,
846,2025-02-24 13:33:01,2025-02-24 13:36:09,187.977,0.060%,
847,2025-02-24 15:07:47,2025-02-24 15:11:05,197.865,0.063%,
848,2025-02-24 16:42:21,2025-02-24 16:45:49,207.645,0.066%,
849,2025-02-24 18:17:19,2025-02-24 18:20:33,194.085,0.062%,
850,2025-02-24 19:51:55,2025-02-24 19:55:17,201.832,0.064%,
851,2025-02-24 21:26:35,2025-02-24 21:30:01,205.87,0.065%,
852,2025-02-24 23:01:35,2025-02-24 23:04:45,189.931,0.060%,
853,2025-02-25 00:36:01,2025-02-25 00:39:29,208.135,0.066%,
854,2025-02-25 02:10:46,2025-02-25 02:14:13,206.557,0.066%,
855,2025-02-25 03:45:32,2025-02-25 03:48:57,204.94,0.065%,
856,2025-02-25 05:20:17,2025-02-25 05:23:43,206.102,0.065%,
857,2025-02-25 06:55:02,2025-02-25 06:58:25,202.214,0.064%,
858,2025-02-25 08:29:49,2025-02-25 08:33:09,199.809,0.063%,
859,2025-02-25 10:04:35,2025-02-25 10:07:53,197.998,0.063%,
860,2025-02-25 11:39:16,2025-02-25 11:42:37,200.316,0.064%,
861,2025-02-25 13:14:06,2025-02-25 13:17:24,197.22,0.063%,
862,2025-02-25 14:48:52,2025-02-25 14:52:05,192.169,0.061%,
863,2025-02-25 16:23:30,2025-02-25 16:26:55,204.94,0.065%,
864,2025-02-25 17:58:23,2025-02-25 18:01:32,189.209,0.060%,
865,2025-02-25 19:33:11,2025-02-25 19:36:16,185.508,0.059%,
866,2025-02-25 21:07:44,2025-02-25 21:11:04,199.585,0.063%,
867,2025-02-25 22:42:39,2025-02-25 22:45:44,185.133,0.059%,
868,2025-02-26 00:17:06,2025-02-26 00:20:35,209.076,0.066%,
869,2025-02-26 01:51:52,2025-02-26 01:55:12,200.694,0.064%,
870,2025-02-26 03:26:37,2025-02-26 03:29:56,199.078,0.063%,
871,2025-02-26 05:01:23,2025-02-26 05:04:44,200.926,0.064%,
872,2025-02-26 06:36:09,2025-02-26 06:39:24,195.72,0.062%,
873,2025-02-26 08:10:54,2025-02-26 08:14:15,201.014,0.064%,
874,2025-02-26 09:45:40,2025-02-26 09:48:52,192.391,0.061%,
875,2025-02-26 11:20:26,2025-02-26 11:23:47,200.897,0.064%,
876,2025-02-26 12:55:12,2025-02-26 12:58:24,192.122,0.061%,
877,2025-02-26 14:29:58,2025-02-26 14:33:04,186.368,0.059%,
878,2025-02-26 16:04:38,2025-02-26 16:07:55,197.072,0.063%,
879,2025-02-26 17:39:28,2025-02-26 17:42:33,184.701,0.059%,
880,2025-02-26 19:14:16,2025-02-26 19:17:27,190.617,0.060%,
881,2025-02-26 20:48:54,2025-02-26 20:52:04,190.268,0.060%,
882,2025-02-26 22:23:44,2025-02-26 22:26:58,194.602,0.062%,
883,2025-02-26 23:58:12,2025-02-26 23:58:19,7.11,0.002%,
884,2025-02-26 23:58:20,2025-02-27 00:01:36,195.57,0.062%,
885,2025-02-27 01:32:57,2025-02-27 01:36:27,210.285,0.067%,
886,2025-02-27 03:07:43,2025-02-27 03:11:11,208.693,0.066%,
887,2025-02-27 04:42:28,2025-02-27 04:45:55,207.054,0.066%,
888,2025-02-27 06:17:14,2025-02-27 06:20:39,205.376,0.065%,
889,2025-02-27 07:52:00,2025-02-27 07:55:23,203.644,0.065%,
890,2025-02-27 09:26:46,2025-02-27 09:30:07,201.861,0.064%,
891,2025-02-27 11:01:31,2025-02-27 11:04:51,200.024,0.063%,
892,2025-02-27 12:36:17,2025-02-27 12:39:35,198.405,0.063%,
893,2025-02-27 14:11:03,2025-02-27 14:14:19,196.143,0.062%,
894,2025-02-27 15:45:49,2025-02-27 15:49:03,194.088,0.062%,
895,2025-02-27 17:20:33,2025-02-27 17:23:50,197.56,0.063%,
896,2025-02-27 18:55:22,2025-02-27 18:58:31,189.654,0.060%,
897,2025-02-27 20:29:59,2025-02-27 20:33:15,196.711,0.062%,
898,2025-02-27 22:04:48,2025-02-27 22:07:59,190.877,0.061%,
899,2025-02-27 23:39:39,2025-02-27 23:42:43,184.019,0.058%,
900,2025-02-28 01:14:03,2025-02-28 01:17:30,207.501,0.066%,
901,2025-02-28 02:48:48,2025-02-28 02:52:11,202.889,0.064%,
902,2025-02-28 04:23:34,2025-02-28 04:27:02,207.818,0.066%,
903,2025-02-28 05:58:20,2025-02-28 06:01:39,199.573,0.063%,
904,2025-02-28 07:33:05,2025-02-28 07:36:23,197.845,0.063%,
905,2025-02-28 09:07:51,2025-02-28 09:11:10,199.315,0.063%,
906,2025-02-28 10:42:37,2025-02-28 10:45:51,194.237,0.062%,
907,2025-02-28 12:17:22,2025-02-28 12:20:42,200.07,0.063%,
908,2025-02-28 13:52:09,2025-02-28 13:55:19,190.376,0.060%,
909,2025-02-28 15:26:55,2025-02-28 15:30:03,188.33,0.060%,
910,2025-02-28 17:01:37,2025-02-28 17:04:50,193.184,0.061%,
911,2025-02-28 18:36:27,2025-02-28 18:39:31,183.941,0.058%,
912,2025-02-28 20:11:03,2025-02-28 20:14:22,198.568,0.063%,
913,2025-02-28 21:45:39,2025-02-28 21:45:42,2.47,0.001%,
914,2025-02-28 21:45:53,2025-02-28 21:48:59,186.116,0.059%,
915,2025-02-28 23:20:44,2025-02-28 23:23:53,189.838,0.060%,
916,2025-03-01 00:55:08,2025-03-01 00:58:31,202.31,0.064%,
917,2025-03-01 02:29:53,2025-03-01 02:33:11,197.756,0.063%,
918,2025-03-01 04:04:39,2025-03-01 04:08:02,202.63,0.064%,
919,2025-03-01 05:39:25,2025-03-01 05:42:42,197.244,0.063%,
920,2025-03-01 07:14:07,2025-03-01 07:17:33,206.857,0.066%,
921,2025-03-01 08:48:56,2025-03-01 08:52:11,194.194,0.062%,
922,2025-03-01 10:23:42,2025-03-01 10:27:05,202.752,0.064%,
923,2025-03-01 11:58:20,2025-03-01 12:01:42,201.815,0.064%,
924,2025-03-01 12:01:49,2025-03-01 12:01:50,1.238,0.000%,
925,2025-03-01 13:33:14,2025-03-01 13:36:34,200.063,0.063%,
926,2025-03-01 15:08:00,2025-03-01 15:11:18,198.051,0.063%,
927,2025-03-01 16:42:34,2025-03-01 16:46:02,208.069,0.066%,
928,2025-03-01 18:17:32,2025-03-01 18:20:46,194.142,0.062%,
929,2025-03-01 19:52:19,2025-03-01 19:55:30,191.39,0.061%,
930,2025-03-01 21:26:48,2025-03-01 21:30:14,206.317,0.065%,
931,2025-03-01 23:01:48,2025-03-01 23:04:58,190.001,0.060%,
932,2025-03-02 00:36:24,2025-03-02 00:39:42,198.419,0.063%,
933,2025-03-02 02:10:59,2025-03-02 02:14:26,206.657,0.066%,
934,2025-03-02 03:45:45,2025-03-02 03:49:10,205.045,0.065%,
935,2025-03-02 05:20:30,2025-03-02 05:23:57,206.187,0.065%,
936,2025-03-02 06:55:15,2025-03-02 06:58:38,202.723,0.064%,
937,2025-03-02 08:30:02,2025-03-02 08:33:22,199.945,0.063%,
938,2025-03-02 10:04:48,2025-03-02 10:08:06,198.139,0.063%,
939,2025-03-02 11:39:29,2025-03-02 11:42:50,200.867,0.064%,
940,2025-03-02 13:14:19,2025-03-02 13:17:37,197.355,0.063%,
941,2025-03-02 14:49:05,2025-03-02 14:52:18,192.349,0.061%,
942,2025-03-02 16:23:43,2025-03-02 16:27:08,205.516,0.065%,
943,2025-03-02 17:58:36,2025-03-02 18:01:46,189.258,0.060%,
944,2025-03-02 19:33:24,2025-03-02 19:36:30,185.747,0.059%,
945,2025-03-02 21:07:57,2025-03-02 21:11:17,200.235,0.064%,
946,2025-03-02 22:42:52,2025-03-02 22:45:58,185.192,0.059%,
947,2025-03-03 00:17:28,2025-03-03 00:20:48,200.066,0.063%,
948,2025-03-03 01:52:05,2025-03-03 01:55:26,200.791,0.064%,
949,2025-03-03 03:26:50,2025-03-03 03:30:10,199.183,0.063%,
950,2025-03-03 05:01:36,2025-03-03 05:04:57,201.01,0.064%,
951,2025-03-03 06:36:22,2025-03-03 06:39:37,195.837,0.062%,
952,2025-03-03 08:11:07,2025-03-03 08:14:28,201.113,0.064%,
953,2025-03-03 09:45:53,2025-03-03 09:49:06,192.501,0.061%,
954,2025-03-03 11:20:39,2025-03-03 11:24:00,201.016,0.064%,
955,2025-03-03 12:55:25,2025-03-03 12:58:37,192.254,0.061%,
956,2025-03-03 14:30:11,2025-03-03 14:33:17,186.541,0.059%,
957,2025-03-03 16:04:52,2025-03-03 16:04:57,5.294,0.002%,
958,2025-03-03 16:04:57,2025-03-03 16:08:09,191.731,0.061%,
959,2025-03-03 17:39:41,2025-03-03 17:42:49,187.823,0.060%,
960,2025-03-03 19:14:29,2025-03-03 19:17:40,190.821,0.061%,
961,2025-03-03 20:49:07,2025-03-03 20:52:17,190.27,0.060%,
962,2025-03-03 22:23:57,2025-03-03 22:27:12,194.63,0.062%,
963,2025-03-03 23:58:48,2025-03-04 00:01:57,188.715,0.060%,
964,2025-03-04 01:33:10,2025-03-04 01:33:19,8.851,0.003%,
965,2025-03-04 01:33:23,2025-03-04 01:36:41,198.079,0.063%,
966,2025-03-04 03:07:56,2025-03-04 03:11:25,208.797,0.066%,
967,2025-03-04 04:42:41,2025-03-04 04:46:09,207.167,0.066%,
968,2025-03-04 06:17:27,2025-03-04 06:20:53,205.496,0.065%,
969,2025-03-04 07:52:13,2025-03-04 07:55:37,203.771,0.065%,
970,2025-03-04 09:26:59,2025-03-04 09:30:23,204.577,0.065%,
971,2025-03-04 11:01:44,2025-03-04 11:05:05,200.17,0.064%,
972,2025-03-04 12:36:30,2025-03-04 12:39:49,198.432,0.063%,
973,2025-03-04 14:11:16,2025-03-04 14:14:33,196.314,0.062%,
974,2025-03-04 15:46:02,2025-03-04 15:49:17,194.27,0.062%,
975,2025-03-04 17:20:46,2025-03-04 17:24:03,197.569,0.063%,
976,2025-03-04 18:55:35,2025-03-04 18:58:44,189.88,0.060%,
977,2025-03-04 20:30:12,2025-03-04 20:33:28,196.736,0.062%,
978,2025-03-04 22:05:01,2025-03-04 22:08:12,190.929,0.061%,
979,2025-03-04 23:39:52,2025-03-04 23:42:56,184.097,0.058%,
980,2025-03-05 01:14:27,2025-03-05 01:17:43,196.11,0.062%,
981,2025-03-05 02:49:01,2025-03-05 02:52:24,202.992,0.064%,
982,2025-03-05 04:23:47,2025-03-05 04:27:15,207.897,0.066%,
983,2025-03-05 05:58:33,2025-03-05 06:01:52,199.69,0.063%,
984,2025-03-05 07:33:18,2025-03-05 07:36:36,197.972,0.063%,
985,2025-03-05 09:08:04,2025-03-05 09:11:23,199.419,0.063%,
986,2025-03-05 10:42:50,2025-03-05 10:46:04,194.379,0.062%,
987,2025-03-05 12:17:35,2025-03-05 12:20:55,200.061,0.063%,
988,2025-03-05 13:52:22,2025-03-05 13:55:32,190.542,0.060%,
989,2025-03-05 15:27:08,2025-03-05 15:30:26,198.827,0.063%,
990,2025-03-05 17:01:50,2025-03-05 17:05:04,193.188,0.061%,
991,2025-03-05 18:36:40,2025-03-05 18:39:44,184.16,0.058%,
992,2025-03-05 20:11:17,2025-03-05 20:11:19,2.796,0.001%,
993,2025-03-05 20:11:26,2025-03-05 20:14:35,188.8,0.060%,
994,2025-03-05 21:46:06,2025-03-05 21:49:12,186.137,0.059%,
995,2025-03-05 23:20:57,2025-03-05 23:24:07,189.882,0.060%,
996,2025-03-06 00:55:32,2025-03-06 00:58:44,191.728,0.061%,
997,2025-03-06 02:30:07,2025-03-06 02:33:24,197.078,0.063%,
998,2025-03-06 04:04:52,2025-03-06 04:08:15,202.705,0.064%,
999,2025-03-06 05:39:38,2025-03-06 05:42:55,197.395,0.063%,
1000,2025-03-06 07:14:24,2025-03-06 07:17:47,202.881,0.064%,
1001,2025-03-06 08:49:10,2025-03-06 08:52:24,194.3,0.062%,
1002,2025-03-06 10:23:55,2025-03-06 10:27:19,204.009,0.065%,
1003,2025-03-06 11:58:41,2025-03-06 12:02:03,202.155,0.064%,
