3UCubedIntegratedSim/Reports & Plots/North Cusp @ 1 Degree/CSV/Sat6.csv

"Number","Coverage Start (UTCG)","Coverage End (UTCG)","Duration (sec)","Percent"
1,1 Jan 2025 16:22:16.194,1 Jan 2025 16:25:05.378,169.184,0.000536
2,1 Jan 2025 17:56:49.803,1 Jan 2025 17:59:44.742,174.939,0.000555
3,1 Jan 2025 19:31:37.428,1 Jan 2025 19:34:36.355,178.927,0.000567
4,1 Jan 2025 21:06:25.171,1 Jan 2025 21:09:20.767,175.596,0.000557
5,1 Jan 2025 22:41:13.032,1 Jan 2025 22:44:08.597,175.565,0.000557
6,2 Jan 2025 00:15:56.647,2 Jan 2025 00:18:45.785,169.138,0.000536
7,2 Jan 2025 01:50:30.370,2 Jan 2025 01:53:25.041,174.671,0.000554
8,2 Jan 2025 03:25:17.943,2 Jan 2025 03:28:16.814,178.871,0.000567
9,2 Jan 2025 05:00:05.635,2 Jan 2025 05:03:01.173,175.538,0.000557
10,2 Jan 2025 06:34:53.445,2 Jan 2025 06:37:49.051,175.606,0.000557
11,2 Jan 2025 08:09:37.134,2 Jan 2025 08:12:36.814,179.679,0.000570
12,2 Jan 2025 09:44:17.978,2 Jan 2025 09:47:05.310,167.332,0.000531
13,2 Jan 2025 11:18:58.480,2 Jan 2025 11:21:57.236,178.756,0.000567
14,2 Jan 2025 12:53:46.121,2 Jan 2025 12:56:41.550,175.430,0.000556
15,2 Jan 2025 14:28:33.879,2 Jan 2025 14:31:29.485,175.606,0.000557
16,2 Jan 2025 16:03:17.662,2 Jan 2025 16:06:17.299,179.637,0.000570
17,2 Jan 2025 17:37:58.192,2 Jan 2025 17:38:00.280,2.088,0.000007
18,2 Jan 2025 17:38:09.755,2 Jan 2025 17:40:46.386,156.631,0.000497
19,2 Jan 2025 19:12:39.039,2 Jan 2025 19:15:37.622,178.583,0.000566
20,2 Jan 2025 20:47:26.628,2 Jan 2025 20:50:21.911,175.283,0.000556
21,2 Jan 2025 22:22:14.337,2 Jan 2025 22:25:09.898,175.562,0.000557
22,2 Jan 2025 23:56:58.227,2 Jan 2025 23:59:57.760,179.533,0.000569
23,3 Jan 2025 01:31:50.108,3 Jan 2025 01:34:39.657,169.549,0.000538
24,3 Jan 2025 03:06:19.621,3 Jan 2025 03:09:17.983,178.362,0.000566
25,3 Jan 2025 04:41:07.158,3 Jan 2025 04:44:02.247,175.089,0.000555
26,3 Jan 2025 06:15:54.815,3 Jan 2025 06:18:50.285,175.470,0.000556
27,3 Jan 2025 07:50:38.833,3 Jan 2025 07:50:40.903,2.069,0.000007
28,3 Jan 2025 07:50:41.148,3 Jan 2025 07:53:38.203,177.055,0.000561
29,3 Jan 2025 09:25:30.484,3 Jan 2025 09:28:25.999,175.515,0.000557
30,3 Jan 2025 11:00:09.591,3 Jan 2025 11:02:58.317,168.726,0.000535
31,3 Jan 2025 12:34:47.711,3 Jan 2025 12:37:51.068,183.357,0.000581
32,3 Jan 2025 14:09:35.316,3 Jan 2025 14:12:30.649,175.332,0.000556
33,3 Jan 2025 15:44:21.228,3 Jan 2025 15:47:18.621,177.394,0.000563
34,3 Jan 2025 17:19:10.883,3 Jan 2025 17:22:06.469,175.586,0.000557
35,3 Jan 2025 18:53:50.177,3 Jan 2025 18:56:38.626,168.449,0.000534
36,3 Jan 2025 20:28:28.286,3 Jan 2025 20:31:31.543,183.257,0.000581
37,3 Jan 2025 22:03:15.840,3 Jan 2025 22:06:10.992,175.152,0.000555
38,3 Jan 2025 23:38:01.444,3 Jan 2025 23:40:59.017,177.573,0.000563
39,4 Jan 2025 01:12:51.303,4 Jan 2025 01:15:46.917,175.614,0.000557
40,4 Jan 2025 02:47:39.213,4 Jan 2025 02:50:18.909,159.696,0.000506
41,4 Jan 2025 02:50:24.394,4 Jan 2025 02:50:34.697,10.302,0.000033
42,4 Jan 2025 04:22:22.796,4 Jan 2025 04:25:11.980,169.184,0.000536
43,4 Jan 2025 05:56:56.385,4 Jan 2025 05:59:51.310,174.925,0.000555
44,4 Jan 2025 07:31:44.006,4 Jan 2025 07:34:42.959,178.952,0.000567
45,4 Jan 2025 09:06:31.747,4 Jan 2025 09:09:27.341,175.595,0.000557
46,4 Jan 2025 10:41:19.605,4 Jan 2025 10:44:15.174,175.569,0.000557
47,4 Jan 2025 12:16:03.250,4 Jan 2025 12:18:52.385,169.135,0.000536
48,4 Jan 2025 13:50:36.953,4 Jan 2025 13:53:31.607,174.655,0.000554
49,4 Jan 2025 15:25:24.523,4 Jan 2025 15:28:23.416,178.893,0.000567
50,4 Jan 2025 17:00:12.212,4 Jan 2025 17:03:07.746,175.534,0.000557
51,4 Jan 2025 18:35:00.019,4 Jan 2025 18:37:55.627,175.608,0.000557
52,4 Jan 2025 20:09:43.739,4 Jan 2025 20:12:32.756,169.017,0.000536
53,4 Jan 2025 21:44:17.543,4 Jan 2025 21:47:11.876,174.333,0.000553
54,4 Jan 2025 23:19:05.061,4 Jan 2025 23:22:03.837,178.776,0.000567
55,5 Jan 2025 00:53:52.699,5 Jan 2025 00:56:48.122,175.423,0.000556
56,5 Jan 2025 02:28:40.455,5 Jan 2025 02:31:36.060,175.605,0.000557
57,5 Jan 2025 04:03:24.269,5 Jan 2025 04:06:23.876,179.608,0.000570
58,5 Jan 2025 05:38:04.697,5 Jan 2025 05:40:53.013,168.316,0.000534
59,5 Jan 2025 07:12:45.622,5 Jan 2025 07:15:44.222,178.601,0.000566
60,5 Jan 2025 08:47:33.208,5 Jan 2025 08:50:28.482,175.274,0.000556
61,5 Jan 2025 10:22:20.913,5 Jan 2025 10:25:16.468,175.555,0.000557
62,5 Jan 2025 11:57:04.835,5 Jan 2025 12:00:04.336,179.502,0.000569
63,5 Jan 2025 13:31:45.019,5 Jan 2025 13:31:47.241,2.222,0.000007
64,5 Jan 2025 13:31:56.679,5 Jan 2025 13:34:46.261,169.582,0.000538
65,5 Jan 2025 15:06:26.205,5 Jan 2025 15:09:24.583,178.378,0.000566
66,5 Jan 2025 16:41:13.739,5 Jan 2025 16:44:08.816,175.076,0.000555
67,5 Jan 2025 18:16:01.393,5 Jan 2025 18:18:56.857,175.464,0.000556
68,5 Jan 2025 19:50:45.443,5 Jan 2025 19:53:44.778,179.335,0.000569
69,5 Jan 2025 21:25:37.056,5 Jan 2025 21:28:32.577,175.521,0.000557
70,5 Jan 2025 23:00:16.199,5 Jan 2025 23:03:04.915,168.716,0.000535
71,6 Jan 2025 00:34:54.293,6 Jan 2025 00:37:49.124,174.831,0.000554
72,6 Jan 2025 02:09:41.896,6 Jan 2025 02:12:37.220,175.325,0.000556
73,6 Jan 2025 03:44:27.723,6 Jan 2025 03:47:25.196,177.473,0.000563
74,6 Jan 2025 05:19:17.456,6 Jan 2025 05:22:13.046,175.589,0.000557
75,6 Jan 2025 06:53:56.786,6 Jan 2025 06:56:45.223,168.437,0.000534
76,6 Jan 2025 08:28:34.869,6 Jan 2025 08:31:38.146,183.277,0.000581
77,6 Jan 2025 10:03:22.420,6 Jan 2025 10:06:17.561,175.141,0.000555
78,6 Jan 2025 11:38:07.950,6 Jan 2025 11:41:05.587,177.637,0.000563
79,6 Jan 2025 13:12:57.878,6 Jan 2025 13:15:53.493,175.614,0.000557
80,6 Jan 2025 14:47:45.785,6 Jan 2025 14:50:25.506,159.720,0.000506
81,6 Jan 2025 16:22:15.468,6 Jan 2025 16:25:18.582,183.114,0.000581
82,6 Jan 2025 17:57:02.967,6 Jan 2025 17:59:57.880,174.913,0.000555
83,6 Jan 2025 19:31:48.277,6 Jan 2025 19:34:49.563,181.286,0.000575
84,6 Jan 2025 21:06:38.323,6 Jan 2025 21:09:33.916,175.593,0.000557
85,6 Jan 2025 22:41:26.178,6 Jan 2025 22:44:21.751,175.573,0.000557
86,7 Jan 2025 00:16:09.854,7 Jan 2025 00:18:58.986,169.132,0.000536
87,7 Jan 2025 01:50:43.536,7 Jan 2025 01:53:38.174,174.637,0.000554
88,7 Jan 2025 03:25:31.103,7 Jan 2025 03:28:30.019,178.916,0.000567
89,7 Jan 2025 05:00:18.789,7 Jan 2025 05:03:14.318,175.529,0.000557
90,7 Jan 2025 06:35:06.594,7 Jan 2025 06:38:02.206,175.612,0.000557
91,7 Jan 2025 08:09:50.345,7 Jan 2025 08:12:39.356,169.011,0.000536
92,7 Jan 2025 09:44:24.128,7 Jan 2025 09:47:18.441,174.313,0.000553
93,7 Jan 2025 11:19:11.643,7 Jan 2025 11:22:10.439,178.796,0.000567
94,7 Jan 2025 12:53:59.278,7 Jan 2025 12:56:54.694,175.416,0.000556
95,7 Jan 2025 14:28:47.031,7 Jan 2025 14:31:42.635,175.604,0.000557
96,7 Jan 2025 16:03:30.876,7 Jan 2025 16:06:19.702,168.827,0.000535
97,7 Jan 2025 16:06:27.155,7 Jan 2025 16:06:30.454,3.298,0.000010
98,7 Jan 2025 17:38:11.204,7 Jan 2025 17:40:59.641,168.437,0.000534
99,7 Jan 2025 19:12:52.205,7 Jan 2025 19:15:50.823,178.618,0.000566
100,7 Jan 2025 20:47:39.789,7 Jan 2025 20:50:35.052,175.264,0.000556
101,7 Jan 2025 22:22:27.491,7 Jan 2025 22:25:23.041,175.550,0.000557
102,7 Jan 2025 23:57:11.443,8 Jan 2025 00:00:10.916,179.473,0.000569
103,8 Jan 2025 01:31:51.535,8 Jan 2025 01:34:52.865,181.330,0.000575
104,8 Jan 2025 03:06:32.790,8 Jan 2025 03:09:31.182,178.392,0.000566
105,8 Jan 2025 04:41:20.321,8 Jan 2025 04:44:15.384,175.062,0.000555
106,8 Jan 2025 06:16:07.972,8 Jan 2025 06:19:03.426,175.454,0.000556
107,8 Jan 2025 07:50:52.054,8 Jan 2025 07:53:51.353,179.299,0.000569
108,8 Jan 2025 09:25:43.629,8 Jan 2025 09:28:33.320,169.691,0.000538
109,8 Jan 2025 11:00:13.397,8 Jan 2025 11:03:11.513,178.116,0.000565
110,8 Jan 2025 12:35:00.876,8 Jan 2025 12:37:55.691,174.815,0.000554
111,8 Jan 2025 14:09:48.476,8 Jan 2025 14:12:43.790,175.314,0.000556
112,8 Jan 2025 15:44:34.221,8 Jan 2025 15:47:31.765,177.544,0.000563
113,8 Jan 2025 17:19:24.031,8 Jan 2025 17:22:19.622,175.591,0.000557
114,8 Jan 2025 18:54:03.395,8 Jan 2025 18:56:51.818,168.423,0.000534
115,8 Jan 2025 20:28:41.453,8 Jan 2025 20:31:44.749,183.296,0.000581
116,8 Jan 2025 22:03:29.002,8 Jan 2025 22:06:24.130,175.128,0.000555
117,8 Jan 2025 23:38:14.459,8 Jan 2025 23:41:12.160,177.701,0.000563
118,9 Jan 2025 01:13:04.454,9 Jan 2025 01:16:00.067,175.613,0.000557
119,9 Jan 2025 02:47:44.028,9 Jan 2025 02:50:32.102,168.074,0.000533
120,9 Jan 2025 04:22:22.054,9 Jan 2025 04:25:25.184,183.130,0.000581
121,9 Jan 2025 05:57:09.549,9 Jan 2025 06:00:04.447,174.898,0.000555
122,9 Jan 2025 07:31:54.793,9 Jan 2025 07:34:56.167,181.374,0.000575
123,9 Jan 2025 09:06:44.900,9 Jan 2025 09:09:40.487,175.588,0.000557
124,9 Jan 2025 10:41:32.752,9 Jan 2025 10:44:12.360,159.608,0.000506
125,9 Jan 2025 10:44:26.094,9 Jan 2025 10:44:28.327,2.233,0.000007
126,9 Jan 2025 12:16:16.458,9 Jan 2025 12:19:05.587,169.129,0.000536
127,9 Jan 2025 13:50:50.120,9 Jan 2025 13:53:44.739,174.619,0.000554
128,9 Jan 2025 15:25:35.206,9 Jan 2025 15:28:36.621,181.415,0.000575
129,9 Jan 2025 17:00:25.367,9 Jan 2025 17:03:20.890,175.523,0.000557
130,9 Jan 2025 18:35:13.169,9 Jan 2025 18:38:08.778,175.609,0.000557
131,9 Jan 2025 20:09:56.950,9 Jan 2025 20:12:45.956,169.005,0.000536
132,9 Jan 2025 21:44:30.713,9 Jan 2025 21:47:25.005,174.292,0.000553
133,9 Jan 2025 23:19:18.225,9 Jan 2025 23:22:17.040,178.815,0.000567
134,10 Jan 2025 00:54:05.857,10 Jan 2025 00:57:01.265,175.408,0.000556
135,10 Jan 2025 02:28:53.608,10 Jan 2025 02:31:49.209,175.601,0.000557
136,10 Jan 2025 04:03:37.482,10 Jan 2025 04:06:26.301,168.818,0.000535
137,10 Jan 2025 05:38:11.328,10 Jan 2025 05:41:05.246,173.918,0.000551
138,10 Jan 2025 07:12:58.788,10 Jan 2025 07:15:57.423,178.635,0.000566
139,10 Jan 2025 08:47:46.369,10 Jan 2025 08:50:41.621,175.252,0.000556
140,10 Jan 2025 10:22:34.068,10 Jan 2025 10:25:29.613,175.545,0.000557
141,10 Jan 2025 11:57:18.052,10 Jan 2025 12:00:17.488,179.436,0.000569
142,10 Jan 2025 13:31:58.052,10 Jan 2025 13:34:46.969,168.918,0.000536
143,10 Jan 2025 15:06:39.374,10 Jan 2025 15:09:37.781,178.407,0.000566
144,10 Jan 2025 16:41:26.903,10 Jan 2025 16:44:21.951,175.048,0.000555
145,10 Jan 2025 18:16:14.551,10 Jan 2025 18:19:09.998,175.447,0.000556
146,10 Jan 2025 19:50:58.663,10 Jan 2025 19:53:57.927,179.263,0.000568
147,10 Jan 2025 21:25:38.468,10 Jan 2025 21:28:39.922,181.455,0.000575
148,10 Jan 2025 23:00:19.982,10 Jan 2025 23:03:18.111,178.129,0.000565
149,11 Jan 2025 00:35:07.459,11 Jan 2025 00:38:02.257,174.798,0.000554
150,11 Jan 2025 02:09:55.056,11 Jan 2025 02:12:50.359,175.303,0.000556
151,11 Jan 2025 03:44:39.320,11 Jan 2025 03:47:38.339,179.020,0.000568
152,11 Jan 2025 05:19:30.605,11 Jan 2025 05:22:20.340,169.735,0.000538
153,11 Jan 2025 05:22:23.241,11 Jan 2025 05:22:26.195,2.954,0.000009
154,11 Jan 2025 06:54:10.004,11 Jan 2025 06:56:58.415,168.411,0.000534
155,11 Jan 2025 08:28:48.037,11 Jan 2025 08:31:51.352,183.315,0.000581
156,11 Jan 2025 10:03:35.583,11 Jan 2025 10:06:30.698,175.115,0.000555
157,11 Jan 2025 11:38:20.968,11 Jan 2025 11:41:18.731,177.763,0.000564
158,11 Jan 2025 13:13:11.029,11 Jan 2025 13:16:06.642,175.612,0.000557
159,11 Jan 2025 14:47:50.638,11 Jan 2025 14:50:38.698,168.059,0.000533
160,11 Jan 2025 16:22:28.639,11 Jan 2025 16:25:31.786,183.147,0.000581
161,11 Jan 2025 17:57:16.132,11 Jan 2025 18:00:11.014,174.882,0.000555
162,11 Jan 2025 19:32:01.310,11 Jan 2025 19:34:59.098,177.788,0.000564
163,11 Jan 2025 21:06:51.476,11 Jan 2025 21:09:47.061,175.584,0.000557
164,11 Jan 2025 22:41:39.326,11 Jan 2025 22:44:18.955,159.629,0.000506
165,12 Jan 2025 00:16:09.263,12 Jan 2025 00:19:12.187,182.925,0.000580
166,12 Jan 2025 01:50:56.703,12 Jan 2025 01:53:51.304,174.601,0.000554
167,12 Jan 2025 03:25:41.729,12 Jan 2025 03:28:43.223,181.494,0.000576
168,12 Jan 2025 05:00:31.945,12 Jan 2025 05:03:27.459,175.514,0.000557
169,12 Jan 2025 06:35:19.744,12 Jan 2025 06:38:15.356,175.612,0.000557
170,12 Jan 2025 08:10:03.555,12 Jan 2025 08:12:52.555,168.999,0.000536
171,12 Jan 2025 09:44:37.297,12 Jan 2025 09:47:31.569,174.272,0.000553
172,12 Jan 2025 11:19:22.207,12 Jan 2025 11:22:23.640,181.433,0.000575
173,12 Jan 2025 12:54:12.436,12 Jan 2025 12:57:07.835,175.399,0.000556
174,12 Jan 2025 14:29:00.183,12 Jan 2025 14:31:55.780,175.597,0.000557
175,12 Jan 2025 16:03:44.089,12 Jan 2025 16:06:32.899,168.810,0.000535
176,12 Jan 2025 17:38:17.914,12 Jan 2025 17:41:11.808,173.894,0.000551
177,12 Jan 2025 19:13:05.371,12 Jan 2025 19:16:04.022,178.652,0.000567
178,12 Jan 2025 20:47:52.949,12 Jan 2025 20:50:48.189,175.240,0.000556
179,12 Jan 2025 22:22:40.645,12 Jan 2025 22:25:36.185,175.540,0.000557
180,12 Jan 2025 23:57:24.659,13 Jan 2025 00:00:13.213,168.554,0.000534
181,13 Jan 2025 00:00:18.473,13 Jan 2025 00:00:24.063,5.590,0.000018
182,13 Jan 2025 01:32:04.568,13 Jan 2025 01:34:53.594,169.026,0.000536
183,13 Jan 2025 03:06:45.958,13 Jan 2025 03:09:44.379,178.421,0.000566
184,13 Jan 2025 04:41:33.484,13 Jan 2025 04:44:28.517,175.034,0.000555
185,13 Jan 2025 06:16:21.129,13 Jan 2025 06:19:16.568,175.439,0.000556
186,13 Jan 2025 07:51:05.273,13 Jan 2025 07:54:04.500,179.228,0.000568
187,13 Jan 2025 09:25:44.990,13 Jan 2025 09:28:46.524,181.534,0.000576
188,13 Jan 2025 11:00:26.567,13 Jan 2025 11:03:24.708,178.141,0.000565
189,13 Jan 2025 12:35:14.041,13 Jan 2025 12:38:08.827,174.786,0.000554
190,13 Jan 2025 14:10:01.635,13 Jan 2025 14:12:56.930,175.295,0.000556
191,13 Jan 2025 15:44:45.931,13 Jan 2025 15:47:44.910,178.979,0.000568
192,13 Jan 2025 17:19:25.471,13 Jan 2025 17:22:26.941,181.470,0.000575
193,13 Jan 2025 18:54:07.200,13 Jan 2025 18:57:05.011,177.811,0.000564
194,13 Jan 2025 20:28:54.621,13 Jan 2025 20:31:49.104,174.483,0.000553
195,13 Jan 2025 22:03:42.163,13 Jan 2025 22:06:37.266,175.103,0.000555
196,13 Jan 2025 23:38:27.477,13 Jan 2025 23:41:25.303,177.826,0.000564
197,14 Jan 2025 01:13:17.604,14 Jan 2025 01:16:13.216,175.611,0.000557
198,14 Jan 2025 02:47:57.248,14 Jan 2025 02:50:45.293,168.045,0.000533
199,14 Jan 2025 04:22:35.223,14 Jan 2025 04:25:38.387,183.163,0.000581
200,14 Jan 2025 05:57:22.713,14 Jan 2025 06:00:17.580,174.867,0.000555
201,14 Jan 2025 07:32:07.826,14 Jan 2025 07:35:05.669,177.842,0.000564
202,14 Jan 2025 09:06:58.052,14 Jan 2025 09:09:53.634,175.582,0.000557
203,14 Jan 2025 10:41:45.899,14 Jan 2025 10:44:25.550,159.651,0.000506
204,14 Jan 2025 12:16:15.849,14 Jan 2025 12:19:18.787,182.939,0.000580
205,14 Jan 2025 13:51:03.286,14 Jan 2025 13:53:57.873,174.587,0.000554
206,14 Jan 2025 15:25:48.251,14 Jan 2025 15:28:49.825,181.574,0.000576
207,14 Jan 2025 17:00:38.522,14 Jan 2025 17:03:34.031,175.509,0.000557
208,14 Jan 2025 18:35:26.318,14 Jan 2025 18:38:05.786,159.468,0.000506
209,14 Jan 2025 18:38:11.696,14 Jan 2025 18:38:21.930,10.234,0.000032
210,14 Jan 2025 20:10:10.160,14 Jan 2025 20:12:59.153,168.994,0.000536
211,14 Jan 2025 21:44:43.881,14 Jan 2025 21:47:38.133,174.251,0.000553
212,14 Jan 2025 23:19:28.735,14 Jan 2025 23:22:30.241,181.506,0.000576
213,15 Jan 2025 00:54:19.014,15 Jan 2025 00:57:14.406,175.392,0.000556
214,15 Jan 2025 02:29:06.759,15 Jan 2025 02:32:02.354,175.595,0.000557
215,15 Jan 2025 04:03:50.695,15 Jan 2025 04:06:39.496,168.802,0.000535
216,15 Jan 2025 05:38:24.500,15 Jan 2025 05:41:18.371,173.872,0.000551
217,15 Jan 2025 07:13:09.270,15 Jan 2025 07:13:09.800,0.531,0.000002
218,15 Jan 2025 07:13:11.953,15 Jan 2025 07:16:10.622,178.669,0.000567
219,15 Jan 2025 08:47:59.528,15 Jan 2025 08:50:54.758,175.230,0.000556
220,15 Jan 2025 10:22:47.222,15 Jan 2025 10:25:42.757,175.535,0.000557
221,15 Jan 2025 11:57:31.267,15 Jan 2025 12:00:19.810,168.543,0.000534
222,15 Jan 2025 13:32:05.141,15 Jan 2025 13:35:00.218,175.077,0.000555
223,15 Jan 2025 15:06:52.542,15 Jan 2025 15:09:50.978,178.436,0.000566
224,15 Jan 2025 16:41:40.064,15 Jan 2025 16:44:35.085,175.020,0.000555
225,15 Jan 2025 18:16:27.707,15 Jan 2025 18:19:23.140,175.432,0.000556
226,15 Jan 2025 19:51:11.882,15 Jan 2025 19:54:11.074,179.192,0.000568
227,15 Jan 2025 21:25:51.512,15 Jan 2025 21:28:53.126,181.614,0.000576
228,15 Jan 2025 23:00:33.153,15 Jan 2025 23:03:31.306,178.153,0.000565
229,16 Jan 2025 00:35:20.623,16 Jan 2025 00:38:15.394,174.770,0.000554
230,16 Jan 2025 02:10:08.214,16 Jan 2025 02:13:03.501,175.287,0.000556
231,16 Jan 2025 03:44:52.542,16 Jan 2025 03:47:51.483,178.941,0.000567
232,16 Jan 2025 05:19:31.998,16 Jan 2025 05:22:33.541,181.543,0.000576
233,16 Jan 2025 06:54:13.787,16 Jan 2025 06:57:11.608,177.821,0.000564
234,16 Jan 2025 08:29:01.204,16 Jan 2025 08:31:55.670,174.465,0.000553
235,16 Jan 2025 10:03:48.744,16 Jan 2025 10:06:43.838,175.094,0.000555
236,16 Jan 2025 11:38:33.985,16 Jan 2025 11:41:31.875,177.889,0.000564
237,16 Jan 2025 13:13:12.535,16 Jan 2025 13:16:19.790,187.255,0.000594
238,16 Jan 2025 14:48:03.859,16 Jan 2025 14:50:51.889,168.030,0.000533
239,16 Jan 2025 16:22:41.808,16 Jan 2025 16:25:44.988,183.180,0.000581
240,16 Jan 2025 17:57:29.295,16 Jan 2025 18:00:24.148,174.852,0.000554
241,16 Jan 2025 19:32:14.343,16 Jan 2025 19:35:12.240,177.897,0.000564
242,16 Jan 2025 21:07:04.628,16 Jan 2025 21:10:00.208,175.580,0.000557
243,16 Jan 2025 22:41:44.543,16 Jan 2025 22:44:32.145,167.602,0.000531
244,17 Jan 2025 00:16:22.435,17 Jan 2025 00:19:25.388,182.953,0.000580
245,17 Jan 2025 01:51:09.869,17 Jan 2025 01:54:04.438,174.569,0.000554
246,17 Jan 2025 03:25:54.774,17 Jan 2025 03:28:56.427,181.654,0.000576
247,17 Jan 2025 05:00:45.100,17 Jan 2025 05:03:40.604,175.504,0.000557
248,17 Jan 2025 06:35:32.893,17 Jan 2025 06:38:12.380,159.487,0.000506
249,17 Jan 2025 08:10:03.085,17 Jan 2025 08:10:05.983,2.898,0.000009
250,17 Jan 2025 08:10:16.765,17 Jan 2025 08:13:05.753,168.988,0.000536
251,17 Jan 2025 09:44:50.466,17 Jan 2025 09:47:44.697,174.232,0.000552
252,17 Jan 2025 11:19:35.262,17 Jan 2025 11:22:36.842,181.580,0.000576
253,17 Jan 2025 12:54:25.593,17 Jan 2025 12:57:20.977,175.384,0.000556
254,17 Jan 2025 14:29:13.335,17 Jan 2025 14:32:08.929,175.594,0.000557
255,17 Jan 2025 16:03:57.302,17 Jan 2025 16:06:46.095,168.793,0.000535
256,17 Jan 2025 17:38:31.086,17 Jan 2025 17:41:24.934,173.849,0.000551
257,17 Jan 2025 19:13:15.802,17 Jan 2025 19:16:17.222,181.420,0.000575
258,17 Jan 2025 20:48:06.108,17 Jan 2025 20:51:01.327,175.219,0.000556
259,17 Jan 2025 22:22:53.799,17 Jan 2025 22:25:49.330,175.530,0.000557
260,17 Jan 2025 23:57:37.876,18 Jan 2025 00:00:26.408,168.532,0.000534
261,18 Jan 2025 01:32:11.728,18 Jan 2025 01:35:06.842,175.114,0.000555
262,18 Jan 2025 03:06:59.126,18 Jan 2025 03:09:57.577,178.451,0.000566
263,18 Jan 2025 04:41:46.646,18 Jan 2025 04:44:41.655,175.009,0.000555
264,18 Jan 2025 06:16:34.286,18 Jan 2025 06:19:29.711,175.426,0.000556
265,18 Jan 2025 07:51:18.492,18 Jan 2025 07:54:17.649,179.156,0.000568
266,18 Jan 2025 09:25:58.035,18 Jan 2025 09:28:47.439,169.404,0.000537
267,18 Jan 2025 09:28:53.845,18 Jan 2025 09:28:59.728,5.883,0.000019
268,18 Jan 2025 11:00:39.738,18 Jan 2025 11:03:37.904,178.166,0.000565
269,18 Jan 2025 12:35:27.206,18 Jan 2025 12:38:21.960,174.755,0.000554
270,18 Jan 2025 14:10:14.794,18 Jan 2025 14:13:10.071,175.277,0.000556
271,18 Jan 2025 15:44:59.154,18 Jan 2025 15:47:58.056,178.902,0.000567
272,18 Jan 2025 17:19:38.526,18 Jan 2025 17:22:40.143,181.616,0.000576
273,18 Jan 2025 18:54:20.374,18 Jan 2025 18:57:18.206,177.832,0.000564
274,18 Jan 2025 20:29:07.788,18 Jan 2025 20:32:02.235,174.447,0.000553
275,18 Jan 2025 22:03:55.325,18 Jan 2025 22:06:50.406,175.081,0.000555
276,18 Jan 2025 23:38:40.496,18 Jan 2025 23:41:38.447,177.952,0.000564
277,19 Jan 2025 01:13:19.068,19 Jan 2025 01:16:20.522,181.454,0.000575
278,19 Jan 2025 02:48:10.470,19 Jan 2025 02:50:58.485,168.015,0.000533
279,19 Jan 2025 04:22:48.394,19 Jan 2025 04:25:51.590,183.196,0.000581
280,19 Jan 2025 05:57:35.878,19 Jan 2025 06:00:30.715,174.837,0.000554
281,19 Jan 2025 07:32:20.860,19 Jan 2025 07:35:18.809,177.949,0.000564
282,19 Jan 2025 09:07:11.205,19 Jan 2025 09:10:06.781,175.576,0.000557
283,19 Jan 2025 10:41:51.156,19 Jan 2025 10:44:38.740,167.584,0.000531
284,19 Jan 2025 12:16:29.022,19 Jan 2025 12:19:31.988,182.967,0.000580
285,19 Jan 2025 13:51:16.453,19 Jan 2025 13:54:11.004,174.551,0.000553
286,19 Jan 2025 15:26:01.297,19 Jan 2025 15:28:59.151,177.854,0.000564
287,19 Jan 2025 17:00:51.678,19 Jan 2025 17:03:47.177,175.499,0.000557
288,19 Jan 2025 18:35:39.468,19 Jan 2025 18:38:18.975,159.507,0.000506
289,19 Jan 2025 20:10:09.673,19 Jan 2025 20:13:12.353,182.679,0.000579
290,19 Jan 2025 21:44:57.051,19 Jan 2025 21:47:51.262,174.211,0.000552
291,19 Jan 2025 23:19:41.791,19 Jan 2025 23:22:43.443,181.652,0.000576
292,20 Jan 2025 00:54:32.172,20 Jan 2025 00:57:27.548,175.376,0.000556
293,20 Jan 2025 02:29:19.911,20 Jan 2025 02:32:15.503,175.592,0.000557
294,20 Jan 2025 04:04:03.909,20 Jan 2025 04:06:52.694,168.785,0.000535
295,20 Jan 2025 05:38:37.672,20 Jan 2025 05:41:31.498,173.826,0.000551
296,20 Jan 2025 07:13:22.335,20 Jan 2025 07:16:23.822,181.487,0.000575
297,20 Jan 2025 08:48:12.689,20 Jan 2025 08:51:07.897,175.208,0.000556
298,20 Jan 2025 10:23:00.377,20 Jan 2025 10:25:55.902,175.525,0.000557
299,20 Jan 2025 11:57:44.485,20 Jan 2025 12:00:33.006,168.521,0.000534
300,20 Jan 2025 13:32:18.316,20 Jan 2025 13:35:13.471,175.155,0.000555
301,20 Jan 2025 15:07:02.922,20 Jan 2025 15:10:04.176,181.254,0.000575
302,20 Jan 2025 16:41:53.228,20 Jan 2025 16:44:48.223,174.995,0.000555
303,20 Jan 2025 18:16:40.865,20 Jan 2025 18:19:36.283,175.418,0.000556
304,20 Jan 2025 19:51:25.103,20 Jan 2025 19:54:13.297,168.194,0.000533
305,20 Jan 2025 21:26:04.560,20 Jan 2025 21:28:54.062,169.502,0.000537
306,20 Jan 2025 23:00:46.325,20 Jan 2025 23:03:44.502,178.178,0.000565
307,21 Jan 2025 00:35:33.789,21 Jan 2025 00:38:28.527,174.738,0.000554
308,21 Jan 2025 02:10:21.375,21 Jan 2025 02:13:16.642,175.267,0.000556
309,21 Jan 2025 03:45:05.766,21 Jan 2025 03:48:04.630,178.863,0.000567
310,21 Jan 2025 05:19:45.056,21 Jan 2025 05:22:46.744,181.688,0.000576
311,21 Jan 2025 06:54:26.962,21 Jan 2025 06:57:24.803,177.842,0.000564
312,21 Jan 2025 08:29:14.373,21 Jan 2025 08:32:08.801,174.428,0.000553
313,21 Jan 2025 10:04:01.907,21 Jan 2025 10:06:56.974,175.068,0.000555
314,21 Jan 2025 11:38:46.478,21 Jan 2025 11:41:45.017,178.539,0.000566
315,21 Jan 2025 13:13:25.602,21 Jan 2025 13:16:27.122,181.520,0.000576
316,21 Jan 2025 14:48:07.622,21 Jan 2025 14:51:05.081,177.460,0.000563
317,21 Jan 2025 16:22:54.980,21 Jan 2025 16:25:58.192,183.213,0.000581
318,21 Jan 2025 17:57:42.461,21 Jan 2025 18:00:37.282,174.822,0.000554
319,21 Jan 2025 19:32:27.380,21 Jan 2025 19:35:25.380,178.001,0.000564
320,21 Jan 2025 21:07:06.191,21 Jan 2025 21:10:13.355,187.164,0.000593
321,21 Jan 2025 22:41:57.769,21 Jan 2025 22:44:45.336,167.566,0.000531
322,22 Jan 2025 00:16:35.609,22 Jan 2025 00:19:38.589,182.980,0.000580
323,22 Jan 2025 01:51:23.037,22 Jan 2025 01:54:17.570,174.532,0.000553
324,22 Jan 2025 03:26:07.822,22 Jan 2025 03:29:05.720,177.898,0.000564
325,22 Jan 2025 05:00:58.256,22 Jan 2025 05:03:53.749,175.493,0.000556
326,22 Jan 2025 06:35:46.044,22 Jan 2025 06:38:25.570,159.526,0.000506
327,22 Jan 2025 08:10:16.262,22 Jan 2025 08:13:18.952,182.690,0.000579
328,22 Jan 2025 09:45:03.637,22 Jan 2025 09:47:57.827,174.190,0.000552
329,22 Jan 2025 11:19:48.321,22 Jan 2025 11:22:50.045,181.724,0.000576
330,22 Jan 2025 12:54:38.752,22 Jan 2025 12:57:34.117,175.365,0.000556
331,22 Jan 2025 14:29:26.488,22 Jan 2025 14:32:05.783,159.294,0.000505
332,22 Jan 2025 14:32:20.024,22 Jan 2025 14:32:22.076,2.053,0.000007
333,22 Jan 2025 16:04:10.516,22 Jan 2025 16:06:59.292,168.776,0.000535
334,22 Jan 2025 17:38:44.259,22 Jan 2025 17:41:38.060,173.801,0.000551
335,22 Jan 2025 19:13:28.869,22 Jan 2025 19:16:30.422,181.553,0.000576
336,22 Jan 2025 20:48:19.270,22 Jan 2025 20:51:14.466,175.196,0.000556
337,22 Jan 2025 22:23:06.956,22 Jan 2025 22:26:02.479,175.523,0.000557
338,22 Jan 2025 23:57:51.093,23 Jan 2025 00:00:39.604,168.510,0.000534
339,23 Jan 2025 01:32:24.904,23 Jan 2025 01:35:20.092,175.188,0.000556
340,23 Jan 2025 03:07:09.460,23 Jan 2025 03:10:10.775,181.315,0.000575
341,23 Jan 2025 04:41:59.810,23 Jan 2025 04:44:54.791,174.980,0.000555
342,23 Jan 2025 06:16:47.444,23 Jan 2025 06:19:42.854,175.410,0.000556
343,23 Jan 2025 07:51:31.713,23 Jan 2025 07:54:19.893,168.180,0.000533
344,23 Jan 2025 09:26:05.573,23 Jan 2025 09:29:00.685,175.111,0.000555
345,23 Jan 2025 11:00:52.911,23 Jan 2025 11:03:51.101,178.190,0.000565
346,23 Jan 2025 12:35:40.373,23 Jan 2025 12:38:35.093,174.721,0.000554
347,23 Jan 2025 14:10:27.955,23 Jan 2025 14:13:23.211,175.256,0.000556
348,23 Jan 2025 15:45:12.379,23 Jan 2025 15:48:11.202,178.824,0.000567
349,23 Jan 2025 17:19:51.587,23 Jan 2025 17:22:53.345,181.759,0.000576
350,23 Jan 2025 18:54:33.549,23 Jan 2025 18:57:31.400,177.851,0.000564
351,23 Jan 2025 20:29:20.958,23 Jan 2025 20:32:15.366,174.408,0.000553
352,23 Jan 2025 22:04:08.489,23 Jan 2025 22:07:03.542,175.053,0.000555
353,23 Jan 2025 23:38:53.092,23 Jan 2025 23:41:51.589,178.496,0.000566
354,24 Jan 2025 01:13:32.137,24 Jan 2025 01:16:33.722,181.586,0.000576
355,24 Jan 2025 02:48:14.211,24 Jan 2025 02:51:11.678,177.467,0.000563
356,24 Jan 2025 04:23:01.566,24 Jan 2025 04:26:04.794,183.228,0.000581
357,24 Jan 2025 05:57:49.044,24 Jan 2025 06:00:43.849,174.805,0.000554
358,24 Jan 2025 07:32:33.900,24 Jan 2025 07:35:31.949,178.049,0.000565
359,24 Jan 2025 09:07:12.729,24 Jan 2025 09:10:19.927,187.198,0.000594
360,24 Jan 2025 10:42:04.383,24 Jan 2025 10:44:51.931,167.549,0.000531
361,24 Jan 2025 12:16:42.196,24 Jan 2025 12:19:45.190,182.994,0.000580
362,24 Jan 2025 13:51:29.622,24 Jan 2025 13:54:24.135,174.513,0.000553
363,24 Jan 2025 15:26:14.349,24 Jan 2025 15:29:12.289,177.940,0.000564
364,24 Jan 2025 17:00:53.361,24 Jan 2025 17:00:54.864,1.503,0.000005
365,24 Jan 2025 17:01:04.835,24 Jan 2025 17:04:00.321,175.486,0.000556
366,24 Jan 2025 18:35:52.620,24 Jan 2025 18:38:32.164,159.544,0.000506
367,24 Jan 2025 20:10:22.851,24 Jan 2025 20:13:25.552,182.701,0.000579
368,24 Jan 2025 21:45:10.222,24 Jan 2025 21:48:04.390,174.168,0.000552
369,24 Jan 2025 23:19:54.852,24 Jan 2025 23:22:56.646,181.794,0.000576
370,25 Jan 2025 00:54:45.332,25 Jan 2025 00:57:40.688,175.356,0.000556
371,25 Jan 2025 02:29:33.066,25 Jan 2025 02:32:12.376,159.311,0.000505
372,25 Jan 2025 04:04:17.124,25 Jan 2025 04:07:05.891,168.767,0.000535
373,25 Jan 2025 05:38:50.846,25 Jan 2025 05:41:44.622,173.777,0.000551
374,25 Jan 2025 07:13:35.404,25 Jan 2025 07:16:37.022,181.618,0.000576
375,25 Jan 2025 08:48:25.851,25 Jan 2025 08:51:21.035,175.184,0.000556
376,25 Jan 2025 10:23:13.534,25 Jan 2025 10:26:09.051,175.517,0.000557
377,25 Jan 2025 11:57:57.702,25 Jan 2025 12:00:46.201,168.499,0.000534
378,25 Jan 2025 13:32:31.492,25 Jan 2025 13:35:24.827,173.334,0.000550
379,25 Jan 2025 15:07:15.999,25 Jan 2025 15:10:17.374,181.376,0.000575
380,25 Jan 2025 16:42:06.392,25 Jan 2025 16:45:01.358,174.965,0.000555
381,25 Jan 2025 18:16:54.024,25 Jan 2025 18:19:49.425,175.401,0.000556
382,25 Jan 2025 19:51:38.324,25 Jan 2025 19:54:26.490,168.166,0.000533
383,25 Jan 2025 21:26:12.163,25 Jan 2025 21:29:07.307,175.144,0.000555
384,25 Jan 2025 23:00:56.631,25 Jan 2025 23:03:57.698,181.067,0.000574
385,26 Jan 2025 00:35:46.956,26 Jan 2025 00:38:41.659,174.703,0.000554
386,26 Jan 2025 02:10:34.536,26 Jan 2025 02:13:29.779,175.243,0.000556
387,26 Jan 2025 03:45:18.991,26 Jan 2025 03:48:17.778,178.787,0.000567
388,26 Jan 2025 05:19:58.117,26 Jan 2025 05:22:59.946,181.829,0.000577
389,26 Jan 2025 06:54:40.137,26 Jan 2025 06:57:37.997,177.860,0.000564
390,26 Jan 2025 08:29:27.542,26 Jan 2025 08:32:21.930,174.388,0.000553
391,26 Jan 2025 10:04:15.070,26 Jan 2025 10:07:10.109,175.038,0.000555
392,26 Jan 2025 11:38:59.706,26 Jan 2025 11:41:58.157,178.451,0.000566
393,26 Jan 2025 13:13:38.671,26 Jan 2025 13:16:40.322,181.651,0.000576
394,26 Jan 2025 14:48:20.800,26 Jan 2025 14:51:18.273,177.474,0.000563
395,26 Jan 2025 16:23:08.151,26 Jan 2025 16:26:02.179,174.028,0.000552
396,26 Jan 2025 17:57:55.627,26 Jan 2025 18:00:50.415,174.788,0.000554
397,26 Jan 2025 19:32:40.421,26 Jan 2025 19:35:38.519,178.098,0.000565
398,26 Jan 2025 21:07:19.270,26 Jan 2025 21:10:20.673,181.403,0.000575
399,26 Jan 2025 22:42:10.995,26 Jan 2025 22:44:58.526,167.531,0.000531
400,27 Jan 2025 00:16:48.783,27 Jan 2025 00:19:51.790,183.007,0.000580
401,27 Jan 2025 01:51:36.206,27 Jan 2025 01:54:30.699,174.493,0.000553
402,27 Jan 2025 03:26:20.875,27 Jan 2025 03:29:18.857,177.982,0.000564
403,27 Jan 2025 05:00:59.902,27 Jan 2025 05:04:06.890,186.988,0.000593
404,27 Jan 2025 06:35:59.195,27 Jan 2025 06:38:38.758,159.563,0.000506
405,27 Jan 2025 08:10:29.439,27 Jan 2025 08:13:32.151,182.712,0.000579
406,27 Jan 2025 09:45:16.807,27 Jan 2025 09:48:10.954,174.146,0.000552
407,27 Jan 2025 11:20:01.383,27 Jan 2025 11:23:03.247,181.864,0.000577
408,27 Jan 2025 12:54:51.912,27 Jan 2025 12:57:47.258,175.347,0.000556
409,27 Jan 2025 14:29:39.642,27 Jan 2025 14:32:18.970,159.327,0.000505
410,27 Jan 2025 16:04:10.118,27 Jan 2025 16:07:12.489,182.371,0.000578
411,27 Jan 2025 17:38:57.432,27 Jan 2025 17:41:51.184,173.752,0.000551
412,27 Jan 2025 19:13:41.941,27 Jan 2025 19:16:43.622,181.681,0.000576
413,27 Jan 2025 20:48:32.432,27 Jan 2025 20:51:27.603,175.171,0.000555
414,27 Jan 2025 22:23:20.112,27 Jan 2025 22:26:15.622,175.511,0.000557
415,27 Jan 2025 23:58:04.310,28 Jan 2025 00:00:52.798,168.488,0.000534
416,28 Jan 2025 01:32:38.080,28 Jan 2025 01:35:31.387,173.307,0.000550
417,28 Jan 2025 03:07:22.539,28 Jan 2025 03:10:23.972,181.433,0.000575
418,28 Jan 2025 04:42:12.974,28 Jan 2025 04:45:07.924,174.950,0.000555
419,28 Jan 2025 06:17:00.603,28 Jan 2025 06:19:55.995,175.393,0.000556
420,28 Jan 2025 07:51:44.934,28 Jan 2025 07:54:33.086,168.152,0.000533
421,28 Jan 2025 09:26:18.752,28 Jan 2025 09:29:13.929,175.177,0.000555
422,28 Jan 2025 11:01:03.172,28 Jan 2025 11:04:04.296,181.124,0.000574
423,28 Jan 2025 12:35:53.539,28 Jan 2025 12:38:48.224,174.685,0.000554
424,28 Jan 2025 14:10:41.116,28 Jan 2025 14:13:36.348,175.232,0.000556
425,28 Jan 2025 15:45:25.602,28 Jan 2025 15:48:24.350,178.747,0.000567
426,28 Jan 2025 17:20:04.648,28 Jan 2025 17:23:06.547,181.899,0.000577
427,28 Jan 2025 18:54:46.724,28 Jan 2025 18:57:44.594,177.870,0.000564
428,28 Jan 2025 20:29:34.126,28 Jan 2025 20:32:28.495,174.368,0.000553
429,28 Jan 2025 22:04:21.651,28 Jan 2025 22:07:16.675,175.024,0.000555
430,28 Jan 2025 23:39:06.320,28 Jan 2025 23:42:04.728,178.408,0.000566
431,29 Jan 2025 01:13:45.208,29 Jan 2025 01:16:46.922,181.714,0.000576
432,29 Jan 2025 02:48:27.388,29 Jan 2025 02:51:24.869,177.481,0.000563
433,29 Jan 2025 04:23:14.737,29 Jan 2025 04:26:08.742,174.005,0.000552
434,29 Jan 2025 05:58:02.209,29 Jan 2025 06:00:56.985,174.776,0.000554
435,29 Jan 2025 07:32:46.941,29 Jan 2025 07:35:45.090,178.149,0.000565
436,29 Jan 2025 09:07:25.808,29 Jan 2025 09:10:27.272,181.464,0.000575
437,29 Jan 2025 10:42:17.608,29 Jan 2025 10:45:05.121,167.513,0.000531
438,29 Jan 2025 12:16:55.370,29 Jan 2025 12:19:58.390,183.020,0.000580
439,29 Jan 2025 13:51:42.789,29 Jan 2025 13:54:37.263,174.474,0.000553
440,29 Jan 2025 15:26:27.400,29 Jan 2025 15:29:25.428,178.028,0.000565
441,29 Jan 2025 17:01:06.442,29 Jan 2025 17:04:13.462,187.020,0.000593
442,29 Jan 2025 18:35:58.351,29 Jan 2025 18:38:45.352,167.001,0.000530
443,29 Jan 2025 20:10:36.027,29 Jan 2025 20:13:38.750,182.723,0.000579
444,29 Jan 2025 21:45:23.392,29 Jan 2025 21:48:17.517,174.125,0.000552
445,29 Jan 2025 23:20:07.913,29 Jan 2025 23:23:09.847,181.934,0.000577
446,30 Jan 2025 00:54:58.491,30 Jan 2025 00:57:53.829,175.338,0.000556
447,30 Jan 2025 02:29:46.218,30 Jan 2025 02:32:25.563,159.344,0.000505
448,30 Jan 2025 04:04:16.707,30 Jan 2025 04:07:19.086,182.379,0.000578
449,30 Jan 2025 05:39:04.018,30 Jan 2025 05:41:57.746,173.728,0.000551
450,30 Jan 2025 07:13:48.475,30 Jan 2025 07:16:50.221,181.746,0.000576
451,30 Jan 2025 08:48:39.012,30 Jan 2025 08:51:34.172,175.160,0.000555
452,30 Jan 2025 10:23:26.689,30 Jan 2025 10:26:22.194,175.505,0.000557
453,30 Jan 2025 11:58:10.919,30 Jan 2025 12:00:59.395,168.476,0.000534
454,30 Jan 2025 13:32:44.668,30 Jan 2025 13:35:37.947,173.280,0.000549
455,30 Jan 2025 15:07:29.076,30 Jan 2025 15:10:30.571,181.494,0.000576
456,30 Jan 2025 16:42:19.556,30 Jan 2025 16:45:14.491,174.936,0.000555
457,30 Jan 2025 18:17:07.181,30 Jan 2025 18:20:02.566,175.385,0.000556
458,30 Jan 2025 19:51:51.544,30 Jan 2025 19:54:39.682,168.138,0.000533
459,30 Jan 2025 21:26:25.341,30 Jan 2025 21:29:20.551,175.210,0.000556
460,30 Jan 2025 23:01:09.713,30 Jan 2025 23:04:10.893,181.181,0.000575
461,31 Jan 2025 00:36:00.122,31 Jan 2025 00:38:54.790,174.668,0.000554
462,31 Jan 2025 02:10:47.696,31 Jan 2025 02:13:42.917,175.221,0.000556
463,31 Jan 2025 03:45:32.214,31 Jan 2025 03:48:19.944,167.730,0.000532
464,31 Jan 2025 05:20:11.178,31 Jan 2025 05:23:13.147,181.969,0.000577
465,31 Jan 2025 06:54:53.311,31 Jan 2025 06:57:51.190,177.879,0.000564
466,31 Jan 2025 08:29:40.711,31 Jan 2025 08:32:35.059,174.349,0.000553
467,31 Jan 2025 10:04:28.233,31 Jan 2025 10:07:23.245,175.013,0.000555
468,31 Jan 2025 11:39:12.934,31 Jan 2025 11:42:11.300,178.366,0.000566
469,31 Jan 2025 13:13:51.742,31 Jan 2025 13:16:53.521,181.779,0.000576
470,31 Jan 2025 14:48:33.977,31 Jan 2025 14:51:31.464,177.488,0.000563
471,31 Jan 2025 16:23:21.322,31 Jan 2025 16:26:15.305,173.983,0.000552
472,31 Jan 2025 17:58:08.792,31 Jan 2025 18:01:03.552,174.760,0.000554
473,31 Jan 2025 19:32:53.464,31 Jan 2025 19:35:51.661,178.197,0.000565
474,31 Jan 2025 21:07:32.345,31 Jan 2025 21:10:33.870,181.525,0.000576
475,31 Jan 2025 22:42:14.666,31 Jan 2025 22:45:11.716,177.050,0.000561
476,1 Feb 2025 00:17:01.957,1 Feb 2025 00:20:04.990,183.033,0.000580
477,1 Feb 2025 01:51:49.373,1 Feb 2025 01:54:43.829,174.455,0.000553
478,1 Feb 2025 03:26:33.926,1 Feb 2025 03:29:31.996,178.070,0.000565
479,1 Feb 2025 05:01:12.983,1 Feb 2025 05:04:20.034,187.051,0.000593
480,1 Feb 2025 06:36:04.966,1 Feb 2025 06:38:51.946,166.980,0.000529
481,1 Feb 2025 08:10:42.615,1 Feb 2025 08:13:45.349,182.734,0.000579
482,1 Feb 2025 09:45:29.978,1 Feb 2025 09:48:24.081,174.104,0.000552
483,1 Feb 2025 11:20:14.444,1 Feb 2025 11:23:16.448,182.004,0.000577
484,1 Feb 2025 12:55:05.070,1 Feb 2025 12:58:00.397,175.327,0.000556
485,1 Feb 2025 14:29:52.795,1 Feb 2025 14:32:32.157,159.361,0.000505
486,1 Feb 2025 16:04:23.297,1 Feb 2025 16:07:25.685,182.388,0.000578
487,1 Feb 2025 17:39:10.605,1 Feb 2025 17:42:04.309,173.704,0.000551
488,1 Feb 2025 19:13:55.009,1 Feb 2025 19:16:56.821,181.812,0.000577
489,1 Feb 2025 20:48:45.593,1 Feb 2025 20:51:40.741,175.148,0.000555
490,1 Feb 2025 22:23:33.267,1 Feb 2025 22:26:28.766,175.499,0.000557
491,1 Feb 2025 23:58:17.528,2 Feb 2025 00:01:05.993,168.465,0.000534
492,2 Feb 2025 01:32:51.256,2 Feb 2025 01:35:44.512,173.256,0.000549
493,2 Feb 2025 03:07:35.615,2 Feb 2025 03:10:37.170,181.555,0.000576
494,2 Feb 2025 04:42:26.138,2 Feb 2025 04:45:21.059,174.921,0.000555
495,2 Feb 2025 06:17:13.761,2 Feb 2025 06:20:09.135,175.374,0.000556
496,2 Feb 2025 07:51:58.155,2 Feb 2025 07:54:46.278,168.124,0.000533
497,2 Feb 2025 09:26:31.930,2 Feb 2025 09:29:27.173,175.243,0.000556
498,2 Feb 2025 11:01:16.257,2 Feb 2025 11:04:17.491,181.235,0.000575
499,2 Feb 2025 12:36:06.706,2 Feb 2025 12:39:01.356,174.651,0.000554
500,2 Feb 2025 14:10:54.277,2 Feb 2025 14:13:49.487,175.210,0.000556
501,2 Feb 2025 15:45:38.827,2 Feb 2025 15:48:26.540,167.713,0.000532
502,2 Feb 2025 17:20:17.709,2 Feb 2025 17:23:19.749,182.039,0.000577
503,2 Feb 2025 18:54:56.927,2 Feb 2025 18:54:59.268,2.341,0.000007
504,2 Feb 2025 18:54:59.899,2 Feb 2025 18:57:57.788,177.889,0.000564
505,2 Feb 2025 20:29:47.296,2 Feb 2025 20:32:41.625,174.329,0.000553
506,2 Feb 2025 22:04:34.815,2 Feb 2025 22:07:29.813,174.999,0.000555
507,2 Feb 2025 23:39:19.548,2 Feb 2025 23:42:17.871,178.323,0.000565
508,3 Feb 2025 01:13:58.277,3 Feb 2025 01:17:00.121,181.844,0.000577
509,3 Feb 2025 02:48:40.566,3 Feb 2025 02:51:38.061,177.495,0.000563
510,3 Feb 2025 04:23:27.909,3 Feb 2025 04:26:21.869,173.961,0.000552
511,3 Feb 2025 05:58:15.375,3 Feb 2025 06:01:10.119,174.744,0.000554
512,3 Feb 2025 07:32:59.986,3 Feb 2025 07:35:58.231,178.245,0.000565
513,3 Feb 2025 09:07:38.884,3 Feb 2025 09:10:40.469,181.585,0.000576
514,3 Feb 2025 10:42:21.257,3 Feb 2025 10:45:18.311,177.055,0.000561
515,3 Feb 2025 12:17:08.545,3 Feb 2025 12:20:11.591,183.047,0.000580
516,3 Feb 2025 13:51:55.958,3 Feb 2025 13:54:50.394,174.436,0.000553
517,3 Feb 2025 15:26:40.454,3 Feb 2025 15:29:38.565,178.111,0.000565
518,3 Feb 2025 17:01:19.528,3 Feb 2025 17:04:26.606,187.079,0.000593
519,3 Feb 2025 18:36:11.582,3 Feb 2025 18:38:58.541,166.959,0.000529
520,3 Feb 2025 20:10:49.204,3 Feb 2025 20:13:51.949,182.745,0.000579
521,3 Feb 2025 21:45:36.564,3 Feb 2025 21:48:30.645,174.082,0.000552
522,3 Feb 2025 23:20:20.976,3 Feb 2025 23:23:23.049,182.074,0.000577
523,4 Feb 2025 00:55:00.200,4 Feb 2025 00:55:06.960,6.760,0.000021
524,4 Feb 2025 00:55:11.651,4 Feb 2025 00:58:06.969,175.319,0.000556
525,4 Feb 2025 02:29:59.373,4 Feb 2025 02:32:38.751,159.378,0.000505
526,4 Feb 2025 04:04:29.887,4 Feb 2025 04:07:32.284,182.396,0.000578
527,4 Feb 2025 05:39:17.193,4 Feb 2025 05:42:10.871,173.679,0.000551
528,4 Feb 2025 07:14:01.545,4 Feb 2025 07:17:03.422,181.876,0.000577
529,4 Feb 2025 08:48:52.175,4 Feb 2025 08:51:47.310,175.136,0.000555
530,4 Feb 2025 10:23:39.846,4 Feb 2025 10:26:18.944,159.098,0.000504
531,4 Feb 2025 10:26:18.959,4 Feb 2025 10:26:35.337,16.377,0.000052
532,4 Feb 2025 11:58:24.137,4 Feb 2025 12:01:12.591,168.453,0.000534
533,4 Feb 2025 13:32:57.845,4 Feb 2025 13:35:51.071,173.226,0.000549
534,4 Feb 2025 15:07:42.154,4 Feb 2025 15:10:43.769,181.615,0.000576
535,4 Feb 2025 16:42:32.721,4 Feb 2025 16:45:27.629,174.908,0.000555
536,4 Feb 2025 18:17:20.341,4 Feb 2025 18:20:15.707,175.366,0.000556
537,4 Feb 2025 19:52:04.766,4 Feb 2025 19:54:52.875,168.109,0.000533
538,4 Feb 2025 21:26:38.520,4 Feb 2025 21:29:33.796,175.275,0.000556
539,4 Feb 2025 23:01:22.799,4 Feb 2025 23:04:24.090,181.291,0.000575
540,5 Feb 2025 00:36:13.290,5 Feb 2025 00:39:07.923,174.633,0.000554
541,5 Feb 2025 02:11:00.858,5 Feb 2025 02:13:56.056,175.198,0.000556
542,5 Feb 2025 03:45:45.440,5 Feb 2025 03:48:33.136,167.696,0.000532
543,5 Feb 2025 05:20:24.243,5 Feb 2025 05:23:26.350,182.108,0.000577
544,5 Feb 2025 06:55:03.474,5 Feb 2025 06:58:04.385,180.912,0.000574
545,5 Feb 2025 08:29:53.881,5 Feb 2025 08:32:48.190,174.309,0.000553
546,5 Feb 2025 10:04:41.398,5 Feb 2025 10:07:36.381,174.984,0.000555
547,5 Feb 2025 11:39:26.096,5 Feb 2025 11:42:24.443,178.347,0.000566
548,5 Feb 2025 13:14:04.814,5 Feb 2025 13:17:06.722,181.908,0.000577
549,5 Feb 2025 14:48:47.156,5 Feb 2025 14:51:44.657,177.501,0.000563
550,5 Feb 2025 16:23:34.495,5 Feb 2025 16:26:28.433,173.937,0.000552
551,5 Feb 2025 17:58:21.959,5 Feb 2025 18:01:16.685,174.726,0.000554
552,5 Feb 2025 19:33:06.510,5 Feb 2025 19:36:04.801,178.291,0.000565
553,5 Feb 2025 21:07:45.425,5 Feb 2025 21:10:47.069,181.644,0.000576
554,5 Feb 2025 22:42:27.848,5 Feb 2025 22:45:24.907,177.059,0.000561
555,6 Feb 2025 00:17:15.133,6 Feb 2025 00:20:18.192,183.059,0.000580
556,6 Feb 2025 01:52:02.543,6 Feb 2025 01:54:56.959,174.415,0.000553
557,6 Feb 2025 03:26:46.983,6 Feb 2025 03:29:45.133,178.150,0.000565
558,6 Feb 2025 05:01:26.071,6 Feb 2025 05:04:33.176,187.105,0.000593
559,6 Feb 2025 06:36:18.198,6 Feb 2025 06:39:05.136,166.938,0.000529
560,6 Feb 2025 08:10:55.793,6 Feb 2025 08:13:58.549,182.755,0.000580
561,6 Feb 2025 09:45:43.150,6 Feb 2025 09:48:37.209,174.059,0.000552
562,6 Feb 2025 11:20:27.509,6 Feb 2025 11:23:29.651,182.141,0.000578
563,6 Feb 2025 12:55:06.747,6 Feb 2025 12:58:13.540,186.793,0.000592
564,6 Feb 2025 14:30:05.951,6 Feb 2025 14:32:45.345,159.394,0.000505
565,6 Feb 2025 16:04:36.478,6 Feb 2025 16:07:38.882,182.404,0.000578
566,6 Feb 2025 17:39:23.780,6 Feb 2025 17:42:17.433,173.653,0.000551
567,6 Feb 2025 19:14:08.083,6 Feb 2025 19:17:10.022,181.939,0.000577
568,6 Feb 2025 20:48:58.757,6 Feb 2025 20:51:53.879,175.122,0.000555
569,6 Feb 2025 22:23:46.425,6 Feb 2025 22:26:25.537,159.112,0.000505
570,6 Feb 2025 22:26:29.629,6 Feb 2025 22:26:41.909,12.280,0.000039
571,6 Feb 2025 23:58:30.747,7 Feb 2025 00:01:19.189,168.442,0.000534
572,7 Feb 2025 01:33:04.434,7 Feb 2025 01:35:57.629,173.196,0.000549
573,7 Feb 2025 03:07:48.695,7 Feb 2025 03:10:50.368,181.673,0.000576
574,7 Feb 2025 04:42:39.304,7 Feb 2025 04:45:34.196,174.892,0.000555
575,7 Feb 2025 06:17:26.921,7 Feb 2025 06:20:22.277,175.356,0.000556
576,7 Feb 2025 07:52:11.377,7 Feb 2025 07:54:59.472,168.095,0.000533
577,7 Feb 2025 09:26:45.110,7 Feb 2025 09:29:40.418,175.308,0.000556
578,7 Feb 2025 11:01:29.342,7 Feb 2025 11:04:30.688,181.345,0.000575
579,7 Feb 2025 12:36:19.874,7 Feb 2025 12:39:14.488,174.613,0.000554
580,7 Feb 2025 14:11:07.440,7 Feb 2025 14:14:02.625,175.185,0.000556
581,7 Feb 2025 15:45:52.053,7 Feb 2025 15:48:39.731,167.679,0.000532
582,7 Feb 2025 17:20:30.776,7 Feb 2025 17:23:20.912,170.136,0.000539
583,7 Feb 2025 17:23:20.949,7 Feb 2025 17:23:32.951,12.002,0.000038
584,7 Feb 2025 18:55:10.020,7 Feb 2025 18:58:10.983,180.962,0.000574
585,7 Feb 2025 20:30:00.467,7 Feb 2025 20:32:54.754,174.287,0.000553
586,7 Feb 2025 22:04:47.980,7 Feb 2025 22:07:42.948,174.968,0.000555
587,7 Feb 2025 23:39:32.614,7 Feb 2025 23:42:31.014,178.399,0.000566
588,8 Feb 2025 01:14:11.351,8 Feb 2025 01:17:13.322,181.970,0.000577
589,8 Feb 2025 02:48:53.745,8 Feb 2025 02:51:51.253,177.508,0.000563
590,8 Feb 2025 04:23:41.082,8 Feb 2025 04:26:34.995,173.913,0.000551
591,8 Feb 2025 05:58:28.543,8 Feb 2025 06:01:23.251,174.708,0.000554
592,8 Feb 2025 07:33:13.034,8 Feb 2025 07:36:11.370,178.336,0.000566
593,8 Feb 2025 09:07:51.965,8 Feb 2025 09:10:53.667,181.702,0.000576
594,8 Feb 2025 10:42:34.439,8 Feb 2025 10:45:31.502,177.063,0.000561
595,8 Feb 2025 12:17:21.721,8 Feb 2025 12:20:24.792,183.072,0.000581
596,8 Feb 2025 13:52:09.128,8 Feb 2025 13:55:03.522,174.394,0.000553
597,8 Feb 2025 15:26:53.512,8 Feb 2025 15:29:51.699,178.187,0.000565
598,8 Feb 2025 17:01:32.614,8 Feb 2025 17:04:39.747,187.133,0.000593
599,8 Feb 2025 18:36:24.813,8 Feb 2025 18:39:11.730,166.917,0.000529
600,8 Feb 2025 20:11:02.382,8 Feb 2025 20:14:05.148,182.765,0.000580
601,8 Feb 2025 21:45:49.736,8 Feb 2025 21:48:43.772,174.035,0.000552
602,8 Feb 2025 23:20:34.043,8 Feb 2025 23:23:36.252,182.209,0.000578
603,9 Feb 2025 00:55:13.293,9 Feb 2025 00:58:20.109,186.816,0.000592
604,9 Feb 2025 02:30:12.528,9 Feb 2025 02:32:51.938,159.410,0.000505
605,9 Feb 2025 04:04:43.068,9 Feb 2025 04:07:45.480,182.412,0.000578
606,9 Feb 2025 05:39:30.368,9 Feb 2025 05:42:23.994,173.627,0.000551
607,9 Feb 2025 07:14:14.620,9 Feb 2025 07:17:16.621,182.002,0.000577
608,9 Feb 2025 08:49:05.338,9 Feb 2025 08:52:00.447,175.109,0.000555
609,9 Feb 2025 10:23:53.004,9 Feb 2025 10:26:32.130,159.126,0.000505
610,9 Feb 2025 10:26:35.207,9 Feb 2025 10:26:48.480,13.273,0.000042
611,9 Feb 2025 11:58:37.356,9 Feb 2025 12:01:25.786,168.430,0.000534
612,9 Feb 2025 13:33:11.022,9 Feb 2025 13:36:04.193,173.171,0.000549
613,9 Feb 2025 15:07:55.235,9 Feb 2025 15:10:56.967,181.731,0.000576
614,9 Feb 2025 16:42:45.887,9 Feb 2025 16:45:40.763,174.876,0.000555
615,9 Feb 2025 18:17:33.501,9 Feb 2025 18:20:28.848,175.347,0.000556
616,9 Feb 2025 19:52:17.987,9 Feb 2025 19:55:06.068,168.080,0.000533
617,9 Feb 2025 21:26:51.700,9 Feb 2025 21:29:47.040,175.340,0.000556
618,9 Feb 2025 23:01:35.885,9 Feb 2025 23:04:37.285,181.400,0.000575
619,10 Feb 2025 00:36:26.458,10 Feb 2025 00:39:21.056,174.598,0.000554
620,10 Feb 2025 02:11:14.021,10 Feb 2025 02:14:09.193,175.173,0.000555
621,10 Feb 2025 03:45:58.665,10 Feb 2025 03:48:46.326,167.662,0.000532
622,10 Feb 2025 05:20:37.310,10 Feb 2025 05:23:39.552,182.242,0.000578
623,10 Feb 2025 06:55:16.566,10 Feb 2025 06:58:17.579,181.013,0.000574
624,10 Feb 2025 08:30:07.052,10 Feb 2025 08:33:01.317,174.266,0.000553
625,10 Feb 2025 10:04:54.562,10 Feb 2025 10:07:49.515,174.953,0.000555
626,10 Feb 2025 11:39:39.132,10 Feb 2025 11:42:37.584,178.452,0.000566
627,10 Feb 2025 13:14:17.888,10 Feb 2025 13:17:19.921,182.033,0.000577
628,10 Feb 2025 14:49:00.335,10 Feb 2025 14:51:57.849,177.514,0.000563
629,10 Feb 2025 16:23:47.668,10 Feb 2025 16:26:41.557,173.889,0.000551
630,10 Feb 2025 17:58:35.126,10 Feb 2025 18:01:29.816,174.690,0.000554
631,10 Feb 2025 19:33:19.558,10 Feb 2025 19:36:17.938,178.380,0.000566
632,10 Feb 2025 21:07:58.505,10 Feb 2025 21:11:00.266,181.760,0.000576
633,10 Feb 2025 22:42:41.029,10 Feb 2025 22:45:38.096,177.067,0.000561
634,11 Feb 2025 00:17:28.308,11 Feb 2025 00:20:31.392,183.084,0.000581
635,11 Feb 2025 01:52:15.713,11 Feb 2025 01:55:10.091,174.378,0.000553
636,11 Feb 2025 03:27:00.041,11 Feb 2025 03:29:58.266,178.226,0.000565
637,11 Feb 2025 05:01:39.156,11 Feb 2025 05:04:46.318,187.162,0.000593
638,11 Feb 2025 06:36:31.428,11 Feb 2025 06:39:18.324,166.896,0.000529
639,11 Feb 2025 08:11:08.971,11 Feb 2025 08:14:11.747,182.775,0.000580
640,11 Feb 2025 09:45:56.322,11 Feb 2025 09:48:50.335,174.013,0.000552
641,11 Feb 2025 11:20:40.576,11 Feb 2025 11:23:42.852,182.276,0.000578
642,11 Feb 2025 12:55:19.839,11 Feb 2025 12:55:26.249,6.409,0.000020
643,11 Feb 2025 12:55:31.392,11 Feb 2025 12:58:26.678,175.286,0.000556
644,11 Feb 2025 14:30:19.105,11 Feb 2025 14:32:58.531,159.426,0.000506
645,11 Feb 2025 16:04:49.658,11 Feb 2025 16:07:52.078,182.420,0.000578
646,11 Feb 2025 17:39:36.954,11 Feb 2025 17:42:30.556,173.601,0.000550
647,11 Feb 2025 19:14:21.156,11 Feb 2025 19:17:23.221,182.065,0.000577
648,11 Feb 2025 20:49:11.919,11 Feb 2025 20:52:07.015,175.096,0.000555
649,11 Feb 2025 22:23:59.582,11 Feb 2025 22:26:55.052,175.470,0.000556
650,11 Feb 2025 23:58:43.965,12 Feb 2025 00:01:32.383,168.418,0.000534
651,12 Feb 2025 01:33:17.610,12 Feb 2025 01:36:10.753,173.143,0.000549
652,12 Feb 2025 03:08:01.775,12 Feb 2025 03:11:03.565,181.790,0.000576
653,12 Feb 2025 04:42:52.469,12 Feb 2025 04:45:47.330,174.860,0.000554
654,12 Feb 2025 06:17:40.081,12 Feb 2025 06:20:35.418,175.338,0.000556
655,12 Feb 2025 07:52:24.598,12 Feb 2025 07:55:12.664,168.066,0.000533
656,12 Feb 2025 09:26:58.290,12 Feb 2025 09:29:53.662,175.372,0.000556
657,12 Feb 2025 11:01:42.427,12 Feb 2025 11:04:43.883,181.455,0.000575
658,12 Feb 2025 12:36:33.042,12 Feb 2025 12:39:27.622,174.580,0.000554
659,12 Feb 2025 14:11:20.601,12 Feb 2025 14:14:15.762,175.161,0.000555
660,12 Feb 2025 15:46:05.277,12 Feb 2025 15:48:52.922,167.644,0.000532
661,12 Feb 2025 17:20:43.842,12 Feb 2025 17:23:46.152,182.310,0.000578
662,12 Feb 2025 18:55:23.112,12 Feb 2025 18:55:25.157,2.045,0.000006
663,12 Feb 2025 18:55:26.252,12 Feb 2025 18:58:24.176,177.924,0.000564
664,12 Feb 2025 20:30:13.636,12 Feb 2025 20:33:07.882,174.245,0.000553
665,12 Feb 2025 22:05:01.144,12 Feb 2025 22:07:56.082,174.938,0.000555
666,12 Feb 2025 23:39:45.650,12 Feb 2025 23:42:44.155,178.505,0.000566
667,13 Feb 2025 01:14:24.427,13 Feb 2025 01:17:26.521,182.094,0.000577
668,13 Feb 2025 02:49:06.924,13 Feb 2025 02:52:04.444,177.521,0.000563
669,13 Feb 2025 04:23:54.254,13 Feb 2025 04:26:48.120,173.866,0.000551
670,13 Feb 2025 05:58:41.709,13 Feb 2025 06:01:36.382,174.673,0.000554
671,13 Feb 2025 07:33:26.082,13 Feb 2025 07:36:24.507,178.425,0.000566
672,13 Feb 2025 09:08:05.045,13 Feb 2025 09:11:06.864,181.819,0.000577
673,13 Feb 2025 10:42:47.620,13 Feb 2025 10:45:44.691,177.072,0.000561
674,13 Feb 2025 12:17:34.895,13 Feb 2025 12:20:37.992,183.097,0.000581
675,13 Feb 2025 13:52:22.297,13 Feb 2025 13:55:16.655,174.358,0.000553
676,13 Feb 2025 15:27:06.570,13 Feb 2025 15:30:04.834,178.264,0.000565
677,13 Feb 2025 17:01:45.699,13 Feb 2025 17:04:52.889,187.191,0.000594
678,13 Feb 2025 18:36:38.044,13 Feb 2025 18:39:24.918,166.874,0.000529
679,13 Feb 2025 20:11:15.560,13 Feb 2025 20:14:18.346,182.786,0.000580
680,13 Feb 2025 21:46:02.908,13 Feb 2025 21:48:56.898,173.990,0.000552
681,13 Feb 2025 23:20:47.111,13 Feb 2025 23:23:49.453,182.342,0.000578
682,14 Feb 2025 00:55:37.972,14 Feb 2025 00:58:33.251,175.279,0.000556
683,14 Feb 2025 02:30:25.683,14 Feb 2025 02:33:05.125,159.442,0.000506
684,14 Feb 2025 04:04:56.249,14 Feb 2025 04:07:58.676,182.428,0.000578
685,14 Feb 2025 05:39:43.542,14 Feb 2025 05:42:37.118,173.576,0.000550
686,14 Feb 2025 07:14:27.695,14 Feb 2025 07:17:29.821,182.126,0.000578
687,14 Feb 2025 08:49:18.501,14 Feb 2025 08:52:13.587,175.086,0.000555
688,14 Feb 2025 10:24:06.161,14 Feb 2025 10:27:01.624,175.464,0.000556
689,14 Feb 2025 11:58:50.574,14 Feb 2025 12:01:38.981,168.407,0.000534
690,14 Feb 2025 13:33:24.199,14 Feb 2025 13:36:17.313,173.114,0.000549
691,14 Feb 2025 15:08:08.315,14 Feb 2025 15:11:10.164,181.849,0.000577
692,14 Feb 2025 16:42:59.052,14 Feb 2025 16:45:53.897,174.845,0.000554
693,14 Feb 2025 18:17:46.660,14 Feb 2025 18:20:41.988,175.327,0.000556
694,14 Feb 2025 19:52:31.209,14 Feb 2025 19:55:19.260,168.051,0.000533
695,14 Feb 2025 21:27:04.880,14 Feb 2025 21:30:00.284,175.404,0.000556
696,14 Feb 2025 23:01:48.971,14 Feb 2025 23:04:50.481,181.510,0.000576
697,15 Feb 2025 00:36:39.626,15 Feb 2025 00:39:34.188,174.562,0.000554
698,15 Feb 2025 02:11:27.182,15 Feb 2025 02:14:22.332,175.149,0.000555
699,15 Feb 2025 03:46:11.804,15 Feb 2025 03:48:59.517,167.714,0.000532
700,15 Feb 2025 05:20:50.378,15 Feb 2025 05:23:52.754,182.375,0.000578
701,15 Feb 2025 06:55:32.840,15 Feb 2025 06:58:30.773,177.933,0.000564
702,15 Feb 2025 08:30:20.222,15 Feb 2025 08:33:14.447,174.225,0.000552
703,15 Feb 2025 10:05:07.727,15 Feb 2025 10:08:02.650,174.923,0.000555
704,15 Feb 2025 11:39:52.169,15 Feb 2025 11:42:50.727,178.558,0.000566
705,15 Feb 2025 13:14:30.963,15 Feb 2025 13:17:33.121,182.157,0.000578
706,15 Feb 2025 14:49:13.514,15 Feb 2025 14:52:11.041,177.527,0.000563
707,15 Feb 2025 16:24:00.841,15 Feb 2025 16:26:54.683,173.842,0.000551
708,15 Feb 2025 17:58:48.293,15 Feb 2025 18:01:42.949,174.656,0.000554
709,15 Feb 2025 19:33:32.606,15 Feb 2025 19:36:31.077,178.471,0.000566
710,15 Feb 2025 21:08:11.586,15 Feb 2025 21:11:13.463,181.878,0.000577
711,15 Feb 2025 22:42:54.211,15 Feb 2025 22:43:00.199,5.988,0.000019
712,15 Feb 2025 22:43:03.903,15 Feb 2025 22:45:51.287,167.384,0.000531
713,16 Feb 2025 00:17:41.484,16 Feb 2025 00:20:44.593,183.109,0.000581
714,16 Feb 2025 01:52:28.882,16 Feb 2025 01:55:23.220,174.338,0.000553
715,16 Feb 2025 03:27:13.099,16 Feb 2025 03:30:11.405,178.306,0.000565
716,16 Feb 2025 05:01:52.243,16 Feb 2025 05:04:59.461,187.219,0.000594
717,16 Feb 2025 06:36:44.660,16 Feb 2025 06:39:31.513,166.853,0.000529
718,16 Feb 2025 08:11:22.150,16 Feb 2025 08:14:24.946,182.796,0.000580
719,16 Feb 2025 09:46:09.494,16 Feb 2025 09:49:03.462,173.968,0.000552
720,16 Feb 2025 11:20:53.645,16 Feb 2025 11:23:56.054,182.409,0.000578
721,16 Feb 2025 12:55:44.553,16 Feb 2025 12:58:39.821,175.269,0.000556
722,16 Feb 2025 14:30:32.261,16 Feb 2025 14:33:11.719,159.458,0.000506
723,16 Feb 2025 16:05:02.840,16 Feb 2025 16:08:05.275,182.435,0.000578
724,16 Feb 2025 17:39:50.130,16 Feb 2025 17:42:43.680,173.551,0.000550
725,16 Feb 2025 19:14:34.232,16 Feb 2025 19:17:36.421,182.189,0.000578
726,16 Feb 2025 20:49:25.083,16 Feb 2025 20:52:20.156,175.073,0.000555
727,16 Feb 2025 22:24:12.740,16 Feb 2025 22:27:08.197,175.457,0.000556
728,16 Feb 2025 23:58:57.184,17 Feb 2025 00:01:45.578,168.394,0.000534
729,17 Feb 2025 01:33:30.788,17 Feb 2025 01:36:23.874,173.086,0.000549
730,17 Feb 2025 03:08:14.859,17 Feb 2025 03:11:16.763,181.904,0.000577
731,17 Feb 2025 04:43:05.635,17 Feb 2025 04:46:00.465,174.829,0.000554
732,17 Feb 2025 06:17:53.241,17 Feb 2025 06:20:48.559,175.319,0.000556
733,17 Feb 2025 07:52:37.821,17 Feb 2025 07:55:25.857,168.036,0.000533
734,17 Feb 2025 09:27:11.470,17 Feb 2025 09:30:06.907,175.436,0.000556
735,17 Feb 2025 11:01:55.515,17 Feb 2025 11:04:57.079,181.564,0.000576
736,17 Feb 2025 12:36:46.210,17 Feb 2025 12:39:40.754,174.543,0.000553
737,17 Feb 2025 14:11:33.764,17 Feb 2025 14:14:28.901,175.137,0.000555
738,17 Feb 2025 15:46:18.317,17 Feb 2025 15:49:16.927,178.610,0.000566
739,17 Feb 2025 17:20:56.913,17 Feb 2025 17:23:59.355,182.442,0.000579
740,17 Feb 2025 18:55:39.429,17 Feb 2025 18:58:37.370,177.941,0.000564
741,17 Feb 2025 20:30:26.808,17 Feb 2025 20:33:21.012,174.204,0.000552
742,17 Feb 2025 22:05:14.310,17 Feb 2025 22:08:09.221,174.911,0.000555
743,17 Feb 2025 23:39:58.689,17 Feb 2025 23:42:57.299,178.610,0.000566
744,18 Feb 2025 01:14:37.501,18 Feb 2025 01:17:39.721,182.220,0.000578
745,18 Feb 2025 02:49:20.104,18 Feb 2025 02:52:17.637,177.533,0.000563
746,18 Feb 2025 04:24:07.429,18 Feb 2025 04:27:01.247,173.818,0.000551
747,18 Feb 2025 05:58:54.878,18 Feb 2025 06:01:49.515,174.638,0.000554
748,18 Feb 2025 07:33:39.132,18 Feb 2025 07:36:37.647,178.515,0.000566
749,18 Feb 2025 09:08:18.130,18 Feb 2025 09:11:20.063,181.933,0.000577
750,18 Feb 2025 10:43:10.518,18 Feb 2025 10:45:57.883,167.365,0.000531
751,18 Feb 2025 12:17:48.072,18 Feb 2025 12:20:51.194,183.122,0.000581
752,18 Feb 2025 13:52:35.468,18 Feb 2025 13:55:29.785,174.316,0.000553
753,18 Feb 2025 15:27:19.630,18 Feb 2025 15:30:17.973,178.343,0.000566
754,18 Feb 2025 17:01:58.788,18 Feb 2025 17:05:06.033,187.246,0.000594
755,18 Feb 2025 18:36:51.277,18 Feb 2025 18:36:53.869,2.593,0.000008
756,18 Feb 2025 18:36:58.381,18 Feb 2025 18:39:38.108,159.727,0.000506
757,18 Feb 2025 20:11:28.740,18 Feb 2025 20:14:31.546,182.806,0.000580
758,18 Feb 2025 21:46:16.081,18 Feb 2025 21:49:10.026,173.945,0.000552
759,18 Feb 2025 23:21:00.180,18 Feb 2025 23:24:02.656,182.475,0.000579
760,19 Feb 2025 00:55:51.134,19 Feb 2025 00:58:46.392,175.258,0.000556
761,19 Feb 2025 02:30:38.839,19 Feb 2025 02:33:18.313,159.474,0.000506
762,19 Feb 2025 04:05:09.431,19 Feb 2025 04:08:11.874,182.443,0.000579
763,19 Feb 2025 05:39:56.718,19 Feb 2025 05:42:50.242,173.524,0.000550
764,19 Feb 2025 07:14:40.771,19 Feb 2025 07:17:43.022,182.251,0.000578
765,19 Feb 2025 08:49:31.665,19 Feb 2025 08:52:26.724,175.059,0.000555
766,19 Feb 2025 10:24:19.320,19 Feb 2025 10:27:14.768,175.448,0.000556
767,19 Feb 2025 11:59:03.794,19 Feb 2025 12:01:52.176,168.382,0.000534
768,19 Feb 2025 13:33:37.378,19 Feb 2025 13:36:30.434,173.057,0.000549
769,19 Feb 2025 15:08:21.401,19 Feb 2025 15:11:23.363,181.962,0.000577
770,19 Feb 2025 16:43:12.219,19 Feb 2025 16:46:07.032,174.813,0.000554
771,19 Feb 2025 18:17:59.822,19 Feb 2025 18:20:55.129,175.307,0.000556
772,19 Feb 2025 19:52:44.433,19 Feb 2025 19:55:32.454,168.021,0.000533
773,19 Feb 2025 21:27:18.062,19 Feb 2025 21:30:13.530,175.468,0.000556
774,19 Feb 2025 23:02:02.060,19 Feb 2025 23:05:03.677,181.617,0.000576
775,20 Feb 2025 00:36:52.795,20 Feb 2025 00:39:47.320,174.524,0.000553
776,20 Feb 2025 02:11:40.346,20 Feb 2025 02:14:35.471,175.124,0.000555
777,20 Feb 2025 03:46:24.831,20 Feb 2025 03:49:23.500,178.669,0.000567
778,20 Feb 2025 05:21:03.448,20 Feb 2025 05:24:05.957,182.508,0.000579
779,20 Feb 2025 06:55:46.018,20 Feb 2025 06:58:43.967,177.949,0.000564
780,20 Feb 2025 08:30:33.394,20 Feb 2025 08:33:27.576,174.182,0.000552
781,20 Feb 2025 10:05:20.893,20 Feb 2025 10:08:15.788,174.895,0.000555
782,20 Feb 2025 11:40:05.210,20 Feb 2025 11:43:03.867,178.657,0.000567
783,20 Feb 2025 13:14:44.040,20 Feb 2025 13:17:46.322,182.282,0.000578
784,20 Feb 2025 14:49:26.695,20 Feb 2025 14:52:24.234,177.539,0.000563
785,20 Feb 2025 16:24:14.016,20 Feb 2025 16:27:07.810,173.794,0.000551
786,20 Feb 2025 17:59:01.462,20 Feb 2025 18:01:56.081,174.619,0.000554
787,20 Feb 2025 19:33:45.659,20 Feb 2025 19:36:44.217,178.557,0.000566
788,20 Feb 2025 21:08:24.672,20 Feb 2025 21:11:26.662,181.991,0.000577
789,20 Feb 2025 21:11:31.984,20 Feb 2025 21:11:32.230,0.245,0.000001
790,20 Feb 2025 22:43:17.132,20 Feb 2025 22:46:04.478,167.346,0.000531
791,21 Feb 2025 00:17:54.661,21 Feb 2025 00:20:57.795,183.134,0.000581
792,21 Feb 2025 01:52:42.054,21 Feb 2025 01:55:36.349,174.294,0.000553
793,21 Feb 2025 03:27:26.162,21 Feb 2025 03:30:24.541,178.379,0.000566
794,21 Feb 2025 05:02:05.333,21 Feb 2025 05:05:12.605,187.272,0.000594
795,21 Feb 2025 06:37:04.959,21 Feb 2025 06:39:44.703,159.744,0.000507
796,21 Feb 2025 08:11:35.330,21 Feb 2025 08:14:38.145,182.815,0.000580
797,21 Feb 2025 09:46:22.669,21 Feb 2025 09:49:16.589,173.921,0.000551
798,21 Feb 2025 11:21:06.716,21 Feb 2025 11:24:09.257,182.541,0.000579
799,21 Feb 2025 12:55:57.715,21 Feb 2025 12:58:52.962,175.246,0.000556
800,21 Feb 2025 14:30:45.418,21 Feb 2025 14:33:24.908,159.490,0.000506
801,21 Feb 2025 16:05:29.809,21 Feb 2025 16:08:18.473,168.664,0.000535
802,21 Feb 2025 17:40:03.306,21 Feb 2025 17:42:56.804,173.497,0.000550
803,21 Feb 2025 19:14:47.310,21 Feb 2025 19:17:49.622,182.312,0.000578
804,21 Feb 2025 20:49:38.248,21 Feb 2025 20:52:33.292,175.044,0.000555
805,21 Feb 2025 22:24:25.900,21 Feb 2025 22:27:21.340,175.440,0.000556
806,21 Feb 2025 23:59:10.404,22 Feb 2025 00:01:58.774,168.369,0.000534
807,22 Feb 2025 01:33:43.968,22 Feb 2025 01:36:36.994,173.027,0.000549
808,22 Feb 2025 03:08:27.943,22 Feb 2025 03:11:29.962,182.019,0.000577
809,22 Feb 2025 04:43:18.803,22 Feb 2025 04:46:13.599,174.796,0.000554
810,22 Feb 2025 06:18:06.403,22 Feb 2025 06:21:01.701,175.298,0.000556
811,22 Feb 2025 07:52:51.044,22 Feb 2025 07:55:39.051,168.007,0.000533
812,22 Feb 2025 09:27:24.652,22 Feb 2025 09:30:20.152,175.500,0.000557
813,22 Feb 2025 11:02:08.606,22 Feb 2025 11:02:09.457,0.851,0.000003
814,22 Feb 2025 11:02:11.954,22 Feb 2025 11:05:10.276,178.322,0.000565
815,22 Feb 2025 12:36:59.380,22 Feb 2025 12:39:53.885,174.504,0.000553
816,22 Feb 2025 14:11:46.929,22 Feb 2025 14:14:42.039,175.111,0.000555
817,22 Feb 2025 15:46:31.347,22 Feb 2025 15:49:30.073,178.726,0.000567
818,22 Feb 2025 17:21:09.984,22 Feb 2025 17:24:12.558,182.573,0.000579
819,22 Feb 2025 18:55:52.608,22 Feb 2025 18:58:50.564,177.957,0.000564
820,22 Feb 2025 20:30:39.980,22 Feb 2025 20:33:34.140,174.160,0.000552
821,22 Feb 2025 22:05:27.477,22 Feb 2025 22:08:22.356,174.879,0.000555
822,22 Feb 2025 23:40:11.733,22 Feb 2025 23:43:10.439,178.706,0.000567
823,23 Feb 2025 01:14:50.581,23 Feb 2025 01:17:52.922,182.340,0.000578
824,23 Feb 2025 02:49:33.285,23 Feb 2025 02:52:30.830,177.545,0.000563
825,23 Feb 2025 04:24:20.604,23 Feb 2025 04:27:24.013,183.410,0.000582
826,23 Feb 2025 05:59:08.047,23 Feb 2025 06:02:02.647,174.600,0.000554
827,23 Feb 2025 07:33:52.187,23 Feb 2025 07:36:50.786,178.599,0.000566
828,23 Feb 2025 09:08:31.214,23 Feb 2025 09:11:38.802,187.588,0.000595
829,23 Feb 2025 10:43:23.746,23 Feb 2025 10:46:11.074,167.327,0.000531
830,23 Feb 2025 12:18:01.250,23 Feb 2025 12:21:04.393,183.143,0.000581
831,23 Feb 2025 13:52:48.640,23 Feb 2025 13:55:42.912,174.272,0.000553
832,23 Feb 2025 15:27:32.694,23 Feb 2025 15:30:31.108,178.414,0.000566
833,23 Feb 2025 17:02:23.785,23 Feb 2025 17:05:19.176,175.391,0.000556
834,23 Feb 2025 18:37:11.536,23 Feb 2025 18:39:51.297,159.762,0.000507
835,23 Feb 2025 20:11:41.920,23 Feb 2025 20:14:44.745,182.825,0.000580
836,23 Feb 2025 21:46:29.256,23 Feb 2025 21:49:23.152,173.896,0.000551
837,23 Feb 2025 23:21:13.252,23 Feb 2025 23:24:15.858,182.606,0.000579
838,24 Feb 2025 00:56:04.297,24 Feb 2025 00:58:59.530,175.233,0.000556
839,24 Feb 2025 02:30:51.996,24 Feb 2025 02:33:31.501,159.505,0.000506
840,24 Feb 2025 04:05:36.417,24 Feb 2025 04:08:25.069,168.652,0.000535
841,24 Feb 2025 05:40:09.895,24 Feb 2025 05:43:03.365,173.470,0.000550
842,24 Feb 2025 07:14:53.851,24 Feb 2025 07:17:56.222,182.371,0.000578
843,24 Feb 2025 08:49:44.830,24 Feb 2025 08:52:39.859,175.029,0.000555
844,24 Feb 2025 10:24:32.479,24 Feb 2025 10:27:27.911,175.432,0.000556
845,24 Feb 2025 11:59:17.014,24 Feb 2025 12:02:05.371,168.357,0.000534
846,24 Feb 2025 13:33:50.557,24 Feb 2025 13:36:46.216,175.659,0.000557
847,24 Feb 2025 15:08:34.485,24 Feb 2025 15:11:36.560,182.075,0.000577
848,24 Feb 2025 16:43:25.386,24 Feb 2025 16:46:20.165,174.779,0.000554
849,24 Feb 2025 18:18:12.984,24 Feb 2025 18:21:08.271,175.287,0.000556
850,24 Feb 2025 19:52:57.551,24 Feb 2025 19:55:45.647,168.095,0.000533
851,24 Feb 2025 21:27:31.243,24 Feb 2025 21:27:32.511,1.268,0.000004
852,24 Feb 2025 21:27:35.963,24 Feb 2025 21:30:26.774,170.812,0.000542
853,24 Feb 2025 23:02:18.541,24 Feb 2025 23:05:16.871,178.329,0.000565
