3UCubedIntegratedSim/Reports & Plots/North Cusp @ 1 Degree/CSV/Sat7.csv

Number,Coverage Start (UTCG),Coverage End (UTCG),Duration (sec),Percent,
1,2025-01-01 16:22:46,2025-01-01 16:26:04,197.801,0.063%,
2,2025-01-01 17:57:28,2025-01-01 18:00:36,187.914,0.060%,
3,2025-01-01 19:32:14,2025-01-01 19:35:29,194.747,0.062%,
4,2025-01-01 21:07:00,2025-01-01 21:10:09,189.529,0.060%,
5,2025-01-01 22:41:54,2025-01-01 22:44:57,182.352,0.058%,
6,2025-01-02 00:16:31,2025-01-02 00:19:45,194.063,0.062%,
7,2025-01-02 01:51:25,2025-01-02 01:54:18,172.441,0.055%,
8,2025-01-02 01:54:21,2025-01-02 01:54:31,9.622,0.003%,
9,2025-01-02 03:26:03,2025-01-02 03:29:10,187.469,0.059%,
10,2025-01-02 05:00:40,2025-01-02 05:03:51,190.697,0.061%,
11,2025-01-02 06:35:34,2025-01-02 06:38:35,180.495,0.057%,
12,2025-01-02 08:10:12,2025-01-02 08:13:27,195.411,0.062%,
13,2025-01-02 09:45:05,2025-01-02 09:47:59,173.842,0.055%,
14,2025-01-02 11:19:43,2025-01-02 11:22:52,188.774,0.060%,
15,2025-01-02 12:54:20,2025-01-02 12:57:32,191.842,0.061%,
16,2025-01-02 14:29:15,2025-01-02 14:32:16,181.745,0.058%,
17,2025-01-02 16:03:52,2025-01-02 16:07:08,196.752,0.062%,
18,2025-01-02 17:38:45,2025-01-02 17:41:40,175.215,0.056%,
19,2025-01-02 19:13:23,2025-01-02 19:16:33,190.076,0.060%,
20,2025-01-02 20:48:13,2025-01-02 20:51:13,180.259,0.057%,
21,2025-01-02 22:22:55,2025-01-02 22:26:02,187.072,0.059%,
22,2025-01-02 23:57:32,2025-01-03 00:00:50,198.081,0.063%,
23,2025-01-03 01:32:25,2025-01-03 01:35:21,176.563,0.056%,
24,2025-01-03 03:07:03,2025-01-03 03:10:15,191.364,0.061%,
25,2025-01-03 04:41:53,2025-01-03 04:44:54,181.56,0.058%,
26,2025-01-03 06:16:35,2025-01-03 06:19:39,184.228,0.058%,
27,2025-01-03 07:51:21,2025-01-03 07:54:31,190.372,0.060%,
28,2025-01-03 09:26:05,2025-01-03 09:29:03,177.878,0.056%,
29,2025-01-03 11:00:43,2025-01-03 11:03:56,192.643,0.061%,
30,2025-01-03 12:35:33,2025-01-03 12:38:36,182.826,0.058%,
31,2025-01-03 14:10:15,2025-01-03 14:13:20,185.452,0.059%,
32,2025-01-03 15:45:01,2025-01-03 15:48:13,191.844,0.061%,
33,2025-01-03 17:19:45,2025-01-03 17:22:44,179.161,0.057%,
34,2025-01-03 18:54:23,2025-01-03 18:57:37,193.908,0.062%,
35,2025-01-03 20:29:13,2025-01-03 20:32:29,196.299,0.062%,
36,2025-01-03 22:03:55,2025-01-03 22:07:07,191.714,0.061%,
37,2025-01-03 23:38:41,2025-01-03 23:41:54,193.357,0.061%,
38,2025-01-04 01:13:25,2025-01-04 01:16:35,189.938,0.060%,
39,2025-01-04 02:48:09,2025-01-04 02:51:19,189.901,0.060%,
40,2025-01-04 04:22:53,2025-01-04 04:26:11,197.76,0.063%,
41,2025-01-04 05:57:35,2025-01-04 06:00:43,187.858,0.060%,
42,2025-01-04 07:32:21,2025-01-04 07:35:36,194.696,0.062%,
43,2025-01-04 09:07:05,2025-01-04 09:10:16,191.215,0.061%,
44,2025-01-04 10:42:01,2025-01-04 10:45:00,179.189,0.057%,
45,2025-01-04 12:16:38,2025-01-04 12:19:52,194.038,0.062%,
46,2025-01-04 13:51:32,2025-01-04 13:54:24,172.369,0.055%,
47,2025-01-04 15:26:10,2025-01-04 15:29:17,187.435,0.059%,
48,2025-01-04 17:00:47,2025-01-04 17:03:57,190.704,0.061%,
49,2025-01-04 18:35:41,2025-01-04 18:38:41,180.447,0.057%,
50,2025-01-04 20:10:18,2025-01-04 20:13:33,195.385,0.062%,
51,2025-01-04 21:45:12,2025-01-04 21:48:11,179.787,0.057%,
52,2025-01-04 23:19:50,2025-01-04 23:22:59,189.695,0.060%,
53,2025-01-05 00:54:27,2025-01-05 00:57:39,191.848,0.061%,
54,2025-01-05 02:29:21,2025-01-05 02:32:23,181.699,0.058%,
55,2025-01-05 04:03:58,2025-01-05 04:07:15,196.724,0.062%,
56,2025-01-05 05:38:52,2025-01-05 05:41:47,175.138,0.056%,
57,2025-01-05 07:13:30,2025-01-05 07:16:40,190.04,0.060%,
58,2025-01-05 08:48:20,2025-01-05 08:51:20,180.249,0.057%,
59,2025-01-05 10:23:01,2025-01-05 10:26:04,182.942,0.058%,
60,2025-01-05 11:57:38,2025-01-05 12:00:56,198.052,0.063%,
61,2025-01-05 13:32:32,2025-01-05 13:35:28,176.483,0.056%,
62,2025-01-05 15:07:10,2025-01-05 15:10:21,191.326,0.061%,
63,2025-01-05 16:42:00,2025-01-05 16:45:01,181.548,0.058%,
64,2025-01-05 18:16:41,2025-01-05 18:19:45,184.178,0.058%,
65,2025-01-05 19:51:18,2025-01-05 19:54:38,199.367,0.063%,
66,2025-01-05 21:26:11,2025-01-05 21:29:16,184.735,0.059%,
67,2025-01-05 23:00:50,2025-01-05 23:04:04,194.46,0.062%,
68,2025-01-06 00:35:39,2025-01-06 00:38:42,182.811,0.058%,
69,2025-01-06 02:10:21,2025-01-06 02:13:27,185.401,0.059%,
70,2025-01-06 03:45:07,2025-01-06 03:48:19,191.797,0.061%,
71,2025-01-06 05:19:51,2025-01-06 05:22:51,179.075,0.057%,
72,2025-01-06 06:54:30,2025-01-06 06:57:44,193.867,0.062%,
73,2025-01-06 08:29:19,2025-01-06 08:32:23,184.037,0.058%,
74,2025-01-06 10:04:02,2025-01-06 10:07:08,186.607,0.059%,
75,2025-01-06 11:38:47,2025-01-06 11:42:01,193.238,0.061%,
76,2025-01-06 13:13:31,2025-01-06 13:16:32,180.309,0.057%,
77,2025-01-06 14:48:15,2025-01-06 14:51:25,189.841,0.060%,
78,2025-01-06 16:22:59,2025-01-06 16:26:05,185.223,0.059%,
79,2025-01-06 17:57:42,2025-01-06 18:00:49,187.801,0.060%,
80,2025-01-06 19:32:27,2025-01-06 19:35:42,194.645,0.062%,
81,2025-01-06 21:07:11,2025-01-06 21:10:23,191.206,0.061%,
82,2025-01-06 22:41:55,2025-01-06 22:45:09,193.961,0.062%,
83,2025-01-07 00:16:45,2025-01-07 00:19:46,181.229,0.058%,
84,2025-01-07 00:19:53,2025-01-07 00:19:59,5.475,0.002%,
85,2025-01-07 01:51:22,2025-01-07 01:54:31,188.979,0.060%,
86,2025-01-07 03:26:16,2025-01-07 03:29:23,187.4,0.059%,
87,2025-01-07 05:00:53,2025-01-07 05:04:04,190.712,0.061%,
88,2025-01-07 06:35:48,2025-01-07 06:38:48,180.402,0.057%,
89,2025-01-07 08:10:25,2025-01-07 08:13:40,195.359,0.062%,
90,2025-01-07 09:45:18,2025-01-07 09:48:12,173.693,0.055%,
91,2025-01-07 11:19:56,2025-01-07 11:23:05,188.703,0.060%,
92,2025-01-07 12:54:33,2025-01-07 12:57:45,191.853,0.061%,
93,2025-01-07 14:29:28,2025-01-07 14:32:29,181.651,0.058%,
94,2025-01-07 16:04:05,2025-01-07 16:07:22,196.696,0.062%,
95,2025-01-07 17:38:58,2025-01-07 17:41:53,175.06,0.056%,
96,2025-01-07 19:13:36,2025-01-07 19:16:46,190.002,0.060%,
97,2025-01-07 20:48:26,2025-01-07 20:51:26,180.239,0.057%,
98,2025-01-07 22:23:08,2025-01-07 22:26:14,186.591,0.059%,
99,2025-01-07 23:57:45,2025-01-08 00:01:03,198.022,0.063%,
100,2025-01-08 01:32:38,2025-01-08 01:35:35,176.403,0.056%,
101,2025-01-08 03:07:16,2025-01-08 03:10:28,191.286,0.061%,
102,2025-01-08 04:42:06,2025-01-08 04:45:08,181.536,0.058%,
103,2025-01-08 06:16:48,2025-01-08 06:19:52,184.127,0.058%,
104,2025-01-08 07:51:25,2025-01-08 07:54:44,199.336,0.063%,
105,2025-01-08 09:26:18,2025-01-08 09:29:16,177.711,0.056%,
106,2025-01-08 11:00:57,2025-01-08 11:04:09,192.562,0.061%,
107,2025-01-08 12:35:46,2025-01-08 12:38:49,182.797,0.058%,
108,2025-01-08 14:10:28,2025-01-08 14:13:33,185.348,0.059%,
109,2025-01-08 15:45:14,2025-01-08 15:48:26,191.749,0.061%,
110,2025-01-08 17:19:58,2025-01-08 17:22:57,178.988,0.057%,
111,2025-01-08 18:54:37,2025-01-08 18:57:50,193.821,0.062%,
112,2025-01-08 20:29:26,2025-01-08 20:32:30,184.02,0.058%,
113,2025-01-08 22:04:08,2025-01-08 22:07:19,191.166,0.061%,
114,2025-01-08 23:38:54,2025-01-08 23:42:07,193.187,0.061%,
115,2025-01-09 01:13:38,2025-01-09 01:16:38,180.218,0.057%,
116,2025-01-09 02:48:17,2025-01-09 02:51:32,195.069,0.062%,
117,2025-01-09 04:23:06,2025-01-09 04:26:11,185.205,0.059%,
118,2025-01-09 05:57:48,2025-01-09 06:00:56,187.743,0.060%,
119,2025-01-09 07:32:34,2025-01-09 07:35:49,194.593,0.062%,
120,2025-01-09 09:07:18,2025-01-09 09:10:19,181.409,0.058%,
121,2025-01-09 10:42:02,2025-01-09 10:45:13,191.121,0.061%,
122,2025-01-09 12:16:46,2025-01-09 12:19:52,186.342,0.059%,
123,2025-01-09 13:51:28,2025-01-09 13:54:37,188.918,0.060%,
124,2025-01-09 15:26:23,2025-01-09 15:29:30,187.364,0.059%,
125,2025-01-09 17:01:00,2025-01-09 17:04:11,190.719,0.061%,
126,2025-01-09 18:35:54,2025-01-09 18:38:55,180.354,0.057%,
127,2025-01-09 20:10:31,2025-01-09 20:13:34,182.271,0.058%,
128,2025-01-09 21:45:25,2025-01-09 21:48:24,179.109,0.057%,
129,2025-01-09 23:20:03,2025-01-09 23:23:11,188.666,0.060%,
130,2025-01-10 00:54:40,2025-01-10 00:57:52,191.859,0.061%,
131,2025-01-10 02:29:34,2025-01-10 02:32:36,181.603,0.058%,
132,2025-01-10 04:04:11,2025-01-10 04:07:15,183.299,0.058%,
133,2025-01-10 05:39:05,2025-01-10 05:42:00,174.981,0.056%,
134,2025-01-10 07:13:43,2025-01-10 07:16:53,189.963,0.060%,
135,2025-01-10 08:48:20,2025-01-10 08:51:33,192.975,0.061%,
136,2025-01-10 10:23:14,2025-01-10 10:26:17,182.845,0.058%,
137,2025-01-10 11:57:52,2025-01-10 12:01:10,197.991,0.063%,
138,2025-01-10 13:32:45,2025-01-10 13:35:41,176.321,0.056%,
139,2025-01-10 15:07:23,2025-01-10 15:10:34,191.246,0.061%,
140,2025-01-10 16:42:13,2025-01-10 16:45:14,181.523,0.058%,
141,2025-01-10 18:16:54,2025-01-10 18:19:59,184.074,0.058%,
142,2025-01-10 19:51:32,2025-01-10 19:54:51,199.303,0.063%,
143,2025-01-10 21:26:25,2025-01-10 21:29:22,177.626,0.056%,
144,2025-01-10 21:29:23,2025-01-10 21:29:29,6.023,0.002%,
145,2025-01-10 23:01:03,2025-01-10 23:04:16,192.52,0.061%,
146,2025-01-11 00:35:53,2025-01-11 00:38:55,182.783,0.058%,
147,2025-01-11 02:10:35,2025-01-11 02:13:40,185.293,0.059%,
148,2025-01-11 03:45:21,2025-01-11 03:48:32,191.7,0.061%,
149,2025-01-11 05:20:05,2025-01-11 05:23:04,178.899,0.057%,
150,2025-01-11 06:54:43,2025-01-11 06:57:57,193.778,0.061%,
151,2025-01-11 08:29:33,2025-01-11 08:32:37,184.004,0.058%,
152,2025-01-11 10:04:15,2025-01-11 10:07:21,186.496,0.059%,
153,2025-01-11 11:39:01,2025-01-11 11:42:14,193.137,0.061%,
154,2025-01-11 13:13:45,2025-01-11 13:16:45,180.126,0.057%,
155,2025-01-11 14:48:23,2025-01-11 14:51:38,195.023,0.062%,
156,2025-01-11 16:23:13,2025-01-11 16:26:18,185.186,0.059%,
157,2025-01-11 17:57:55,2025-01-11 18:01:02,187.684,0.060%,
158,2025-01-11 19:32:41,2025-01-11 19:35:55,194.54,0.062%,
159,2025-01-11 21:07:25,2025-01-11 21:10:26,181.313,0.058%,
160,2025-01-11 22:42:09,2025-01-11 22:45:20,191.058,0.061%,
161,2025-01-12 00:16:53,2025-01-12 00:19:59,186.321,0.059%,
162,2025-01-12 01:51:35,2025-01-12 01:54:44,188.856,0.060%,
163,2025-01-12 03:26:21,2025-01-12 03:29:37,195.902,0.062%,
164,2025-01-12 05:01:06,2025-01-12 05:04:07,180.767,0.057%,
165,2025-01-12 06:36:01,2025-01-12 06:39:01,180.307,0.057%,
166,2025-01-12 08:10:38,2025-01-12 08:13:40,182.267,0.058%,
167,2025-01-12 09:45:15,2025-01-12 09:45:17,1.948,0.001%,
168,2025-01-12 09:45:32,2025-01-12 09:48:25,173.539,0.055%,
169,2025-01-12 11:20:09,2025-01-12 11:23:18,188.628,0.060%,
170,2025-01-12 12:54:47,2025-01-12 12:57:58,191.864,0.061%,
171,2025-01-12 14:29:41,2025-01-12 14:32:42,181.553,0.058%,
172,2025-01-12 16:04:18,2025-01-12 16:07:21,183.293,0.058%,
173,2025-01-12 17:39:10,2025-01-12 17:42:06,176.104,0.056%,
174,2025-01-12 19:13:49,2025-01-12 19:16:59,189.924,0.060%,
175,2025-01-12 20:48:27,2025-01-12 20:51:40,192.979,0.061%,
176,2025-01-12 22:23:21,2025-01-12 22:26:24,182.794,0.058%,
177,2025-01-12 23:57:58,2025-01-13 00:01:02,184.299,0.058%,
178,2025-01-13 01:32:51,2025-01-13 01:35:48,176.241,0.056%,
179,2025-01-13 03:07:30,2025-01-13 03:10:41,191.206,0.061%,
180,2025-01-13 04:42:19,2025-01-13 04:45:21,181.511,0.058%,
181,2025-01-13 06:17:01,2025-01-13 06:20:05,184.022,0.058%,
182,2025-01-13 07:51:38,2025-01-13 07:54:44,185.282,0.059%,
183,2025-01-13 09:26:31,2025-01-13 09:29:29,177.542,0.056%,
184,2025-01-13 11:01:10,2025-01-13 11:04:22,192.478,0.061%,
185,2025-01-13 12:35:59,2025-01-13 12:39:02,182.768,0.058%,
186,2025-01-13 14:10:41,2025-01-13 14:13:46,185.236,0.059%,
187,2025-01-13 15:45:18,2025-01-13 15:48:39,200.567,0.064%,
188,2025-01-13 17:20:11,2025-01-13 17:23:10,178.81,0.057%,
189,2025-01-13 18:54:50,2025-01-13 18:58:04,193.735,0.061%,
190,2025-01-13 20:29:39,2025-01-13 20:32:43,183.987,0.058%,
191,2025-01-13 22:04:21,2025-01-13 22:07:28,186.439,0.059%,
192,2025-01-13 23:39:07,2025-01-13 23:42:20,193.086,0.061%,
193,2025-01-14 01:13:51,2025-01-14 01:16:51,180.033,0.057%,
194,2025-01-14 02:48:30,2025-01-14 02:51:45,194.978,0.062%,
195,2025-01-14 04:23:19,2025-01-14 04:26:24,185.168,0.059%,
196,2025-01-14 05:58:01,2025-01-14 06:01:09,187.625,0.060%,
197,2025-01-14 07:32:47,2025-01-14 07:36:02,194.488,0.062%,
198,2025-01-14 09:07:31,2025-01-14 09:10:32,181.216,0.058%,
199,2025-01-14 10:42:15,2025-01-14 10:45:26,190.994,0.061%,
200,2025-01-14 12:16:59,2025-01-14 12:20:06,186.3,0.059%,
201,2025-01-14 13:51:42,2025-01-14 13:54:50,188.795,0.060%,
202,2025-01-14 15:26:27,2025-01-14 15:29:43,195.848,0.062%,
203,2025-01-14 17:01:11,2025-01-14 17:04:14,182.35,0.058%,
204,2025-01-14 18:36:07,2025-01-14 18:39:08,180.26,0.057%,
205,2025-01-14 20:10:44,2025-01-14 20:13:47,182.262,0.058%,
206,2025-01-14 21:45:22,2025-01-14 21:48:32,189.944,0.060%,
207,2025-01-14 23:20:16,2025-01-14 23:23:25,188.591,0.060%,
208,2025-01-15 00:54:53,2025-01-15 00:57:55,181.732,0.058%,
209,2025-01-15 00:58:04,2025-01-15 00:58:05,0.627,0.000%,
210,2025-01-15 02:29:47,2025-01-15 02:32:49,181.505,0.058%,
211,2025-01-15 04:04:25,2025-01-15 04:07:28,183.288,0.058%,
212,2025-01-15 05:39:17,2025-01-15 05:42:13,176.131,0.056%,
213,2025-01-15 07:13:56,2025-01-15 07:17:06,189.883,0.060%,
214,2025-01-15 08:48:33,2025-01-15 08:51:46,192.982,0.061%,
215,2025-01-15 10:23:28,2025-01-15 10:26:30,182.743,0.058%,
216,2025-01-15 11:58:05,2025-01-15 12:01:09,184.292,0.058%,
217,2025-01-15 13:32:58,2025-01-15 13:35:54,176.159,0.056%,
218,2025-01-15 15:07:36,2025-01-15 15:10:47,191.166,0.061%,
219,2025-01-15 16:42:26,2025-01-15 16:45:27,181.498,0.058%,
220,2025-01-15 18:17:08,2025-01-15 18:20:12,183.97,0.058%,
221,2025-01-15 19:51:45,2025-01-15 19:54:50,185.273,0.059%,
222,2025-01-15 21:26:38,2025-01-15 21:29:35,177.456,0.056%,
223,2025-01-15 23:01:16,2025-01-15 23:04:29,192.437,0.061%,
224,2025-01-16 00:36:06,2025-01-16 00:39:09,182.754,0.058%,
225,2025-01-16 02:10:48,2025-01-16 02:13:53,185.182,0.059%,
226,2025-01-16 03:45:25,2025-01-16 03:48:31,186.232,0.059%,
227,2025-01-16 05:20:18,2025-01-16 05:23:17,178.718,0.057%,
228,2025-01-16 06:54:56,2025-01-16 06:58:10,193.692,0.061%,
229,2025-01-16 08:29:46,2025-01-16 08:32:50,183.97,0.058%,
230,2025-01-16 10:04:28,2025-01-16 10:07:34,186.383,0.059%,
231,2025-01-16 11:39:14,2025-01-16 11:42:12,178.39,0.057%,
232,2025-01-16 11:42:23,2025-01-16 11:42:27,3.491,0.001%,
233,2025-01-16 13:13:58,2025-01-16 13:16:58,179.941,0.057%,
234,2025-01-16 14:48:37,2025-01-16 14:51:51,194.933,0.062%,
235,2025-01-16 16:23:26,2025-01-16 16:26:31,185.149,0.059%,
236,2025-01-16 17:58:08,2025-01-16 18:01:16,187.566,0.060%,
237,2025-01-16 19:32:54,2025-01-16 19:36:08,194.434,0.062%,
238,2025-01-16 21:07:38,2025-01-16 21:10:39,181.12,0.057%,
239,2025-01-16 22:42:17,2025-01-16 22:42:17,0.045,0.000%,
240,2025-01-16 22:42:22,2025-01-16 22:45:33,190.93,0.061%,
241,2025-01-17 00:17:06,2025-01-17 00:20:12,186.279,0.059%,
242,2025-01-17 01:51:48,2025-01-17 01:54:57,188.735,0.060%,
243,2025-01-17 03:26:34,2025-01-17 03:29:50,195.793,0.062%,
244,2025-01-17 05:01:18,2025-01-17 05:04:20,182.249,0.058%,
245,2025-01-17 06:36:02,2025-01-17 06:36:10,7.981,0.003%,
246,2025-01-17 06:36:14,2025-01-17 06:39:14,180.213,0.057%,
247,2025-01-17 08:10:51,2025-01-17 08:13:53,182.258,0.058%,
248,2025-01-17 09:45:28,2025-01-17 09:48:38,189.881,0.060%,
249,2025-01-17 11:20:23,2025-01-17 11:23:31,188.554,0.060%,
250,2025-01-17 12:55:00,2025-01-17 12:58:01,181.645,0.058%,
251,2025-01-17 14:29:54,2025-01-17 14:32:56,181.456,0.058%,
252,2025-01-17 16:04:31,2025-01-17 16:07:34,183.282,0.058%,
253,2025-01-17 17:39:23,2025-01-17 17:42:19,176.162,0.056%,
254,2025-01-17 19:14:03,2025-01-17 19:17:12,189.845,0.060%,
255,2025-01-17 20:48:40,2025-01-17 20:51:53,192.985,0.061%,
256,2025-01-17 22:23:34,2025-01-17 22:26:37,182.693,0.058%,
257,2025-01-17 23:58:11,2025-01-18 00:01:16,184.285,0.058%,
258,2025-01-18 01:33:02,2025-01-18 01:36:01,178.164,0.057%,
259,2025-01-18 03:07:43,2025-01-18 03:10:54,191.126,0.061%,
260,2025-01-18 04:42:20,2025-01-18 04:45:34,194.072,0.062%,
261,2025-01-18 06:17:14,2025-01-18 06:20:18,183.918,0.058%,
262,2025-01-18 07:51:51,2025-01-18 07:54:57,185.265,0.059%,
263,2025-01-18 09:26:45,2025-01-18 09:29:42,177.37,0.056%,
264,2025-01-18 11:01:23,2025-01-18 11:04:35,192.398,0.061%,
265,2025-01-18 12:36:12,2025-01-18 12:39:15,182.739,0.058%,
266,2025-01-18 14:10:54,2025-01-18 14:13:59,185.127,0.059%,
267,2025-01-18 15:45:32,2025-01-18 15:48:38,186.221,0.059%,
268,2025-01-18 17:20:24,2025-01-18 17:23:23,178.628,0.057%,
269,2025-01-18 18:55:03,2025-01-18 18:58:17,193.648,0.061%,
270,2025-01-18 20:29:52,2025-01-18 20:32:56,183.954,0.058%,
271,2025-01-18 22:04:34,2025-01-18 22:07:41,186.326,0.059%,
272,2025-01-18 23:39:20,2025-01-18 23:42:19,178.362,0.057%,
273,2025-01-19 01:14:04,2025-01-19 01:17:04,179.848,0.057%,
274,2025-01-19 02:48:43,2025-01-19 02:51:58,194.888,0.062%,
275,2025-01-19 04:23:32,2025-01-19 04:26:38,185.13,0.059%,
276,2025-01-19 05:58:15,2025-01-19 06:01:22,187.51,0.060%,
277,2025-01-19 07:33:00,2025-01-19 07:36:00,179.404,0.057%,
278,2025-01-19 09:07:44,2025-01-19 09:10:46,181.022,0.057%,
279,2025-01-19 10:42:23,2025-01-19 10:45:39,196.11,0.062%,
280,2025-01-19 12:17:13,2025-01-19 12:20:19,186.258,0.059%,
281,2025-01-19 13:51:55,2025-01-19 13:55:03,188.673,0.060%,
282,2025-01-19 15:26:41,2025-01-19 15:29:56,195.738,0.062%,
283,2025-01-19 17:01:25,2025-01-19 17:04:27,182.147,0.058%,
284,2025-01-19 18:36:09,2025-01-19 18:39:21,192.157,0.061%,
285,2025-01-19 20:10:58,2025-01-19 20:14:00,182.254,0.058%,
286,2025-01-19 21:45:35,2025-01-19 21:48:45,189.817,0.060%,
287,2025-01-19 23:20:29,2025-01-19 23:23:38,188.516,0.060%,
288,2025-01-20 00:55:06,2025-01-20 00:58:08,181.558,0.058%,
289,2025-01-20 02:30:01,2025-01-20 02:33:02,181.407,0.058%,
290,2025-01-20 04:04:38,2025-01-20 04:07:41,183.276,0.058%,
291,2025-01-20 05:39:30,2025-01-20 05:42:26,176.186,0.056%,
292,2025-01-20 07:14:09,2025-01-20 07:17:19,189.806,0.060%,
293,2025-01-20 08:48:46,2025-01-20 08:51:49,182.569,0.058%,
294,2025-01-20 10:23:41,2025-01-20 10:26:43,182.642,0.058%,
295,2025-01-20 11:58:18,2025-01-20 12:01:22,184.277,0.058%,
296,2025-01-20 13:33:09,2025-01-20 13:36:07,178.17,0.057%,
297,2025-01-20 15:07:49,2025-01-20 15:11:00,191.086,0.061%,
298,2025-01-20 16:42:27,2025-01-20 16:45:41,194.073,0.062%,
299,2025-01-20 18:17:21,2025-01-20 18:20:25,183.864,0.058%,
300,2025-01-20 19:51:58,2025-01-20 19:55:03,185.256,0.059%,
301,2025-01-20 21:26:51,2025-01-20 21:29:48,177.286,0.056%,
302,2025-01-20 23:01:29,2025-01-20 23:04:42,192.35,0.061%,
303,2025-01-21 00:36:19,2025-01-21 00:39:22,182.724,0.058%,
304,2025-01-21 02:11:01,2025-01-21 02:14:06,185.072,0.059%,
305,2025-01-21 03:45:38,2025-01-21 03:48:44,186.21,0.059%,
306,2025-01-21 05:20:31,2025-01-21 05:23:30,178.538,0.057%,
307,2025-01-21 06:55:10,2025-01-21 06:58:23,193.604,0.061%,
308,2025-01-21 08:29:59,2025-01-21 08:33:03,183.94,0.058%,
309,2025-01-21 10:04:41,2025-01-21 10:07:47,186.269,0.059%,
310,2025-01-21 11:39:27,2025-01-21 11:42:25,178.333,0.057%,
311,2025-01-21 13:14:11,2025-01-21 13:17:11,179.753,0.057%,
312,2025-01-21 14:48:50,2025-01-21 14:52:05,194.842,0.062%,
313,2025-01-21 16:23:39,2025-01-21 16:26:44,185.11,0.059%,
314,2025-01-21 17:58:21,2025-01-21 18:01:29,187.45,0.059%,
315,2025-01-21 19:33:07,2025-01-21 19:36:06,179.373,0.057%,
316,2025-01-21 21:07:51,2025-01-21 21:10:52,180.924,0.057%,
317,2025-01-21 22:42:30,2025-01-21 22:45:46,196.062,0.062%,
318,2025-01-22 00:17:19,2025-01-22 00:20:25,186.234,0.059%,
319,2025-01-22 01:52:01,2025-01-22 01:55:10,188.611,0.060%,
320,2025-01-22 03:26:47,2025-01-22 03:29:47,180.363,0.057%,
321,2025-01-22 05:01:31,2025-01-22 05:04:33,182.044,0.058%,
322,2025-01-22 06:36:15,2025-01-22 06:39:27,192.089,0.061%,
323,2025-01-22 08:10:59,2025-01-22 08:14:06,187.312,0.059%,
324,2025-01-22 09:45:41,2025-01-22 09:48:51,189.752,0.060%,
325,2025-01-22 11:20:36,2025-01-22 11:23:29,172.785,0.055%,
326,2025-01-22 11:23:37,2025-01-22 11:23:44,7.631,0.002%,
327,2025-01-22 12:55:13,2025-01-22 12:58:14,181.468,0.058%,
328,2025-01-22 14:30:07,2025-01-22 14:33:09,181.357,0.058%,
329,2025-01-22 16:04:44,2025-01-22 16:07:48,183.27,0.058%,
330,2025-01-22 17:39:22,2025-01-22 17:39:22,0.639,0.000%,
331,2025-01-22 17:39:36,2025-01-22 17:42:32,176.209,0.056%,
332,2025-01-22 19:14:16,2025-01-22 19:17:26,189.767,0.060%,
333,2025-01-22 20:48:53,2025-01-22 20:51:55,182.474,0.058%,
334,2025-01-22 22:23:47,2025-01-22 22:26:50,182.59,0.058%,
335,2025-01-22 23:58:24,2025-01-23 00:01:29,184.269,0.058%,
336,2025-01-23 01:33:16,2025-01-23 01:36:14,178.168,0.057%,
337,2025-01-23 03:07:56,2025-01-23 03:11:07,191.044,0.061%,
338,2025-01-23 04:42:33,2025-01-23 04:45:47,194.074,0.062%,
339,2025-01-23 06:17:27,2025-01-23 06:20:31,183.811,0.058%,
340,2025-01-23 07:52:05,2025-01-23 07:55:10,185.244,0.059%,
341,2025-01-23 09:26:58,2025-01-23 09:29:55,177.197,0.056%,
342,2025-01-23 11:01:36,2025-01-23 11:04:48,192.307,0.061%,
343,2025-01-23 12:36:26,2025-01-23 12:39:28,182.709,0.058%,
344,2025-01-23 14:11:08,2025-01-23 14:14:13,185.018,0.059%,
345,2025-01-23 15:45:45,2025-01-23 15:48:51,186.2,0.059%,
346,2025-01-23 17:20:38,2025-01-23 17:23:36,178.447,0.057%,
347,2025-01-23 18:55:16,2025-01-23 18:58:30,193.56,0.061%,
348,2025-01-23 20:30:06,2025-01-23 20:33:10,183.922,0.058%,
349,2025-01-23 22:04:48,2025-01-23 22:07:54,186.21,0.059%,
350,2025-01-23 23:39:25,2025-01-23 23:42:32,187.128,0.059%,
351,2025-01-24 01:14:18,2025-01-24 01:17:17,179.658,0.057%,
352,2025-01-24 02:48:56,2025-01-24 02:52:11,194.795,0.062%,
353,2025-01-24 04:23:46,2025-01-24 04:26:51,185.091,0.059%,
354,2025-01-24 05:58:28,2025-01-24 06:01:35,187.389,0.059%,
355,2025-01-24 07:33:14,2025-01-24 07:36:13,179.342,0.057%,
356,2025-01-24 09:07:58,2025-01-24 09:10:59,180.824,0.057%,
357,2025-01-24 10:42:36,2025-01-24 10:45:52,196.013,0.062%,
358,2025-01-24 12:17:26,2025-01-24 12:20:32,186.212,0.059%,
359,2025-01-24 13:52:08,2025-01-24 13:55:16,188.547,0.060%,
360,2025-01-24 15:26:54,2025-01-24 15:29:54,180.33,0.057%,
361,2025-01-24 17:01:38,2025-01-24 17:04:40,181.939,0.058%,
362,2025-01-24 18:36:22,2025-01-24 18:39:34,192.021,0.061%,
363,2025-01-24 20:11:06,2025-01-24 20:14:13,187.288,0.059%,
364,2025-01-24 21:45:48,2025-01-24 21:48:58,189.688,0.060%,
365,2025-01-24 23:20:42,2025-01-24 23:23:35,172.769,0.055%,
366,2025-01-25 00:55:19,2025-01-25 00:58:21,181.377,0.058%,
367,2025-01-25 02:30:14,2025-01-25 02:33:15,181.306,0.058%,
368,2025-01-25 04:04:51,2025-01-25 04:07:54,183.263,0.058%,
369,2025-01-25 05:39:28,2025-01-25 05:42:39,190.804,0.061%,
370,2025-01-25 07:14:22,2025-01-25 07:17:16,173.676,0.055%,
371,2025-01-25 07:17:27,2025-01-25 07:17:32,5.495,0.002%,
372,2025-01-25 08:49:00,2025-01-25 08:52:02,182.377,0.058%,
373,2025-01-25 10:23:54,2025-01-25 10:26:56,182.537,0.058%,
374,2025-01-25 11:58:31,2025-01-25 12:01:35,184.261,0.058%,
375,2025-01-25 13:33:22,2025-01-25 13:36:20,178.164,0.057%,
376,2025-01-25 15:08:03,2025-01-25 15:11:14,191.002,0.061%,
377,2025-01-25 16:42:40,2025-01-25 16:45:43,183.337,0.058%,
378,2025-01-25 18:17:34,2025-01-25 18:20:38,183.756,0.058%,
379,2025-01-25 19:52:11,2025-01-25 19:55:16,185.235,0.059%,
380,2025-01-25 21:27:04,2025-01-25 21:30:01,177.108,0.056%,
381,2025-01-25 23:01:43,2025-01-25 23:04:55,192.264,0.061%,
382,2025-01-26 00:36:32,2025-01-26 00:39:35,182.693,0.058%,
383,2025-01-26 02:11:14,2025-01-26 02:14:19,184.96,0.059%,
384,2025-01-26 03:45:51,2025-01-26 03:48:57,186.186,0.059%,
385,2025-01-26 05:20:44,2025-01-26 05:23:43,178.354,0.057%,
386,2025-01-26 06:55:23,2025-01-26 06:58:36,193.514,0.061%,
387,2025-01-26 08:30:12,2025-01-26 08:33:16,183.905,0.058%,
388,2025-01-26 10:04:54,2025-01-26 10:08:00,186.15,0.059%,
389,2025-01-26 11:39:31,2025-01-26 11:42:39,187.115,0.059%,
390,2025-01-26 13:14:24,2025-01-26 13:17:24,179.561,0.057%,
391,2025-01-26 14:49:03,2025-01-26 14:52:18,194.748,0.062%,
392,2025-01-26 16:23:52,2025-01-26 16:26:57,185.071,0.059%,
393,2025-01-26 17:58:34,2025-01-26 18:01:42,187.327,0.059%,
394,2025-01-26 19:33:20,2025-01-26 19:36:20,179.307,0.057%,
395,2025-01-26 21:08:04,2025-01-26 21:11:05,180.723,0.057%,
396,2025-01-26 22:42:43,2025-01-26 22:45:59,195.964,0.062%,
397,2025-01-27 00:17:32,2025-01-27 00:20:39,186.19,0.059%,
398,2025-01-27 01:52:14,2025-01-27 01:55:23,188.483,0.060%,
399,2025-01-27 03:27:00,2025-01-27 03:30:01,180.296,0.057%,
400,2025-01-27 05:01:44,2025-01-27 05:04:46,181.833,0.058%,
401,2025-01-27 06:36:28,2025-01-27 06:39:40,191.953,0.061%,
402,2025-01-27 08:11:12,2025-01-27 08:14:20,187.264,0.059%,
403,2025-01-27 09:45:55,2025-01-27 09:49:04,189.621,0.060%,
404,2025-01-27 11:20:49,2025-01-27 11:23:42,172.753,0.055%,
405,2025-01-27 12:55:26,2025-01-27 12:58:27,181.284,0.058%,
406,2025-01-27 14:30:20,2025-01-27 14:33:22,181.254,0.058%,
407,2025-01-27 16:04:58,2025-01-27 16:08:01,183.256,0.058%,
408,2025-01-27 17:39:35,2025-01-27 17:42:45,190.735,0.061%,
409,2025-01-27 19:14:29,2025-01-27 19:17:23,173.657,0.055%,
410,2025-01-27 20:49:06,2025-01-27 20:52:08,182.28,0.058%,
411,2025-01-27 22:24:01,2025-01-27 22:27:03,182.484,0.058%,
412,2025-01-27 23:58:38,2025-01-28 00:01:42,184.25,0.058%,
413,2025-01-28 01:33:29,2025-01-28 01:36:27,178.161,0.057%,
414,2025-01-28 03:08:09,2025-01-28 03:11:04,174.54,0.055%,
415,2025-01-28 03:11:10,2025-01-28 03:11:20,9.624,0.003%,
416,2025-01-28 04:42:46,2025-01-28 04:45:50,183.234,0.058%,
417,2025-01-28 06:17:41,2025-01-28 06:20:44,183.698,0.058%,
418,2025-01-28 07:52:18,2025-01-28 07:55:23,185.224,0.059%,
419,2025-01-28 09:27:08,2025-01-28 09:30:08,179.822,0.057%,
420,2025-01-28 11:01:49,2025-01-28 11:05:01,192.22,0.061%,
421,2025-01-28 12:36:39,2025-01-28 12:39:42,182.678,0.058%,
422,2025-01-28 14:11:21,2025-01-28 14:14:26,184.903,0.059%,
423,2025-01-28 15:45:58,2025-01-28 15:49:04,186.174,0.059%,
424,2025-01-28 17:20:51,2025-01-28 17:23:49,178.261,0.057%,
425,2025-01-28 18:55:29,2025-01-28 18:58:43,193.469,0.061%,
426,2025-01-28 20:30:19,2025-01-28 20:33:23,183.887,0.058%,
427,2025-01-28 22:05:01,2025-01-28 22:08:07,186.091,0.059%,
428,2025-01-28 23:39:38,2025-01-28 23:42:45,187.101,0.059%,
429,2025-01-29 01:14:31,2025-01-29 01:17:30,179.464,0.057%,
430,2025-01-29 02:49:09,2025-01-29 02:52:24,194.7,0.062%,
431,2025-01-29 04:23:59,2025-01-29 04:27:04,185.052,0.059%,
432,2025-01-29 05:58:41,2025-01-29 06:01:48,187.265,0.059%,
433,2025-01-29 07:33:27,2025-01-29 07:36:26,179.275,0.057%,
434,2025-01-29 09:08:11,2025-01-29 09:11:12,180.621,0.057%,
435,2025-01-29 10:42:50,2025-01-29 10:46:06,195.915,0.062%,
436,2025-01-29 12:17:39,2025-01-29 12:20:45,186.169,0.059%,
437,2025-01-29 13:52:21,2025-01-29 13:55:29,188.419,0.060%,
438,2025-01-29 15:27:07,2025-01-29 15:30:07,180.263,0.057%,
439,2025-01-29 17:01:51,2025-01-29 17:04:53,181.727,0.058%,
440,2025-01-29 18:36:35,2025-01-29 18:39:47,191.884,0.061%,
441,2025-01-29 20:11:19,2025-01-29 20:14:26,187.24,0.059%,
442,2025-01-29 21:46:01,2025-01-29 21:49:11,189.554,0.060%,
443,2025-01-29 23:20:47,2025-01-29 23:23:48,181.199,0.058%,
444,2025-01-30 00:55:33,2025-01-30 00:58:34,181.194,0.058%,
445,2025-01-30 02:30:27,2025-01-30 02:33:28,181.203,0.058%,
446,2025-01-30 04:05:04,2025-01-30 04:08:07,183.25,0.058%,
447,2025-01-30 05:39:41,2025-01-30 05:42:52,190.664,0.061%,
448,2025-01-30 07:14:36,2025-01-30 07:17:29,173.64,0.055%,
449,2025-01-30 08:49:13,2025-01-30 08:52:15,182.182,0.058%,
450,2025-01-30 10:24:07,2025-01-30 10:27:10,182.431,0.058%,
451,2025-01-30 11:58:44,2025-01-30 12:01:48,184.242,0.058%,
452,2025-01-30 13:33:35,2025-01-30 13:36:33,178.158,0.057%,
453,2025-01-30 15:08:16,2025-01-30 15:11:10,174.521,0.055%,
454,2025-01-30 16:42:53,2025-01-30 16:45:56,183.134,0.058%,
455,2025-01-30 18:17:47,2025-01-30 18:20:51,183.644,0.058%,
456,2025-01-30 19:52:24,2025-01-30 19:55:30,185.216,0.059%,
457,2025-01-30 21:27:15,2025-01-30 21:30:14,179.808,0.057%,
458,2025-01-30 23:01:56,2025-01-30 23:05:08,192.177,0.061%,
459,2025-01-31 00:36:46,2025-01-31 00:39:37,171.576,0.054%,
460,2025-01-31 00:39:38,2025-01-31 00:39:48,10.489,0.003%,
461,2025-01-31 02:11:27,2025-01-31 02:14:32,184.846,0.059%,
462,2025-01-31 03:46:04,2025-01-31 03:49:11,186.163,0.059%,
463,2025-01-31 05:20:58,2025-01-31 05:23:56,178.168,0.057%,
464,2025-01-31 06:55:36,2025-01-31 06:58:49,193.423,0.061%,
465,2025-01-31 08:30:26,2025-01-31 08:33:29,183.87,0.058%,
466,2025-01-31 10:05:07,2025-01-31 10:08:13,186.034,0.059%,
467,2025-01-31 11:39:45,2025-01-31 11:42:52,187.087,0.059%,
468,2025-01-31 13:14:38,2025-01-31 13:17:37,179.367,0.057%,
469,2025-01-31 14:49:16,2025-01-31 14:52:31,194.653,0.062%,
470,2025-01-31 16:24:06,2025-01-31 16:27:11,185.032,0.059%,
471,2025-01-31 17:58:48,2025-01-31 18:01:55,187.204,0.059%,
472,2025-01-31 19:33:34,2025-01-31 19:36:33,179.244,0.057%,
473,2025-01-31 21:08:18,2025-01-31 21:11:18,180.52,0.057%,
474,2025-01-31 22:42:56,2025-01-31 22:46:12,195.865,0.062%,
475,2025-02-01 00:17:46,2025-02-01 00:20:52,186.147,0.059%,
476,2025-02-01 01:52:28,2025-02-01 01:55:36,188.355,0.060%,
477,2025-02-01 03:27:14,2025-02-01 03:30:14,180.23,0.057%,
478,2025-02-01 05:01:58,2025-02-01 05:04:59,181.621,0.058%,
479,2025-02-01 06:36:36,2025-02-01 06:36:38,1.491,0.001%,
480,2025-02-01 06:36:42,2025-02-01 06:39:53,191.816,0.061%,
481,2025-02-01 08:11:26,2025-02-01 08:14:33,187.215,0.059%,
482,2025-02-01 09:46:08,2025-02-01 09:49:17,189.488,0.060%,
483,2025-02-01 11:20:54,2025-02-01 11:23:55,181.163,0.057%,
484,2025-02-01 12:55:39,2025-02-01 12:58:40,181.101,0.057%,
485,2025-02-01 14:30:34,2025-02-01 14:33:35,181.152,0.057%,
486,2025-02-01 16:05:11,2025-02-01 16:08:14,183.243,0.058%,
487,2025-02-01 17:39:48,2025-02-01 17:42:59,190.596,0.060%,
488,2025-02-01 19:14:42,2025-02-01 19:17:36,173.622,0.055%,
489,2025-02-01 20:49:19,2025-02-01 20:52:21,182.084,0.058%,
490,2025-02-01 22:24:14,2025-02-01 22:27:16,182.379,0.058%,
491,2025-02-01 23:58:51,2025-02-02 00:01:55,184.235,0.058%,
492,2025-02-02 01:33:42,2025-02-02 01:36:40,178.155,0.057%,
493,2025-02-02 03:08:22,2025-02-02 03:11:17,174.501,0.055%,
494,2025-02-02 04:43:00,2025-02-02 04:46:03,183.03,0.058%,
495,2025-02-02 06:17:54,2025-02-02 06:20:57,183.588,0.058%,
496,2025-02-02 07:52:31,2025-02-02 07:55:36,185.207,0.059%,
497,2025-02-02 09:27:21,2025-02-02 09:30:21,179.791,0.057%,
498,2025-02-02 11:02:02,2025-02-02 11:04:58,175.359,0.056%,
499,2025-02-02 11:05:08,2025-02-02 11:05:15,6.781,0.002%,
500,2025-02-02 12:36:40,2025-02-02 12:36:47,7.456,0.002%,
501,2025-02-02 12:36:52,2025-02-02 12:39:44,171.451,0.054%,
502,2025-02-02 14:11:34,2025-02-02 14:14:39,184.789,0.059%,
503,2025-02-02 15:46:11,2025-02-02 15:49:17,186.15,0.059%,
504,2025-02-02 17:21:04,2025-02-02 17:24:02,178.075,0.057%,
505,2025-02-02 18:55:43,2025-02-02 18:58:56,193.378,0.061%,
506,2025-02-02 20:30:32,2025-02-02 20:33:36,183.852,0.058%,
507,2025-02-02 22:05:14,2025-02-02 22:08:20,185.975,0.059%,
508,2025-02-02 23:39:51,2025-02-02 23:42:58,187.074,0.059%,
509,2025-02-03 01:14:44,2025-02-03 01:17:43,179.27,0.057%,
510,2025-02-03 02:49:23,2025-02-03 02:52:37,194.606,0.062%,
511,2025-02-03 04:24:12,2025-02-03 04:27:17,185.012,0.059%,
512,2025-02-03 05:58:54,2025-02-03 06:02:01,187.142,0.059%,
513,2025-02-03 07:33:40,2025-02-03 07:36:39,179.213,0.057%,
514,2025-02-03 09:08:24,2025-02-03 09:11:25,180.418,0.057%,
515,2025-02-03 10:43:03,2025-02-03 10:46:19,195.816,0.062%,
516,2025-02-03 12:17:52,2025-02-03 12:20:58,186.124,0.059%,
517,2025-02-03 13:52:34,2025-02-03 13:55:43,188.29,0.060%,
518,2025-02-03 15:27:20,2025-02-03 15:30:20,180.194,0.057%,
519,2025-02-03 17:02:04,2025-02-03 17:05:06,181.513,0.058%,
520,2025-02-03 18:36:43,2025-02-03 18:40:00,197.007,0.063%,
521,2025-02-03 20:11:32,2025-02-03 20:14:39,187.191,0.059%,
522,2025-02-03 21:46:14,2025-02-03 21:49:24,189.42,0.060%,
523,2025-02-03 23:21:00,2025-02-03 23:24:01,181.127,0.057%,
524,2025-02-04 00:55:46,2025-02-04 00:58:47,181.007,0.057%,
525,2025-02-04 02:30:40,2025-02-04 02:33:41,181.101,0.057%,
526,2025-02-04 04:05:17,2025-02-04 04:08:21,183.236,0.058%,
527,2025-02-04 05:39:55,2025-02-04 05:43:05,190.526,0.060%,
528,2025-02-04 07:14:49,2025-02-04 07:17:42,173.604,0.055%,
529,2025-02-04 08:49:26,2025-02-04 08:52:28,181.98,0.058%,
530,2025-02-04 10:24:20,2025-02-04 10:27:23,182.325,0.058%,
531,2025-02-04 11:58:57,2025-02-04 12:02:02,184.226,0.058%,
532,2025-02-04 13:33:48,2025-02-04 13:36:46,178.149,0.057%,
533,2025-02-04 15:08:29,2025-02-04 15:11:23,174.481,0.055%,
534,2025-02-04 16:43:06,2025-02-04 16:46:09,182.919,0.058%,
535,2025-02-04 18:18:00,2025-02-04 18:21:04,183.534,0.058%,
536,2025-02-04 19:52:38,2025-02-04 19:55:43,185.197,0.059%,
537,2025-02-04 21:27:28,2025-02-04 21:30:27,179.771,0.057%,
538,2025-02-04 23:02:09,2025-02-04 23:05:04,175.338,0.056%,
539,2025-02-05 00:36:46,2025-02-05 00:39:50,183.815,0.058%,
540,2025-02-05 02:11:40,2025-02-05 02:14:45,184.73,0.059%,
541,2025-02-05 03:46:18,2025-02-05 03:49:24,186.139,0.059%,
542,2025-02-05 05:21:11,2025-02-05 05:24:09,177.98,0.056%,
543,2025-02-05 06:55:49,2025-02-05 06:59:02,193.331,0.061%,
544,2025-02-05 08:30:39,2025-02-05 08:33:43,183.834,0.058%,
545,2025-02-05 10:05:21,2025-02-05 10:08:27,185.914,0.059%,
546,2025-02-05 11:39:58,2025-02-05 11:43:05,187.06,0.059%,
547,2025-02-05 13:14:51,2025-02-05 13:17:50,179.17,0.057%,
548,2025-02-05 14:49:29,2025-02-05 14:52:44,194.557,0.062%,
549,2025-02-05 16:24:19,2025-02-05 16:27:24,184.992,0.059%,
550,2025-02-05 17:59:01,2025-02-05 18:02:08,187.079,0.059%,
551,2025-02-05 19:33:47,2025-02-05 19:36:46,179.182,0.057%,
552,2025-02-05 21:08:31,2025-02-05 21:11:31,180.314,0.057%,
553,2025-02-05 22:43:09,2025-02-05 22:46:25,195.765,0.062%,
554,2025-02-06 00:17:59,2025-02-06 00:21:05,186.102,0.059%,
555,2025-02-06 01:52:41,2025-02-06 01:55:49,188.226,0.060%,
556,2025-02-06 03:27:27,2025-02-06 03:30:27,180.161,0.057%,
557,2025-02-06 05:02:11,2025-02-06 05:05:12,181.404,0.058%,
558,2025-02-06 06:36:50,2025-02-06 06:40:06,196.954,0.063%,
559,2025-02-06 08:11:39,2025-02-06 08:14:46,187.166,0.059%,
560,2025-02-06 09:46:21,2025-02-06 09:49:30,189.351,0.060%,
561,2025-02-06 11:21:07,2025-02-06 11:24:08,181.09,0.057%,
562,2025-02-06 12:55:52,2025-02-06 12:58:53,180.91,0.057%,
563,2025-02-06 14:30:47,2025-02-06 14:33:48,181.048,0.057%,
564,2025-02-06 16:05:24,2025-02-06 16:08:27,183.227,0.058%,
565,2025-02-06 17:40:01,2025-02-06 17:43:12,190.453,0.060%,
566,2025-02-06 19:14:55,2025-02-06 19:17:49,173.585,0.055%,
567,2025-02-06 20:49:33,2025-02-06 20:52:34,181.877,0.058%,
568,2025-02-06 22:24:27,2025-02-06 22:27:29,182.27,0.058%,
569,2025-02-06 23:59:04,2025-02-07 00:02:08,184.217,0.058%,
570,2025-02-07 01:33:55,2025-02-07 01:36:53,178.138,0.057%,
571,2025-02-07 03:08:35,2025-02-07 03:11:30,174.461,0.055%,
572,2025-02-07 04:43:13,2025-02-07 04:46:15,182.809,0.058%,
573,2025-02-07 06:18:07,2025-02-07 06:21:10,183.477,0.058%,
574,2025-02-07 07:52:44,2025-02-07 07:55:49,185.186,0.059%,
575,2025-02-07 09:27:34,2025-02-07 09:30:34,179.749,0.057%,
576,2025-02-07 11:02:16,2025-02-07 11:05:11,175.315,0.056%,
577,2025-02-07 12:36:53,2025-02-07 12:39:57,183.698,0.058%,
578,2025-02-07 14:11:47,2025-02-07 14:14:52,184.671,0.059%,
579,2025-02-07 15:46:24,2025-02-07 15:49:30,186.126,0.059%,
580,2025-02-07 17:21:17,2025-02-07 17:24:15,177.884,0.056%,
581,2025-02-07 18:55:56,2025-02-07 18:59:09,193.284,0.061%,
582,2025-02-07 20:30:45,2025-02-07 20:33:49,183.816,0.058%,
583,2025-02-07 22:05:27,2025-02-07 22:08:33,185.852,0.059%,
584,2025-02-07 23:40:04,2025-02-07 23:43:11,187.045,0.059%,
585,2025-02-08 01:14:57,2025-02-08 01:17:56,179.07,0.057%,
586,2025-02-08 02:49:36,2025-02-08 02:52:50,194.508,0.062%,
587,2025-02-08 04:24:25,2025-02-08 04:27:30,184.969,0.059%,
588,2025-02-08 05:59:07,2025-02-08 06:02:14,187.014,0.059%,
589,2025-02-08 07:33:53,2025-02-08 07:36:52,179.15,0.057%,
590,2025-02-08 09:08:37,2025-02-08 09:11:38,180.208,0.057%,
591,2025-02-08 10:43:16,2025-02-08 10:46:32,195.713,0.062%,
592,2025-02-08 12:18:05,2025-02-08 12:21:11,186.079,0.059%,
593,2025-02-08 13:52:47,2025-02-08 13:55:56,188.159,0.060%,
594,2025-02-08 15:27:33,2025-02-08 15:30:34,180.127,0.057%,
595,2025-02-08 17:02:17,2025-02-08 17:05:19,181.293,0.058%,
596,2025-02-08 18:36:56,2025-02-08 18:40:13,196.9,0.062%,
597,2025-02-08 20:11:45,2025-02-08 20:14:53,187.141,0.059%,
598,2025-02-08 21:46:28,2025-02-08 21:49:37,189.28,0.060%,
599,2025-02-08 23:21:13,2025-02-08 23:24:15,181.053,0.057%,
600,2025-02-09 00:55:59,2025-02-09 00:59:00,180.812,0.057%,
601,2025-02-09 02:30:53,2025-02-09 02:33:54,180.994,0.057%,
602,2025-02-09 04:05:30,2025-02-09 04:08:34,183.219,0.058%,
603,2025-02-09 05:40:08,2025-02-09 05:43:18,190.382,0.060%,
604,2025-02-09 07:15:02,2025-02-09 07:17:56,173.566,0.055%,
605,2025-02-09 08:49:39,2025-02-09 08:52:41,181.773,0.058%,
606,2025-02-09 10:24:33,2025-02-09 10:27:36,182.212,0.058%,
607,2025-02-09 11:59:11,2025-02-09 12:02:15,184.206,0.058%,
608,2025-02-09 13:34:01,2025-02-09 13:36:59,178.123,0.057%,
609,2025-02-09 15:08:42,2025-02-09 15:11:37,174.44,0.055%,
610,2025-02-09 16:43:19,2025-02-09 16:46:22,182.701,0.058%,
611,2025-02-09 18:18:14,2025-02-09 18:21:17,183.419,0.058%,
612,2025-02-09 19:52:51,2025-02-09 19:55:56,185.173,0.059%,
613,2025-02-09 21:27:41,2025-02-09 21:30:41,179.72,0.057%,
614,2025-02-09 23:02:22,2025-02-09 23:05:17,175.293,0.056%,
615,2025-02-10 00:36:59,2025-02-10 00:40:03,183.58,0.058%,
616,2025-02-10 02:11:54,2025-02-10 02:14:58,184.611,0.059%,
617,2025-02-10 03:46:31,2025-02-10 03:49:37,186.114,0.059%,
618,2025-02-10 05:21:24,2025-02-10 05:24:22,177.787,0.056%,
619,2025-02-10 06:56:02,2025-02-10 06:59:16,193.236,0.061%,
620,2025-02-10 08:30:52,2025-02-10 08:33:56,183.797,0.058%,
621,2025-02-10 10:05:34,2025-02-10 10:08:40,185.79,0.059%,
622,2025-02-10 11:40:11,2025-02-10 11:43:18,187.03,0.059%,
623,2025-02-10 13:15:04,2025-02-10 13:18:03,178.969,0.057%,
624,2025-02-10 14:49:42,2025-02-10 14:52:57,194.458,0.062%,
625,2025-02-10 16:24:32,2025-02-10 16:27:37,184.948,0.059%,
626,2025-02-10 17:59:14,2025-02-10 18:02:21,186.95,0.059%,
627,2025-02-10 19:34:00,2025-02-10 19:36:59,179.118,0.057%,
628,2025-02-10 21:08:44,2025-02-10 21:11:44,180.102,0.057%,
629,2025-02-10 22:43:23,2025-02-10 22:46:38,195.662,0.062%,
630,2025-02-11 00:18:12,2025-02-11 00:21:18,186.057,0.059%,
631,2025-02-11 01:52:54,2025-02-11 01:56:02,188.092,0.060%,
632,2025-02-11 03:27:40,2025-02-11 03:30:40,180.093,0.057%,
633,2025-02-11 05:02:24,2025-02-11 05:05:25,181.183,0.058%,
634,2025-02-11 06:37:03,2025-02-11 06:40:20,196.846,0.062%,
635,2025-02-11 08:11:52,2025-02-11 08:14:59,187.116,0.059%,
636,2025-02-11 09:46:34,2025-02-11 09:49:43,189.211,0.060%,
637,2025-02-11 11:21:20,2025-02-11 11:24:21,181.016,0.057%,
638,2025-02-11 12:56:06,2025-02-11 12:59:06,180.714,0.057%,
639,2025-02-11 14:31:00,2025-02-11 14:34:01,180.94,0.057%,
640,2025-02-11 16:05:37,2025-02-11 16:08:40,183.211,0.058%,
641,2025-02-11 17:40:14,2025-02-11 17:43:25,190.308,0.060%,
642,2025-02-11 19:15:09,2025-02-11 19:18:02,173.547,0.055%,
643,2025-02-11 20:49:46,2025-02-11 20:52:47,181.669,0.058%,
644,2025-02-11 22:24:40,2025-02-11 22:27:42,182.156,0.058%,
645,2025-02-11 23:59:17,2025-02-12 00:02:21,184.198,0.058%,
646,2025-02-12 01:34:08,2025-02-12 01:37:06,178.112,0.057%,
647,2025-02-12 03:08:49,2025-02-12 03:11:43,174.42,0.055%,
648,2025-02-12 04:43:26,2025-02-12 04:46:28,182.588,0.058%,
649,2025-02-12 06:18:20,2025-02-12 06:21:24,183.362,0.058%,
650,2025-02-12 07:52:57,2025-02-12 07:56:02,185.163,0.059%,
651,2025-02-12 09:27:47,2025-02-12 09:30:47,179.699,0.057%,
652,2025-02-12 11:02:29,2025-02-12 11:05:24,175.271,0.056%,
653,2025-02-12 11:05:36,2025-02-12 11:05:41,4.458,0.001%,
654,2025-02-12 12:37:06,2025-02-12 12:37:15,9.072,0.003%,
655,2025-02-12 12:37:19,2025-02-12 12:40:09,170.926,0.054%,
656,2025-02-12 14:12:00,2025-02-12 14:15:05,184.554,0.059%,
657,2025-02-12 15:46:37,2025-02-12 15:49:44,186.103,0.059%,
658,2025-02-12 17:21:31,2025-02-12 17:24:28,177.69,0.056%,
659,2025-02-12 18:56:09,2025-02-12 18:59:22,193.189,0.061%,
660,2025-02-12 20:30:59,2025-02-12 20:34:02,183.779,0.058%,
661,2025-02-12 22:05:40,2025-02-12 22:08:46,185.728,0.059%,
662,2025-02-12 23:40:18,2025-02-12 23:43:25,187.014,0.059%,
663,2025-02-13 01:15:11,2025-02-13 01:18:09,178.867,0.057%,
664,2025-02-13 02:49:49,2025-02-13 02:53:03,194.409,0.062%,
665,2025-02-13 04:24:39,2025-02-13 04:27:43,184.928,0.059%,
666,2025-02-13 05:59:20,2025-02-13 06:02:27,186.885,0.059%,
667,2025-02-13 07:34:07,2025-02-13 07:37:06,179.086,0.057%,
668,2025-02-13 09:08:51,2025-02-13 09:11:51,179.996,0.057%,
669,2025-02-13 10:43:29,2025-02-13 10:46:45,195.611,0.062%,
670,2025-02-13 12:18:19,2025-02-13 12:21:25,186.034,0.059%,
671,2025-02-13 13:53:01,2025-02-13 13:56:09,188.025,0.060%,
672,2025-02-13 15:27:47,2025-02-13 15:30:47,180.059,0.057%,
673,2025-02-13 17:02:31,2025-02-13 17:05:32,181.072,0.057%,
674,2025-02-13 18:37:09,2025-02-13 18:37:13,3.766,0.001%,
675,2025-02-13 18:37:15,2025-02-13 18:40:26,191.464,0.061%,
676,2025-02-13 20:11:59,2025-02-13 20:15:06,187.091,0.059%,
677,2025-02-13 21:46:41,2025-02-13 21:49:50,189.143,0.060%,
678,2025-02-13 23:21:27,2025-02-13 23:24:28,180.979,0.057%,
679,2025-02-14 00:56:12,2025-02-14 00:59:13,180.616,0.057%,
680,2025-02-14 02:31:07,2025-02-14 02:34:07,180.888,0.057%,
681,2025-02-14 04:05:44,2025-02-14 04:08:47,183.204,0.058%,
682,2025-02-14 05:40:21,2025-02-14 05:43:31,190.237,0.060%,
683,2025-02-14 07:15:15,2025-02-14 07:18:09,173.528,0.055%,
684,2025-02-14 08:49:52,2025-02-14 08:52:54,181.565,0.058%,
685,2025-02-14 10:24:47,2025-02-14 10:27:49,182.101,0.058%,
686,2025-02-14 11:59:24,2025-02-14 12:02:28,184.19,0.058%,
687,2025-02-14 13:34:14,2025-02-14 13:37:12,178.101,0.057%,
688,2025-02-14 15:08:55,2025-02-14 15:11:50,174.399,0.055%,
689,2025-02-14 16:43:32,2025-02-14 16:46:35,182.477,0.058%,
690,2025-02-14 18:18:27,2025-02-14 18:21:30,183.304,0.058%,
691,2025-02-14 19:53:04,2025-02-14 19:56:09,185.153,0.059%,
692,2025-02-14 21:27:54,2025-02-14 21:30:54,179.678,0.057%,
693,2025-02-14 23:02:35,2025-02-14 23:05:31,175.249,0.056%,
694,2025-02-14 23:05:31,2025-02-14 23:05:47,16.06,0.005%,
695,2025-02-15 00:37:25,2025-02-15 00:40:16,170.792,0.054%,
696,2025-02-15 00:40:20,2025-02-15 00:40:28,7.426,0.002%,
697,2025-02-15 02:12:07,2025-02-15 02:15:11,184.494,0.059%,
698,2025-02-15 03:46:44,2025-02-15 03:49:50,186.09,0.059%,
699,2025-02-15 05:21:37,2025-02-15 05:24:35,177.593,0.056%,
700,2025-02-15 06:56:15,2025-02-15 06:59:29,193.141,0.061%,
701,2025-02-15 08:31:05,2025-02-15 08:34:09,183.76,0.058%,
702,2025-02-15 10:05:47,2025-02-15 10:08:53,185.666,0.059%,
703,2025-02-15 11:40:24,2025-02-15 11:43:31,186.997,0.059%,
704,2025-02-15 13:15:17,2025-02-15 13:18:16,178.766,0.057%,
705,2025-02-15 14:49:56,2025-02-15 14:53:10,194.36,0.062%,
706,2025-02-15 16:24:45,2025-02-15 16:27:50,184.907,0.059%,
707,2025-02-15 17:59:27,2025-02-15 18:02:34,186.821,0.059%,
708,2025-02-15 19:34:13,2025-02-15 19:37:12,179.054,0.057%,
709,2025-02-15 21:08:57,2025-02-15 21:11:57,179.889,0.057%,
710,2025-02-15 22:43:36,2025-02-15 22:46:51,195.559,0.062%,
711,2025-02-16 00:18:25,2025-02-16 00:21:31,186.011,0.059%,
712,2025-02-16 01:53:07,2025-02-16 01:56:15,187.958,0.060%,
713,2025-02-16 03:27:53,2025-02-16 03:30:53,180.024,0.057%,
714,2025-02-16 05:02:37,2025-02-16 05:05:38,180.959,0.057%,
715,2025-02-16 06:37:21,2025-02-16 06:40:33,191.393,0.061%,
716,2025-02-16 08:12:05,2025-02-16 08:15:12,187.066,0.059%,
717,2025-02-16 09:46:47,2025-02-16 09:49:56,189.075,0.060%,
718,2025-02-16 11:21:33,2025-02-16 11:24:34,180.942,0.057%,
719,2025-02-16 12:56:19,2025-02-16 12:59:19,180.513,0.057%,
720,2025-02-16 14:31:13,2025-02-16 14:34:14,180.834,0.057%,
721,2025-02-16 16:05:50,2025-02-16 16:08:53,183.197,0.058%,
722,2025-02-16 17:40:27,2025-02-16 17:43:38,190.163,0.060%,
723,2025-02-16 19:15:22,2025-02-16 19:18:15,173.51,0.055%,
724,2025-02-16 20:49:59,2025-02-16 20:53:00,181.46,0.058%,
725,2025-02-16 22:24:53,2025-02-16 22:27:55,182.048,0.058%,
726,2025-02-16 23:59:30,2025-02-17 00:02:35,184.18,0.058%,
727,2025-02-17 01:34:21,2025-02-17 01:37:19,178.09,0.057%,
728,2025-02-17 03:09:02,2025-02-17 03:11:56,174.379,0.055%,
729,2025-02-17 04:43:39,2025-02-17 04:46:41,182.362,0.058%,
730,2025-02-17 06:18:33,2025-02-17 06:21:37,183.247,0.058%,
731,2025-02-17 07:53:10,2025-02-17 07:56:16,185.139,0.059%,
732,2025-02-17 09:28:00,2025-02-17 09:31:00,179.657,0.057%,
733,2025-02-17 11:02:42,2025-02-17 11:05:54,191.861,0.061%,
734,2025-02-17 12:37:32,2025-02-17 12:40:34,182.549,0.058%,
735,2025-02-17 14:12:13,2025-02-17 14:15:18,184.434,0.059%,
736,2025-02-17 15:46:51,2025-02-17 15:49:57,186.077,0.059%,
737,2025-02-17 17:21:44,2025-02-17 17:24:41,177.495,0.056%,
738,2025-02-17 18:56:22,2025-02-17 18:59:35,193.094,0.061%,
739,2025-02-17 20:31:12,2025-02-17 20:34:15,183.742,0.058%,
740,2025-02-17 22:05:54,2025-02-17 22:08:59,185.604,0.059%,
741,2025-02-17 23:40:31,2025-02-17 23:43:38,186.982,0.059%,
742,2025-02-18 01:15:24,2025-02-18 01:18:22,178.663,0.057%,
743,2025-02-18 02:50:02,2025-02-18 02:53:17,194.31,0.062%,
744,2025-02-18 04:24:52,2025-02-18 04:27:57,184.886,0.059%,
745,2025-02-18 05:59:34,2025-02-18 06:02:40,186.758,0.059%,
746,2025-02-18 07:34:20,2025-02-18 07:37:19,179.021,0.057%,
747,2025-02-18 09:09:04,2025-02-18 09:12:04,179.781,0.057%,
748,2025-02-18 10:43:42,2025-02-18 10:46:58,195.507,0.062%,
749,2025-02-18 12:18:32,2025-02-18 12:21:38,185.988,0.059%,
750,2025-02-18 13:53:14,2025-02-18 13:56:22,187.891,0.060%,
751,2025-02-18 15:28:00,2025-02-18 15:31:00,179.989,0.057%,
752,2025-02-18 17:02:44,2025-02-18 17:05:45,180.846,0.057%,
753,2025-02-18 18:37:28,2025-02-18 18:40:39,191.322,0.061%,
754,2025-02-18 20:12:12,2025-02-18 20:15:19,187.038,0.059%,
755,2025-02-18 21:46:54,2025-02-18 21:50:03,189.004,0.060%,
756,2025-02-18 23:21:48,2025-02-18 23:24:41,172.603,0.055%,
757,2025-02-19 00:56:25,2025-02-19 00:59:26,180.412,0.057%,
758,2025-02-19 02:31:20,2025-02-19 02:34:21,180.78,0.057%,
759,2025-02-19 04:05:57,2025-02-19 04:09:00,183.189,0.058%,
760,2025-02-19 05:40:34,2025-02-19 05:43:44,190.088,0.060%,
761,2025-02-19 07:15:28,2025-02-19 07:18:22,173.491,0.055%,
762,2025-02-19 08:50:06,2025-02-19 08:53:07,181.352,0.058%,
763,2025-02-19 10:25:00,2025-02-19 10:28:02,181.991,0.058%,
764,2025-02-19 11:59:37,2025-02-19 12:02:41,184.171,0.058%,
765,2025-02-19 13:34:27,2025-02-19 13:37:25,178.076,0.057%,
766,2025-02-19 15:09:08,2025-02-19 15:12:19,190.568,0.060%,
767,2025-02-19 16:43:46,2025-02-19 16:46:48,182.247,0.058%,
768,2025-02-19 18:18:40,2025-02-19 18:21:43,183.188,0.058%,
769,2025-02-19 19:53:17,2025-02-19 19:56:22,185.129,0.059%,
770,2025-02-19 21:28:07,2025-02-19 21:31:07,179.632,0.057%,
771,2025-02-19 23:02:49,2025-02-19 23:06:00,191.814,0.061%,
772,2025-02-20 00:37:38,2025-02-20 00:40:41,182.532,0.058%,
773,2025-02-20 02:12:20,2025-02-20 02:15:24,184.373,0.059%,
774,2025-02-20 03:46:57,2025-02-20 03:50:03,186.064,0.059%,
775,2025-02-20 05:21:50,2025-02-20 05:24:48,177.395,0.056%,
776,2025-02-20 06:56:29,2025-02-20 06:59:42,193.045,0.061%,
777,2025-02-20 08:31:18,2025-02-20 08:34:22,183.723,0.058%,
778,2025-02-20 10:06:00,2025-02-20 10:09:06,185.54,0.059%,
779,2025-02-20 11:40:37,2025-02-20 11:43:44,186.968,0.059%,
780,2025-02-20 13:15:30,2025-02-20 13:18:29,178.559,0.057%,
781,2025-02-20 14:50:09,2025-02-20 14:53:23,194.259,0.062%,
782,2025-02-20 16:24:58,2025-02-20 16:28:03,184.865,0.059%,
783,2025-02-20 17:59:40,2025-02-20 18:02:47,186.692,0.059%,
784,2025-02-20 19:34:26,2025-02-20 19:37:25,178.989,0.057%,
785,2025-02-20 21:09:10,2025-02-20 21:12:10,179.672,0.057%,
786,2025-02-20 22:43:49,2025-02-20 22:47:04,195.455,0.062%,
787,2025-02-21 00:18:38,2025-02-21 00:21:44,185.964,0.059%,
788,2025-02-21 01:53:20,2025-02-21 01:56:28,187.821,0.060%,
789,2025-02-21 03:28:06,2025-02-21 03:31:06,179.954,0.057%,
790,2025-02-21 05:02:50,2025-02-21 05:05:51,180.73,0.057%,
791,2025-02-21 06:37:34,2025-02-21 06:40:46,191.249,0.061%,
792,2025-02-21 08:12:18,2025-02-21 08:15:26,187.013,0.059%,
793,2025-02-21 09:47:01,2025-02-21 09:50:09,188.932,0.060%,
794,2025-02-21 11:21:55,2025-02-21 11:24:47,172.585,0.055%,
795,2025-02-21 12:56:32,2025-02-21 12:59:32,180.309,0.057%,
796,2025-02-21 14:31:26,2025-02-21 14:34:27,180.723,0.057%,
797,2025-02-21 16:06:03,2025-02-21 16:09:07,183.181,0.058%,
798,2025-02-21 17:40:41,2025-02-21 17:43:51,190.014,0.060%,
799,2025-02-21 19:15:35,2025-02-21 19:18:28,173.471,0.055%,
800,2025-02-21 19:18:38,2025-02-21 19:18:44,6.122,0.002%,
801,2025-02-21 20:50:12,2025-02-21 20:53:13,181.242,0.058%,
802,2025-02-21 22:25:06,2025-02-21 22:28:08,181.934,0.058%,
803,2025-02-21 23:59:44,2025-02-22 00:02:48,184.162,0.058%,
804,2025-02-22 01:34:34,2025-02-22 01:37:32,178.058,0.057%,
805,2025-02-22 03:09:15,2025-02-22 03:12:26,190.522,0.060%,
806,2025-02-22 04:43:52,2025-02-22 04:46:54,182.129,0.058%,
807,2025-02-22 06:18:47,2025-02-22 06:21:50,183.128,0.058%,
808,2025-02-22 07:53:24,2025-02-22 07:56:29,185.116,0.059%,
809,2025-02-22 09:28:17,2025-02-22 09:31:13,176.091,0.056%,
810,2025-02-22 11:02:55,2025-02-22 11:06:07,191.767,0.061%,
811,2025-02-22 12:37:45,2025-02-22 12:40:48,182.515,0.058%,
812,2025-02-22 14:12:27,2025-02-22 14:15:31,184.311,0.058%,
813,2025-02-22 15:47:04,2025-02-22 15:50:10,186.05,0.059%,
814,2025-02-22 17:21:57,2025-02-22 17:24:54,177.295,0.056%,
815,2025-02-22 18:56:35,2025-02-22 18:59:48,192.996,0.061%,
816,2025-02-22 20:31:25,2025-02-22 20:34:29,183.704,0.058%,
817,2025-02-22 22:06:07,2025-02-22 22:09:12,185.476,0.059%,
818,2025-02-22 23:40:44,2025-02-22 23:43:51,186.952,0.059%,
819,2025-02-23 01:15:37,2025-02-23 01:18:35,178.453,0.057%,
820,2025-02-23 02:50:15,2025-02-23 02:53:30,194.208,0.062%,
821,2025-02-23 04:25:05,2025-02-23 04:28:10,184.844,0.059%,
822,2025-02-23 05:59:47,2025-02-23 06:02:53,186.625,0.059%,
823,2025-02-23 07:34:33,2025-02-23 07:37:32,178.954,0.057%,
824,2025-02-23 09:09:17,2025-02-23 09:12:17,179.563,0.057%,
825,2025-02-23 10:43:56,2025-02-23 10:47:11,195.401,0.062%,
826,2025-02-23 12:18:45,2025-02-23 12:21:51,185.941,0.059%,
827,2025-02-23 13:53:27,2025-02-23 13:56:35,187.752,0.060%,
828,2025-02-23 15:28:13,2025-02-23 15:31:13,179.919,0.057%,
829,2025-02-23 17:02:57,2025-02-23 17:05:58,180.613,0.057%,
830,2025-02-23 18:37:41,2025-02-23 18:40:52,191.177,0.061%,
831,2025-02-23 20:12:25,2025-02-23 20:15:32,186.987,0.059%,
832,2025-02-23 21:47:07,2025-02-23 21:50:16,188.859,0.060%,
833,2025-02-23 23:22:01,2025-02-23 23:24:54,172.566,0.055%,
834,2025-02-24 00:56:39,2025-02-24 00:59:39,180.204,0.057%,
835,2025-02-24 02:31:33,2025-02-24 02:34:34,180.667,0.057%,
836,2025-02-24 04:06:10,2025-02-24 04:09:13,183.172,0.058%,
837,2025-02-24 05:40:47,2025-02-24 05:40:51,3.805,0.001%,
838,2025-02-24 05:41:01,2025-02-24 05:43:57,176.317,0.056%,
839,2025-02-24 07:15:42,2025-02-24 07:18:51,189.219,0.060%,
840,2025-02-24 08:50:19,2025-02-24 08:53:20,181.13,0.057%,
841,2025-02-24 10:25:13,2025-02-24 10:28:15,181.876,0.058%,
842,2025-02-24 11:59:50,2025-02-24 12:02:54,184.152,0.058%,
843,2025-02-24 13:34:40,2025-02-24 13:37:38,178.044,0.057%,
844,2025-02-24 15:09:22,2025-02-24 15:12:32,190.476,0.060%,
845,2025-02-24 16:43:59,2025-02-24 16:47:13,194.072,0.062%,
846,2025-02-24 18:18:53,2025-02-24 18:21:56,183.07,0.058%,
847,2025-02-24 19:53:30,2025-02-24 19:56:35,185.104,0.059%,
848,2025-02-24 21:28:24,2025-02-24 21:31:20,175.993,0.056%,
849,2025-02-24 23:03:02,2025-02-24 23:06:13,191.719,0.061%,
850,2025-02-25 00:37:52,2025-02-25 00:40:54,182.501,0.058%,
851,2025-02-25 02:12:33,2025-02-25 02:15:37,184.249,0.058%,
852,2025-02-25 03:47:10,2025-02-25 03:50:16,186.037,0.059%,
853,2025-02-25 05:22:04,2025-02-25 05:25:01,177.193,0.056%,
854,2025-02-25 06:56:42,2025-02-25 06:59:55,192.946,0.061%,
855,2025-02-25 08:31:32,2025-02-25 08:34:35,183.684,0.058%,
856,2025-02-25 10:06:13,2025-02-25 10:09:19,185.411,0.059%,
857,2025-02-25 11:41:00,2025-02-25 11:43:57,177.913,0.056%,
858,2025-02-25 13:15:44,2025-02-25 13:18:42,178.347,0.057%,
859,2025-02-25 14:50:22,2025-02-25 14:53:36,194.156,0.062%,
860,2025-02-25 16:25:12,2025-02-25 16:28:16,184.823,0.059%,
861,2025-02-25 17:59:53,2025-02-25 18:03:00,186.558,0.059%,
862,2025-02-25 19:34:40,2025-02-25 19:37:39,178.921,0.057%,
863,2025-02-25 21:09:24,2025-02-25 21:12:23,179.451,0.057%,
864,2025-02-25 22:44:02,2025-02-25 22:47:17,195.347,0.062%,
865,2025-02-26 00:18:52,2025-02-26 00:21:58,185.917,0.059%,
866,2025-02-26 01:53:34,2025-02-26 01:56:41,187.684,0.060%,
867,2025-02-26 03:28:20,2025-02-26 03:31:20,179.883,0.057%,
868,2025-02-26 05:03:04,2025-02-26 05:06:04,180.495,0.057%,
869,2025-02-26 06:37:48,2025-02-26 06:40:59,191.103,0.061%,
870,2025-02-26 08:12:32,2025-02-26 08:15:39,186.961,0.059%,
871,2025-02-26 09:47:14,2025-02-26 09:50:22,188.785,0.060%,
872,2025-02-26 11:22:08,2025-02-26 11:25:16,187.908,0.060%,
873,2025-02-26 12:56:45,2025-02-26 12:59:45,180.102,0.057%,
874,2025-02-26 14:31:40,2025-02-26 14:34:40,180.61,0.057%,
875,2025-02-26 16:06:17,2025-02-26 16:09:20,183.164,0.058%,
876,2025-02-26 17:41:07,2025-02-26 17:44:04,176.314,0.056%,
877,2025-02-26 19:15:48,2025-02-26 19:18:57,189.175,0.060%,
878,2025-02-26 20:50:25,2025-02-26 20:53:26,181.018,0.057%,
879,2025-02-26 22:25:20,2025-02-26 22:28:21,181.817,0.058%,
880,2025-02-26 23:59:57,2025-02-27 00:03:01,184.142,0.058%,
881,2025-02-27 01:34:47,2025-02-27 01:37:45,178.024,0.057%,
882,2025-02-27 03:09:28,2025-02-27 03:12:39,190.43,0.060%,
883,2025-02-27 04:44:05,2025-02-27 04:47:19,194.07,0.062%,
884,2025-02-27 06:19:00,2025-02-27 06:22:03,183.01,0.058%,
885,2025-02-27 07:53:37,2025-02-27 07:56:42,185.093,0.059%,
886,2025-02-27 09:28:30,2025-02-27 09:31:26,175.896,0.056%,
887,2025-02-27 11:03:08,2025-02-27 11:06:20,191.671,0.061%,
888,2025-02-27 12:37:58,2025-02-27 12:41:01,182.484,0.058%,
889,2025-02-27 14:12:40,2025-02-27 14:15:44,184.187,0.058%,
890,2025-02-27 15:47:17,2025-02-27 15:50:23,186.023,0.059%,
891,2025-02-27 17:22:10,2025-02-27 17:25:07,177.092,0.056%,
892,2025-02-27 18:56:48,2025-02-27 19:00:01,192.896,0.061%,
893,2025-02-27 20:31:38,2025-02-27 20:34:42,183.665,0.058%,
894,2025-02-27 22:06:20,2025-02-27 22:09:25,185.349,0.059%,
895,2025-02-27 23:41:06,2025-02-27 23:44:04,177.883,0.056%,
896,2025-02-28 01:15:50,2025-02-28 01:18:48,178.241,0.057%,
897,2025-02-28 02:50:29,2025-02-28 02:53:43,194.105,0.062%,
898,2025-02-28 04:25:18,2025-02-28 04:28:23,184.801,0.059%,
899,2025-02-28 06:00:00,2025-02-28 06:03:07,186.49,0.059%,
900,2025-02-28 07:34:46,2025-02-28 07:37:45,178.888,0.057%,
901,2025-02-28 09:09:30,2025-02-28 09:12:30,179.339,0.057%,
902,2025-02-28 10:44:09,2025-02-28 10:47:24,195.294,0.062%,
903,2025-02-28 12:18:58,2025-02-28 12:22:04,185.894,0.059%,
904,2025-02-28 13:53:40,2025-02-28 13:56:48,187.614,0.060%,
905,2025-02-28 15:28:26,2025-02-28 15:31:41,194.81,0.062%,
906,2025-02-28 17:03:10,2025-02-28 17:06:11,180.373,0.057%,
907,2025-02-28 18:37:54,2025-02-28 18:41:05,191.031,0.061%,
908,2025-02-28 20:12:43,2025-02-28 20:15:45,182.159,0.058%,
909,2025-02-28 21:47:20,2025-02-28 21:50:29,188.713,0.060%,
910,2025-02-28 23:22:15,2025-02-28 23:25:22,187.866,0.060%,
911,2025-03-01 00:56:52,2025-03-01 00:59:52,179.993,0.057%,
912,2025-03-01 02:31:46,2025-03-01 02:34:47,180.557,0.057%,
913,2025-03-01 04:06:23,2025-03-01 04:09:26,183.156,0.058%,
914,2025-03-01 05:41:14,2025-03-01 05:44:10,176.311,0.056%,
915,2025-03-01 07:15:55,2025-03-01 07:19:04,189.132,0.060%,
916,2025-03-01 08:50:32,2025-03-01 08:53:45,193.014,0.061%,
917,2025-03-01 10:25:26,2025-03-01 10:28:28,181.76,0.058%,
918,2025-03-01 12:00:03,2025-03-01 12:03:07,184.133,0.058%,
919,2025-03-01 13:34:53,2025-03-01 13:37:51,178.007,0.056%,
920,2025-03-01 15:09:35,2025-03-01 15:12:45,190.385,0.060%,
921,2025-03-01 16:44:12,2025-03-01 16:47:26,194.069,0.062%,
922,2025-03-01 18:19:06,2025-03-01 18:22:09,182.951,0.058%,
923,2025-03-01 19:53:43,2025-03-01 19:56:49,185.08,0.059%,
924,2025-03-01 21:28:37,2025-03-01 21:31:33,175.799,0.056%,
925,2025-03-01 23:03:15,2025-03-01 23:06:27,191.624,0.061%,
926,2025-03-02 00:38:05,2025-03-02 00:41:07,182.467,0.058%,
927,2025-03-02 02:12:46,2025-03-02 02:15:51,184.125,0.058%,
928,2025-03-02 03:47:24,2025-03-02 03:50:30,186.01,0.059%,
929,2025-03-02 05:22:17,2025-03-02 05:25:14,176.99,0.056%,
930,2025-03-02 06:56:55,2025-03-02 07:00:08,192.847,0.061%,
931,2025-03-02 08:31:45,2025-03-02 08:34:48,183.646,0.058%,
932,2025-03-02 10:06:27,2025-03-02 10:09:32,185.284,0.059%,
933,2025-03-02 11:41:13,2025-03-02 11:44:11,177.852,0.056%,
934,2025-03-02 13:15:57,2025-03-02 13:18:55,178.134,0.057%,
935,2025-03-02 14:50:35,2025-03-02 14:53:49,194.053,0.062%,
936,2025-03-02 16:25:25,2025-03-02 16:28:30,184.779,0.059%,
937,2025-03-02 18:00:07,2025-03-02 18:03:13,186.423,0.059%,
938,2025-03-02 19:34:53,2025-03-02 19:38:06,193.427,0.061%,
939,2025-03-02 21:09:37,2025-03-02 21:12:36,179.226,0.057%,
940,2025-03-02 22:44:15,2025-03-02 22:44:16,0.526,0.000%,
941,2025-03-02 22:44:21,2025-03-02 22:47:31,189.713,0.060%,
942,2025-03-03 00:19:05,2025-03-03 00:22:11,185.87,0.059%,
943,2025-03-03 01:53:47,2025-03-03 01:56:54,187.544,0.060%,
944,2025-03-03 03:28:33,2025-03-03 03:31:48,194.75,0.062%,
945,2025-03-03 05:03:17,2025-03-03 05:06:17,180.254,0.057%,
946,2025-03-03 06:38:13,2025-03-03 06:41:12,179.291,0.057%,
947,2025-03-03 08:12:50,2025-03-03 08:15:52,182.152,0.058%,
948,2025-03-03 09:47:27,2025-03-03 09:50:36,188.639,0.060%,
949,2025-03-03 11:22:21,2025-03-03 11:25:29,187.823,0.060%,
950,2025-03-03 12:56:58,2025-03-03 12:59:58,179.885,0.057%,
951,2025-03-03 14:31:53,2025-03-03 14:34:53,180.501,0.057%,
952,2025-03-03 16:06:30,2025-03-03 16:09:33,183.148,0.058%,
953,2025-03-03 17:41:20,2025-03-03 17:44:17,176.31,0.056%,
954,2025-03-03 19:16:01,2025-03-03 19:19:10,189.088,0.060%,
955,2025-03-03 20:50:38,2025-03-03 20:53:51,193.014,0.061%,
956,2025-03-03 22:25:33,2025-03-03 22:28:34,181.702,0.058%,
957,2025-03-04 00:00:10,2025-03-04 00:03:14,184.123,0.058%,
958,2025-03-04 01:35:03,2025-03-04 01:37:58,174.472,0.055%,
959,2025-03-04 03:09:41,2025-03-04 03:12:52,190.339,0.060%,
960,2025-03-04 04:44:31,2025-03-04 04:47:33,181.229,0.058%,
961,2025-03-04 06:19:13,2025-03-04 06:22:16,182.89,0.058%,
962,2025-03-04 07:53:50,2025-03-04 07:56:55,185.069,0.059%,
963,2025-03-04 09:28:43,2025-03-04 09:31:39,175.7,0.056%,
964,2025-03-04 11:03:22,2025-03-04 11:06:33,191.576,0.061%,
965,2025-03-04 12:38:11,2025-03-04 12:41:14,182.449,0.058%,
966,2025-03-04 14:12:53,2025-03-04 14:15:57,184.062,0.058%,
967,2025-03-04 15:47:30,2025-03-04 15:50:36,185.996,0.059%,
968,2025-03-04 17:22:23,2025-03-04 17:25:20,176.887,0.056%,
969,2025-03-04 18:57:02,2025-03-04 19:00:14,192.797,0.061%,
970,2025-03-04 20:31:51,2025-03-04 20:34:55,183.626,0.058%,
971,2025-03-04 22:06:33,2025-03-04 22:09:38,185.219,0.059%,
972,2025-03-04 23:41:19,2025-03-04 23:44:31,192.009,0.061%,
973,2025-03-05 01:16:03,2025-03-05 01:19:01,178.025,0.057%,
974,2025-03-05 02:50:42,2025-03-05 02:53:56,194.001,0.062%,
975,2025-03-05 04:25:31,2025-03-05 04:28:36,184.758,0.059%,
976,2025-03-05 06:00:13,2025-03-05 06:03:20,186.355,0.059%,
977,2025-03-05 07:34:59,2025-03-05 07:38:13,193.369,0.061%,
978,2025-03-05 09:09:43,2025-03-05 09:12:43,179.112,0.057%,
979,2025-03-05 10:44:27,2025-03-05 10:47:37,189.64,0.060%,
980,2025-03-05 12:19:11,2025-03-05 12:22:17,185.846,0.059%,
981,2025-03-05 13:53:53,2025-03-05 13:57:01,187.473,0.059%,
982,2025-03-05 15:28:39,2025-03-05 15:31:54,194.689,0.062%,
983,2025-03-05 17:03:24,2025-03-05 17:06:24,180.133,0.057%,
984,2025-03-05 18:38:19,2025-03-05 18:41:18,179.234,0.057%,
985,2025-03-05 20:12:56,2025-03-05 20:15:58,182.145,0.058%,
986,2025-03-05 21:47:33,2025-03-05 21:50:42,188.562,0.060%,
987,2025-03-05 23:22:28,2025-03-05 23:25:36,187.78,0.060%,
988,2025-03-06 00:57:05,2025-03-06 01:00:17,191.937,0.061%,
989,2025-03-06 02:31:59,2025-03-06 02:35:00,180.444,0.057%,
990,2025-03-06 04:06:36,2025-03-06 04:09:40,183.137,0.058%,
991,2025-03-06 05:41:27,2025-03-06 05:44:23,176.302,0.056%,
992,2025-03-06 07:16:08,2025-03-06 07:19:17,189.042,0.060%,
993,2025-03-06 08:50:45,2025-03-06 08:53:58,193.014,0.061%,
994,2025-03-06 10:25:39,2025-03-06 10:28:41,181.642,0.058%,
995,2025-03-06 12:00:17,2025-03-06 12:03:21,184.109,0.058%,
996,2025-03-06 13:35:10,2025-03-06 13:38:04,174.376,0.055%,
997,2025-03-06 15:09:48,2025-03-06 15:12:58,190.292,0.060%,
998,2025-03-06 16:44:38,2025-03-06 16:47:39,181.216,0.058%,
999,2025-03-06 18:19:19,2025-03-06 18:22:22,182.829,0.058%,
1000,2025-03-06 19:53:57,2025-03-06 19:57:02,185.057,0.059%,
1001,2025-03-06 21:28:50,2025-03-06 21:31:46,175.6,0.056%,
1002,2025-03-06 23:03:28,2025-03-06 23:06:40,191.527,0.061%,
1003,2025-03-07 00:38:18,2025-03-07 00:41:20,182.431,0.058%,
