3UCubedIntegratedSim/Reports & Plots/North Cusp @ 1 Degree/CSV/Sat8.csv

Number,Coverage Start (UTCG),Coverage End (UTCG),Duration (sec),Percent,
1,2025-01-01 16:23:16,2025-01-01 16:27:31,254.877,0.081%,
2,2025-01-01 17:58:00,2025-01-01 18:02:13,253.119,0.080%,
3,2025-01-01 19:32:55,2025-01-01 19:36:55,239.744,0.076%,
4,2025-01-01 21:07:36,2025-01-01 21:11:37,240.181,0.076%,
5,2025-01-01 22:42:20,2025-01-01 22:46:18,238.048,0.076%,
6,2025-01-02 00:17:08,2025-01-02 00:20:58,230.749,0.073%,
7,2025-01-02 01:51:55,2025-01-02 01:55:41,225.504,0.072%,
8,2025-01-02 03:26:34,2025-01-02 03:30:23,228.864,0.073%,
9,2025-01-02 03:30:39,2025-01-02 03:30:49,10.391,0.003%,
10,2025-01-02 05:01:17,2025-01-02 05:05:30,253.015,0.080%,
11,2025-01-02 06:36:07,2025-01-02 06:40:11,243.815,0.077%,
12,2025-01-02 08:10:48,2025-01-02 08:14:53,245.573,0.078%,
13,2025-01-02 09:45:35,2025-01-02 09:49:36,240.282,0.076%,
14,2025-01-02 11:20:14,2025-01-02 11:24:17,243.452,0.077%,
15,2025-01-02 12:55:03,2025-01-02 12:58:59,235.609,0.075%,
16,2025-01-02 14:29:47,2025-01-02 14:33:40,232.425,0.074%,
17,2025-01-02 16:04:28,2025-01-02 16:08:21,233.127,0.074%,
18,2025-01-02 17:39:15,2025-01-02 17:43:04,228.682,0.073%,
19,2025-01-02 19:13:59,2025-01-02 19:18:11,252.133,0.080%,
20,2025-01-02 20:48:43,2025-01-02 20:52:52,248.503,0.079%,
21,2025-01-02 22:23:27,2025-01-02 22:27:34,246.925,0.078%,
22,2025-01-02 23:58:08,2025-01-03 00:02:16,247.976,0.079%,
23,2025-01-03 01:32:55,2025-01-03 01:36:58,243.159,0.077%,
24,2025-01-03 03:07:39,2025-01-03 03:11:40,240.835,0.076%,
25,2025-01-03 04:42:23,2025-01-03 04:46:21,238.018,0.076%,
26,2025-01-03 06:17:07,2025-01-03 06:21:02,234.735,0.074%,
27,2025-01-03 07:51:51,2025-01-03 07:55:44,233.346,0.074%,
28,2025-01-03 09:26:35,2025-01-03 09:30:27,231.823,0.074%,
29,2025-01-03 11:01:19,2025-01-03 11:05:33,254.015,0.081%,
30,2025-01-03 12:36:03,2025-01-03 12:40:14,251.656,0.080%,
31,2025-01-03 14:10:47,2025-01-03 14:14:57,249.987,0.079%,
32,2025-01-03 15:45:31,2025-01-03 15:49:39,248.107,0.079%,
33,2025-01-03 17:20:15,2025-01-03 17:24:21,245.951,0.078%,
34,2025-01-03 18:54:59,2025-01-03 18:59:02,243.407,0.077%,
35,2025-01-03 20:29:43,2025-01-03 20:33:43,240.184,0.076%,
36,2025-01-03 22:04:27,2025-01-03 22:08:24,237.986,0.076%,
37,2025-01-03 23:39:10,2025-01-03 23:43:07,236.53,0.075%,
38,2025-01-04 01:13:54,2025-01-04 01:17:49,234.922,0.075%,
39,2025-01-04 01:18:12,2025-01-04 01:18:14,2.728,0.001%,
40,2025-01-04 02:48:38,2025-01-04 02:52:55,256.354,0.081%,
41,2025-01-04 04:23:22,2025-01-04 04:27:37,254.769,0.081%,
42,2025-01-04 05:58:06,2025-01-04 06:02:19,252.995,0.080%,
43,2025-01-04 07:32:50,2025-01-04 07:37:01,250.985,0.080%,
44,2025-01-04 09:07:34,2025-01-04 09:07:37,2.7,0.001%,
45,2025-01-04 09:07:43,2025-01-04 09:11:43,240.009,0.076%,
46,2025-01-04 10:42:26,2025-01-04 10:46:24,237.813,0.075%,
47,2025-01-04 12:17:14,2025-01-04 12:21:05,230.674,0.073%,
48,2025-01-04 13:52:02,2025-01-04 13:55:47,225.412,0.072%,
49,2025-01-04 15:26:41,2025-01-04 15:30:30,228.754,0.073%,
50,2025-01-04 17:01:23,2025-01-04 17:05:36,252.692,0.080%,
51,2025-01-04 18:36:14,2025-01-04 18:40:18,243.714,0.077%,
52,2025-01-04 20:10:54,2025-01-04 20:15:00,245.463,0.078%,
53,2025-01-04 21:45:42,2025-01-04 21:49:42,240.147,0.076%,
54,2025-01-04 23:20:20,2025-01-04 23:24:24,243.284,0.077%,
55,2025-01-05 00:55:03,2025-01-05 00:59:05,241.747,0.077%,
56,2025-01-05 02:29:54,2025-01-05 02:33:46,232.151,0.074%,
57,2025-01-05 04:04:35,2025-01-05 04:08:28,233.05,0.074%,
58,2025-01-05 05:39:22,2025-01-05 05:43:10,228.585,0.073%,
59,2025-01-05 07:14:06,2025-01-05 07:17:53,226.969,0.072%,
60,2025-01-05 08:48:50,2025-01-05 08:52:58,248.408,0.079%,
61,2025-01-05 10:23:34,2025-01-05 10:27:40,246.816,0.078%,
62,2025-01-05 11:58:15,2025-01-05 12:02:23,247.843,0.079%,
63,2025-01-05 13:33:02,2025-01-05 13:37:05,243.012,0.077%,
64,2025-01-05 15:07:45,2025-01-05 15:11:46,240.655,0.076%,
65,2025-01-05 16:42:29,2025-01-05 16:46:27,237.788,0.075%,
66,2025-01-05 18:17:13,2025-01-05 18:21:08,234.657,0.074%,
67,2025-01-05 19:51:57,2025-01-05 19:55:51,233.254,0.074%,
68,2025-01-05 21:26:41,2025-01-05 21:30:33,231.719,0.074%,
69,2025-01-05 23:01:25,2025-01-05 23:05:15,230.011,0.073%,
70,2025-01-06 00:36:09,2025-01-06 00:40:21,251.554,0.080%,
71,2025-01-06 02:10:53,2025-01-06 02:15:03,249.87,0.079%,
72,2025-01-06 03:45:37,2025-01-06 03:49:45,247.971,0.079%,
73,2025-01-06 05:20:21,2025-01-06 05:24:27,245.79,0.078%,
74,2025-01-06 06:55:05,2025-01-06 06:59:08,243.206,0.077%,
75,2025-01-06 08:29:49,2025-01-06 08:33:49,239.906,0.076%,
76,2025-01-06 10:04:33,2025-01-06 10:08:31,237.901,0.075%,
77,2025-01-06 11:39:17,2025-01-06 11:43:14,236.433,0.075%,
78,2025-01-06 13:14:01,2025-01-06 13:17:56,234.811,0.075%,
79,2025-01-06 14:48:45,2025-01-06 14:52:38,233,0.074%,
80,2025-01-06 14:52:40,2025-01-06 14:53:01,21.232,0.007%,
81,2025-01-06 16:23:29,2025-01-06 16:27:44,254.659,0.081%,
82,2025-01-06 17:58:13,2025-01-06 18:02:26,252.869,0.080%,
83,2025-01-06 19:32:57,2025-01-06 19:37:08,250.837,0.080%,
84,2025-01-06 21:07:41,2025-01-06 21:11:49,248.465,0.079%,
85,2025-01-06 22:42:25,2025-01-06 22:46:30,245.57,0.078%,
86,2025-01-07 00:17:21,2025-01-07 00:21:11,230.601,0.073%,
87,2025-01-07 01:51:58,2025-01-07 01:55:54,235.408,0.075%,
88,2025-01-07 03:26:48,2025-01-07 03:30:36,228.643,0.073%,
89,2025-01-07 05:01:30,2025-01-07 05:05:19,228.804,0.073%,
90,2025-01-07 06:36:12,2025-01-07 06:36:17,4.703,0.002%,
91,2025-01-07 06:36:20,2025-01-07 06:40:24,243.611,0.077%,
92,2025-01-07 08:11:01,2025-01-07 08:15:06,245.351,0.078%,
93,2025-01-07 09:45:48,2025-01-07 09:49:48,240.01,0.076%,
94,2025-01-07 11:20:27,2025-01-07 11:24:30,243.114,0.077%,
95,2025-01-07 12:55:10,2025-01-07 12:59:12,241.551,0.077%,
96,2025-01-07 14:30:00,2025-01-07 14:33:52,231.867,0.074%,
97,2025-01-07 16:04:41,2025-01-07 16:08:34,232.969,0.074%,
98,2025-01-07 17:39:28,2025-01-07 17:43:17,228.484,0.073%,
99,2025-01-07 19:14:12,2025-01-07 19:17:59,226.857,0.072%,
100,2025-01-07 20:48:56,2025-01-07 20:52:41,225.037,0.071%,
101,2025-01-07 22:23:40,2025-01-07 22:27:47,246.705,0.078%,
102,2025-01-07 23:58:21,2025-01-08 00:02:29,247.709,0.079%,
103,2025-01-08 01:33:08,2025-01-08 01:37:11,242.862,0.077%,
104,2025-01-08 03:07:52,2025-01-08 03:11:53,240.474,0.076%,
105,2025-01-08 04:42:36,2025-01-08 04:46:34,237.553,0.075%,
106,2025-01-08 06:17:20,2025-01-08 06:21:15,234.57,0.074%,
107,2025-01-08 07:52:02,2025-01-08 07:55:57,235.365,0.075%,
108,2025-01-08 09:26:48,2025-01-08 09:30:40,231.613,0.073%,
109,2025-01-08 11:01:32,2025-01-08 11:05:22,229.891,0.073%,
110,2025-01-08 12:36:16,2025-01-08 12:40:04,228.249,0.072%,
111,2025-01-08 12:40:09,2025-01-08 12:40:27,18.544,0.006%,
112,2025-01-08 14:11:00,2025-01-08 14:15:10,249.75,0.079%,
113,2025-01-08 15:45:44,2025-01-08 15:49:52,247.833,0.079%,
114,2025-01-08 17:20:28,2025-01-08 17:24:33,245.625,0.078%,
115,2025-01-08 18:55:12,2025-01-08 18:59:15,242.999,0.077%,
116,2025-01-08 20:29:56,2025-01-08 20:33:55,239.616,0.076%,
117,2025-01-08 22:04:40,2025-01-08 22:08:38,237.813,0.075%,
118,2025-01-08 23:39:24,2025-01-08 23:43:20,236.332,0.075%,
119,2025-01-09 01:14:08,2025-01-09 01:18:02,234.698,0.074%,
120,2025-01-09 02:48:52,2025-01-09 02:52:44,232.87,0.074%,
121,2025-01-09 04:23:36,2025-01-09 04:27:50,254.548,0.081%,
122,2025-01-09 05:58:20,2025-01-09 06:02:32,252.739,0.080%,
123,2025-01-09 07:33:04,2025-01-09 07:37:14,250.685,0.080%,
124,2025-01-09 09:07:47,2025-01-09 09:11:56,248.282,0.079%,
125,2025-01-09 10:42:31,2025-01-09 10:46:37,245.332,0.078%,
126,2025-01-09 12:17:15,2025-01-09 12:21:18,242.429,0.077%,
127,2025-01-09 13:52:05,2025-01-09 13:56:00,235.321,0.075%,
128,2025-01-09 15:26:54,2025-01-09 15:30:43,228.53,0.073%,
129,2025-01-09 17:01:36,2025-01-09 17:05:25,228.689,0.073%,
130,2025-01-09 18:36:19,2025-01-09 18:40:07,228.17,0.072%,
131,2025-01-09 20:11:08,2025-01-09 20:15:13,245.237,0.078%,
132,2025-01-09 21:45:55,2025-01-09 21:49:55,239.87,0.076%,
133,2025-01-09 23:20:34,2025-01-09 23:24:37,242.941,0.077%,
134,2025-01-10 00:55:17,2025-01-10 00:59:18,241.349,0.077%,
135,2025-01-10 02:30:07,2025-01-10 02:33:59,231.569,0.073%,
136,2025-01-10 04:04:48,2025-01-10 04:08:41,232.886,0.074%,
137,2025-01-10 05:39:35,2025-01-10 05:43:23,228.383,0.072%,
138,2025-01-10 07:14:19,2025-01-10 07:18:06,226.743,0.072%,
139,2025-01-10 08:48:57,2025-01-10 08:52:48,230.872,0.073%,
140,2025-01-10 10:23:47,2025-01-10 10:27:30,222.812,0.071%,
141,2025-01-10 10:27:36,2025-01-10 10:27:53,17.807,0.006%,
142,2025-01-10 11:58:28,2025-01-10 12:02:36,247.57,0.079%,
143,2025-01-10 13:33:15,2025-01-10 13:37:17,242.709,0.077%,
144,2025-01-10 15:07:59,2025-01-10 15:11:59,240.289,0.076%,
145,2025-01-10 16:42:43,2025-01-10 16:46:40,237.308,0.075%,
146,2025-01-10 18:17:27,2025-01-10 18:21:21,234.486,0.074%,
147,2025-01-10 19:52:08,2025-01-10 19:56:04,235.278,0.075%,
148,2025-01-10 21:26:55,2025-01-10 21:30:46,231.506,0.073%,
149,2025-01-10 23:01:39,2025-01-10 23:05:28,229.768,0.073%,
150,2025-01-11 00:36:22,2025-01-11 00:40:10,228.095,0.072%,
151,2025-01-11 02:11:06,2025-01-11 02:15:16,249.629,0.079%,
152,2025-01-11 03:45:50,2025-01-11 03:49:58,247.692,0.079%,
153,2025-01-11 05:20:34,2025-01-11 05:24:40,245.457,0.078%,
154,2025-01-11 06:55:18,2025-01-11 06:59:21,242.787,0.077%,
155,2025-01-11 08:30:02,2025-01-11 08:34:02,239.313,0.076%,
156,2025-01-11 10:04:46,2025-01-11 10:08:44,237.723,0.075%,
157,2025-01-11 11:39:30,2025-01-11 11:43:27,236.229,0.075%,
158,2025-01-11 13:14:14,2025-01-11 13:18:09,234.583,0.074%,
159,2025-01-11 14:48:58,2025-01-11 14:52:51,232.738,0.074%,
160,2025-01-11 16:23:42,2025-01-11 16:27:33,230.632,0.073%,
161,2025-01-11 17:58:26,2025-01-11 18:02:39,252.606,0.080%,
162,2025-01-11 19:33:10,2025-01-11 19:37:21,250.532,0.079%,
163,2025-01-11 21:07:54,2025-01-11 21:12:02,248.093,0.079%,
164,2025-01-11 22:42:38,2025-01-11 22:46:43,245.083,0.078%,
165,2025-01-12 00:17:22,2025-01-12 00:21:24,242.344,0.077%,
166,2025-01-12 01:52:06,2025-01-12 01:56:07,240.918,0.076%,
167,2025-01-12 03:27:01,2025-01-12 03:30:49,228.417,0.072%,
168,2025-01-12 05:01:43,2025-01-12 05:05:32,228.572,0.073%,
169,2025-01-12 06:36:26,2025-01-12 06:40:14,228.019,0.072%,
170,2025-01-12 08:11:14,2025-01-12 08:14:55,221.014,0.070%,
171,2025-01-12 08:15:00,2025-01-12 08:15:19,19.156,0.006%,
172,2025-01-12 09:46:02,2025-01-12 09:50:01,239.728,0.076%,
173,2025-01-12 11:20:40,2025-01-12 11:24:43,242.765,0.077%,
174,2025-01-12 12:55:23,2025-01-12 12:59:24,241.142,0.077%,
175,2025-01-12 14:30:14,2025-01-12 14:34:05,231.261,0.073%,
176,2025-01-12 16:04:54,2025-01-12 16:08:47,232.802,0.074%,
177,2025-01-12 17:39:41,2025-01-12 17:43:30,228.28,0.072%,
178,2025-01-12 19:14:20,2025-01-12 19:18:12,232.296,0.074%,
179,2025-01-12 20:49:03,2025-01-12 20:52:54,230.746,0.073%,
180,2025-01-12 22:23:53,2025-01-12 22:27:36,222.654,0.071%,
181,2025-01-12 23:58:35,2025-01-13 00:02:42,247.433,0.079%,
182,2025-01-13 01:33:21,2025-01-13 01:37:24,242.554,0.077%,
183,2025-01-13 03:08:05,2025-01-13 03:12:05,240.099,0.076%,
184,2025-01-13 04:42:49,2025-01-13 04:46:46,237.056,0.075%,
185,2025-01-13 06:17:33,2025-01-13 06:21:28,234.401,0.074%,
186,2025-01-13 07:52:15,2025-01-13 07:56:10,235.189,0.075%,
187,2025-01-13 09:27:01,2025-01-13 09:30:53,231.397,0.073%,
188,2025-01-13 11:01:45,2025-01-13 11:05:35,229.644,0.073%,
189,2025-01-13 12:36:29,2025-01-13 12:40:17,227.943,0.072%,
190,2025-01-13 14:11:13,2025-01-13 14:14:58,225.371,0.072%,
191,2025-01-13 15:45:57,2025-01-13 15:50:05,247.55,0.079%,
192,2025-01-13 17:20:41,2025-01-13 17:24:46,245.286,0.078%,
193,2025-01-13 18:55:25,2025-01-13 18:59:28,242.571,0.077%,
194,2025-01-13 20:30:09,2025-01-13 20:34:08,238.998,0.076%,
195,2025-01-13 22:04:53,2025-01-13 22:08:51,237.633,0.075%,
196,2025-01-13 23:39:37,2025-01-13 23:43:33,236.129,0.075%,
197,2025-01-14 01:14:21,2025-01-14 01:18:15,234.467,0.074%,
198,2025-01-14 02:49:05,2025-01-14 02:52:57,232.604,0.074%,
199,2025-01-14 04:23:49,2025-01-14 04:27:39,230.477,0.073%,
200,2025-01-14 05:58:33,2025-01-14 06:02:21,227.965,0.072%,
201,2025-01-14 06:02:23,2025-01-14 06:02:45,22.71,0.007%,
202,2025-01-14 07:33:17,2025-01-14 07:37:27,250.376,0.079%,
203,2025-01-14 09:08:01,2025-01-14 09:12:09,247.906,0.079%,
204,2025-01-14 10:42:45,2025-01-14 10:46:49,244.828,0.078%,
205,2025-01-14 12:17:29,2025-01-14 12:21:31,242.259,0.077%,
206,2025-01-14 13:52:13,2025-01-14 13:56:13,240.822,0.076%,
207,2025-01-14 15:26:57,2025-01-14 15:30:56,239.243,0.076%,
208,2025-01-14 17:01:50,2025-01-14 17:05:38,228.454,0.072%,
209,2025-01-14 18:36:32,2025-01-14 18:40:20,227.867,0.072%,
210,2025-01-14 20:11:21,2025-01-14 20:15:02,220.844,0.070%,
211,2025-01-14 21:45:59,2025-01-14 21:50:08,249.323,0.079%,
212,2025-01-14 23:20:47,2025-01-14 23:24:50,242.587,0.077%,
213,2025-01-15 00:55:30,2025-01-15 00:59:31,240.934,0.076%,
214,2025-01-15 02:30:20,2025-01-15 02:34:11,231.062,0.073%,
215,2025-01-15 04:05:01,2025-01-15 04:08:54,232.719,0.074%,
216,2025-01-15 05:39:48,2025-01-15 05:43:36,228.181,0.072%,
217,2025-01-15 07:14:26,2025-01-15 07:18:19,232.172,0.074%,
218,2025-01-15 08:49:10,2025-01-15 08:53:01,230.62,0.073%,
219,2025-01-15 10:24:00,2025-01-15 10:27:42,222.499,0.071%,
220,2025-01-15 11:58:41,2025-01-15 12:02:24,222.749,0.071%,
221,2025-01-15 13:33:28,2025-01-15 13:37:30,242.396,0.077%,
222,2025-01-15 15:08:12,2025-01-15 15:12:12,239.909,0.076%,
223,2025-01-15 16:42:56,2025-01-15 16:46:53,236.798,0.075%,
224,2025-01-15 18:17:40,2025-01-15 18:21:34,234.316,0.074%,
225,2025-01-15 19:52:22,2025-01-15 19:56:17,235.101,0.075%,
226,2025-01-15 21:27:08,2025-01-15 21:30:59,231.288,0.073%,
227,2025-01-15 23:01:52,2025-01-15 23:05:41,229.519,0.073%,
228,2025-01-16 00:36:35,2025-01-16 00:40:23,227.79,0.072%,
229,2025-01-16 02:11:20,2025-01-16 02:15:05,225.196,0.071%,
230,2025-01-16 03:46:02,2025-01-16 03:50:11,249.256,0.079%,
231,2025-01-16 05:20:48,2025-01-16 05:24:53,245.114,0.078%,
232,2025-01-16 06:55:32,2025-01-16 06:59:34,242.353,0.077%,
233,2025-01-16 08:30:16,2025-01-16 08:34:14,238.918,0.076%,
234,2025-01-16 10:05:00,2025-01-16 10:08:57,237.538,0.075%,
235,2025-01-16 11:39:43,2025-01-16 11:43:40,236.027,0.075%,
236,2025-01-16 13:14:27,2025-01-16 13:18:22,234.35,0.074%,
237,2025-01-16 14:49:11,2025-01-16 14:53:04,232.469,0.074%,
238,2025-01-16 16:23:55,2025-01-16 16:27:46,230.318,0.073%,
239,2025-01-16 17:58:39,2025-01-16 18:02:27,227.767,0.072%,
240,2025-01-16 19:33:23,2025-01-16 19:37:34,250.215,0.079%,
241,2025-01-16 21:08:07,2025-01-16 21:12:15,247.712,0.079%,
242,2025-01-16 22:42:51,2025-01-16 22:46:56,244.567,0.078%,
243,2025-01-17 00:17:35,2025-01-17 00:21:37,242.171,0.077%,
244,2025-01-17 01:52:19,2025-01-17 01:56:20,240.726,0.076%,
245,2025-01-17 03:27:03,2025-01-17 03:31:02,239.134,0.076%,
246,2025-01-17 05:01:47,2025-01-17 05:05:45,237.357,0.075%,
247,2025-01-17 06:36:39,2025-01-17 06:40:26,227.712,0.072%,
248,2025-01-17 08:11:27,2025-01-17 08:15:08,220.674,0.070%,
249,2025-01-17 09:46:05,2025-01-17 09:49:49,224.102,0.071%,
250,2025-01-17 09:50:07,2025-01-17 09:50:14,6.95,0.002%,
251,2025-01-17 11:20:54,2025-01-17 11:24:56,242.406,0.077%,
252,2025-01-17 12:55:36,2025-01-17 12:59:37,240.72,0.076%,
253,2025-01-17 14:30:27,2025-01-17 14:34:18,230.981,0.073%,
254,2025-01-17 16:05:08,2025-01-17 16:09:00,232.631,0.074%,
255,2025-01-17 17:39:55,2025-01-17 17:43:43,228.078,0.072%,
256,2025-01-17 19:14:33,2025-01-17 19:18:25,232.046,0.074%,
257,2025-01-17 20:49:17,2025-01-17 20:53:07,230.494,0.073%,
258,2025-01-17 22:24:07,2025-01-17 22:27:49,222.338,0.071%,
259,2025-01-17 23:58:48,2025-01-18 00:02:30,222.541,0.071%,
260,2025-01-18 01:33:35,2025-01-18 01:37:37,242.236,0.077%,
261,2025-01-18 03:08:19,2025-01-18 03:12:18,239.714,0.076%,
262,2025-01-18 04:43:02,2025-01-18 04:46:59,236.533,0.075%,
263,2025-01-18 06:17:46,2025-01-18 06:21:41,234.228,0.074%,
264,2025-01-18 07:52:28,2025-01-18 07:56:23,235.013,0.075%,
265,2025-01-18 09:27:14,2025-01-18 09:31:06,231.179,0.073%,
266,2025-01-18 11:01:58,2025-01-18 11:05:48,229.393,0.073%,
267,2025-01-18 12:36:42,2025-01-18 12:40:30,227.635,0.072%,
268,2025-01-18 14:11:26,2025-01-18 14:15:11,225.02,0.071%,
269,2025-01-18 15:46:08,2025-01-18 15:49:52,223.987,0.071%,
270,2025-01-18 17:20:54,2025-01-18 17:24:59,244.937,0.078%,
271,2025-01-18 18:55:38,2025-01-18 18:59:40,242.128,0.077%,
272,2025-01-18 20:30:22,2025-01-18 20:34:21,238.836,0.076%,
273,2025-01-18 22:05:06,2025-01-18 22:09:04,237.447,0.075%,
274,2025-01-18 23:39:50,2025-01-18 23:43:46,235.924,0.075%,
275,2025-01-19 01:14:34,2025-01-19 01:18:28,234.233,0.074%,
276,2025-01-19 02:49:18,2025-01-19 02:53:10,232.333,0.074%,
277,2025-01-19 04:24:02,2025-01-19 04:27:52,230.156,0.073%,
278,2025-01-19 05:58:46,2025-01-19 06:02:34,227.565,0.072%,
279,2025-01-19 07:33:30,2025-01-19 07:37:15,224.911,0.071%,
280,2025-01-19 07:37:23,2025-01-19 07:37:40,16.855,0.005%,
281,2025-01-19 09:08:14,2025-01-19 09:12:21,247.514,0.079%,
282,2025-01-19 10:42:58,2025-01-19 10:47:02,244.297,0.078%,
283,2025-01-19 12:17:42,2025-01-19 12:21:44,242.085,0.077%,
284,2025-01-19 13:52:26,2025-01-19 13:56:26,240.629,0.076%,
285,2025-01-19 15:27:10,2025-01-19 15:31:09,239.024,0.076%,
286,2025-01-19 17:01:54,2025-01-19 17:05:51,237.23,0.075%,
287,2025-01-19 18:36:38,2025-01-19 18:40:33,235.194,0.075%,
288,2025-01-19 20:11:34,2025-01-19 20:15:15,220.497,0.070%,
289,2025-01-19 21:46:12,2025-01-19 21:49:56,223.873,0.071%,
290,2025-01-19 23:21:00,2025-01-19 23:25:02,242.22,0.077%,
291,2025-01-20 00:55:43,2025-01-20 00:59:44,240.5,0.076%,
292,2025-01-20 02:30:33,2025-01-20 02:34:24,230.897,0.073%,
293,2025-01-20 04:05:14,2025-01-20 04:09:07,232.546,0.074%,
294,2025-01-20 05:40:01,2025-01-20 05:43:49,227.975,0.072%,
295,2025-01-20 07:14:40,2025-01-20 07:18:32,231.92,0.074%,
296,2025-01-20 08:49:23,2025-01-20 08:53:14,230.365,0.073%,
297,2025-01-20 10:24:13,2025-01-20 10:27:55,222.175,0.071%,
298,2025-01-20 11:58:54,2025-01-20 12:02:37,222.326,0.071%,
299,2025-01-20 13:33:41,2025-01-20 13:37:18,216.976,0.069%,
300,2025-01-20 15:08:25,2025-01-20 15:12:25,239.514,0.076%,
301,2025-01-20 16:43:03,2025-01-20 16:47:05,241.89,0.077%,
302,2025-01-20 18:17:53,2025-01-20 18:21:47,234.142,0.074%,
303,2025-01-20 19:52:34,2025-01-20 19:56:30,235.806,0.075%,
304,2025-01-20 21:27:21,2025-01-20 21:31:12,231.068,0.073%,
305,2025-01-20 23:02:05,2025-01-20 23:05:54,229.266,0.073%,
306,2025-01-21 00:36:49,2025-01-21 00:40:36,227.477,0.072%,
307,2025-01-21 02:11:33,2025-01-21 02:15:18,224.835,0.071%,
308,2025-01-21 03:46:15,2025-01-21 03:49:59,223.757,0.071%,
309,2025-01-21 05:21:01,2025-01-21 05:25:06,244.759,0.078%,
310,2025-01-21 06:55:45,2025-01-21 06:59:47,241.897,0.077%,
311,2025-01-21 08:30:29,2025-01-21 08:34:28,238.752,0.076%,
312,2025-01-21 10:05:13,2025-01-21 10:09:10,237.355,0.075%,
313,2025-01-21 11:39:57,2025-01-21 11:43:53,235.82,0.075%,
314,2025-01-21 13:14:41,2025-01-21 13:18:35,234.113,0.074%,
315,2025-01-21 14:49:25,2025-01-21 14:53:17,232.195,0.074%,
316,2025-01-21 16:24:09,2025-01-21 16:27:59,229.991,0.073%,
317,2025-01-21 17:58:53,2025-01-21 18:02:40,227.355,0.072%,
318,2025-01-21 19:33:37,2025-01-21 19:37:21,224.84,0.071%,
319,2025-01-21 21:08:21,2025-01-21 21:12:28,247.312,0.078%,
320,2025-01-21 22:43:04,2025-01-21 22:47:08,244.018,0.077%,
321,2025-01-22 00:17:48,2025-01-22 00:21:50,241.998,0.077%,
322,2025-01-22 01:52:32,2025-01-22 01:56:33,240.531,0.076%,
323,2025-01-22 03:27:16,2025-01-22 03:31:15,238.912,0.076%,
324,2025-01-22 05:02:00,2025-01-22 05:05:57,237.101,0.075%,
325,2025-01-22 06:36:44,2025-01-22 06:40:39,235.043,0.075%,
326,2025-01-22 08:11:28,2025-01-22 08:11:34,6.176,0.002%,
327,2025-01-22 08:11:41,2025-01-22 08:15:21,220.319,0.070%,
328,2025-01-22 09:46:18,2025-01-22 09:50:02,223.639,0.071%,
329,2025-01-22 11:21:07,2025-01-22 11:24:44,217.633,0.069%,
330,2025-01-22 11:24:57,2025-01-22 11:25:09,12.2,0.004%,
331,2025-01-22 12:55:50,2025-01-22 12:59:50,240.273,0.076%,
332,2025-01-22 14:30:40,2025-01-22 14:34:31,230.815,0.073%,
333,2025-01-22 16:05:21,2025-01-22 16:09:13,232.461,0.074%,
334,2025-01-22 17:40:08,2025-01-22 17:43:56,227.869,0.072%,
335,2025-01-22 19:14:46,2025-01-22 19:18:38,231.792,0.074%,
336,2025-01-22 20:49:30,2025-01-22 20:53:20,230.234,0.073%,
337,2025-01-22 22:24:20,2025-01-22 22:28:02,222.009,0.070%,
338,2025-01-22 23:59:01,2025-01-23 00:02:43,222.108,0.070%,
339,2025-01-23 01:33:48,2025-01-23 01:37:25,216.905,0.069%,
340,2025-01-23 03:08:32,2025-01-23 03:12:31,239.309,0.076%,
341,2025-01-23 04:43:10,2025-01-23 04:47:12,241.614,0.077%,
342,2025-01-23 06:18:00,2025-01-23 06:21:54,234.054,0.074%,
343,2025-01-23 07:52:41,2025-01-23 07:56:36,235.698,0.075%,
344,2025-01-23 09:27:28,2025-01-23 09:31:19,230.955,0.073%,
345,2025-01-23 11:02:12,2025-01-23 11:06:01,229.136,0.073%,
346,2025-01-23 12:36:55,2025-01-23 12:40:43,227.318,0.072%,
347,2025-01-23 14:11:39,2025-01-23 14:15:24,224.649,0.071%,
348,2025-01-23 15:46:22,2025-01-23 15:50:05,223.515,0.071%,
349,2025-01-23 17:21:07,2025-01-23 17:24:48,220.228,0.070%,
350,2025-01-23 18:55:51,2025-01-23 18:59:53,241.659,0.077%,
351,2025-01-23 20:30:35,2025-01-23 20:34:34,238.669,0.076%,
352,2025-01-23 22:05:19,2025-01-23 22:09:17,237.262,0.075%,
353,2025-01-23 23:40:03,2025-01-23 23:43:59,235.714,0.075%,
354,2025-01-24 01:14:47,2025-01-24 01:18:41,233.992,0.074%,
355,2025-01-24 02:49:31,2025-01-24 02:53:23,232.055,0.074%,
356,2025-01-24 04:24:15,2025-01-24 04:28:05,229.823,0.073%,
357,2025-01-24 05:58:59,2025-01-24 06:02:46,227.141,0.072%,
358,2025-01-24 07:33:43,2025-01-24 07:37:28,224.769,0.071%,
359,2025-01-24 09:08:27,2025-01-24 09:12:34,247.105,0.078%,
360,2025-01-24 10:43:11,2025-01-24 10:47:15,243.727,0.077%,
361,2025-01-24 12:17:55,2025-01-24 12:21:57,241.91,0.077%,
362,2025-01-24 13:52:39,2025-01-24 13:56:39,240.431,0.076%,
363,2025-01-24 15:27:23,2025-01-24 15:31:22,238.798,0.076%,
364,2025-01-24 17:02:07,2025-01-24 17:06:04,236.971,0.075%,
365,2025-01-24 18:36:51,2025-01-24 18:40:46,234.89,0.075%,
366,2025-01-24 20:11:35,2025-01-24 20:15:27,232.453,0.074%,
367,2025-01-24 21:46:25,2025-01-24 21:50:08,223.391,0.071%,
368,2025-01-24 23:21:13,2025-01-24 23:24:51,217.548,0.069%,
369,2025-01-25 00:55:56,2025-01-25 00:59:56,240.038,0.076%,
370,2025-01-25 02:30:47,2025-01-25 02:34:37,230.731,0.073%,
371,2025-01-25 04:05:27,2025-01-25 04:09:20,232.371,0.074%,
372,2025-01-25 05:40:15,2025-01-25 05:44:02,227.763,0.072%,
373,2025-01-25 07:14:53,2025-01-25 07:18:45,231.662,0.074%,
374,2025-01-25 08:49:36,2025-01-25 08:53:27,230.098,0.073%,
375,2025-01-25 10:24:26,2025-01-25 10:28:08,221.839,0.070%,
376,2025-01-25 11:59:08,2025-01-25 12:02:50,221.885,0.070%,
377,2025-01-25 13:33:54,2025-01-25 13:37:31,216.833,0.069%,
378,2025-01-25 15:08:38,2025-01-25 15:12:14,215.586,0.068%,
379,2025-01-25 15:12:23,2025-01-25 15:12:37,14.897,0.005%,
380,2025-01-25 16:43:17,2025-01-25 16:47:18,241.325,0.077%,
381,2025-01-25 18:18:06,2025-01-25 18:22:00,233.965,0.074%,
382,2025-01-25 19:52:47,2025-01-25 19:56:43,235.59,0.075%,
383,2025-01-25 21:27:34,2025-01-25 21:31:25,230.841,0.073%,
384,2025-01-25 23:02:18,2025-01-25 23:06:07,229.005,0.073%,
385,2025-01-26 00:37:02,2025-01-26 00:40:49,227.155,0.072%,
386,2025-01-26 02:11:46,2025-01-26 02:15:31,224.461,0.071%,
387,2025-01-26 03:46:28,2025-01-26 03:50:11,223.265,0.071%,
388,2025-01-26 05:21:14,2025-01-26 05:24:54,220.151,0.070%,
389,2025-01-26 06:55:58,2025-01-26 06:59:59,241.414,0.077%,
390,2025-01-26 08:30:42,2025-01-26 08:34:41,238.585,0.076%,
391,2025-01-26 10:05:26,2025-01-26 10:09:23,237.166,0.075%,
392,2025-01-26 11:40:08,2025-01-26 11:44:06,237.128,0.075%,
393,2025-01-26 13:14:54,2025-01-26 13:18:48,233.87,0.074%,
394,2025-01-26 14:49:38,2025-01-26 14:53:30,231.908,0.074%,
395,2025-01-26 16:24:22,2025-01-26 16:28:11,229.652,0.073%,
396,2025-01-26 17:59:06,2025-01-26 18:02:53,226.923,0.072%,
397,2025-01-26 19:33:50,2025-01-26 19:37:34,224.696,0.071%,
398,2025-01-26 21:08:34,2025-01-26 21:12:17,223.446,0.071%,
399,2025-01-26 21:12:39,2025-01-26 21:12:41,2.067,0.001%,
400,2025-01-26 22:43:18,2025-01-26 22:47:21,243.424,0.077%,
401,2025-01-27 00:18:02,2025-01-27 00:22:03,241.82,0.077%,
402,2025-01-27 01:52:46,2025-01-27 01:56:46,240.33,0.076%,
403,2025-01-27 03:27:30,2025-01-27 03:31:28,238.683,0.076%,
404,2025-01-27 05:02:14,2025-01-27 05:06:10,236.838,0.075%,
405,2025-01-27 06:36:58,2025-01-27 06:40:52,234.733,0.074%,
406,2025-01-27 08:11:41,2025-01-27 08:15:34,232.263,0.074%,
407,2025-01-27 09:46:25,2025-01-27 09:50:15,229.215,0.073%,
408,2025-01-27 11:21:20,2025-01-27 11:24:57,217.464,0.069%,
409,2025-01-27 12:56:03,2025-01-27 13:00:03,239.797,0.076%,
410,2025-01-27 14:30:45,2025-01-27 14:30:47,2.521,0.001%,
411,2025-01-27 14:30:53,2025-01-27 14:34:44,230.647,0.073%,
412,2025-01-27 16:05:34,2025-01-27 16:09:26,232.283,0.074%,
413,2025-01-27 17:40:12,2025-01-27 17:44:09,237.079,0.075%,
414,2025-01-27 19:14:59,2025-01-27 19:18:51,231.531,0.073%,
415,2025-01-27 20:49:43,2025-01-27 20:53:33,229.961,0.073%,
416,2025-01-27 22:24:33,2025-01-27 22:28:15,221.666,0.070%,
417,2025-01-27 23:59:14,2025-01-28 00:02:56,221.657,0.070%,
418,2025-01-28 01:34:01,2025-01-28 01:37:38,216.76,0.069%,
419,2025-01-28 03:08:45,2025-01-28 03:12:20,215.506,0.068%,
420,2025-01-28 04:43:23,2025-01-28 04:47:24,241.025,0.076%,
421,2025-01-28 06:18:13,2025-01-28 06:22:07,233.875,0.074%,
422,2025-01-28 07:52:54,2025-01-28 07:56:49,235.481,0.075%,
423,2025-01-28 09:27:41,2025-01-28 09:31:32,230.725,0.073%,
424,2025-01-28 11:02:25,2025-01-28 11:06:14,228.872,0.073%,
425,2025-01-28 12:37:08,2025-01-28 12:40:55,226.991,0.072%,
426,2025-01-28 14:11:53,2025-01-28 14:15:37,224.267,0.071%,
427,2025-01-28 15:46:35,2025-01-28 15:50:18,223.174,0.071%,
428,2025-01-28 17:21:21,2025-01-28 17:25:01,220.075,0.070%,
429,2025-01-28 18:56:05,2025-01-28 19:00:06,241.164,0.077%,
430,2025-01-28 20:30:48,2025-01-28 20:34:47,239.074,0.076%,
431,2025-01-28 22:05:33,2025-01-28 22:09:30,237.071,0.075%,
432,2025-01-28 23:40:15,2025-01-28 23:44:12,237.029,0.075%,
433,2025-01-29 01:15:00,2025-01-29 01:18:54,233.746,0.074%,
434,2025-01-29 02:49:44,2025-01-29 02:53:36,231.764,0.074%,
435,2025-01-29 04:24:28,2025-01-29 04:28:18,229.478,0.073%,
436,2025-01-29 05:59:12,2025-01-29 06:02:59,226.702,0.072%,
437,2025-01-29 07:33:56,2025-01-29 07:37:41,224.624,0.071%,
438,2025-01-29 09:08:40,2025-01-29 09:12:24,223.441,0.071%,
439,2025-01-29 10:43:24,2025-01-29 10:47:27,243.109,0.077%,
440,2025-01-29 12:18:08,2025-01-29 12:22:10,241.73,0.077%,
441,2025-01-29 13:52:52,2025-01-29 13:56:52,240.229,0.076%,
442,2025-01-29 15:27:36,2025-01-29 15:31:35,238.567,0.076%,
443,2025-01-29 17:02:20,2025-01-29 17:06:17,236.705,0.075%,
444,2025-01-29 18:37:04,2025-01-29 18:40:59,234.576,0.074%,
445,2025-01-29 20:11:48,2025-01-29 20:15:40,232.066,0.074%,
446,2025-01-29 21:46:32,2025-01-29 21:50:21,229.146,0.073%,
447,2025-01-29 23:21:27,2025-01-29 23:25:04,217.381,0.069%,
448,2025-01-30 00:56:09,2025-01-30 00:59:47,217.24,0.069%,
449,2025-01-30 00:59:53,2025-01-30 01:00:09,15.486,0.005%,
450,2025-01-30 02:30:51,2025-01-30 02:34:50,239.027,0.076%,
451,2025-01-30 04:05:41,2025-01-30 04:09:33,232.192,0.074%,
452,2025-01-30 05:40:18,2025-01-30 05:44:15,236.979,0.075%,
453,2025-01-30 07:15:06,2025-01-30 07:18:57,231.398,0.073%,
454,2025-01-30 08:49:50,2025-01-30 08:53:39,229.824,0.073%,
455,2025-01-30 10:24:40,2025-01-30 10:28:21,221.492,0.070%,
456,2025-01-30 11:59:21,2025-01-30 12:03:02,221.426,0.070%,
457,2025-01-30 13:34:08,2025-01-30 13:37:44,216.687,0.069%,
458,2025-01-30 15:08:52,2025-01-30 15:12:27,215.422,0.068%,
459,2025-01-30 16:43:30,2025-01-30 16:47:31,240.823,0.076%,
460,2025-01-30 18:18:19,2025-01-30 18:22:13,233.784,0.074%,
461,2025-01-30 19:53:00,2025-01-30 19:56:56,235.371,0.075%,
462,2025-01-30 21:27:47,2025-01-30 21:31:38,230.609,0.073%,
463,2025-01-30 23:02:31,2025-01-30 23:06:20,228.738,0.073%,
464,2025-01-31 00:37:15,2025-01-31 00:41:02,226.825,0.072%,
465,2025-01-31 02:11:59,2025-01-31 02:15:43,224.068,0.071%,
466,2025-01-31 03:46:41,2025-01-31 03:50:24,223.114,0.071%,
467,2025-01-31 05:21:27,2025-01-31 05:25:07,219.999,0.070%,
468,2025-01-31 06:56:11,2025-01-31 06:59:50,218.681,0.069%,
469,2025-01-31 07:00:05,2025-01-31 07:00:12,7.078,0.002%,
470,2025-01-31 08:30:55,2025-01-31 08:34:54,238.98,0.076%,
471,2025-01-31 10:05:39,2025-01-31 10:09:36,236.974,0.075%,
472,2025-01-31 11:40:22,2025-01-31 11:44:19,236.929,0.075%,
473,2025-01-31 13:15:07,2025-01-31 13:19:01,233.621,0.074%,
474,2025-01-31 14:49:51,2025-01-31 14:53:43,231.618,0.073%,
475,2025-01-31 16:24:35,2025-01-31 16:28:24,229.303,0.073%,
476,2025-01-31 17:59:19,2025-01-31 18:03:05,226.473,0.072%,
477,2025-01-31 19:34:03,2025-01-31 19:37:48,224.551,0.071%,
478,2025-01-31 21:08:47,2025-01-31 21:12:30,223.282,0.071%,
479,2025-01-31 22:43:31,2025-01-31 22:47:34,243.017,0.077%,
480,2025-02-01 00:18:15,2025-02-01 00:22:17,241.639,0.077%,
481,2025-02-01 01:52:59,2025-02-01 01:56:59,240.127,0.076%,
482,2025-02-01 03:27:43,2025-02-01 03:31:41,238.451,0.076%,
483,2025-02-01 05:02:27,2025-02-01 05:06:23,236.57,0.075%,
484,2025-02-01 06:37:11,2025-02-01 06:41:05,234.416,0.074%,
485,2025-02-01 08:11:55,2025-02-01 08:15:47,231.868,0.074%,
486,2025-02-01 09:46:39,2025-02-01 09:50:28,229.077,0.073%,
487,2025-02-01 11:21:23,2025-02-01 11:21:24,1.703,0.001%,
488,2025-02-01 11:21:33,2025-02-01 11:25:11,217.297,0.069%,
489,2025-02-01 12:56:16,2025-02-01 12:59:53,217.162,0.069%,
490,2025-02-01 14:30:58,2025-02-01 14:34:57,238.932,0.076%,
491,2025-02-01 16:05:47,2025-02-01 16:09:39,232.103,0.074%,
492,2025-02-01 17:40:25,2025-02-01 17:44:22,236.879,0.075%,
493,2025-02-01 19:15:13,2025-02-01 19:19:04,231.265,0.073%,
494,2025-02-01 20:49:56,2025-02-01 20:53:46,229.686,0.073%,
495,2025-02-01 22:24:46,2025-02-01 22:28:28,221.314,0.070%,
496,2025-02-01 23:59:27,2025-02-02 00:03:09,221.184,0.070%,
497,2025-02-02 01:34:14,2025-02-02 01:37:51,216.614,0.069%,
498,2025-02-02 03:08:58,2025-02-02 03:12:33,215.342,0.068%,
499,2025-02-02 04:43:36,2025-02-02 04:47:37,240.751,0.076%,
500,2025-02-02 06:18:26,2025-02-02 06:22:20,233.693,0.074%,
501,2025-02-02 07:53:07,2025-02-02 07:57:02,235.26,0.075%,
502,2025-02-02 09:27:54,2025-02-02 09:31:44,230.492,0.073%,
503,2025-02-02 11:02:38,2025-02-02 11:06:27,228.602,0.073%,
504,2025-02-02 12:37:22,2025-02-02 12:41:08,226.656,0.072%,
505,2025-02-02 14:12:06,2025-02-02 14:15:50,223.869,0.071%,
506,2025-02-02 15:46:48,2025-02-02 15:50:31,223.054,0.071%,
507,2025-02-02 17:21:34,2025-02-02 17:25:14,219.922,0.070%,
508,2025-02-02 18:56:18,2025-02-02 18:59:57,219.358,0.070%,
509,2025-02-02 20:31:01,2025-02-02 20:35:00,238.885,0.076%,
510,2025-02-02 22:05:46,2025-02-02 22:09:43,236.877,0.075%,
511,2025-02-02 23:40:28,2025-02-02 23:44:25,236.829,0.075%,
512,2025-02-03 01:15:14,2025-02-03 01:19:07,233.495,0.074%,
513,2025-02-03 02:49:58,2025-02-03 02:53:49,231.471,0.073%,
514,2025-02-03 04:24:42,2025-02-03 04:28:31,229.124,0.073%,
515,2025-02-03 05:59:26,2025-02-03 06:03:12,226.234,0.072%,
516,2025-02-03 07:34:10,2025-02-03 07:37:54,224.478,0.071%,
517,2025-02-03 09:08:54,2025-02-03 09:12:37,223.446,0.071%,
518,2025-02-03 10:43:37,2025-02-03 10:47:40,242.936,0.077%,
519,2025-02-03 12:18:21,2025-02-03 12:22:23,241.548,0.077%,
520,2025-02-03 13:53:05,2025-02-03 13:57:05,240.024,0.076%,
521,2025-02-03 15:27:49,2025-02-03 15:31:48,238.333,0.076%,
522,2025-02-03 17:02:33,2025-02-03 17:06:30,236.434,0.075%,
523,2025-02-03 18:37:17,2025-02-03 18:41:12,234.254,0.074%,
524,2025-02-03 20:12:01,2025-02-03 20:15:53,231.666,0.074%,
525,2025-02-03 21:46:45,2025-02-03 21:50:34,229.005,0.073%,
526,2025-02-03 23:21:29,2025-02-03 23:25:17,227.78,0.072%,
527,2025-02-04 00:56:23,2025-02-04 01:00:00,217.084,0.069%,
528,2025-02-04 02:31:05,2025-02-04 02:35:03,238.837,0.076%,
529,2025-02-04 04:05:54,2025-02-04 04:09:46,232.013,0.074%,
530,2025-02-04 05:40:31,2025-02-04 05:44:28,236.778,0.075%,
531,2025-02-04 07:15:19,2025-02-04 07:19:10,231.13,0.073%,
532,2025-02-04 08:50:03,2025-02-04 08:53:52,229.546,0.073%,
533,2025-02-04 10:24:53,2025-02-04 10:28:34,221.134,0.070%,
534,2025-02-04 11:59:34,2025-02-04 12:03:15,220.939,0.070%,
535,2025-02-04 13:34:21,2025-02-04 13:37:57,216.541,0.069%,
536,2025-02-04 15:09:05,2025-02-04 15:12:40,215.26,0.068%,
537,2025-02-04 16:43:43,2025-02-04 16:47:44,240.678,0.076%,
538,2025-02-04 18:18:33,2025-02-04 18:22:26,233.601,0.074%,
539,2025-02-04 19:53:14,2025-02-04 19:57:09,235.148,0.075%,
540,2025-02-04 21:28:01,2025-02-04 21:31:51,230.373,0.073%,
541,2025-02-04 23:02:45,2025-02-04 23:06:33,228.465,0.072%,
542,2025-02-05 00:37:28,2025-02-05 00:41:15,226.485,0.072%,
543,2025-02-05 02:12:13,2025-02-05 02:15:56,223.664,0.071%,
544,2025-02-05 03:46:55,2025-02-05 03:50:38,222.99,0.071%,
545,2025-02-05 05:21:40,2025-02-05 05:25:20,219.841,0.070%,
546,2025-02-05 06:56:24,2025-02-05 07:00:03,218.509,0.069%,
547,2025-02-05 08:31:08,2025-02-05 08:35:07,238.789,0.076%,
548,2025-02-05 10:05:52,2025-02-05 10:09:49,236.779,0.075%,
549,2025-02-05 11:40:35,2025-02-05 11:44:31,236.727,0.075%,
550,2025-02-05 13:15:20,2025-02-05 13:19:14,233.367,0.074%,
551,2025-02-05 14:50:04,2025-02-05 14:53:56,231.321,0.073%,
552,2025-02-05 16:24:48,2025-02-05 16:28:37,228.941,0.073%,
553,2025-02-05 17:59:32,2025-02-05 18:03:18,225.997,0.072%,
554,2025-02-05 19:34:16,2025-02-05 19:38:01,224.403,0.071%,
555,2025-02-05 21:09:00,2025-02-05 21:12:43,223.119,0.071%,
556,2025-02-05 22:43:44,2025-02-05 22:47:47,242.853,0.077%,
557,2025-02-06 00:18:28,2025-02-06 00:22:30,241.455,0.077%,
558,2025-02-06 01:53:12,2025-02-06 01:57:12,239.92,0.076%,
559,2025-02-06 03:27:56,2025-02-06 03:31:54,238.213,0.076%,
560,2025-02-06 05:02:40,2025-02-06 05:06:36,236.295,0.075%,
561,2025-02-06 06:37:24,2025-02-06 06:41:18,234.089,0.074%,
562,2025-02-06 08:12:08,2025-02-06 08:15:59,231.458,0.073%,
563,2025-02-06 09:46:52,2025-02-06 09:50:41,228.935,0.073%,
564,2025-02-06 11:21:36,2025-02-06 11:25:24,227.699,0.072%,
565,2025-02-06 12:56:29,2025-02-06 13:00:06,217.004,0.069%,
566,2025-02-06 14:31:11,2025-02-06 14:35:10,238.741,0.076%,
567,2025-02-06 16:06:00,2025-02-06 16:09:52,231.92,0.074%,
568,2025-02-06 17:40:38,2025-02-06 17:44:35,236.675,0.075%,
569,2025-02-06 19:15:26,2025-02-06 19:19:17,230.993,0.073%,
570,2025-02-06 20:50:09,2025-02-06 20:53:59,229.403,0.073%,
571,2025-02-06 22:24:59,2025-02-06 22:28:40,220.949,0.070%,
572,2025-02-06 23:59:41,2025-02-07 00:03:21,220.686,0.070%,
573,2025-02-07 01:34:27,2025-02-07 01:38:04,216.466,0.069%,
574,2025-02-07 03:09:11,2025-02-07 03:12:47,215.177,0.068%,
575,2025-02-07 04:43:50,2025-02-07 04:47:50,240.604,0.076%,
576,2025-02-07 06:18:39,2025-02-07 06:22:33,233.508,0.074%,
577,2025-02-07 07:53:20,2025-02-07 07:57:15,235.032,0.075%,
578,2025-02-07 09:28:07,2025-02-07 09:31:57,230.253,0.073%,
579,2025-02-07 11:02:51,2025-02-07 11:06:40,228.325,0.072%,
580,2025-02-07 12:37:35,2025-02-07 12:41:21,226.31,0.072%,
581,2025-02-07 14:12:19,2025-02-07 14:16:03,223.453,0.071%,
582,2025-02-07 15:47:01,2025-02-07 15:50:44,222.928,0.071%,
583,2025-02-07 17:21:47,2025-02-07 17:25:27,219.762,0.070%,
584,2025-02-07 18:56:31,2025-02-07 19:00:10,219.358,0.070%,
585,2025-02-07 20:31:14,2025-02-07 20:35:13,238.69,0.076%,
586,2025-02-07 22:05:59,2025-02-07 22:09:56,236.679,0.075%,
587,2025-02-07 23:40:41,2025-02-07 23:44:38,236.622,0.075%,
588,2025-02-08 01:15:27,2025-02-08 01:19:20,233.237,0.074%,
589,2025-02-08 02:50:11,2025-02-08 02:54:02,231.168,0.073%,
590,2025-02-08 04:24:55,2025-02-08 04:28:44,228.754,0.073%,
591,2025-02-08 05:59:39,2025-02-08 06:03:25,225.744,0.072%,
592,2025-02-08 07:34:23,2025-02-08 07:38:07,224.328,0.071%,
593,2025-02-08 09:09:07,2025-02-08 09:12:50,223.45,0.071%,
594,2025-02-08 10:43:51,2025-02-08 10:47:53,242.77,0.077%,
595,2025-02-08 12:18:35,2025-02-08 12:22:36,241.361,0.077%,
596,2025-02-08 13:53:19,2025-02-08 13:57:18,239.809,0.076%,
597,2025-02-08 15:28:03,2025-02-08 15:32:01,238.092,0.076%,
598,2025-02-08 17:02:47,2025-02-08 17:06:43,236.154,0.075%,
599,2025-02-08 18:37:31,2025-02-08 18:41:24,233.92,0.074%,
600,2025-02-08 20:12:15,2025-02-08 20:16:06,231.244,0.073%,
601,2025-02-08 21:46:58,2025-02-08 21:50:47,228.864,0.073%,
602,2025-02-08 23:21:42,2025-02-08 23:25:30,227.62,0.072%,
603,2025-02-09 00:56:36,2025-02-09 01:00:13,216.922,0.069%,
604,2025-02-09 02:31:18,2025-02-09 02:35:16,238.641,0.076%,
605,2025-02-09 04:06:07,2025-02-09 04:09:59,231.826,0.074%,
606,2025-02-09 05:40:45,2025-02-09 05:44:41,236.57,0.075%,
607,2025-02-09 07:15:33,2025-02-09 07:19:23,230.854,0.073%,
608,2025-02-09 08:50:16,2025-02-09 08:54:05,229.257,0.073%,
609,2025-02-09 10:25:06,2025-02-09 10:28:47,220.76,0.070%,
610,2025-02-09 11:59:47,2025-02-09 12:03:28,220.425,0.070%,
611,2025-02-09 13:34:34,2025-02-09 13:38:10,216.39,0.069%,
612,2025-02-09 15:09:18,2025-02-09 15:12:53,215.093,0.068%,
613,2025-02-09 16:43:56,2025-02-09 16:47:57,240.529,0.076%,
614,2025-02-09 18:18:46,2025-02-09 18:22:39,233.413,0.074%,
615,2025-02-09 19:53:27,2025-02-09 19:57:22,234.916,0.075%,
616,2025-02-09 21:28:14,2025-02-09 21:32:04,230.13,0.073%,
617,2025-02-09 23:02:58,2025-02-09 23:06:46,228.181,0.072%,
618,2025-02-10 00:37:42,2025-02-10 00:41:28,226.133,0.072%,
619,2025-02-10 02:12:26,2025-02-10 02:16:09,223.237,0.071%,
620,2025-02-10 03:47:08,2025-02-10 03:50:51,222.864,0.071%,
621,2025-02-10 05:21:54,2025-02-10 05:25:33,219.683,0.070%,
622,2025-02-10 06:56:38,2025-02-10 07:00:16,218.331,0.069%,
623,2025-02-10 08:31:21,2025-02-10 08:35:20,238.593,0.076%,
624,2025-02-10 10:06:06,2025-02-10 10:10:02,236.578,0.075%,
625,2025-02-10 11:40:48,2025-02-10 11:44:44,236.517,0.075%,
626,2025-02-10 13:15:33,2025-02-10 13:19:27,233.105,0.074%,
627,2025-02-10 14:50:17,2025-02-10 14:54:08,231.013,0.073%,
628,2025-02-10 16:25:01,2025-02-10 16:28:50,228.564,0.073%,
629,2025-02-10 17:59:45,2025-02-10 18:03:31,225.486,0.072%,
630,2025-02-10 19:34:29,2025-02-10 19:38:14,224.252,0.071%,
631,2025-02-10 21:09:13,2025-02-10 21:12:56,222.951,0.071%,
632,2025-02-10 22:43:57,2025-02-10 22:48:00,242.686,0.077%,
633,2025-02-11 00:18:41,2025-02-11 00:22:43,241.266,0.077%,
634,2025-02-11 01:53:25,2025-02-11 01:57:25,239.703,0.076%,
635,2025-02-11 03:28:09,2025-02-11 03:32:07,237.969,0.076%,
636,2025-02-11 05:02:53,2025-02-11 05:06:49,236.008,0.075%,
637,2025-02-11 06:37:37,2025-02-11 06:41:31,233.749,0.074%,
638,2025-02-11 08:12:21,2025-02-11 08:16:12,231.026,0.073%,
639,2025-02-11 09:47:05,2025-02-11 09:50:54,228.79,0.073%,
640,2025-02-11 11:21:49,2025-02-11 11:25:37,227.54,0.072%,
641,2025-02-11 12:56:42,2025-02-11 13:00:19,216.84,0.069%,
642,2025-02-11 14:31:24,2025-02-11 14:35:23,238.544,0.076%,
643,2025-02-11 16:06:14,2025-02-11 16:10:05,231.732,0.074%,
644,2025-02-11 17:40:51,2025-02-11 17:44:48,236.464,0.075%,
645,2025-02-11 19:15:39,2025-02-11 19:19:30,230.714,0.073%,
646,2025-02-11 20:50:23,2025-02-11 20:54:12,229.109,0.073%,
647,2025-02-11 22:25:13,2025-02-11 22:28:53,220.568,0.070%,
648,2025-02-11 23:59:54,2025-02-12 00:03:34,220.217,0.070%,
649,2025-02-12 01:34:41,2025-02-12 01:38:17,216.314,0.069%,
650,2025-02-12 03:09:25,2025-02-12 03:13:00,215.008,0.068%,
651,2025-02-12 04:44:03,2025-02-12 04:48:03,240.451,0.076%,
652,2025-02-12 06:18:52,2025-02-12 06:22:46,233.318,0.074%,
653,2025-02-12 07:53:33,2025-02-12 07:57:28,234.802,0.075%,
654,2025-02-12 09:28:20,2025-02-12 09:32:10,230.007,0.073%,
655,2025-02-12 11:03:04,2025-02-12 11:06:52,228.036,0.072%,
656,2025-02-12 12:37:48,2025-02-12 12:41:34,225.954,0.072%,
657,2025-02-12 14:12:32,2025-02-12 14:16:15,223.016,0.071%,
658,2025-02-12 15:47:14,2025-02-12 15:50:57,222.8,0.071%,
659,2025-02-12 17:22:00,2025-02-12 17:25:40,219.603,0.070%,
660,2025-02-12 18:56:44,2025-02-12 19:00:24,219.357,0.070%,
661,2025-02-12 20:31:28,2025-02-12 20:35:26,238.495,0.076%,
662,2025-02-12 22:06:12,2025-02-12 22:10:09,236.477,0.075%,
663,2025-02-12 23:40:55,2025-02-12 23:44:51,236.411,0.075%,
664,2025-02-13 01:15:40,2025-02-13 01:19:33,232.973,0.074%,
665,2025-02-13 02:50:24,2025-02-13 02:54:15,230.857,0.073%,
666,2025-02-13 04:25:08,2025-02-13 04:28:56,228.371,0.072%,
667,2025-02-13 05:59:52,2025-02-13 06:03:37,225.383,0.072%,
668,2025-02-13 07:34:36,2025-02-13 07:38:20,224.176,0.071%,
669,2025-02-13 09:09:20,2025-02-13 09:13:03,223.453,0.071%,
670,2025-02-13 10:44:04,2025-02-13 10:48:07,242.599,0.077%,
671,2025-02-13 12:18:48,2025-02-13 12:22:49,241.171,0.077%,
672,2025-02-13 13:53:32,2025-02-13 13:57:31,239.597,0.076%,
673,2025-02-13 15:28:16,2025-02-13 15:32:14,237.846,0.075%,
674,2025-02-13 17:03:00,2025-02-13 17:06:56,235.864,0.075%,
675,2025-02-13 18:37:44,2025-02-13 18:41:37,233.577,0.074%,
676,2025-02-13 20:12:28,2025-02-13 20:16:19,230.803,0.073%,
677,2025-02-13 21:47:12,2025-02-13 21:51:00,228.719,0.073%,
678,2025-02-13 23:21:56,2025-02-13 23:21:58,1.941,0.001%,
679,2025-02-13 23:22:06,2025-02-13 23:25:43,216.938,0.069%,
680,2025-02-14 00:56:49,2025-02-14 01:00:26,216.759,0.069%,
681,2025-02-14 02:31:31,2025-02-14 02:35:29,238.445,0.076%,
682,2025-02-14 04:06:20,2025-02-14 04:10:12,231.638,0.074%,
683,2025-02-14 05:40:58,2025-02-14 05:44:54,236.358,0.075%,
684,2025-02-14 07:15:46,2025-02-14 07:19:36,230.573,0.073%,
685,2025-02-14 08:50:29,2025-02-14 08:54:18,228.961,0.073%,
686,2025-02-14 10:25:19,2025-02-14 10:29:00,220.371,0.070%,
687,2025-02-14 12:00:00,2025-02-14 12:03:41,220.155,0.070%,
688,2025-02-14 13:34:47,2025-02-14 13:38:23,216.238,0.069%,
689,2025-02-14 15:09:31,2025-02-14 15:13:06,214.924,0.068%,
690,2025-02-14 16:44:09,2025-02-14 16:48:10,240.375,0.076%,
691,2025-02-14 18:18:59,2025-02-14 18:22:52,233.223,0.074%,
692,2025-02-14 19:53:40,2025-02-14 19:57:35,234.686,0.074%,
693,2025-02-14 21:28:27,2025-02-14 21:32:17,229.884,0.073%,
694,2025-02-14 23:03:11,2025-02-14 23:06:59,227.892,0.072%,
695,2025-02-15 00:37:55,2025-02-15 00:41:41,225.773,0.072%,
696,2025-02-15 02:12:39,2025-02-15 02:16:22,222.791,0.071%,
697,2025-02-15 03:47:21,2025-02-15 03:51:04,222.736,0.071%,
698,2025-02-15 05:22:07,2025-02-15 05:25:46,219.523,0.070%,
699,2025-02-15 06:56:51,2025-02-15 07:00:29,218.152,0.069%,
700,2025-02-15 07:00:44,2025-02-15 07:00:50,5.591,0.002%,
701,2025-02-15 08:31:34,2025-02-15 08:35:33,238.396,0.076%,
702,2025-02-15 10:06:19,2025-02-15 10:10:15,236.376,0.075%,
703,2025-02-15 11:41:01,2025-02-15 11:44:57,236.305,0.075%,
704,2025-02-15 13:15:47,2025-02-15 13:19:40,232.839,0.074%,
705,2025-02-15 14:50:31,2025-02-15 14:54:21,230.699,0.073%,
706,2025-02-15 16:25:15,2025-02-15 16:29:03,228.17,0.072%,
707,2025-02-15 17:59:59,2025-02-15 18:03:44,225.315,0.071%,
708,2025-02-15 19:34:43,2025-02-15 19:38:27,224.1,0.071%,
709,2025-02-15 21:09:27,2025-02-15 21:13:09,222.781,0.071%,
710,2025-02-15 22:44:11,2025-02-15 22:48:13,242.514,0.077%,
711,2025-02-16 00:18:54,2025-02-16 00:22:56,241.075,0.076%,
712,2025-02-16 01:53:38,2025-02-16 01:57:38,239.489,0.076%,
713,2025-02-16 03:28:22,2025-02-16 03:32:20,237.721,0.075%,
714,2025-02-16 05:03:06,2025-02-16 05:07:02,235.719,0.075%,
715,2025-02-16 06:37:50,2025-02-16 06:41:44,233.403,0.074%,
716,2025-02-16 08:12:34,2025-02-16 08:16:25,230.575,0.073%,
717,2025-02-16 09:47:18,2025-02-16 09:51:07,228.646,0.073%,
718,2025-02-16 11:22:13,2025-02-16 11:25:50,216.776,0.069%,
719,2025-02-16 12:56:56,2025-02-16 13:00:32,216.677,0.069%,
720,2025-02-16 13:00:40,2025-02-16 13:00:53,13.367,0.004%,
721,2025-02-16 14:31:38,2025-02-16 14:35:36,238.346,0.076%,
722,2025-02-16 16:06:27,2025-02-16 16:10:18,231.543,0.073%,
723,2025-02-16 17:41:04,2025-02-16 17:45:01,236.251,0.075%,
724,2025-02-16 19:15:52,2025-02-16 19:19:43,230.43,0.073%,
725,2025-02-16 20:50:36,2025-02-16 20:54:25,228.811,0.073%,
726,2025-02-16 22:25:26,2025-02-16 22:29:06,220.172,0.070%,
727,2025-02-17 00:00:07,2025-02-17 00:03:47,220.097,0.070%,
728,2025-02-17 01:34:54,2025-02-17 01:38:30,216.161,0.069%,
729,2025-02-17 03:09:38,2025-02-17 03:13:13,214.838,0.068%,
730,2025-02-17 04:44:16,2025-02-17 04:48:16,240.299,0.076%,
731,2025-02-17 06:19:06,2025-02-17 06:22:59,233.126,0.074%,
732,2025-02-17 07:53:47,2025-02-17 07:57:41,234.568,0.074%,
733,2025-02-17 09:28:34,2025-02-17 09:32:23,229.759,0.073%,
734,2025-02-17 11:03:18,2025-02-17 11:07:05,227.746,0.072%,
735,2025-02-17 12:38:01,2025-02-17 12:41:47,225.588,0.072%,
736,2025-02-17 14:12:46,2025-02-17 14:16:28,222.56,0.071%,
737,2025-02-17 15:47:28,2025-02-17 15:51:10,222.672,0.071%,
738,2025-02-17 17:22:13,2025-02-17 17:25:53,219.442,0.070%,
739,2025-02-17 18:56:57,2025-02-17 19:00:57,239.177,0.076%,
740,2025-02-17 20:31:41,2025-02-17 20:35:39,238.296,0.076%,
741,2025-02-17 22:06:25,2025-02-17 22:10:22,236.273,0.075%,
742,2025-02-17 23:41:08,2025-02-17 23:45:04,236.197,0.075%,
743,2025-02-18 01:15:53,2025-02-18 01:19:46,232.704,0.074%,
744,2025-02-18 02:50:37,2025-02-18 02:54:28,230.539,0.073%,
745,2025-02-18 04:25:21,2025-02-18 04:29:09,227.97,0.072%,
746,2025-02-18 06:00:05,2025-02-18 06:03:50,225.246,0.071%,
747,2025-02-18 07:34:49,2025-02-18 07:38:33,224.023,0.071%,
748,2025-02-18 09:09:33,2025-02-18 09:13:17,223.454,0.071%,
749,2025-02-18 10:44:17,2025-02-18 10:48:20,242.428,0.077%,
750,2025-02-18 12:19:01,2025-02-18 12:23:02,240.978,0.076%,
751,2025-02-18 13:53:45,2025-02-18 13:57:44,239.379,0.076%,
752,2025-02-18 15:28:29,2025-02-18 15:32:27,237.595,0.075%,
753,2025-02-18 17:03:13,2025-02-18 17:07:09,235.571,0.075%,
754,2025-02-18 18:37:57,2025-02-18 18:41:50,233.224,0.074%,
755,2025-02-18 20:12:41,2025-02-18 20:16:31,230.341,0.073%,
756,2025-02-18 21:47:25,2025-02-18 21:51:13,228.572,0.073%,
757,2025-02-18 23:22:19,2025-02-18 23:25:56,216.928,0.069%,
758,2025-02-19 00:57:02,2025-02-19 01:01:00,237.715,0.075%,
759,2025-02-19 02:31:44,2025-02-19 02:31:47,3.174,0.001%,
760,2025-02-19 02:31:53,2025-02-19 02:35:42,229.851,0.073%,
761,2025-02-19 04:06:33,2025-02-19 04:10:25,231.447,0.073%,
762,2025-02-19 05:41:11,2025-02-19 05:45:07,236.143,0.075%,
763,2025-02-19 07:15:59,2025-02-19 07:19:49,230.285,0.073%,
764,2025-02-19 08:50:42,2025-02-19 08:54:31,228.657,0.073%,
765,2025-02-19 10:25:32,2025-02-19 10:29:12,219.97,0.070%,
766,2025-02-19 12:00:14,2025-02-19 12:03:54,220.035,0.070%,
767,2025-02-19 13:35:00,2025-02-19 13:38:36,216.084,0.069%,
768,2025-02-19 15:09:44,2025-02-19 15:13:19,214.752,0.068%,
769,2025-02-19 16:44:23,2025-02-19 16:48:23,240.222,0.076%,
770,2025-02-19 18:19:12,2025-02-19 18:23:05,233.029,0.074%,
771,2025-02-19 19:53:53,2025-02-19 19:57:48,234.448,0.074%,
772,2025-02-19 21:28:40,2025-02-19 21:32:30,229.632,0.073%,
773,2025-02-19 23:03:24,2025-02-19 23:07:12,227.597,0.072%,
774,2025-02-20 00:38:08,2025-02-20 00:41:53,225.4,0.072%,
775,2025-02-20 02:12:52,2025-02-20 02:16:34,222.322,0.071%,
776,2025-02-20 03:47:34,2025-02-20 03:51:17,222.607,0.071%,
777,2025-02-20 05:22:20,2025-02-20 05:25:59,219.357,0.070%,
778,2025-02-20 06:57:04,2025-02-20 07:01:03,239.096,0.076%,
779,2025-02-20 08:31:48,2025-02-20 08:35:46,237.701,0.075%,
780,2025-02-20 10:06:32,2025-02-20 10:10:28,236.169,0.075%,
781,2025-02-20 11:41:14,2025-02-20 11:45:10,236.088,0.075%,
782,2025-02-20 13:16:00,2025-02-20 13:19:52,232.567,0.074%,
783,2025-02-20 14:50:44,2025-02-20 14:54:34,230.375,0.073%,
784,2025-02-20 16:25:28,2025-02-20 16:29:16,227.768,0.072%,
785,2025-02-20 18:00:12,2025-02-20 18:03:57,225.175,0.071%,
786,2025-02-20 19:34:56,2025-02-20 19:38:40,223.945,0.071%,
787,2025-02-20 21:09:40,2025-02-20 21:13:22,222.609,0.071%,
788,2025-02-20 21:13:36,2025-02-20 21:13:44,8.118,0.003%,
789,2025-02-20 22:44:24,2025-02-20 22:48:26,242.341,0.077%,
790,2025-02-21 00:19:08,2025-02-21 00:23:09,240.879,0.076%,
791,2025-02-21 01:53:52,2025-02-21 01:57:51,239.268,0.076%,
792,2025-02-21 03:28:36,2025-02-21 03:32:33,237.467,0.075%,
793,2025-02-21 05:03:20,2025-02-21 05:07:15,235.421,0.075%,
794,2025-02-21 06:38:04,2025-02-21 06:41:57,233.042,0.074%,
795,2025-02-21 08:12:48,2025-02-21 08:16:38,230.097,0.073%,
796,2025-02-21 09:47:37,2025-02-21 09:51:20,222.574,0.071%,
797,2025-02-21 11:22:26,2025-02-21 11:26:03,216.595,0.069%,
798,2025-02-21 12:57:09,2025-02-21 13:01:06,237.64,0.075%,
799,2025-02-21 14:31:59,2025-02-21 14:35:49,229.758,0.073%,
800,2025-02-21 16:06:40,2025-02-21 16:10:31,231.35,0.073%,
801,2025-02-21 17:41:27,2025-02-21 17:45:14,226.516,0.072%,
802,2025-02-21 19:16:06,2025-02-21 19:19:56,230.138,0.073%,
803,2025-02-21 20:50:49,2025-02-21 20:54:37,228.501,0.073%,
804,2025-02-21 22:25:39,2025-02-21 22:29:19,219.76,0.070%,
805,2025-02-22 00:00:20,2025-02-22 00:04:00,219.971,0.070%,
806,2025-02-22 01:35:07,2025-02-22 01:38:43,216.005,0.069%,
807,2025-02-22 03:09:51,2025-02-22 03:13:26,214.665,0.068%,
808,2025-02-22 03:13:27,2025-02-22 03:13:47,20.396,0.007%,
809,2025-02-22 04:44:29,2025-02-22 04:48:29,240.144,0.076%,
810,2025-02-22 06:19:19,2025-02-22 06:23:12,232.93,0.074%,
811,2025-02-22 07:54:00,2025-02-22 07:57:54,234.328,0.074%,
812,2025-02-22 09:28:47,2025-02-22 09:32:36,229.503,0.073%,
813,2025-02-22 11:03:31,2025-02-22 11:07:18,227.446,0.072%,
814,2025-02-22 12:38:15,2025-02-22 12:42:00,225.207,0.071%,
815,2025-02-22 14:12:59,2025-02-22 14:16:41,222.072,0.070%,
816,2025-02-22 15:47:41,2025-02-22 15:51:23,222.541,0.071%,
817,2025-02-22 17:22:27,2025-02-22 17:26:06,219.275,0.070%,
818,2025-02-22 18:57:11,2025-02-22 19:01:10,239.013,0.076%,
819,2025-02-22 20:31:55,2025-02-22 20:35:52,237.608,0.075%,
820,2025-02-22 22:06:39,2025-02-22 22:10:35,236.064,0.075%,
821,2025-02-22 23:41:23,2025-02-22 23:45:17,234.354,0.074%,
822,2025-02-23 01:16:07,2025-02-23 01:19:59,232.427,0.074%,
823,2025-02-23 02:50:50,2025-02-23 02:54:41,230.209,0.073%,
824,2025-02-23 04:25:34,2025-02-23 04:29:22,227.554,0.072%,
825,2025-02-23 06:00:18,2025-02-23 06:04:04,225.104,0.071%,
826,2025-02-23 07:35:02,2025-02-23 07:38:46,223.866,0.071%,
827,2025-02-23 09:09:46,2025-02-23 09:13:51,244.185,0.077%,
828,2025-02-23 10:44:30,2025-02-23 10:48:33,242.254,0.077%,
829,2025-02-23 12:19:14,2025-02-23 12:23:15,240.783,0.076%,
830,2025-02-23 13:53:58,2025-02-23 13:57:57,239.155,0.076%,
831,2025-02-23 15:28:42,2025-02-23 15:32:40,237.337,0.075%,
832,2025-02-23 17:03:26,2025-02-23 17:07:21,235.269,0.075%,
833,2025-02-23 18:38:10,2025-02-23 18:42:03,232.855,0.074%,
834,2025-02-23 20:12:54,2025-02-23 20:16:44,229.845,0.073%,
835,2025-02-23 21:47:44,2025-02-23 21:51:27,222.507,0.071%,
836,2025-02-23 23:22:33,2025-02-23 23:26:10,216.918,0.069%,
837,2025-02-23 23:26:32,2025-02-23 23:26:32,0.108,0.000%,
838,2025-02-24 00:57:15,2025-02-24 01:01:13,237.565,0.075%,
839,2025-02-24 02:32:06,2025-02-24 02:35:55,229.664,0.073%,
840,2025-02-24 04:06:47,2025-02-24 04:10:38,231.25,0.073%,
841,2025-02-24 05:41:34,2025-02-24 05:45:20,226.395,0.072%,
842,2025-02-24 07:16:12,2025-02-24 07:20:02,229.99,0.073%,
843,2025-02-24 08:50:56,2025-02-24 08:54:44,228.341,0.072%,
844,2025-02-24 10:25:46,2025-02-24 10:29:25,219.547,0.070%,
845,2025-02-24 12:00:27,2025-02-24 12:04:07,219.907,0.070%,
846,2025-02-24 13:35:14,2025-02-24 13:38:50,215.926,0.069%,
847,2025-02-24 15:09:58,2025-02-24 15:13:54,236.138,0.075%,
848,2025-02-24 16:44:36,2025-02-24 16:48:36,240.064,0.076%,
849,2025-02-24 18:19:26,2025-02-24 18:23:18,232.833,0.074%,
850,2025-02-24 19:54:06,2025-02-24 19:58:01,234.206,0.074%,
851,2025-02-24 21:28:53,2025-02-24 21:32:43,229.372,0.073%,
852,2025-02-24 23:03:37,2025-02-24 23:07:25,227.292,0.072%,
853,2025-02-25 00:38:21,2025-02-25 00:42:06,225.012,0.071%,
854,2025-02-25 02:13:05,2025-02-25 02:16:47,221.819,0.070%,
855,2025-02-25 03:47:47,2025-02-25 03:51:30,222.473,0.071%,
856,2025-02-25 05:22:33,2025-02-25 05:26:12,219.191,0.070%,
857,2025-02-25 05:26:20,2025-02-25 05:26:35,14.702,0.005%,
858,2025-02-25 06:57:17,2025-02-25 07:01:16,238.929,0.076%,
859,2025-02-25 08:32:01,2025-02-25 08:35:59,237.514,0.075%,
860,2025-02-25 10:06:45,2025-02-25 10:10:41,235.958,0.075%,
861,2025-02-25 11:41:29,2025-02-25 11:45:23,234.232,0.074%,
862,2025-02-25 13:16:13,2025-02-25 13:20:05,232.281,0.074%,
863,2025-02-25 14:50:57,2025-02-25 14:54:47,230.039,0.073%,
864,2025-02-25 16:25:41,2025-02-25 16:29:28,227.338,0.072%,
865,2025-02-25 18:00:25,2025-02-25 18:04:10,225.032,0.071%,
866,2025-02-25 19:35:09,2025-02-25 19:38:53,223.785,0.071%,
867,2025-02-25 21:09:53,2025-02-25 21:13:57,243.888,0.077%,
868,2025-02-25 22:44:37,2025-02-25 22:48:39,242.165,0.077%,
869,2025-02-26 00:19:21,2025-02-26 00:23:22,240.683,0.076%,
870,2025-02-26 01:54:05,2025-02-26 01:58:04,239.041,0.076%,
871,2025-02-26 03:28:49,2025-02-26 03:32:46,237.206,0.075%,
872,2025-02-26 05:03:33,2025-02-26 05:07:28,235.114,0.075%,
873,2025-02-26 06:38:17,2025-02-26 06:42:09,232.661,0.074%,
874,2025-02-26 08:13:13,2025-02-26 08:16:50,217.353,0.069%,
875,2025-02-26 09:47:51,2025-02-26 09:51:33,222.44,0.071%,
876,2025-02-26 11:22:39,2025-02-26 11:26:38,238.989,0.076%,
877,2025-02-26 12:57:22,2025-02-26 13:01:19,237.488,0.075%,
878,2025-02-26 14:32:12,2025-02-26 14:36:02,229.569,0.073%,
879,2025-02-26 16:06:53,2025-02-26 16:10:44,231.151,0.073%,
880,2025-02-26 17:41:40,2025-02-26 17:45:27,226.272,0.072%,
881,2025-02-26 19:16:19,2025-02-26 19:20:09,229.836,0.073%,
882,2025-02-26 20:51:02,2025-02-26 20:54:50,228.176,0.072%,
883,2025-02-26 22:25:52,2025-02-26 22:29:32,219.329,0.070%,
884,2025-02-27 00:00:33,2025-02-27 00:04:13,219.843,0.070%,
885,2025-02-27 01:35:20,2025-02-27 01:38:56,215.842,0.068%,
886,2025-02-27 03:10:04,2025-02-27 03:14:00,235.839,0.075%,
887,2025-02-27 04:44:42,2025-02-27 04:48:42,239.984,0.076%,
888,2025-02-27 06:19:32,2025-02-27 06:23:25,232.732,0.074%,
889,2025-02-27 07:54:13,2025-02-27 07:58:07,234.083,0.074%,
890,2025-02-27 09:29:00,2025-02-27 09:32:49,229.24,0.073%,
891,2025-02-27 11:03:44,2025-02-27 11:07:31,227.137,0.072%,
892,2025-02-27 12:38:28,2025-02-27 12:42:13,224.808,0.071%,
893,2025-02-27 14:13:12,2025-02-27 14:16:54,221.615,0.070%,
894,2025-02-27 15:47:54,2025-02-27 15:51:36,222.406,0.071%,
895,2025-02-27 17:22:40,2025-02-27 17:26:41,241.598,0.077%,
896,2025-02-27 18:57:24,2025-02-27 19:01:23,238.843,0.076%,
897,2025-02-27 20:32:08,2025-02-27 20:36:05,237.419,0.075%,
898,2025-02-27 22:06:52,2025-02-27 22:10:48,235.851,0.075%,
899,2025-02-27 23:41:36,2025-02-27 23:45:30,234.109,0.074%,
900,2025-02-28 01:16:20,2025-02-28 01:20:12,232.139,0.074%,
901,2025-02-28 02:51:04,2025-02-28 02:54:54,229.866,0.073%,
902,2025-02-28 04:25:48,2025-02-28 04:29:35,227.119,0.072%,
903,2025-02-28 06:00:32,2025-02-28 06:04:17,224.96,0.071%,
904,2025-02-28 07:35:16,2025-02-28 07:38:59,223.704,0.071%,
905,2025-02-28 07:39:08,2025-02-28 07:39:23,14.221,0.005%,
906,2025-02-28 09:10:00,2025-02-28 09:14:03,243.585,0.077%,
907,2025-02-28 10:44:44,2025-02-28 10:48:46,242.073,0.077%,
908,2025-02-28 12:19:28,2025-02-28 12:23:28,240.579,0.076%,
909,2025-02-28 13:54:11,2025-02-28 13:58:10,238.926,0.076%,
910,2025-02-28 15:28:55,2025-02-28 15:32:53,237.074,0.075%,
911,2025-02-28 17:03:39,2025-02-28 17:07:34,234.958,0.075%,
912,2025-02-28 18:38:23,2025-02-28 18:38:29,5.145,0.002%,
913,2025-02-28 18:38:31,2025-02-28 18:42:16,224.707,0.071%,
914,2025-02-28 20:13:20,2025-02-28 20:16:57,217.25,0.069%,
915,2025-02-28 21:47:57,2025-02-28 21:51:40,222.373,0.071%,
916,2025-02-28 23:22:46,2025-02-28 23:26:45,238.73,0.076%,
917,2025-03-01 00:57:29,2025-03-01 01:01:26,237.409,0.075%,
918,2025-03-01 02:32:19,2025-03-01 02:36:08,229.474,0.073%,
919,2025-03-01 04:07:00,2025-03-01 04:10:51,231.051,0.073%,
920,2025-03-01 05:41:47,2025-03-01 05:45:33,226.149,0.072%,
921,2025-03-01 07:16:25,2025-03-01 07:20:15,229.684,0.073%,
922,2025-03-01 08:51:09,2025-03-01 08:54:57,228.013,0.072%,
923,2025-03-01 10:25:59,2025-03-01 10:29:38,219.106,0.070%,
924,2025-03-01 12:00:40,2025-03-01 12:04:20,219.774,0.070%,
925,2025-03-01 13:35:27,2025-03-01 13:39:26,239.088,0.076%,
926,2025-03-01 15:10:11,2025-03-01 15:14:06,235.524,0.075%,
927,2025-03-01 16:44:55,2025-03-01 16:48:49,234.128,0.074%,
928,2025-03-01 18:19:39,2025-03-01 18:23:31,232.629,0.074%,
929,2025-03-01 19:54:20,2025-03-01 19:58:14,233.34,0.074%,
930,2025-03-01 21:29:07,2025-03-01 21:32:56,229.108,0.073%,
931,2025-03-01 23:03:51,2025-03-01 23:07:38,226.981,0.072%,
932,2025-03-02 00:38:34,2025-03-02 00:42:19,224.606,0.071%,
933,2025-03-02 02:13:19,2025-03-02 02:17:00,221.547,0.070%,
934,2025-03-02 03:48:01,2025-03-02 03:51:43,222.339,0.071%,
935,2025-03-02 05:22:46,2025-03-02 05:26:48,241.346,0.077%,
936,2025-03-02 06:57:30,2025-03-02 07:01:29,238.758,0.076%,
937,2025-03-02 08:32:14,2025-03-02 08:36:12,237.324,0.075%,
938,2025-03-02 10:06:58,2025-03-02 10:10:54,235.744,0.075%,
939,2025-03-02 11:41:42,2025-03-02 11:45:36,233.986,0.074%,
940,2025-03-02 13:16:26,2025-03-02 13:20:18,231.995,0.074%,
941,2025-03-02 14:51:10,2025-03-02 14:55:00,229.695,0.073%,
942,2025-03-02 16:25:54,2025-03-02 16:29:41,226.894,0.072%,
943,2025-03-02 18:00:38,2025-03-02 18:04:23,224.884,0.071%,
944,2025-03-02 19:35:22,2025-03-02 19:39:29,246.88,0.078%,
945,2025-03-02 21:10:06,2025-03-02 21:14:10,243.357,0.077%,
946,2025-03-02 22:44:50,2025-03-02 22:48:52,241.984,0.077%,
947,2025-03-03 00:19:34,2025-03-03 00:23:35,240.479,0.076%,
948,2025-03-03 01:54:18,2025-03-03 01:58:17,238.81,0.076%,
949,2025-03-03 03:29:02,2025-03-03 03:32:59,236.94,0.075%,
950,2025-03-03 05:03:46,2025-03-03 05:07:41,234.801,0.075%,
951,2025-03-03 06:38:38,2025-03-03 06:42:22,224.506,0.071%,
952,2025-03-03 08:13:26,2025-03-03 08:17:03,217.186,0.069%,
953,2025-03-03 09:48:04,2025-03-03 09:51:46,222.306,0.071%,
954,2025-03-03 09:51:52,2025-03-03 09:52:10,18.598,0.006%,
955,2025-03-03 11:22:53,2025-03-03 11:26:51,238.467,0.076%,
956,2025-03-03 12:57:35,2025-03-03 13:01:32,237.333,0.075%,
957,2025-03-03 14:32:26,2025-03-03 14:36:15,229.379,0.073%,
958,2025-03-03 16:07:06,2025-03-03 16:10:57,230.95,0.073%,
959,2025-03-03 17:41:54,2025-03-03 17:45:40,226.025,0.072%,
960,2025-03-03 19:16:32,2025-03-03 19:20:22,229.53,0.073%,
961,2025-03-03 20:51:15,2025-03-03 20:55:03,227.85,0.072%,
962,2025-03-03 22:26:05,2025-03-03 22:29:44,218.881,0.069%,
963,2025-03-04 00:00:47,2025-03-04 00:04:26,219.71,0.070%,
964,2025-03-04 01:35:33,2025-03-04 01:39:32,238.87,0.076%,
965,2025-03-04 03:10:17,2025-03-04 03:14:13,235.416,0.075%,
966,2025-03-04 04:45:01,2025-03-04 04:48:55,234.038,0.074%,
967,2025-03-04 06:19:45,2025-03-04 06:23:38,232.527,0.074%,
968,2025-03-04 07:54:27,2025-03-04 07:58:20,233.233,0.074%,
969,2025-03-04 09:29:13,2025-03-04 09:33:02,228.973,0.073%,
970,2025-03-04 11:03:57,2025-03-04 11:07:44,226.822,0.072%,
971,2025-03-04 12:38:41,2025-03-04 12:42:25,224.402,0.071%,
972,2025-03-04 14:13:25,2025-03-04 14:17:07,221.476,0.070%,
973,2025-03-04 15:48:07,2025-03-04 15:52:13,246.239,0.078%,
974,2025-03-04 17:22:53,2025-03-04 17:26:54,241.086,0.076%,
975,2025-03-04 18:57:37,2025-03-04 19:01:36,238.672,0.076%,
976,2025-03-04 20:32:21,2025-03-04 20:36:18,237.228,0.075%,
977,2025-03-04 22:07:05,2025-03-04 22:11:01,235.635,0.075%,
978,2025-03-04 23:41:49,2025-03-04 23:45:43,233.861,0.074%,
979,2025-03-05 01:16:33,2025-03-05 01:20:25,231.849,0.074%,
980,2025-03-05 02:51:17,2025-03-05 02:55:06,229.518,0.073%,
981,2025-03-05 04:26:01,2025-03-05 04:29:48,226.666,0.072%,
982,2025-03-05 06:00:45,2025-03-05 06:04:30,224.811,0.071%,
983,2025-03-05 06:04:47,2025-03-05 06:04:54,6.93,0.002%,
984,2025-03-05 07:35:29,2025-03-05 07:39:35,246.659,0.078%,
985,2025-03-05 09:10:13,2025-03-05 09:14:16,243.276,0.077%,
986,2025-03-05 10:44:57,2025-03-05 10:48:59,241.893,0.077%,
987,2025-03-05 12:19:41,2025-03-05 12:23:41,240.376,0.076%,
988,2025-03-05 13:54:25,2025-03-05 13:58:23,238.693,0.076%,
989,2025-03-05 15:29:09,2025-03-05 15:33:05,236.805,0.075%,
990,2025-03-05 17:04:02,2025-03-05 17:07:47,225.757,0.072%,
991,2025-03-05 18:38:44,2025-03-05 18:42:29,224.297,0.071%,
992,2025-03-05 20:13:33,2025-03-05 20:17:10,217.124,0.069%,
993,2025-03-05 21:48:10,2025-03-05 21:48:14,3.344,0.001%,
994,2025-03-05 21:48:20,2025-03-05 21:52:17,236.232,0.075%,
995,2025-03-05 23:22:59,2025-03-05 23:26:57,238.196,0.076%,
996,2025-03-06 00:57:42,2025-03-06 01:01:39,237.255,0.075%,
997,2025-03-06 02:32:32,2025-03-06 02:36:22,229.282,0.073%,
998,2025-03-06 04:07:13,2025-03-06 04:11:04,230.848,0.073%,
999,2025-03-06 05:42:00,2025-03-06 05:45:46,225.899,0.072%,
1000,2025-03-06 07:16:39,2025-03-06 07:20:28,229.374,0.073%,
1001,2025-03-06 08:51:22,2025-03-06 08:55:10,227.679,0.072%,
1002,2025-03-06 10:26:12,2025-03-06 10:29:51,218.648,0.069%,
1003,2025-03-06 12:00:53,2025-03-06 12:04:57,244.218,0.077%,
