3UCubedIntegratedSim/Reports & Plots/North Cusp @ 1 Degree/CSV/Sat9.csv

Number,Coverage Start (UTCG),Coverage End (UTCG),Duration (sec),Percent,
1,2025-01-01 16:23:46,2025-01-01 16:30:52,426.028,0.135%,
2,2025-01-01 17:58:30,2025-01-01 17:58:35,4.659,0.002%,
3,2025-01-01 17:58:36,2025-01-01 18:05:34,417.783,0.133%,
4,2025-01-01 19:33:26,2025-01-01 19:40:16,409.863,0.130%,
5,2025-01-01 21:08:07,2025-01-01 21:14:56,408.478,0.130%,
6,2025-01-01 22:42:49,2025-01-01 22:49:36,406.772,0.129%,
7,2025-01-02 00:17:38,2025-01-02 00:24:18,400.111,0.127%,
8,2025-01-02 00:25:06,2025-01-02 00:25:07,1.617,0.001%,
9,2025-01-02 01:52:26,2025-01-02 01:59:00,394.185,0.125%,
10,2025-01-02 01:59:15,2025-01-02 01:59:50,35.094,0.011%,
11,2025-01-02 03:27:04,2025-01-02 03:34:32,447.578,0.142%,
12,2025-01-02 05:01:48,2025-01-02 05:09:13,445.705,0.141%,
13,2025-01-02 06:36:38,2025-01-02 06:43:54,435.999,0.138%,
14,2025-01-02 08:11:19,2025-01-02 08:18:33,434.029,0.138%,
15,2025-01-02 09:46:06,2025-01-02 09:53:15,429.071,0.136%,
16,2025-01-02 11:20:43,2025-01-02 11:27:57,433.515,0.138%,
17,2025-01-02 12:55:34,2025-01-02 13:02:38,423.906,0.134%,
18,2025-01-02 14:30:18,2025-01-02 14:37:16,418.165,0.133%,
19,2025-01-02 16:04:58,2025-01-02 16:11:58,419.828,0.133%,
20,2025-01-02 17:39:45,2025-01-02 17:46:40,414.724,0.132%,
21,2025-01-02 19:14:29,2025-01-02 19:21:22,412.328,0.131%,
22,2025-01-02 20:49:13,2025-01-02 20:56:02,408.766,0.130%,
23,2025-01-02 22:23:57,2025-01-02 22:30:42,404.466,0.128%,
24,2025-01-02 23:58:40,2025-01-03 00:05:24,404.591,0.128%,
25,2025-01-03 01:33:25,2025-01-03 01:40:06,401.001,0.127%,
26,2025-01-03 01:40:53,2025-01-03 01:40:56,3.069,0.001%,
27,2025-01-03 03:08:09,2025-01-03 03:14:48,398.561,0.126%,
28,2025-01-03 03:15:02,2025-01-03 03:15:38,36.296,0.012%,
29,2025-01-03 04:42:52,2025-01-03 04:50:20,447.288,0.142%,
30,2025-01-03 06:17:37,2025-01-03 06:25:00,443.081,0.141%,
31,2025-01-03 07:52:21,2025-01-03 07:59:39,437.528,0.139%,
32,2025-01-03 09:27:05,2025-01-03 09:34:21,435.799,0.138%,
33,2025-01-03 11:01:49,2025-01-03 11:09:03,433.675,0.138%,
34,2025-01-03 12:36:33,2025-01-03 12:43:44,430.825,0.137%,
35,2025-01-03 14:11:17,2025-01-03 14:18:22,425.287,0.135%,
36,2025-01-03 15:46:01,2025-01-03 15:53:04,423.268,0.134%,
37,2025-01-03 17:20:45,2025-01-03 17:27:46,421.427,0.134%,
38,2025-01-03 18:55:29,2025-01-03 19:02:28,419.11,0.133%,
39,2025-01-03 20:30:13,2025-01-03 20:37:09,415.779,0.132%,
40,2025-01-03 22:04:57,2025-01-03 22:11:48,411.065,0.130%,
41,2025-01-03 23:39:41,2025-01-03 23:46:30,409.519,0.130%,
42,2025-01-04 01:14:25,2025-01-04 01:21:12,407.67,0.129%,
43,2025-01-04 02:49:09,2025-01-04 02:55:54,405.316,0.129%,
44,2025-01-04 02:56:39,2025-01-04 02:56:44,4.723,0.002%,
45,2025-01-04 04:23:53,2025-01-04 04:30:34,401.839,0.127%,
46,2025-01-04 04:30:48,2025-01-04 04:31:26,37.579,0.012%,
47,2025-01-04 05:58:37,2025-01-04 06:06:07,449.993,0.143%,
48,2025-01-04 07:33:21,2025-01-04 07:40:45,444.108,0.141%,
49,2025-01-04 09:08:14,2025-01-04 09:15:27,433.173,0.137%,
50,2025-01-04 10:42:56,2025-01-04 10:50:09,433.243,0.137%,
51,2025-01-04 12:17:45,2025-01-04 12:24:50,425.459,0.135%,
52,2025-01-04 13:52:33,2025-01-04 13:59:29,416.8,0.132%,
53,2025-01-04 15:27:11,2025-01-04 15:34:10,419.347,0.133%,
54,2025-01-04 17:01:54,2025-01-04 17:08:52,418.104,0.133%,
55,2025-01-04 18:36:44,2025-01-04 18:43:34,409.724,0.130%,
56,2025-01-04 20:11:25,2025-01-04 20:18:15,409.8,0.130%,
57,2025-01-04 21:46:12,2025-01-04 21:52:54,401.55,0.127%,
58,2025-01-04 23:20:50,2025-01-04 23:27:36,406.678,0.129%,
59,2025-01-05 00:55:35,2025-01-05 01:02:18,403.653,0.128%,
60,2025-01-05 02:30:24,2025-01-05 02:37:00,396.001,0.126%,
61,2025-01-05 04:05:05,2025-01-05 04:11:41,395.995,0.126%,
62,2025-01-05 04:12:25,2025-01-05 04:12:32,6.521,0.002%,
63,2025-01-05 05:39:52,2025-01-05 05:46:20,388.367,0.123%,
64,2025-01-05 05:46:34,2025-01-05 05:47:13,38.697,0.012%,
65,2025-01-05 07:14:36,2025-01-05 07:21:51,434.681,0.138%,
66,2025-01-05 08:49:20,2025-01-05 08:56:33,433.033,0.137%,
67,2025-01-05 10:24:04,2025-01-05 10:31:15,431.035,0.137%,
68,2025-01-05 11:58:44,2025-01-05 12:05:56,432.667,0.137%,
69,2025-01-05 13:33:32,2025-01-05 13:40:36,424.255,0.135%,
70,2025-01-05 15:08:16,2025-01-05 15:15:16,420.457,0.133%,
71,2025-01-05 16:42:59,2025-01-05 16:49:58,419.591,0.133%,
72,2025-01-05 18:17:44,2025-01-05 18:24:40,416.55,0.132%,
73,2025-01-05 19:52:28,2025-01-05 19:59:21,413.587,0.131%,
74,2025-01-05 21:27:12,2025-01-05 21:34:00,408.208,0.129%,
75,2025-01-05 23:01:56,2025-01-05 23:08:42,406.729,0.129%,
76,2025-01-06 00:36:40,2025-01-06 00:43:25,404.973,0.128%,
77,2025-01-06 02:11:24,2025-01-06 02:18:06,402.783,0.128%,
78,2025-01-06 03:46:08,2025-01-06 03:52:47,399.729,0.127%,
79,2025-01-06 05:20:51,2025-01-06 05:27:26,394.973,0.125%,
80,2025-01-06 05:28:11,2025-01-06 05:28:19,8.251,0.003%,
81,2025-01-06 06:55:35,2025-01-06 07:02:09,393.565,0.125%,
82,2025-01-06 07:02:20,2025-01-06 07:02:58,38.213,0.012%,
83,2025-01-06 08:30:19,2025-01-06 08:37:39,439.684,0.139%,
84,2025-01-06 10:05:03,2025-01-06 10:12:21,437.733,0.139%,
85,2025-01-06 11:39:47,2025-01-06 11:47:03,435.226,0.138%,
86,2025-01-06 13:14:31,2025-01-06 13:21:43,431.404,0.137%,
87,2025-01-06 14:49:15,2025-01-06 14:56:22,427.057,0.135%,
88,2025-01-06 16:23:59,2025-01-06 16:31:05,425.342,0.135%,
89,2025-01-06 17:58:43,2025-01-06 18:05:46,423.242,0.134%,
90,2025-01-06 19:33:27,2025-01-06 19:40:28,420.419,0.133%,
91,2025-01-06 21:08:11,2025-01-06 21:15:06,414.781,0.132%,
92,2025-01-06 22:43:02,2025-01-06 22:49:48,406.203,0.129%,
93,2025-01-07 00:17:51,2025-01-07 00:24:31,399.414,0.127%,
94,2025-01-07 01:52:39,2025-01-07 01:59:12,393.335,0.125%,
95,2025-01-07 03:27:17,2025-01-07 03:33:54,396.078,0.126%,
96,2025-01-07 05:02:01,2025-01-07 05:08:32,391.556,0.124%,
97,2025-01-07 06:36:51,2025-01-07 06:43:15,384.038,0.122%,
98,2025-01-07 06:43:56,2025-01-07 06:44:05,8.933,0.003%,
99,2025-01-07 08:11:32,2025-01-07 08:17:57,385.613,0.122%,
100,2025-01-07 08:18:05,2025-01-07 08:18:45,40.45,0.013%,
101,2025-01-07 09:46:19,2025-01-07 09:53:27,428.312,0.136%,
102,2025-01-07 11:20:56,2025-01-07 11:28:09,432.538,0.137%,
103,2025-01-07 12:55:41,2025-01-07 13:02:49,427.772,0.136%,
104,2025-01-07 14:30:31,2025-01-07 14:37:28,417.599,0.132%,
105,2025-01-07 16:05:11,2025-01-07 16:12:11,419.172,0.133%,
106,2025-01-07 17:39:59,2025-01-07 17:46:53,413.903,0.131%,
107,2025-01-07 19:14:43,2025-01-07 19:21:34,411.223,0.130%,
108,2025-01-07 20:49:27,2025-01-07 20:56:13,406.528,0.129%,
109,2025-01-07 22:24:11,2025-01-07 22:30:54,403.897,0.128%,
110,2025-01-07 23:58:50,2025-01-08 00:05:37,406.46,0.129%,
111,2025-01-08 01:33:38,2025-01-08 01:40:19,400.171,0.127%,
112,2025-01-08 03:08:22,2025-01-08 03:15:00,397.418,0.126%,
113,2025-01-08 04:43:06,2025-01-08 04:49:38,392.964,0.125%,
114,2025-01-08 06:17:50,2025-01-08 06:24:21,390.729,0.124%,
115,2025-01-08 07:52:33,2025-01-08 07:59:03,390.11,0.124%,
116,2025-01-08 07:59:40,2025-01-08 07:59:51,10.824,0.003%,
117,2025-01-08 09:27:18,2025-01-08 09:33:45,387.214,0.123%,
118,2025-01-08 09:33:49,2025-01-08 09:34:33,44.231,0.014%,
119,2025-01-08 11:02:02,2025-01-08 11:09:15,432.732,0.137%,
120,2025-01-08 12:36:44,2025-01-08 12:43:56,431.296,0.137%,
121,2025-01-08 14:11:30,2025-01-08 14:18:34,424.243,0.135%,
122,2025-01-08 15:46:14,2025-01-08 15:53:17,422.611,0.134%,
123,2025-01-08 17:20:58,2025-01-08 17:27:59,420.63,0.133%,
124,2025-01-08 18:55:42,2025-01-08 19:02:40,418.05,0.133%,
125,2025-01-08 20:30:26,2025-01-08 20:37:20,413.878,0.131%,
126,2025-01-08 22:05:10,2025-01-08 22:12:00,410.505,0.130%,
127,2025-01-08 23:39:54,2025-01-08 23:46:43,408.86,0.130%,
128,2025-01-09 01:14:38,2025-01-09 01:21:25,406.861,0.129%,
129,2025-01-09 02:49:22,2025-01-09 02:56:06,404.23,0.128%,
130,2025-01-09 04:24:06,2025-01-09 04:30:46,399.683,0.127%,
131,2025-01-09 05:58:50,2025-01-09 06:05:27,397.295,0.126%,
132,2025-01-09 07:33:34,2025-01-09 07:40:10,395.735,0.126%,
133,2025-01-09 09:08:18,2025-01-09 09:14:52,393.857,0.125%,
134,2025-01-09 09:15:24,2025-01-09 09:15:39,15.21,0.005%,
135,2025-01-09 10:43:02,2025-01-09 10:50:21,439.437,0.139%,
136,2025-01-09 12:17:58,2025-01-09 12:25:02,424.14,0.135%,
137,2025-01-09 13:52:37,2025-01-09 13:59:40,423.793,0.134%,
138,2025-01-09 15:27:24,2025-01-09 15:34:23,418.721,0.133%,
139,2025-01-09 17:02:08,2025-01-09 17:09:05,417.32,0.132%,
140,2025-01-09 18:36:48,2025-01-09 18:43:46,418.705,0.133%,
141,2025-01-09 20:11:38,2025-01-09 20:18:26,408.11,0.129%,
142,2025-01-09 21:46:26,2025-01-09 21:53:07,401.004,0.127%,
143,2025-01-09 23:21:03,2025-01-09 23:27:49,406.043,0.129%,
144,2025-01-10 00:55:48,2025-01-10 01:02:31,402.863,0.128%,
145,2025-01-10 02:30:37,2025-01-10 02:37:12,394.968,0.125%,
146,2025-01-10 04:05:18,2025-01-10 04:11:52,394.168,0.125%,
147,2025-01-10 05:40:05,2025-01-10 05:46:33,387.843,0.123%,
148,2025-01-10 07:14:49,2025-01-10 07:21:16,386.326,0.123%,
149,2025-01-10 08:49:33,2025-01-10 08:55:58,384.509,0.122%,
150,2025-01-10 10:24:17,2025-01-10 10:30:39,382.194,0.121%,
151,2025-01-10 10:31:07,2025-01-10 10:31:27,19.903,0.006%,
152,2025-01-10 11:58:57,2025-01-10 12:06:08,431.44,0.137%,
153,2025-01-10 13:33:45,2025-01-10 13:40:46,421.394,0.134%,
154,2025-01-10 15:08:29,2025-01-10 15:15:29,419.832,0.133%,
155,2025-01-10 16:43:12,2025-01-10 16:50:11,418.849,0.133%,
156,2025-01-10 18:17:57,2025-01-10 18:24:53,415.58,0.132%,
157,2025-01-10 19:52:40,2025-01-10 19:59:33,413.034,0.131%,
158,2025-01-10 21:27:25,2025-01-10 21:34:13,407.669,0.129%,
159,2025-01-10 23:02:09,2025-01-10 23:08:55,406.101,0.129%,
160,2025-01-11 00:36:51,2025-01-11 00:43:37,406.093,0.129%,
161,2025-01-11 02:11:37,2025-01-11 02:18:19,401.79,0.127%,
162,2025-01-11 03:46:21,2025-01-11 03:52:59,398.092,0.126%,
163,2025-01-11 05:21:05,2025-01-11 05:27:39,394.455,0.125%,
164,2025-01-11 06:55:49,2025-01-11 07:02:22,392.962,0.125%,
165,2025-01-11 08:30:33,2025-01-11 08:37:04,391.182,0.124%,
166,2025-01-11 10:05:17,2025-01-11 10:11:46,388.941,0.123%,
167,2025-01-11 11:40:01,2025-01-11 11:46:26,385.723,0.122%,
168,2025-01-11 11:46:50,2025-01-11 11:47:15,24.662,0.008%,
169,2025-01-11 13:14:45,2025-01-11 13:21:53,428.746,0.136%,
170,2025-01-11 14:49:28,2025-01-11 14:56:35,426.442,0.135%,
171,2025-01-11 16:24:12,2025-01-11 16:31:17,424.606,0.135%,
172,2025-01-11 17:58:56,2025-01-11 18:05:59,422.304,0.134%,
173,2025-01-11 19:33:40,2025-01-11 19:40:39,419.013,0.133%,
174,2025-01-11 21:08:24,2025-01-11 21:15:19,414.22,0.131%,
175,2025-01-11 22:43:08,2025-01-11 22:50:01,412.682,0.131%,
176,2025-01-12 00:17:52,2025-01-12 00:24:43,410.839,0.130%,
177,2025-01-12 01:52:43,2025-01-12 01:59:25,401.498,0.127%,
178,2025-01-12 03:27:31,2025-01-12 03:34:05,394.614,0.125%,
179,2025-01-12 05:02:14,2025-01-12 05:08:45,391.038,0.124%,
180,2025-01-12 06:36:54,2025-01-12 06:43:28,393.444,0.125%,
181,2025-01-12 08:11:45,2025-01-12 08:18:10,384.908,0.122%,
182,2025-01-12 09:46:32,2025-01-12 09:52:52,379.578,0.120%,
183,2025-01-12 11:21:09,2025-01-12 11:27:33,383.201,0.122%,
184,2025-01-12 12:55:55,2025-01-12 13:02:12,377.619,0.120%,
185,2025-01-12 13:02:32,2025-01-12 13:03:00,28.47,0.009%,
186,2025-01-12 14:30:44,2025-01-12 14:37:41,416.999,0.132%,
187,2025-01-12 16:05:25,2025-01-12 16:12:23,418.472,0.133%,
188,2025-01-12 17:40:12,2025-01-12 17:47:05,413.007,0.131%,
189,2025-01-12 19:14:56,2025-01-12 19:21:46,409.917,0.130%,
190,2025-01-12 20:49:35,2025-01-12 20:56:25,409.433,0.130%,
191,2025-01-12 22:24:24,2025-01-12 22:31:07,403.294,0.128%,
192,2025-01-12 23:59:03,2025-01-13 00:05:49,405.748,0.129%,
193,2025-01-13 01:33:52,2025-01-13 01:40:31,399.255,0.127%,
194,2025-01-13 03:08:36,2025-01-13 03:15:12,396.052,0.126%,
195,2025-01-13 04:43:19,2025-01-13 04:49:51,392.475,0.125%,
196,2025-01-13 06:18:04,2025-01-13 06:24:34,390.15,0.124%,
197,2025-01-13 07:52:47,2025-01-13 07:59:16,389.422,0.124%,
198,2025-01-13 09:27:31,2025-01-13 09:33:58,386.366,0.123%,
199,2025-01-13 11:02:15,2025-01-13 11:08:39,383.502,0.122%,
200,2025-01-13 12:36:58,2025-01-13 12:43:18,380.742,0.121%,
201,2025-01-13 12:44:04,2025-01-13 12:44:07,2.518,0.001%,
202,2025-01-13 14:11:43,2025-01-13 14:18:01,377.563,0.120%,
203,2025-01-13 14:18:13,2025-01-13 14:18:47,34.065,0.011%,
204,2025-01-13 15:46:27,2025-01-13 15:53:29,421.911,0.134%,
205,2025-01-13 17:21:11,2025-01-13 17:28:11,419.76,0.133%,
206,2025-01-13 18:55:55,2025-01-13 19:02:52,416.823,0.132%,
207,2025-01-13 20:30:39,2025-01-13 20:37:31,411.385,0.130%,
208,2025-01-13 22:05:23,2025-01-13 22:12:13,409.912,0.130%,
209,2025-01-13 23:40:07,2025-01-13 23:46:55,408.159,0.129%,
210,2025-01-14 01:14:51,2025-01-14 01:21:37,405.98,0.129%,
211,2025-01-14 02:49:35,2025-01-14 02:56:18,402.955,0.128%,
212,2025-01-14 04:24:19,2025-01-14 04:30:57,398.133,0.126%,
213,2025-01-14 05:59:03,2025-01-14 06:05:40,396.725,0.126%,
214,2025-01-14 07:33:47,2025-01-14 07:40:22,395.068,0.125%,
215,2025-01-14 09:08:31,2025-01-14 09:15:04,393.034,0.125%,
216,2025-01-14 10:43:15,2025-01-14 10:49:45,390.309,0.124%,
217,2025-01-14 12:17:59,2025-01-14 12:24:24,385.369,0.122%,
218,2025-01-14 13:52:43,2025-01-14 13:59:07,384.095,0.122%,
219,2025-01-14 13:59:45,2025-01-14 13:59:53,8.112,0.003%,
220,2025-01-14 15:27:37,2025-01-14 15:33:49,372.16,0.118%,
221,2025-01-14 15:33:53,2025-01-14 15:34:35,41.923,0.013%,
222,2025-01-14 17:02:21,2025-01-14 17:09:17,416.47,0.132%,
223,2025-01-14 18:37:01,2025-01-14 18:43:58,417.553,0.132%,
224,2025-01-14 20:11:52,2025-01-14 20:18:37,405.368,0.129%,
225,2025-01-14 21:46:39,2025-01-14 21:53:19,400.426,0.127%,
226,2025-01-14 23:21:16,2025-01-14 23:28:01,405.367,0.129%,
227,2025-01-15 00:56:01,2025-01-15 01:02:43,402.002,0.128%,
228,2025-01-15 02:30:51,2025-01-15 02:37:24,393.776,0.125%,
229,2025-01-15 04:05:31,2025-01-15 04:12:03,391.911,0.124%,
230,2025-01-15 05:40:18,2025-01-15 05:46:46,387.291,0.123%,
231,2025-01-15 07:14:55,2025-01-15 07:21:28,393.242,0.125%,
232,2025-01-15 08:49:42,2025-01-15 08:56:10,388.352,0.123%,
233,2025-01-15 10:24:30,2025-01-15 10:30:51,381.119,0.121%,
234,2025-01-15 11:59:10,2025-01-15 12:05:31,380.81,0.121%,
235,2025-01-15 13:33:58,2025-01-15 13:40:13,374.686,0.119%,
236,2025-01-15 15:08:42,2025-01-15 15:14:55,373.238,0.118%,
237,2025-01-15 15:15:25,2025-01-15 15:15:41,16.688,0.005%,
238,2025-01-15 16:43:25,2025-01-15 16:50:23,418.044,0.133%,
239,2025-01-15 18:18:10,2025-01-15 18:25:05,414.48,0.131%,
240,2025-01-15 19:52:53,2025-01-15 19:59:44,410.866,0.130%,
241,2025-01-15 21:27:38,2025-01-15 21:34:25,407.1,0.129%,
242,2025-01-15 23:02:22,2025-01-15 23:09:07,405.43,0.129%,
243,2025-01-16 00:37:04,2025-01-16 00:43:49,405.277,0.129%,
244,2025-01-16 02:11:50,2025-01-16 02:18:31,400.659,0.127%,
245,2025-01-16 03:46:34,2025-01-16 03:53:09,395.761,0.126%,
246,2025-01-16 05:21:18,2025-01-16 05:27:52,393.911,0.125%,
247,2025-01-16 06:56:02,2025-01-16 07:02:34,392.325,0.124%,
248,2025-01-16 08:30:46,2025-01-16 08:37:16,390.407,0.124%,
249,2025-01-16 10:05:30,2025-01-16 10:11:58,387.917,0.123%,
250,2025-01-16 11:40:14,2025-01-16 11:46:38,383.878,0.122%,
251,2025-01-16 13:14:58,2025-01-16 13:21:19,381.251,0.121%,
252,2025-01-16 14:49:42,2025-01-16 14:56:02,379.83,0.120%,
253,2025-01-16 16:24:26,2025-01-16 16:30:44,378.153,0.120%,
254,2025-01-16 16:31:04,2025-01-16 16:31:29,25.743,0.008%,
255,2025-01-16 17:59:10,2025-01-16 18:06:11,421.255,0.134%,
256,2025-01-16 19:33:54,2025-01-16 19:40:51,417.165,0.132%,
257,2025-01-16 21:08:38,2025-01-16 21:15:31,413.663,0.131%,
258,2025-01-16 22:43:22,2025-01-16 22:50:14,412.027,0.131%,
259,2025-01-17 00:18:05,2025-01-17 00:24:56,410.038,0.130%,
260,2025-01-17 01:52:49,2025-01-17 01:59:37,407.424,0.129%,
261,2025-01-17 03:27:33,2025-01-17 03:34:16,402.997,0.128%,
262,2025-01-17 05:02:27,2025-01-17 05:08:58,390.496,0.124%,
263,2025-01-17 06:37:07,2025-01-17 06:43:40,392.831,0.125%,
264,2025-01-17 08:11:58,2025-01-17 08:18:22,384.149,0.122%,
265,2025-01-17 09:46:37,2025-01-17 09:53:04,386.945,0.123%,
266,2025-01-17 11:21:23,2025-01-17 11:27:44,381.578,0.121%,
267,2025-01-17 12:56:08,2025-01-17 13:02:25,377.124,0.120%,
268,2025-01-17 14:30:57,2025-01-17 14:37:08,370.374,0.117%,
269,2025-01-17 16:05:38,2025-01-17 16:11:50,372.002,0.118%,
270,2025-01-17 16:12:34,2025-01-17 16:12:36,1.926,0.001%,
271,2025-01-17 17:40:25,2025-01-17 17:46:32,366.743,0.116%,
272,2025-01-17 17:46:42,2025-01-17 17:47:17,35.122,0.011%,
273,2025-01-17 19:15:01,2025-01-17 19:21:57,415.845,0.132%,
274,2025-01-17 20:49:48,2025-01-17 20:56:37,408.879,0.130%,
275,2025-01-17 22:24:37,2025-01-17 22:31:20,402.653,0.128%,
276,2025-01-17 23:59:17,2025-01-18 00:06:02,404.979,0.128%,
277,2025-01-18 01:34:05,2025-01-18 01:40:43,398.235,0.126%,
278,2025-01-18 03:08:49,2025-01-18 03:15:23,394.267,0.125%,
279,2025-01-18 04:43:32,2025-01-18 04:50:04,391.962,0.124%,
280,2025-01-18 06:18:17,2025-01-18 06:24:46,389.543,0.124%,
281,2025-01-18 07:53:00,2025-01-18 07:59:28,388.686,0.123%,
282,2025-01-18 09:27:45,2025-01-18 09:34:10,385.425,0.122%,
283,2025-01-18 11:02:29,2025-01-18 11:08:51,382.031,0.121%,
284,2025-01-18 12:37:11,2025-01-18 12:43:31,380.269,0.121%,
285,2025-01-18 14:11:57,2025-01-18 14:18:14,377.011,0.120%,
286,2025-01-18 15:46:40,2025-01-18 15:52:56,375.674,0.119%,
287,2025-01-18 17:21:24,2025-01-18 17:27:38,373.459,0.118%,
288,2025-01-18 17:28:11,2025-01-18 17:28:23,12.112,0.004%,
289,2025-01-18 18:56:08,2025-01-18 19:02:19,370.873,0.118%,
290,2025-01-18 19:02:19,2025-01-18 19:03:04,44.348,0.014%,
291,2025-01-18 20:30:52,2025-01-18 20:37:43,410.847,0.130%,
292,2025-01-18 22:05:36,2025-01-18 22:12:26,409.282,0.130%,
293,2025-01-18 23:40:20,2025-01-18 23:47:08,407.401,0.129%,
294,2025-01-19 01:15:04,2025-01-19 01:21:49,405,0.128%,
295,2025-01-19 02:49:48,2025-01-19 02:56:30,401.364,0.127%,
296,2025-01-19 04:24:32,2025-01-19 04:31:10,397.618,0.126%,
297,2025-01-19 05:59:16,2025-01-19 06:05:52,396.129,0.126%,
298,2025-01-19 07:34:00,2025-01-19 07:40:35,394.358,0.125%,
299,2025-01-19 09:08:44,2025-01-19 09:15:16,392.129,0.124%,
300,2025-01-19 10:43:28,2025-01-19 10:49:57,388.952,0.123%,
301,2025-01-19 12:18:12,2025-01-19 12:24:37,384.897,0.122%,
302,2025-01-19 13:52:56,2025-01-19 13:59:20,383.556,0.122%,
303,2025-01-19 15:27:40,2025-01-19 15:34:02,381.984,0.121%,
304,2025-01-19 17:02:24,2025-01-19 17:08:44,380.083,0.121%,
305,2025-01-19 18:37:14,2025-01-19 18:43:26,371.547,0.118%,
306,2025-01-19 18:43:48,2025-01-19 18:44:10,22.293,0.007%,
307,2025-01-19 20:12:05,2025-01-19 20:18:49,404.493,0.128%,
308,2025-01-19 21:46:44,2025-01-19 21:53:32,408.155,0.129%,
309,2025-01-19 23:21:29,2025-01-19 23:28:14,404.644,0.128%,
310,2025-01-20 00:56:14,2025-01-20 01:02:56,401.054,0.127%,
311,2025-01-20 02:31:04,2025-01-20 02:37:36,392.324,0.124%,
312,2025-01-20 04:05:44,2025-01-20 04:12:16,391.416,0.124%,
313,2025-01-20 05:40:32,2025-01-20 05:46:58,386.706,0.123%,
314,2025-01-20 07:15:08,2025-01-20 07:21:41,392.556,0.125%,
315,2025-01-20 08:49:55,2025-01-20 08:56:22,387.475,0.123%,
316,2025-01-20 10:24:44,2025-01-20 10:31:03,379.861,0.121%,
317,2025-01-20 11:59:23,2025-01-20 12:05:43,379.721,0.120%,
318,2025-01-20 13:34:11,2025-01-20 13:40:26,374.159,0.119%,
319,2025-01-20 15:08:55,2025-01-20 15:15:08,372.624,0.118%,
320,2025-01-20 16:43:38,2025-01-20 16:49:50,371.696,0.118%,
321,2025-01-20 18:18:23,2025-01-20 18:24:32,368.412,0.117%,
322,2025-01-20 18:25:16,2025-01-20 18:25:17,0.894,0.000%,
323,2025-01-20 19:53:02,2025-01-20 19:59:12,369.873,0.117%,
324,2025-01-20 19:59:24,2025-01-20 19:59:55,31.483,0.010%,
325,2025-01-20 21:27:51,2025-01-20 21:34:38,406.497,0.129%,
326,2025-01-20 23:02:35,2025-01-20 23:09:20,404.717,0.128%,
327,2025-01-21 00:37:17,2025-01-21 00:44:02,404.378,0.128%,
328,2025-01-21 02:12:03,2025-01-21 02:18:42,399.321,0.127%,
329,2025-01-21 03:46:47,2025-01-21 03:53:22,395.023,0.125%,
330,2025-01-21 05:21:31,2025-01-21 05:28:04,393.338,0.125%,
331,2025-01-21 06:56:15,2025-01-21 07:02:47,391.651,0.124%,
332,2025-01-21 08:30:59,2025-01-21 08:37:29,389.57,0.124%,
333,2025-01-21 10:05:43,2025-01-21 10:12:10,386.738,0.123%,
334,2025-01-21 11:40:27,2025-01-21 11:46:49,382.022,0.121%,
335,2025-01-21 13:15:11,2025-01-21 13:21:32,380.732,0.121%,
336,2025-01-21 14:49:55,2025-01-21 14:56:14,379.228,0.120%,
337,2025-01-21 16:24:39,2025-01-21 16:30:56,377.428,0.120%,
338,2025-01-21 17:59:23,2025-01-21 18:05:38,375.136,0.119%,
339,2025-01-21 19:34:07,2025-01-21 19:40:19,371.719,0.118%,
340,2025-01-21 19:40:51,2025-01-21 19:41:01,10.513,0.003%,
341,2025-01-21 21:08:51,2025-01-21 21:15:44,413.074,0.131%,
342,2025-01-21 22:43:35,2025-01-21 22:50:26,411.326,0.130%,
343,2025-01-22 00:18:19,2025-01-22 00:25:08,409.158,0.130%,
344,2025-01-22 01:53:03,2025-01-22 01:59:49,406.174,0.129%,
345,2025-01-22 03:27:47,2025-01-22 03:34:28,401.281,0.127%,
346,2025-01-22 05:02:31,2025-01-22 05:09:10,399.879,0.127%,
347,2025-01-22 06:37:15,2025-01-22 06:43:53,398.225,0.126%,
348,2025-01-22 08:12:11,2025-01-22 08:18:35,383.327,0.122%,
349,2025-01-22 09:46:50,2025-01-22 09:53:16,385.823,0.122%,
350,2025-01-22 11:21:36,2025-01-22 11:27:55,379.155,0.120%,
351,2025-01-22 12:56:21,2025-01-22 13:02:38,376.607,0.119%,
352,2025-01-22 14:31:10,2025-01-22 14:37:20,369.787,0.117%,
353,2025-01-22 16:05:51,2025-01-22 16:12:02,371.311,0.118%,
354,2025-01-22 17:40:38,2025-01-22 17:46:44,365.845,0.116%,
355,2025-01-22 19:15:15,2025-01-22 19:21:25,370.244,0.117%,
356,2025-01-22 20:50:02,2025-01-22 20:56:05,363.77,0.115%,
357,2025-01-22 20:56:25,2025-01-22 20:56:50,24.729,0.008%,
358,2025-01-22 22:24:50,2025-01-22 22:31:32,401.973,0.128%,
359,2025-01-22 23:59:30,2025-01-23 00:06:14,404.142,0.128%,
360,2025-01-23 01:34:18,2025-01-23 01:40:55,397.054,0.126%,
361,2025-01-23 03:09:02,2025-01-23 03:15:34,391.872,0.124%,
362,2025-01-23 04:43:42,2025-01-23 04:50:17,394.425,0.125%,
363,2025-01-23 06:18:30,2025-01-23 06:24:59,388.897,0.123%,
364,2025-01-23 07:53:09,2025-01-23 07:59:41,392.114,0.124%,
365,2025-01-23 09:27:58,2025-01-23 09:34:22,384.365,0.122%,
366,2025-01-23 11:02:42,2025-01-23 11:09:02,379.939,0.121%,
367,2025-01-23 12:37:24,2025-01-23 12:43:44,379.774,0.120%,
368,2025-01-23 14:12:10,2025-01-23 14:18:26,376.433,0.119%,
369,2025-01-23 15:46:53,2025-01-23 15:53:08,374.979,0.119%,
370,2025-01-23 17:21:38,2025-01-23 17:27:50,372.593,0.118%,
371,2025-01-23 18:56:22,2025-01-23 19:02:31,369.605,0.117%,
372,2025-01-23 20:31:06,2025-01-23 20:37:11,365.706,0.116%,
373,2025-01-23 20:37:51,2025-01-23 20:37:56,5.296,0.002%,
374,2025-01-23 22:05:50,2025-01-23 22:11:54,364.478,0.116%,
375,2025-01-23 22:11:59,2025-01-23 22:12:38,39.578,0.013%,
376,2025-01-23 23:40:34,2025-01-23 23:47:20,406.581,0.129%,
377,2025-01-24 01:15:18,2025-01-24 01:22:01,403.88,0.128%,
378,2025-01-24 02:50:01,2025-01-24 02:56:40,398.913,0.127%,
379,2025-01-24 04:24:45,2025-01-24 04:31:23,397.076,0.126%,
380,2025-01-24 05:59:29,2025-01-24 06:06:05,395.496,0.125%,
381,2025-01-24 07:34:13,2025-01-24 07:40:47,393.588,0.125%,
382,2025-01-24 09:08:57,2025-01-24 09:15:28,391.115,0.124%,
383,2025-01-24 10:43:41,2025-01-24 10:50:08,387.157,0.123%,
384,2025-01-24 12:18:25,2025-01-24 12:24:50,384.401,0.122%,
385,2025-01-24 13:53:09,2025-01-24 13:59:32,382.984,0.121%,
386,2025-01-24 15:27:53,2025-01-24 15:34:15,381.311,0.121%,
387,2025-01-24 17:02:37,2025-01-24 17:08:56,379.246,0.120%,
388,2025-01-24 18:37:21,2025-01-24 18:43:38,376.413,0.119%,
389,2025-01-24 20:12:05,2025-01-24 20:12:12,6.588,0.002%,
390,2025-01-24 20:12:18,2025-01-24 20:18:17,359.306,0.114%,
391,2025-01-24 21:46:57,2025-01-24 21:53:00,363.296,0.115%,
392,2025-01-24 21:53:23,2025-01-24 21:53:44,20.989,0.007%,
393,2025-01-24 23:21:42,2025-01-24 23:28:26,403.855,0.128%,
394,2025-01-25 00:56:28,2025-01-25 01:03:08,399.983,0.127%,
395,2025-01-25 02:31:17,2025-01-25 02:37:47,390.323,0.124%,
396,2025-01-25 04:05:58,2025-01-25 04:12:29,390.897,0.124%,
397,2025-01-25 05:40:45,2025-01-25 05:47:11,386.089,0.122%,
398,2025-01-25 07:15:21,2025-01-25 07:21:53,391.812,0.124%,
399,2025-01-25 08:50:08,2025-01-25 08:56:35,386.496,0.123%,
400,2025-01-25 10:24:57,2025-01-25 10:31:15,378.27,0.120%,
401,2025-01-25 11:59:36,2025-01-25 12:05:56,379.243,0.120%,
402,2025-01-25 13:34:25,2025-01-25 13:40:38,373.599,0.119%,
403,2025-01-25 15:09:09,2025-01-25 15:15:21,371.97,0.118%,
404,2025-01-25 16:43:49,2025-01-25 16:50:03,373.889,0.119%,
405,2025-01-25 18:18:37,2025-01-25 18:24:44,367.288,0.117%,
406,2025-01-25 19:53:15,2025-01-25 19:59:23,367.957,0.117%,
407,2025-01-25 21:28:04,2025-01-25 21:34:06,361.598,0.115%,
408,2025-01-25 21:34:47,2025-01-25 21:34:50,3.146,0.001%,
409,2025-01-25 23:02:48,2025-01-25 23:08:49,360.235,0.114%,
410,2025-01-25 23:08:55,2025-01-25 23:09:32,37.273,0.012%,
411,2025-01-26 00:37:31,2025-01-26 00:44:14,403.365,0.128%,
412,2025-01-26 02:12:16,2025-01-26 02:18:54,397.575,0.126%,
413,2025-01-26 03:47:00,2025-01-26 03:53:35,394.492,0.125%,
414,2025-01-26 05:21:44,2025-01-26 05:28:17,392.729,0.125%,
415,2025-01-26 06:56:28,2025-01-26 07:02:59,390.923,0.124%,
416,2025-01-26 08:31:12,2025-01-26 08:37:41,388.634,0.123%,
417,2025-01-26 10:05:56,2025-01-26 10:12:21,385.284,0.122%,
418,2025-01-26 11:40:40,2025-01-26 11:47:02,381.543,0.121%,
419,2025-01-26 13:15:24,2025-01-26 13:21:44,380.18,0.121%,
420,2025-01-26 14:50:08,2025-01-26 14:56:27,378.585,0.120%,
421,2025-01-26 16:24:52,2025-01-26 16:31:09,376.643,0.119%,
422,2025-01-26 17:59:36,2025-01-26 18:05:50,374.075,0.119%,
423,2025-01-26 19:34:20,2025-01-26 19:40:30,369.513,0.117%,
424,2025-01-26 21:09:04,2025-01-26 21:15:12,368.125,0.117%,
425,2025-01-26 22:43:48,2025-01-26 22:49:55,366.78,0.116%,
426,2025-01-26 22:50:18,2025-01-26 22:50:39,20.301,0.006%,
427,2025-01-27 00:18:32,2025-01-27 00:25:20,408.186,0.129%,
428,2025-01-27 01:53:16,2025-01-27 02:00:00,404.606,0.128%,
429,2025-01-27 03:28:00,2025-01-27 03:34:41,400.765,0.127%,
430,2025-01-27 05:02:44,2025-01-27 05:09:23,399.28,0.127%,
431,2025-01-27 06:37:28,2025-01-27 06:44:05,397.514,0.126%,
432,2025-01-27 08:12:12,2025-01-27 08:18:47,395.305,0.125%,
433,2025-01-27 09:47:03,2025-01-27 09:53:28,384.482,0.122%,
434,2025-01-27 11:21:49,2025-01-27 11:28:08,378.694,0.120%,
435,2025-01-27 12:56:34,2025-01-27 13:02:50,376.062,0.119%,
436,2025-01-27 14:31:24,2025-01-27 14:37:33,369.16,0.117%,
437,2025-01-27 16:06:04,2025-01-27 16:12:15,370.56,0.118%,
438,2025-01-27 17:40:51,2025-01-27 17:46:56,364.835,0.116%,
439,2025-01-27 19:15:28,2025-01-27 19:21:36,368.401,0.117%,
440,2025-01-27 20:50:15,2025-01-27 20:56:18,363.297,0.115%,
441,2025-01-27 22:25:03,2025-01-27 22:31:01,357.369,0.113%,
442,2025-01-27 22:31:41,2025-01-27 22:31:45,4.092,0.001%,
443,2025-01-27 23:59:43,2025-01-28 00:05:43,360.104,0.114%,
444,2025-01-28 00:05:48,2025-01-28 00:06:26,37.95,0.012%,
445,2025-01-28 01:34:31,2025-01-28 01:41:07,395.627,0.126%,
446,2025-01-28 03:09:15,2025-01-28 03:15:47,391.367,0.124%,
447,2025-01-28 04:43:55,2025-01-28 04:50:29,393.831,0.125%,
448,2025-01-28 06:18:43,2025-01-28 06:25:11,388.203,0.123%,
449,2025-01-28 07:53:22,2025-01-28 07:59:53,391.248,0.124%,
450,2025-01-28 09:28:11,2025-01-28 09:34:34,383.119,0.122%,
451,2025-01-28 11:02:55,2025-01-28 11:09:14,378.656,0.120%,
452,2025-01-28 12:37:37,2025-01-28 12:43:56,379.253,0.120%,
453,2025-01-28 14:12:23,2025-01-28 14:18:39,375.818,0.119%,
454,2025-01-28 15:47:07,2025-01-28 15:53:21,374.231,0.119%,
455,2025-01-28 17:21:51,2025-01-28 17:28:03,371.626,0.118%,
456,2025-01-28 18:56:35,2025-01-28 19:02:43,367.981,0.117%,
457,2025-01-28 20:31:19,2025-01-28 20:37:24,365.246,0.116%,
458,2025-01-28 22:06:03,2025-01-28 22:12:07,363.952,0.115%,
459,2025-01-28 23:40:47,2025-01-28 23:46:49,362.448,0.115%,
460,2025-01-28 23:47:10,2025-01-28 23:47:32,22.648,0.007%,
461,2025-01-29 01:15:31,2025-01-29 01:22:13,402.552,0.128%,
462,2025-01-29 02:50:15,2025-01-29 02:56:53,397.924,0.126%,
463,2025-01-29 04:24:59,2025-01-29 04:31:35,396.503,0.126%,
464,2025-01-29 05:59:43,2025-01-29 06:06:17,394.818,0.125%,
465,2025-01-29 07:34:27,2025-01-29 07:40:59,392.75,0.125%,
466,2025-01-29 09:09:11,2025-01-29 09:15:41,389.942,0.124%,
467,2025-01-29 10:43:55,2025-01-29 10:50:20,385.169,0.122%,
468,2025-01-29 12:18:39,2025-01-29 12:25:02,383.881,0.122%,
469,2025-01-29 13:53:22,2025-01-29 13:59:45,382.382,0.121%,
470,2025-01-29 15:28:06,2025-01-29 15:34:27,380.59,0.121%,
471,2025-01-29 17:02:50,2025-01-29 17:09:09,378.312,0.120%,
472,2025-01-29 18:37:34,2025-01-29 18:43:49,374.946,0.119%,
473,2025-01-29 20:12:18,2025-01-29 20:18:30,371.735,0.118%,
474,2025-01-29 21:47:02,2025-01-29 21:47:07,4.605,0.002%,
475,2025-01-29 21:47:10,2025-01-29 21:53:13,362.774,0.115%,
476,2025-01-29 23:21:56,2025-01-29 23:27:55,359.653,0.114%,
477,2025-01-29 23:28:30,2025-01-29 23:28:39,8.125,0.003%,
478,2025-01-30 00:56:41,2025-01-30 01:02:37,356.581,0.113%,
479,2025-01-30 01:02:38,2025-01-30 01:03:20,41.438,0.013%,
480,2025-01-30 02:31:30,2025-01-30 02:37:59,388.45,0.123%,
481,2025-01-30 04:06:11,2025-01-30 04:12:41,390.349,0.124%,
482,2025-01-30 05:40:50,2025-01-30 05:40:57,6.382,0.002%,
483,2025-01-30 05:40:58,2025-01-30 05:47:24,385.432,0.122%,
484,2025-01-30 07:15:34,2025-01-30 07:22:05,391.011,0.124%,
485,2025-01-30 08:50:21,2025-01-30 08:56:47,385.381,0.122%,
486,2025-01-30 10:25:10,2025-01-30 10:31:26,375.751,0.119%,
487,2025-01-30 11:59:50,2025-01-30 12:06:08,378.742,0.120%,
488,2025-01-30 13:34:38,2025-01-30 13:40:51,373.012,0.118%,
489,2025-01-30 15:09:22,2025-01-30 15:15:33,371.27,0.118%,
490,2025-01-30 16:44:02,2025-01-30 16:50:15,372.988,0.118%,
491,2025-01-30 18:18:50,2025-01-30 18:24:56,365.947,0.116%,
492,2025-01-30 19:53:29,2025-01-30 19:59:36,367.517,0.117%,
493,2025-01-30 21:28:18,2025-01-30 21:34:19,361.096,0.115%,
494,2025-01-30 23:03:02,2025-01-30 23:09:01,359.655,0.114%,
495,2025-01-31 00:37:44,2025-01-31 00:43:44,359.846,0.114%,
496,2025-01-31 00:43:58,2025-01-31 00:44:26,27.898,0.009%,
497,2025-01-31 02:12:30,2025-01-31 02:19:05,395.055,0.125%,
498,2025-01-31 03:47:13,2025-01-31 03:53:47,393.935,0.125%,
499,2025-01-31 05:21:58,2025-01-31 05:28:30,392.084,0.124%,
500,2025-01-31 06:56:41,2025-01-31 07:03:12,390.136,0.124%,
501,2025-01-31 08:31:23,2025-01-31 08:37:53,390.387,0.124%,
502,2025-01-31 10:06:09,2025-01-31 10:12:33,383.262,0.122%,
503,2025-01-31 11:40:53,2025-01-31 11:47:14,381.041,0.121%,
504,2025-01-31 13:15:37,2025-01-31 13:21:57,379.603,0.120%,
505,2025-01-31 14:50:21,2025-01-31 14:56:39,377.9,0.120%,
506,2025-01-31 16:25:05,2025-01-31 16:31:21,375.782,0.119%,
507,2025-01-31 17:59:49,2025-01-31 18:06:02,372.824,0.118%,
508,2025-01-31 19:34:33,2025-01-31 19:40:42,368.855,0.117%,
509,2025-01-31 21:09:17,2025-01-31 21:15:25,367.629,0.117%,
510,2025-01-31 22:44:01,2025-01-31 22:50:07,366.211,0.116%,
511,2025-02-01 00:18:45,2025-02-01 00:24:50,364.533,0.116%,
512,2025-02-01 00:25:17,2025-02-01 00:25:32,15.133,0.005%,
513,2025-02-01 01:53:29,2025-02-01 02:00:11,402.275,0.128%,
514,2025-02-01 03:28:13,2025-02-01 03:34:53,400.224,0.127%,
515,2025-02-01 05:02:57,2025-02-01 05:09:36,398.65,0.126%,
516,2025-02-01 06:37:41,2025-02-01 06:44:18,396.751,0.126%,
517,2025-02-01 08:12:25,2025-02-01 08:18:59,394.296,0.125%,
518,2025-02-01 09:47:09,2025-02-01 09:53:39,390.416,0.124%,
519,2025-02-01 11:22:02,2025-02-01 11:28:20,378.211,0.120%,
520,2025-02-01 12:56:47,2025-02-01 13:03:03,375.486,0.119%,
521,2025-02-01 14:31:26,2025-02-01 14:31:36,9.857,0.003%,
522,2025-02-01 14:31:37,2025-02-01 14:37:45,368.496,0.117%,
523,2025-02-01 16:06:17,2025-02-01 16:12:27,369.744,0.117%,
524,2025-02-01 17:40:57,2025-02-01 17:47:08,371.259,0.118%,
525,2025-02-01 19:15:41,2025-02-01 19:21:48,366.968,0.116%,
526,2025-02-01 20:50:28,2025-02-01 20:56:31,362.804,0.115%,
527,2025-02-01 22:25:17,2025-02-01 22:31:13,356.813,0.113%,
528,2025-02-01 23:59:56,2025-02-02 00:05:56,359.457,0.114%,
529,2025-02-02 00:06:35,2025-02-02 00:06:38,3.16,0.001%,
530,2025-02-02 01:34:44,2025-02-02 01:40:38,353.167,0.112%,
531,2025-02-02 01:40:43,2025-02-02 01:41:18,35.374,0.011%,
532,2025-02-02 03:09:28,2025-02-02 03:15:59,390.839,0.124%,
533,2025-02-02 04:44:09,2025-02-02 04:50:42,393.21,0.125%,
534,2025-02-02 06:18:56,2025-02-02 06:25:24,387.465,0.123%,
535,2025-02-02 07:53:35,2025-02-02 08:00:05,390.293,0.124%,
536,2025-02-02 09:28:24,2025-02-02 09:34:46,381.561,0.121%,
537,2025-02-02 11:03:08,2025-02-02 11:09:26,378.173,0.120%,
538,2025-02-02 12:37:50,2025-02-02 12:44:09,378.701,0.120%,
539,2025-02-02 14:12:36,2025-02-02 14:18:51,375.169,0.119%,
540,2025-02-02 15:47:20,2025-02-02 15:53:33,373.425,0.118%,
541,2025-02-02 17:22:04,2025-02-02 17:28:15,370.523,0.118%,
542,2025-02-02 18:56:48,2025-02-02 19:02:54,365.951,0.116%,
543,2025-02-02 20:31:29,2025-02-02 20:37:37,367.573,0.117%,
544,2025-02-02 22:06:16,2025-02-02 22:12:19,363.405,0.115%,
545,2025-02-02 23:41:00,2025-02-02 23:47:02,361.806,0.115%,
546,2025-02-03 01:15:44,2025-02-03 01:21:44,359.849,0.114%,
547,2025-02-03 01:22:00,2025-02-03 01:22:25,24.638,0.008%,
548,2025-02-03 02:50:28,2025-02-03 02:57:05,397.404,0.126%,
549,2025-02-03 04:25:12,2025-02-03 04:31:48,395.896,0.126%,
550,2025-02-03 05:59:56,2025-02-03 06:06:30,394.099,0.125%,
551,2025-02-03 07:34:40,2025-02-03 07:41:12,391.825,0.124%,
552,2025-02-03 09:09:24,2025-02-03 09:15:52,388.524,0.123%,
553,2025-02-03 10:44:08,2025-02-03 10:50:32,384.692,0.122%,
554,2025-02-03 12:18:52,2025-02-03 12:25:15,383.333,0.122%,
555,2025-02-03 13:53:36,2025-02-03 13:59:57,381.743,0.121%,
556,2025-02-03 15:28:20,2025-02-03 15:34:39,379.808,0.120%,
557,2025-02-03 17:03:04,2025-02-03 17:09:21,377.264,0.120%,
558,2025-02-03 18:37:48,2025-02-03 18:44:00,372.838,0.118%,
559,2025-02-03 20:12:32,2025-02-03 20:18:43,371.263,0.118%,
560,2025-02-03 21:47:16,2025-02-03 21:53:25,369.922,0.117%,
561,2025-02-03 23:22:09,2025-02-03 23:28:08,359.033,0.114%,
562,2025-02-04 00:56:54,2025-02-04 01:02:50,355.809,0.113%,
563,2025-02-04 01:03:17,2025-02-04 01:03:31,14.592,0.005%,
564,2025-02-04 02:31:33,2025-02-04 02:38:11,398.788,0.127%,
565,2025-02-04 04:06:24,2025-02-04 04:12:54,389.767,0.124%,
566,2025-02-04 05:41:04,2025-02-04 05:47:36,392.323,0.124%,
567,2025-02-04 07:15:48,2025-02-04 07:22:18,390.127,0.124%,
568,2025-02-04 08:50:35,2025-02-04 08:56:59,384.064,0.122%,
569,2025-02-04 10:25:23,2025-02-04 10:31:38,375.262,0.119%,
570,2025-02-04 12:00:03,2025-02-04 12:06:21,378.216,0.120%,
571,2025-02-04 13:34:51,2025-02-04 13:41:03,372.389,0.118%,
572,2025-02-04 15:09:35,2025-02-04 15:15:46,370.515,0.118%,
573,2025-02-04 16:44:15,2025-02-04 16:50:27,371.985,0.118%,
574,2025-02-04 18:19:03,2025-02-04 18:25:07,364.158,0.116%,
575,2025-02-04 19:53:42,2025-02-04 19:59:49,367.058,0.116%,
576,2025-02-04 21:28:31,2025-02-04 21:34:31,360.566,0.114%,
577,2025-02-04 23:03:15,2025-02-04 23:09:14,359.039,0.114%,
578,2025-02-05 00:37:57,2025-02-05 00:43:56,359.107,0.114%,
579,2025-02-05 00:44:32,2025-02-05 00:44:38,5.28,0.002%,
580,2025-02-05 02:12:43,2025-02-05 02:18:38,354.793,0.113%,
581,2025-02-05 02:18:40,2025-02-05 02:19:17,37.534,0.012%,
582,2025-02-05 03:47:27,2025-02-05 03:54:00,393.347,0.125%,
583,2025-02-05 05:22:11,2025-02-05 05:28:42,391.401,0.124%,
584,2025-02-05 06:56:55,2025-02-05 07:03:24,389.28,0.123%,
585,2025-02-05 08:31:36,2025-02-05 08:38:05,389.164,0.123%,
586,2025-02-05 10:06:23,2025-02-05 10:12:44,381.82,0.121%,
587,2025-02-05 11:41:07,2025-02-05 11:47:27,380.516,0.121%,
588,2025-02-05 13:15:51,2025-02-05 13:22:10,378.993,0.120%,
589,2025-02-05 14:50:35,2025-02-05 14:56:52,377.166,0.120%,
590,2025-02-05 16:25:18,2025-02-05 16:31:33,374.822,0.119%,
591,2025-02-05 18:00:02,2025-02-05 18:06:14,371.243,0.118%,
592,2025-02-05 19:34:46,2025-02-05 19:40:55,368.398,0.117%,
593,2025-02-05 21:09:30,2025-02-05 21:15:37,367.107,0.116%,
594,2025-02-05 22:44:14,2025-02-05 22:50:20,365.608,0.116%,
595,2025-02-06 00:18:58,2025-02-06 00:25:02,363.808,0.115%,
596,2025-02-06 01:53:42,2025-02-06 01:59:44,361.497,0.115%,
597,2025-02-06 01:59:55,2025-02-06 02:00:23,28.669,0.009%,
598,2025-02-06 03:28:26,2025-02-06 03:35:06,399.651,0.127%,
599,2025-02-06 05:03:10,2025-02-06 05:09:48,397.978,0.126%,
600,2025-02-06 06:37:54,2025-02-06 06:44:30,395.921,0.126%,
601,2025-02-06 08:12:38,2025-02-06 08:19:11,393.143,0.125%,
602,2025-02-06 09:47:22,2025-02-06 09:53:50,388.305,0.123%,
603,2025-02-06 11:22:15,2025-02-06 11:28:33,377.704,0.120%,
604,2025-02-06 12:57:01,2025-02-06 13:03:16,374.882,0.119%,
605,2025-02-06 14:31:39,2025-02-06 14:37:58,378.63,0.120%,
606,2025-02-06 16:06:31,2025-02-06 16:12:39,368.835,0.117%,
607,2025-02-06 17:41:10,2025-02-06 17:47:20,369.821,0.117%,
608,2025-02-06 19:15:54,2025-02-06 19:22:01,366.524,0.116%,
609,2025-02-06 20:50:41,2025-02-06 20:56:44,362.288,0.115%,
610,2025-02-06 22:25:30,2025-02-06 22:31:26,356.226,0.113%,
611,2025-02-07 00:00:09,2025-02-07 00:06:08,358.76,0.114%,
612,2025-02-07 01:34:58,2025-02-07 01:40:50,352.261,0.112%,
613,2025-02-07 01:41:09,2025-02-07 01:41:29,20.596,0.007%,
614,2025-02-07 03:09:42,2025-02-07 03:16:12,390.282,0.124%,
615,2025-02-07 04:44:22,2025-02-07 04:50:54,392.548,0.125%,
616,2025-02-07 06:19:10,2025-02-07 06:25:36,386.657,0.123%,
617,2025-02-07 07:53:48,2025-02-07 08:00:18,389.202,0.123%,
618,2025-02-07 09:28:38,2025-02-07 09:34:57,379.185,0.120%,
619,2025-02-07 11:03:21,2025-02-07 11:09:39,377.662,0.120%,
620,2025-02-07 12:38:04,2025-02-07 12:44:22,378.122,0.120%,
621,2025-02-07 14:12:49,2025-02-07 14:19:04,374.47,0.119%,
622,2025-02-07 15:47:33,2025-02-07 15:53:46,372.53,0.118%,
623,2025-02-07 17:22:17,2025-02-07 17:28:27,369.199,0.117%,
624,2025-02-07 18:57:01,2025-02-07 19:03:07,365.507,0.116%,
625,2025-02-07 20:31:42,2025-02-07 20:37:50,367.075,0.116%,
626,2025-02-07 22:06:29,2025-02-07 22:12:32,362.827,0.115%,
627,2025-02-07 23:41:13,2025-02-07 23:47:14,361.118,0.115%,
628,2025-02-08 01:15:57,2025-02-08 01:21:56,358.973,0.114%,
629,2025-02-08 01:22:22,2025-02-08 01:22:35,13.319,0.004%,
630,2025-02-08 02:50:41,2025-02-08 02:57:18,396.855,0.126%,
631,2025-02-08 04:25:25,2025-02-08 04:32:00,395.254,0.125%,
632,2025-02-08 06:00:09,2025-02-08 06:06:42,393.315,0.125%,
633,2025-02-08 07:34:53,2025-02-08 07:41:24,390.781,0.124%,
634,2025-02-08 09:09:37,2025-02-08 09:16:04,386.568,0.123%,
635,2025-02-08 10:44:21,2025-02-08 10:50:45,384.191,0.122%,
636,2025-02-08 12:19:05,2025-02-08 12:25:28,382.757,0.121%,
637,2025-02-08 13:53:49,2025-02-08 14:00:10,381.062,0.121%,
638,2025-02-08 15:28:33,2025-02-08 15:34:52,378.956,0.120%,
639,2025-02-08 17:03:17,2025-02-08 17:09:33,376.031,0.119%,
640,2025-02-08 18:38:01,2025-02-08 18:44:13,371.991,0.118%,
641,2025-02-08 20:12:45,2025-02-08 20:18:56,370.768,0.118%,
642,2025-02-08 21:47:29,2025-02-08 21:53:38,369.354,0.117%,
643,2025-02-08 23:22:22,2025-02-08 23:28:20,358.372,0.114%,
644,2025-02-09 00:57:07,2025-02-09 01:03:02,354.958,0.113%,
645,2025-02-09 01:03:35,2025-02-09 01:03:42,7.725,0.002%,
646,2025-02-09 02:31:46,2025-02-09 02:38:24,398.253,0.126%,
647,2025-02-09 04:06:37,2025-02-09 04:13:06,389.152,0.123%,
648,2025-02-09 05:41:17,2025-02-09 05:47:48,391.556,0.124%,
649,2025-02-09 07:16:01,2025-02-09 07:22:30,389.134,0.123%,
650,2025-02-09 08:50:48,2025-02-09 08:57:10,382.353,0.121%,
651,2025-02-09 10:25:36,2025-02-09 10:31:51,374.771,0.119%,
652,2025-02-09 12:00:16,2025-02-09 12:06:34,377.656,0.120%,
653,2025-02-09 13:35:04,2025-02-09 13:41:16,371.728,0.118%,
654,2025-02-09 15:09:48,2025-02-09 15:15:58,369.691,0.117%,
655,2025-02-09 16:44:28,2025-02-09 16:50:39,370.82,0.118%,
656,2025-02-09 18:19:16,2025-02-09 18:25:19,362.585,0.115%,
657,2025-02-09 19:53:55,2025-02-09 20:00:02,366.577,0.116%,
658,2025-02-09 21:28:44,2025-02-09 21:34:44,360.011,0.114%,
659,2025-02-09 23:03:28,2025-02-09 23:09:26,358.384,0.114%,
660,2025-02-10 00:38:10,2025-02-10 00:44:08,358.297,0.114%,
661,2025-02-10 00:44:46,2025-02-10 00:44:49,2.762,0.001%,
662,2025-02-10 02:12:56,2025-02-10 02:18:50,353.647,0.112%,
663,2025-02-10 02:18:53,2025-02-10 02:19:30,36.639,0.012%,
664,2025-02-10 03:47:40,2025-02-10 03:54:12,392.726,0.125%,
665,2025-02-10 05:22:24,2025-02-10 05:28:55,390.658,0.124%,
666,2025-02-10 06:57:08,2025-02-10 07:03:36,388.321,0.123%,
667,2025-02-10 08:31:49,2025-02-10 08:38:17,387.634,0.123%,
668,2025-02-10 10:06:36,2025-02-10 10:12:57,381.336,0.121%,
669,2025-02-10 11:41:20,2025-02-10 11:47:40,379.958,0.121%,
670,2025-02-10 13:16:04,2025-02-10 13:22:22,378.342,0.120%,
671,2025-02-10 14:50:48,2025-02-10 14:57:04,376.365,0.119%,
672,2025-02-10 16:25:32,2025-02-10 16:31:45,373.726,0.119%,
673,2025-02-10 18:00:16,2025-02-10 18:06:25,369.1,0.117%,
674,2025-02-10 19:35:00,2025-02-10 19:41:08,367.919,0.117%,
675,2025-02-10 21:09:44,2025-02-10 21:15:50,366.559,0.116%,
676,2025-02-10 22:44:28,2025-02-10 22:50:33,364.966,0.116%,
677,2025-02-11 00:19:12,2025-02-11 00:25:15,363.013,0.115%,
678,2025-02-11 01:53:55,2025-02-11 01:59:56,360.415,0.114%,
679,2025-02-11 02:00:04,2025-02-11 02:00:36,31.743,0.010%,
680,2025-02-11 03:28:39,2025-02-11 03:35:19,399.047,0.127%,
681,2025-02-11 05:03:23,2025-02-11 05:10:01,397.256,0.126%,
682,2025-02-11 06:38:07,2025-02-11 06:44:42,394.997,0.125%,
683,2025-02-11 08:12:51,2025-02-11 08:19:23,391.741,0.124%,
684,2025-02-11 09:47:35,2025-02-11 09:54:03,387.827,0.123%,
685,2025-02-11 11:22:29,2025-02-11 11:28:46,377.17,0.120%,
686,2025-02-11 12:57:14,2025-02-11 13:03:28,374.237,0.119%,
687,2025-02-11 14:31:52,2025-02-11 14:38:10,377.857,0.120%,
688,2025-02-11 16:06:44,2025-02-11 16:12:52,367.809,0.117%,
689,2025-02-11 17:41:24,2025-02-11 17:47:31,367.776,0.117%,
690,2025-02-11 19:16:07,2025-02-11 19:22:14,366.059,0.116%,
691,2025-02-11 20:50:54,2025-02-11 20:56:56,361.741,0.115%,
692,2025-02-11 22:25:43,2025-02-11 22:31:39,355.599,0.113%,
693,2025-02-12 00:00:23,2025-02-12 00:06:21,358.001,0.114%,
694,2025-02-12 01:35:11,2025-02-12 01:41:02,351.233,0.111%,
695,2025-02-12 01:41:14,2025-02-12 01:41:42,27.594,0.009%,
696,2025-02-12 03:09:55,2025-02-12 03:16:25,389.69,0.124%,
697,2025-02-12 04:44:35,2025-02-12 04:51:07,391.842,0.124%,
698,2025-02-12 06:19:23,2025-02-12 06:25:49,385.775,0.122%,
699,2025-02-12 07:54:02,2025-02-12 08:00:29,387.908,0.123%,
700,2025-02-12 09:28:51,2025-02-12 09:35:09,378.452,0.120%,
701,2025-02-12 11:03:35,2025-02-12 11:09:52,377.129,0.120%,
702,2025-02-12 12:38:17,2025-02-12 12:44:34,377.507,0.120%,
703,2025-02-12 14:13:03,2025-02-12 14:19:16,373.717,0.119%,
704,2025-02-12 15:47:46,2025-02-12 15:53:58,371.529,0.118%,
705,2025-02-12 17:22:31,2025-02-12 17:28:38,367.451,0.117%,
706,2025-02-12 18:57:14,2025-02-12 19:03:20,365.044,0.116%,
707,2025-02-12 20:31:56,2025-02-12 20:38:02,366.548,0.116%,
708,2025-02-12 22:06:42,2025-02-12 22:12:45,362.213,0.115%,
709,2025-02-12 23:41:26,2025-02-12 23:47:27,360.376,0.114%,
710,2025-02-13 01:16:10,2025-02-13 01:22:08,357.992,0.114%,
711,2025-02-13 01:22:24,2025-02-13 01:22:48,24.178,0.008%,
712,2025-02-13 02:50:54,2025-02-13 02:57:31,396.272,0.126%,
713,2025-02-13 04:25:38,2025-02-13 04:32:13,394.57,0.125%,
714,2025-02-13 06:00:22,2025-02-13 06:06:55,392.459,0.124%,
715,2025-02-13 07:35:06,2025-02-13 07:41:36,389.567,0.124%,
716,2025-02-13 09:09:50,2025-02-13 09:16:15,384.968,0.122%,
717,2025-02-13 10:44:34,2025-02-13 10:50:58,383.666,0.122%,
718,2025-02-13 12:19:18,2025-02-13 12:25:40,382.148,0.121%,
719,2025-02-13 13:54:02,2025-02-13 14:00:22,380.329,0.121%,
720,2025-02-13 15:28:46,2025-02-13 15:35:04,378.001,0.120%,
721,2025-02-13 17:03:30,2025-02-13 17:09:45,374.48,0.119%,
722,2025-02-13 18:38:14,2025-02-13 18:44:26,371.534,0.118%,
723,2025-02-13 20:12:58,2025-02-13 20:19:08,370.246,0.117%,
724,2025-02-13 21:47:42,2025-02-13 21:53:51,368.753,0.117%,
725,2025-02-13 23:22:35,2025-02-13 23:28:33,357.66,0.113%,
726,2025-02-14 00:57:21,2025-02-14 01:03:15,354.014,0.112%,
727,2025-02-14 01:03:33,2025-02-14 01:03:54,21.483,0.007%,
728,2025-02-14 02:31:59,2025-02-14 02:32:08,8.794,0.003%,
729,2025-02-14 02:32:10,2025-02-14 02:38:37,386.84,0.123%,
730,2025-02-14 04:06:50,2025-02-14 04:13:19,388.496,0.123%,
731,2025-02-14 05:41:30,2025-02-14 05:48:01,390.725,0.124%,
732,2025-02-14 07:16:14,2025-02-14 07:22:42,387.999,0.123%,
733,2025-02-14 08:51:01,2025-02-14 08:57:21,380.116,0.121%,
734,2025-02-14 10:25:50,2025-02-14 10:32:04,374.258,0.119%,
735,2025-02-14 12:00:29,2025-02-14 12:06:46,377.069,0.120%,
736,2025-02-14 13:35:18,2025-02-14 13:41:29,371.015,0.118%,
737,2025-02-14 15:10:01,2025-02-14 15:16:10,368.781,0.117%,
738,2025-02-14 16:44:42,2025-02-14 16:50:51,369.404,0.117%,
739,2025-02-14 18:19:29,2025-02-14 18:25:32,362.138,0.115%,
740,2025-02-14 19:54:08,2025-02-14 20:00:14,366.073,0.116%,
741,2025-02-14 21:28:57,2025-02-14 21:34:57,359.424,0.114%,
742,2025-02-14 23:03:41,2025-02-14 23:09:39,357.681,0.113%,
743,2025-02-15 00:38:23,2025-02-15 00:44:21,357.405,0.113%,
744,2025-02-15 00:44:41,2025-02-15 00:45:00,19.489,0.006%,
745,2025-02-15 02:13:09,2025-02-15 02:19:43,393.468,0.125%,
746,2025-02-15 03:47:53,2025-02-15 03:54:25,392.068,0.124%,
747,2025-02-15 05:22:37,2025-02-15 05:29:07,389.861,0.124%,
748,2025-02-15 06:57:21,2025-02-15 07:03:48,387.238,0.123%,
749,2025-02-15 08:32:02,2025-02-15 08:32:04,2.041,0.001%,
750,2025-02-15 08:32:05,2025-02-15 08:38:28,382.56,0.121%,
751,2025-02-15 10:06:49,2025-02-15 10:13:10,380.83,0.121%,
752,2025-02-15 11:41:33,2025-02-15 11:47:52,379.375,0.120%,
753,2025-02-15 13:16:17,2025-02-15 13:22:35,377.646,0.120%,
754,2025-02-15 14:51:01,2025-02-15 14:57:16,375.487,0.119%,
755,2025-02-15 16:25:45,2025-02-15 16:31:57,372.425,0.118%,
756,2025-02-15 18:00:29,2025-02-15 18:06:38,368.658,0.117%,
757,2025-02-15 19:35:13,2025-02-15 19:41:20,367.419,0.117%,
758,2025-02-15 21:09:57,2025-02-15 21:16:03,365.984,0.116%,
759,2025-02-15 22:44:41,2025-02-15 22:50:45,364.282,0.116%,
760,2025-02-16 00:19:25,2025-02-16 00:25:27,362.152,0.115%,
761,2025-02-16 00:25:48,2025-02-16 00:26:06,18.208,0.006%,
762,2025-02-16 01:54:09,2025-02-16 02:00:49,400.004,0.127%,
763,2025-02-16 03:28:53,2025-02-16 03:35:31,398.408,0.126%,
764,2025-02-16 05:03:37,2025-02-16 05:10:13,396.482,0.126%,
765,2025-02-16 06:38:21,2025-02-16 06:44:55,393.965,0.125%,
766,2025-02-16 08:13:05,2025-02-16 08:19:34,389.848,0.124%,
767,2025-02-16 09:47:49,2025-02-16 09:47:55,6.756,0.002%,
768,2025-02-16 09:47:56,2025-02-16 09:54:16,379.625,0.120%,
769,2025-02-16 11:22:42,2025-02-16 11:28:58,376.604,0.119%,
770,2025-02-16 12:57:27,2025-02-16 13:03:41,373.558,0.119%,
771,2025-02-16 14:32:16,2025-02-16 14:38:23,366.166,0.116%,
772,2025-02-16 16:06:57,2025-02-16 16:13:04,366.607,0.116%,
773,2025-02-16 17:41:37,2025-02-16 17:41:41,3.973,0.001%,
774,2025-02-16 17:41:44,2025-02-16 17:47:44,359.193,0.114%,
775,2025-02-16 19:16:21,2025-02-16 19:22:26,365.573,0.116%,
776,2025-02-16 20:51:08,2025-02-16 20:57:09,361.172,0.115%,
777,2025-02-16 22:25:56,2025-02-16 22:31:51,354.937,0.113%,
778,2025-02-17 00:00:36,2025-02-17 00:06:33,357.175,0.113%,
779,2025-02-17 00:06:55,2025-02-17 00:07:13,18.663,0.006%,
780,2025-02-17 01:35:24,2025-02-17 01:41:55,390.622,0.124%,
781,2025-02-17 03:10:08,2025-02-17 03:16:37,389.069,0.123%,
782,2025-02-17 04:44:48,2025-02-17 04:51:19,391.084,0.124%,
783,2025-02-17 06:19:36,2025-02-17 06:26:01,384.791,0.122%,
784,2025-02-17 07:54:15,2025-02-17 08:00:41,386.256,0.123%,
785,2025-02-17 09:29:04,2025-02-17 09:35:22,377.964,0.120%,
786,2025-02-17 11:03:48,2025-02-17 11:10:04,376.565,0.119%,
787,2025-02-17 12:38:30,2025-02-17 12:44:47,376.856,0.120%,
788,2025-02-17 14:13:16,2025-02-17 14:19:29,372.901,0.118%,
789,2025-02-17 15:48:00,2025-02-17 15:54:10,370.384,0.117%,
790,2025-02-17 17:22:44,2025-02-17 17:28:49,365.756,0.116%,
791,2025-02-17 18:57:28,2025-02-17 19:03:32,364.562,0.116%,
792,2025-02-17 20:32:12,2025-02-17 20:38:15,363.184,0.115%,
793,2025-02-17 22:06:56,2025-02-17 22:12:57,361.563,0.115%,
794,2025-02-17 23:41:40,2025-02-17 23:47:39,359.568,0.114%,
795,2025-02-17 23:48:00,2025-02-17 23:48:20,19.439,0.006%,
796,2025-02-18 01:16:24,2025-02-18 01:23:01,397.188,0.126%,
797,2025-02-18 02:51:08,2025-02-18 02:57:43,395.663,0.126%,
798,2025-02-18 04:25:51,2025-02-18 04:32:25,393.835,0.125%,
799,2025-02-18 06:00:35,2025-02-18 06:07:07,391.518,0.124%,
800,2025-02-18 07:35:19,2025-02-18 07:41:48,388.074,0.123%,
801,2025-02-18 09:10:03,2025-02-18 09:16:28,384.486,0.122%,
802,2025-02-18 10:44:47,2025-02-18 10:51:10,383.112,0.122%,
803,2025-02-18 12:19:31,2025-02-18 12:25:53,381.501,0.121%,
804,2025-02-18 13:54:15,2025-02-18 14:00:35,379.533,0.120%,
805,2025-02-18 15:28:59,2025-02-18 15:35:16,376.921,0.120%,
806,2025-02-18 17:03:43,2025-02-18 17:09:55,372.237,0.118%,
807,2025-02-18 18:38:27,2025-02-18 18:44:38,371.059,0.118%,
808,2025-02-18 20:13:11,2025-02-18 20:19:21,369.703,0.117%,
809,2025-02-18 21:48:03,2025-02-18 21:54:03,360.411,0.114%,
810,2025-02-18 23:22:48,2025-02-18 23:28:45,356.886,0.113%,
811,2025-02-18 23:29:06,2025-02-18 23:29:26,20.701,0.007%,
812,2025-02-19 00:57:34,2025-02-19 01:04:07,393.03,0.125%,
813,2025-02-19 02:32:23,2025-02-19 02:38:49,386.242,0.123%,
814,2025-02-19 04:07:04,2025-02-19 04:13:31,387.794,0.123%,
815,2025-02-19 05:41:51,2025-02-19 05:48:13,382.246,0.121%,
816,2025-02-19 07:16:27,2025-02-19 07:22:54,386.628,0.123%,
817,2025-02-19 08:51:14,2025-02-19 08:57:34,379.637,0.120%,
818,2025-02-19 10:26:03,2025-02-19 10:32:17,373.717,0.119%,
819,2025-02-19 12:00:42,2025-02-19 12:06:59,376.445,0.119%,
820,2025-02-19 13:35:31,2025-02-19 13:41:41,370.247,0.117%,
821,2025-02-19 15:10:15,2025-02-19 15:16:22,367.754,0.117%,
822,2025-02-19 16:44:55,2025-02-19 16:51:02,367.447,0.117%,
823,2025-02-19 18:19:43,2025-02-19 18:25:44,361.672,0.115%,
824,2025-02-19 19:54:21,2025-02-19 20:00:27,365.541,0.116%,
825,2025-02-19 21:29:11,2025-02-19 21:35:09,358.804,0.114%,
826,2025-02-19 23:03:54,2025-02-19 23:09:51,356.925,0.113%,
827,2025-02-19 23:10:10,2025-02-19 23:10:33,22.506,0.007%,
828,2025-02-20 00:38:37,2025-02-20 00:45:13,396.274,0.126%,
829,2025-02-20 02:13:22,2025-02-20 02:19:55,392.879,0.125%,
830,2025-02-20 03:48:06,2025-02-20 03:54:38,391.367,0.124%,
831,2025-02-20 05:22:50,2025-02-20 05:29:19,388.986,0.123%,
832,2025-02-20 06:57:34,2025-02-20 07:04:00,385.967,0.122%,
833,2025-02-20 08:32:18,2025-02-20 08:38:40,381.618,0.121%,
834,2025-02-20 10:07:02,2025-02-20 10:13:23,380.299,0.121%,
835,2025-02-20 11:41:46,2025-02-20 11:48:05,378.758,0.120%,
836,2025-02-20 13:16:30,2025-02-20 13:22:47,376.9,0.120%,
837,2025-02-20 14:51:14,2025-02-20 14:57:29,374.505,0.119%,
838,2025-02-20 16:25:58,2025-02-20 16:32:09,370.733,0.118%,
839,2025-02-20 18:00:42,2025-02-20 18:06:50,368.197,0.117%,
840,2025-02-20 19:35:26,2025-02-20 19:41:33,366.892,0.116%,
841,2025-02-20 21:10:10,2025-02-20 21:16:15,365.375,0.116%,
842,2025-02-20 22:44:54,2025-02-20 22:50:58,363.547,0.115%,
843,2025-02-20 22:51:14,2025-02-20 22:51:39,24.867,0.008%,
844,2025-02-21 00:19:38,2025-02-21 00:26:19,400.863,0.127%,
845,2025-02-21 01:54:22,2025-02-21 02:01:01,399.425,0.127%,
846,2025-02-21 03:29:06,2025-02-21 03:35:44,397.729,0.126%,
847,2025-02-21 05:03:50,2025-02-21 05:10:25,395.633,0.126%,
848,2025-02-21 06:38:34,2025-02-21 06:45:07,392.771,0.125%,
849,2025-02-21 08:13:18,2025-02-21 08:19:46,388.105,0.123%,
850,2025-02-21 09:48:09,2025-02-21 09:54:29,379.099,0.120%,
851,2025-02-21 11:22:55,2025-02-21 11:29:11,376.009,0.119%,
852,2025-02-21 12:57:40,2025-02-21 13:03:53,372.824,0.118%,
853,2025-02-21 14:32:30,2025-02-21 14:38:35,365.229,0.116%,
854,2025-02-21 16:07:10,2025-02-21 16:13:15,365.103,0.116%,
855,2025-02-21 17:41:58,2025-02-21 17:47:56,358.742,0.114%,
856,2025-02-21 19:16:34,2025-02-21 19:22:39,365.06,0.116%,
857,2025-02-21 20:51:21,2025-02-21 20:57:21,360.568,0.114%,
858,2025-02-21 22:26:09,2025-02-21 22:32:04,354.221,0.112%,
859,2025-02-21 22:32:18,2025-02-21 22:32:46,27.789,0.009%,
860,2025-02-22 00:00:49,2025-02-22 00:07:25,395.756,0.126%,
861,2025-02-22 01:35:37,2025-02-22 01:42:07,390.06,0.124%,
862,2025-02-22 03:10:21,2025-02-22 03:16:50,388.407,0.123%,
863,2025-02-22 04:45:01,2025-02-22 04:51:32,390.259,0.124%,
864,2025-02-22 06:19:49,2025-02-22 06:26:13,383.665,0.122%,
865,2025-02-22 07:54:28,2025-02-22 08:00:52,383.913,0.122%,
866,2025-02-22 09:29:17,2025-02-22 09:35:35,377.453,0.120%,
867,2025-02-22 11:04:01,2025-02-22 11:10:17,375.974,0.119%,
868,2025-02-22 12:38:43,2025-02-22 12:44:59,376.15,0.119%,
869,2025-02-22 14:13:29,2025-02-22 14:19:41,371.993,0.118%,
870,2025-02-22 15:48:13,2025-02-22 15:54:22,368.995,0.117%,
871,2025-02-22 17:22:57,2025-02-22 17:29:02,365.309,0.116%,
872,2025-02-22 18:57:41,2025-02-22 19:03:45,364.056,0.115%,
873,2025-02-22 20:32:25,2025-02-22 20:38:27,362.599,0.115%,
874,2025-02-22 22:07:09,2025-02-22 22:13:10,360.863,0.114%,
875,2025-02-22 22:13:21,2025-02-22 22:13:52,31.262,0.010%,
876,2025-02-22 23:41:53,2025-02-22 23:48:31,398.012,0.126%,
877,2025-02-23 01:16:37,2025-02-23 01:23:13,396.634,0.126%,
878,2025-02-23 02:51:21,2025-02-23 02:57:56,395.013,0.125%,
879,2025-02-23 04:26:05,2025-02-23 04:32:38,393.04,0.125%,
880,2025-02-23 06:00:49,2025-02-23 06:07:19,390.443,0.124%,
881,2025-02-23 07:35:33,2025-02-23 07:41:59,385.904,0.122%,
882,2025-02-23 09:10:17,2025-02-23 09:16:41,383.981,0.122%,
883,2025-02-23 10:45:01,2025-02-23 10:51:23,382.53,0.121%,
884,2025-02-23 12:19:45,2025-02-23 12:26:05,380.81,0.121%,
885,2025-02-23 13:54:29,2025-02-23 14:00:47,378.659,0.120%,
886,2025-02-23 15:29:12,2025-02-23 15:35:28,375.637,0.119%,
887,2025-02-23 17:03:56,2025-02-23 17:10:08,371.795,0.118%,
888,2025-02-23 18:38:40,2025-02-23 18:44:51,370.56,0.118%,
889,2025-02-23 20:13:37,2025-02-23 20:19:34,356.207,0.113%,
890,2025-02-23 20:20:16,2025-02-23 20:20:17,0.53,0.000%,
891,2025-02-23 21:48:16,2025-02-23 21:54:16,359.725,0.114%,
892,2025-02-23 21:54:23,2025-02-23 21:54:58,35.283,0.011%,
893,2025-02-23 23:23:02,2025-02-23 23:29:37,395.511,0.125%,
894,2025-02-24 00:57:47,2025-02-24 01:04:19,392.48,0.125%,
895,2025-02-24 02:32:36,2025-02-24 02:39:02,385.608,0.122%,
896,2025-02-24 04:07:17,2025-02-24 04:13:44,387.032,0.123%,
897,2025-02-24 05:42:04,2025-02-24 05:48:25,381.225,0.121%,
898,2025-02-24 07:16:40,2025-02-24 07:23:05,384.798,0.122%,
899,2025-02-24 08:51:27,2025-02-24 08:57:47,379.134,0.120%,
900,2025-02-24 10:26:16,2025-02-24 10:32:29,373.148,0.118%,
901,2025-02-24 12:00:56,2025-02-24 12:07:11,375.779,0.119%,
902,2025-02-24 13:35:44,2025-02-24 13:41:53,369.406,0.117%,
903,2025-02-24 15:10:28,2025-02-24 15:16:34,366.557,0.116%,
904,2025-02-24 16:45:08,2025-02-24 16:51:14,366.264,0.116%,
905,2025-02-24 18:19:56,2025-02-24 18:25:57,361.183,0.115%,
906,2025-02-24 19:54:35,2025-02-24 20:00:40,364.983,0.116%,
907,2025-02-24 20:01:18,2025-02-24 20:01:23,4.932,0.002%,
908,2025-02-24 21:29:24,2025-02-24 21:35:22,358.137,0.114%,
909,2025-02-24 21:35:25,2025-02-24 21:36:05,39.842,0.013%,
910,2025-02-24 23:04:08,2025-02-24 23:10:44,396.393,0.126%,
911,2025-02-25 00:38:50,2025-02-25 00:45:25,395.746,0.126%,
912,2025-02-25 02:13:36,2025-02-25 02:20:08,392.258,0.124%,
913,2025-02-25 03:48:19,2025-02-25 03:54:50,390.61,0.124%,
914,2025-02-25 05:23:04,2025-02-25 05:29:32,388.004,0.123%,
915,2025-02-25 06:57:48,2025-02-25 07:04:12,384.341,0.122%,
916,2025-02-25 08:32:31,2025-02-25 08:38:53,381.129,0.121%,
917,2025-02-25 10:07:15,2025-02-25 10:13:35,379.736,0.120%,
918,2025-02-25 11:41:59,2025-02-25 11:48:18,378.097,0.120%,
919,2025-02-25 13:16:43,2025-02-25 13:22:59,376.086,0.119%,
920,2025-02-25 14:51:27,2025-02-25 14:57:41,373.374,0.118%,
921,2025-02-25 16:26:11,2025-02-25 16:32:20,368.906,0.117%,
922,2025-02-25 18:00:55,2025-02-25 18:07:03,367.714,0.117%,
923,2025-02-25 19:35:39,2025-02-25 19:41:46,366.339,0.116%,
924,2025-02-25 19:42:19,2025-02-25 19:42:29,9.879,0.003%,
925,2025-02-25 21:10:23,2025-02-25 21:17:11,407.539,0.129%,
926,2025-02-25 22:45:07,2025-02-25 22:51:51,403.581,0.128%,
927,2025-02-26 00:19:51,2025-02-26 00:26:31,400.336,0.127%,
928,2025-02-26 01:54:35,2025-02-26 02:01:14,398.816,0.127%,
929,2025-02-26 03:29:19,2025-02-26 03:35:56,396.998,0.126%,
930,2025-02-26 05:04:03,2025-02-26 05:10:38,394.694,0.125%,
931,2025-02-26 06:38:47,2025-02-26 06:45:18,391.299,0.124%,
932,2025-02-26 08:13:44,2025-02-26 08:19:59,374.698,0.119%,
933,2025-02-26 09:48:23,2025-02-26 09:54:41,378.54,0.120%,
934,2025-02-26 11:23:08,2025-02-26 11:29:24,375.374,0.119%,
935,2025-02-26 12:57:54,2025-02-26 13:04:06,372.028,0.118%,
936,2025-02-26 14:32:43,2025-02-26 14:38:47,364.161,0.116%,
937,2025-02-26 16:07:23,2025-02-26 16:13:26,362.815,0.115%,
938,2025-02-26 17:42:11,2025-02-26 17:48:09,358.269,0.114%,
939,2025-02-26 19:16:47,2025-02-26 19:22:52,364.524,0.116%,
940,2025-02-26 19:23:20,2025-02-26 19:23:35,15.356,0.005%,
941,2025-02-26 20:51:34,2025-02-26 20:58:17,402.886,0.128%,
942,2025-02-26 22:26:23,2025-02-26 22:32:57,394.703,0.125%,
943,2025-02-27 00:01:02,2025-02-27 00:07:38,395.248,0.125%,
944,2025-02-27 01:35:51,2025-02-27 01:42:20,389.461,0.124%,
945,2025-02-27 03:10:34,2025-02-27 03:17:02,387.698,0.123%,
946,2025-02-27 04:45:17,2025-02-27 04:51:44,386.459,0.123%,
947,2025-02-27 06:20:02,2025-02-27 06:26:25,382.312,0.121%,
948,2025-02-27 07:54:45,2025-02-27 08:01:05,379.144,0.120%,
949,2025-02-27 09:29:30,2025-02-27 09:35:47,376.911,0.120%,
950,2025-02-27 11:04:14,2025-02-27 11:10:30,375.344,0.119%,
951,2025-02-27 12:38:56,2025-02-27 12:45:12,375.393,0.119%,
952,2025-02-27 14:13:42,2025-02-27 14:19:53,370.975,0.118%,
953,2025-02-27 15:48:26,2025-02-27 15:54:33,367.094,0.116%,
954,2025-02-27 17:23:10,2025-02-27 17:29:15,364.842,0.116%,
955,2025-02-27 18:57:54,2025-02-27 19:03:58,363.52,0.115%,
956,2025-02-27 19:04:20,2025-02-27 19:04:41,21.358,0.007%,
957,2025-02-27 20:32:38,2025-02-27 20:39:23,405.07,0.128%,
958,2025-02-27 22:07:22,2025-02-27 22:14:04,401.702,0.127%,
959,2025-02-27 23:42:06,2025-02-27 23:48:44,397.504,0.126%,
960,2025-02-28 01:16:50,2025-02-28 01:23:26,396.046,0.126%,
961,2025-02-28 02:51:34,2025-02-28 02:58:08,394.321,0.125%,
962,2025-02-28 04:26:18,2025-02-28 04:32:50,392.172,0.124%,
963,2025-02-28 06:01:02,2025-02-28 06:07:31,389.181,0.123%,
964,2025-02-28 07:35:46,2025-02-28 07:42:11,384.766,0.122%,
965,2025-02-28 09:10:30,2025-02-28 09:16:53,383.451,0.122%,
966,2025-02-28 10:45:14,2025-02-28 10:51:36,381.912,0.121%,
967,2025-02-28 12:19:58,2025-02-28 12:26:18,380.066,0.121%,
968,2025-02-28 13:54:42,2025-02-28 14:00:59,377.686,0.120%,
969,2025-02-28 15:29:26,2025-02-28 15:35:40,373.982,0.119%,
970,2025-02-28 17:04:10,2025-02-28 17:10:21,371.334,0.118%,
971,2025-02-28 18:39:00,2025-02-28 18:45:04,364.042,0.115%,
972,2025-02-28 18:45:20,2025-02-28 18:45:48,27.864,0.009%,
973,2025-02-28 20:13:51,2025-02-28 20:20:29,398.808,0.127%,
974,2025-02-28 21:48:29,2025-02-28 21:55:10,400.86,0.127%,
975,2025-02-28 23:23:15,2025-02-28 23:29:50,394.728,0.125%,
976,2025-03-01 00:58:00,2025-03-01 01:04:32,391.897,0.124%,
977,2025-03-01 02:32:49,2025-03-01 02:39:14,384.938,0.122%,
978,2025-03-01 04:07:30,2025-03-01 04:13:56,386.206,0.123%,
979,2025-03-01 05:42:17,2025-03-01 05:48:37,380.047,0.121%,
980,2025-03-01 07:16:54,2025-03-01 07:23:17,382.921,0.121%,
981,2025-03-01 08:51:41,2025-03-01 08:57:59,378.609,0.120%,
982,2025-03-01 10:26:29,2025-03-01 10:32:42,372.548,0.118%,
983,2025-03-01 12:01:09,2025-03-01 12:07:24,375.065,0.119%,
984,2025-03-01 13:35:57,2025-03-01 13:42:06,368.475,0.117%,
985,2025-03-01 15:10:41,2025-03-01 15:16:46,365.073,0.116%,
986,2025-03-01 16:45:24,2025-03-01 16:51:27,362.926,0.115%,
987,2025-03-01 18:20:09,2025-03-01 18:26:10,360.672,0.114%,
988,2025-03-01 18:26:19,2025-03-01 18:26:54,34.862,0.011%,
989,2025-03-01 19:54:52,2025-03-01 20:01:35,403.414,0.128%,
990,2025-03-01 21:29:37,2025-03-01 21:36:16,399.542,0.127%,
991,2025-03-01 23:04:21,2025-03-01 23:10:56,394.642,0.125%,
992,2025-03-02 00:39:03,2025-03-02 00:45:38,395.191,0.125%,
993,2025-03-02 02:13:49,2025-03-02 02:20:20,391.598,0.124%,
994,2025-03-02 03:48:33,2025-03-02 03:55:02,389.793,0.124%,
995,2025-03-02 05:23:17,2025-03-02 05:29:44,386.89,0.123%,
996,2025-03-02 06:58:01,2025-03-02 07:04:23,381.885,0.121%,
997,2025-03-02 08:32:45,2025-03-02 08:39:05,380.619,0.121%,
998,2025-03-02 10:07:29,2025-03-02 10:13:48,379.147,0.120%,
999,2025-03-02 11:42:13,2025-03-02 11:48:30,377.394,0.120%,
1000,2025-03-02 13:16:57,2025-03-02 13:23:12,375.189,0.119%,
1001,2025-03-02 14:51:41,2025-03-02 14:57:53,372.016,0.118%,
1002,2025-03-02 16:26:25,2025-03-02 16:32:33,368.461,0.117%,
1003,2025-03-02 16:33:11,2025-03-02 16:33:18,6.325,0.002%,
1004,2025-03-02 18:01:08,2025-03-02 18:07:16,367.21,0.116%,
